% program   : RTKPOST ver.2.4.2
% inp file  : Z:\home\linda\Documents\Spring18\GitHub_Unis\data\processed_data\46250701.obs
% inp file  : Z:\home\linda\Documents\Spring18\GitHub_Unis\data\processed_data\46250701.nav
% obs start : 2018/03/11 10:48:49.0 GPST (week1992  38929.0s)
% obs end   : 2018/03/11 11:09:39.0 GPST (week1992  40179.0s)
% pos mode  : single
% elev mask : 15.0 deg
% ionos opt : broadcast
% tropo opt : saastamoinen
% ephemeris : broadcast
% navi sys  : gps glonass galileo qzss sbas
%
% (lat/lon/height=WGS84/ellipsoidal,Q=1:fix,2:float,3:sbas,4:dgps,5:single,6:ppp,ns=# of satellites)
%  GPST                  latitude(deg) longitude(deg)  height(m)   Q  ns   sdn(m)   sde(m)   sdu(m)  sdne(m)  sdeu(m)  sdun(m) age(s)  ratio
2018/03/11 10:48:49.000   78.254762476   16.249384210   341.3904   5   9   2.8782   1.5319   7.0517  -0.3744   0.4895   3.5599   0.00    0.0
2018/03/11 10:48:50.000   78.254763009   16.249402808   340.9119   5   9   2.8779   1.5319   7.0500  -0.3750   0.4884   3.5590   0.00    0.0
2018/03/11 10:48:51.000   78.254766276   16.249395895   342.0839   5   9   2.8776   1.5320   7.0482  -0.3757   0.4873   3.5582   0.00    0.0
2018/03/11 10:48:52.000   78.254772644   16.249396903   344.1340   5   9   2.8773   1.5320   7.0464  -0.3763   0.4862   3.5574   0.00    0.0
2018/03/11 10:48:53.000   78.254776642   16.249380553   345.0583   5   9   2.8769   1.5321   7.0446  -0.3770   0.4850   3.5566   0.00    0.0
2018/03/11 10:48:54.000   78.254774078   16.249373421   344.1940   5   9   2.8766   1.5321   7.0429  -0.3776   0.4839   3.5558   0.00    0.0
2018/03/11 10:48:55.000   78.254770058   16.249380699   342.9515   5   9   2.8763   1.5322   7.0411  -0.3783   0.4828   3.5550   0.00    0.0
2018/03/11 10:48:56.000   78.254767317   16.249394205   340.3850   5   9   2.8760   1.5322   7.0393  -0.3789   0.4817   3.5541   0.00    0.0
2018/03/11 10:48:57.000   78.254766596   16.249398359   339.8766   5   9   2.8757   1.5323   7.0376  -0.3795   0.4806   3.5533   0.00    0.0
2018/03/11 10:48:58.000   78.254763671   16.249398389   338.8977   5   9   2.8754   1.5323   7.0358  -0.3802   0.4795   3.5525   0.00    0.0
2018/03/11 10:48:59.000   78.254765853   16.249392413   340.5834   5   9   2.8751   1.5324   7.0340  -0.3808   0.4783   3.5517   0.00    0.0
2018/03/11 10:49:00.000   78.254766134   16.249384125   342.2635   5   9   2.8748   1.5324   7.0323  -0.3815   0.4772   3.5509   0.00    0.0
2018/03/11 10:49:01.000   78.254767182   16.249381406   342.4441   5   9   2.8745   1.5325   7.0305  -0.3821   0.4761   3.5501   0.00    0.0
2018/03/11 10:49:02.000   78.254771372   16.249380119   343.4432   5   9   2.8741   1.5325   7.0287  -0.3827   0.4749   3.5493   0.00    0.0
2018/03/11 10:49:03.000   78.254763730   16.249391104   342.4886   5   9   2.8738   1.5326   7.0270  -0.3834   0.4738   3.5484   0.00    0.0
2018/03/11 10:49:04.000   78.254762286   16.249387095   340.8498   5   9   2.8735   1.5326   7.0252  -0.3840   0.4727   3.5476   0.00    0.0
2018/03/11 10:49:05.000   78.254763657   16.249401736   340.4737   5   9   2.8732   1.5327   7.0234  -0.3846   0.4715   3.5468   0.00    0.0
2018/03/11 10:49:06.000   78.254766187   16.249404592   341.1132   5   9   2.8729   1.5327   7.0217  -0.3853   0.4704   3.5460   0.00    0.0
2018/03/11 10:49:07.000   78.254766188   16.249396667   341.6713   5   9   2.8726   1.5328   7.0199  -0.3859   0.4693   3.5452   0.00    0.0
2018/03/11 10:49:08.000   78.254766919   16.249366151   342.3782   5   9   2.8723   1.5328   7.0181  -0.3865   0.4681   3.5444   0.00    0.0
2018/03/11 10:49:09.000   78.254763166   16.249380421   342.4449   5   9   2.8720   1.5329   7.0164  -0.3871   0.4670   3.5436   0.00    0.0
2018/03/11 10:49:10.000   78.254768284   16.249380131   343.5461   5   9   2.8717   1.5330   7.0146  -0.3878   0.4658   3.5428   0.00    0.0
2018/03/11 10:49:11.000   78.254764622   16.249389698   342.9597   5   9   2.8713   1.5330   7.0129  -0.3884   0.4647   3.5419   0.00    0.0
2018/03/11 10:49:12.000   78.254769479   16.249391017   343.0078   5   9   2.8710   1.5331   7.0111  -0.3890   0.4635   3.5411   0.00    0.0
2018/03/11 10:49:13.000   78.254775440   16.249391146   344.8477   5   9   2.8707   1.5331   7.0094  -0.3896   0.4624   3.5403   0.00    0.0
2018/03/11 10:49:14.000   78.254770515   16.249376831   342.0772   5   9   2.8704   1.5332   7.0076  -0.3903   0.4612   3.5395   0.00    0.0
2018/03/11 10:49:15.000   78.254765850   16.249389094   340.4292   5   9   2.8701   1.5332   7.0058  -0.3909   0.4601   3.5387   0.00    0.0
2018/03/11 10:49:16.000   78.254763678   16.249406743   338.4960   5   9   2.8698   1.5333   7.0041  -0.3915   0.4589   3.5379   0.00    0.0
2018/03/11 10:49:17.000   78.254766647   16.249397214   339.7488   5   9   2.8695   1.5333   7.0023  -0.3921   0.4577   3.5371   0.00    0.0
2018/03/11 10:49:18.000   78.254777505   16.249391670   343.9764   5   9   2.8692   1.5334   7.0006  -0.3927   0.4566   3.5363   0.00    0.0
2018/03/11 10:49:19.000   78.254770546   16.249376186   343.9678   5   9   2.8689   1.5334   6.9988  -0.3933   0.4554   3.5355   0.00    0.0
2018/03/11 10:49:20.000   78.254763585   16.249388774   341.8853   5   9   2.8685   1.5335   6.9971  -0.3940   0.4542   3.5347   0.00    0.0
2018/03/11 10:49:21.000   78.254757789   16.249397296   339.2487   5   9   2.8682   1.5335   6.9953  -0.3946   0.4531   3.5338   0.00    0.0
2018/03/11 10:49:22.000   78.254758214   16.249408387   339.2304   5   9   2.8679   1.5336   6.9936  -0.3952   0.4519   3.5330   0.00    0.0
2018/03/11 10:49:23.000   78.254763697   16.249387046   341.5945   5   9   2.8676   1.5336   6.9918  -0.3958   0.4507   3.5322   0.00    0.0
2018/03/11 10:49:24.000   78.254772341   16.249363152   344.5348   5   9   2.8673   1.5337   6.9901  -0.3964   0.4495   3.5314   0.00    0.0
2018/03/11 10:49:25.000   78.254773644   16.249353549   344.2800   5   9   2.8670   1.5338   6.9883  -0.3970   0.4484   3.5306   0.00    0.0
2018/03/11 10:49:26.000   78.254766278   16.249370847   342.3639   5   9   2.8667   1.5338   6.9866  -0.3976   0.4472   3.5298   0.00    0.0
2018/03/11 10:49:27.000   78.254768664   16.249388797   342.3864   5   9   2.8664   1.5339   6.9848  -0.3982   0.4460   3.5290   0.00    0.0
2018/03/11 10:49:28.000   78.254764742   16.249402271   340.7650   5   9   2.8661   1.5339   6.9831  -0.3988   0.4448   3.5282   0.00    0.0
2018/03/11 10:49:29.000   78.254774541   16.249406151   343.6424   5   9   2.8657   1.5340   6.9814  -0.3994   0.4436   3.5274   0.00    0.0
2018/03/11 10:49:30.000   78.254777665   16.249378985   345.4882   5   9   2.8654   1.5340   6.9796  -0.4000   0.4424   3.5266   0.00    0.0
2018/03/11 10:49:31.000   78.254772876   16.249383811   345.2136   5   9   2.8651   1.5341   6.9779  -0.4006   0.4412   3.5258   0.00    0.0
2018/03/11 10:49:32.000   78.254769305   16.249368788   342.8783   5   9   2.8648   1.5341   6.9761  -0.4012   0.4400   3.5250   0.00    0.0
2018/03/11 10:49:33.000   78.254766706   16.249392489   342.8485   5   9   2.8645   1.5342   6.9744  -0.4018   0.4388   3.5242   0.00    0.0
2018/03/11 10:49:34.000   78.254767625   16.249406125   341.2026   5   9   2.8642   1.5342   6.9727  -0.4024   0.4376   3.5234   0.00    0.0
2018/03/11 10:49:35.000   78.254765877   16.249407189   339.5471   5   9   2.8639   1.5343   6.9709  -0.4030   0.4364   3.5226   0.00    0.0
2018/03/11 10:49:36.000   78.254765752   16.249400263   341.2040   5   9   2.8636   1.5343   6.9692  -0.4036   0.4352   3.5217   0.00    0.0
2018/03/11 10:49:37.000   78.254767702   16.249399147   341.2548   5   9   2.8633   1.5344   6.9674  -0.4042   0.4340   3.5209   0.00    0.0
2018/03/11 10:49:38.000   78.254764702   16.249385302   340.5572   5   9   2.8630   1.5345   6.9657  -0.4048   0.4328   3.5201   0.00    0.0
2018/03/11 10:49:39.000   78.254768843   16.249387937   342.2155   5   9   2.8626   1.5345   6.9640  -0.4054   0.4316   3.5193   0.00    0.0
2018/03/11 10:49:40.000   78.254768289   16.249390717   343.0374   5   9   2.8623   1.5346   6.9622  -0.4060   0.4303   3.5185   0.00    0.0
2018/03/11 10:49:41.000   78.254770537   16.249373835   343.8218   5   9   2.8620   1.5346   6.9605  -0.4066   0.4291   3.5177   0.00    0.0
2018/03/11 10:49:42.000   78.254770203   16.249371447   343.7206   5   9   2.8617   1.5347   6.9588  -0.4071   0.4279   3.5169   0.00    0.0
2018/03/11 10:49:43.000   78.254771396   16.249366073   344.6687   5   9   2.8614   1.5347   6.9570  -0.4077   0.4267   3.5161   0.00    0.0
2018/03/11 10:49:44.000   78.254773849   16.249362853   344.5697   5   9   2.8611   1.5348   6.9553  -0.4083   0.4254   3.5153   0.00    0.0
2018/03/11 10:49:45.000   78.254774602   16.249366835   344.0654   5   9   2.8608   1.5348   6.9536  -0.4089   0.4242   3.5145   0.00    0.0
2018/03/11 10:49:46.000   78.254769109   16.249394552   342.8282   5   9   2.8605   1.5349   6.9518  -0.4095   0.4230   3.5137   0.00    0.0
2018/03/11 10:49:47.000   78.254767471   16.249404127   340.7759   5   9   2.8602   1.5349   6.9501  -0.4101   0.4217   3.5129   0.00    0.0
2018/03/11 10:49:48.000   78.254760345   16.249408803   338.7749   5   9   2.8599   1.5350   6.9484  -0.4106   0.4205   3.5121   0.00    0.0
2018/03/11 10:49:49.000   78.254764007   16.249395024   340.4455   5   9   2.8595   1.5351   6.9467  -0.4112   0.4193   3.5113   0.00    0.0
2018/03/11 10:49:50.000   78.254773162   16.249367798   344.0325   5   9   2.8592   1.5351   6.9449  -0.4118   0.4180   3.5105   0.00    0.0
2018/03/11 10:49:51.000   78.254775927   16.249379158   345.4794   5   9   2.8589   1.5352   6.9432  -0.4124   0.4168   3.5097   0.00    0.0
2018/03/11 10:49:52.000   78.254780045   16.249386899   345.0060   5   9   2.8586   1.5352   6.9415  -0.4130   0.4155   3.5089   0.00    0.0
2018/03/11 10:49:53.000   78.254772517   16.249393375   343.1199   5   9   2.8583   1.5353   6.9398  -0.4135   0.4142   3.5081   0.00    0.0
2018/03/11 10:49:54.000   78.254762425   16.249413627   338.4086   5   9   2.8580   1.5353   6.9380  -0.4141   0.4130   3.5073   0.00    0.0
2018/03/11 10:54:13.000   78.254783442   16.249382884   345.0565   5   9   2.5846   1.7329   7.2547   0.4534   1.5479   3.5423   0.00    0.0
2018/03/11 10:54:14.000   78.254789249   16.249373886   345.2914   5   9   2.5841   1.7330   7.2534   0.4531   1.5477   3.5414   0.00    0.0
2018/03/11 10:54:15.000   78.254782187   16.249371353   344.4436   5   9   2.5836   1.7331   7.2521   0.4527   1.5475   3.5404   0.00    0.0
2018/03/11 10:54:16.000   78.254779646   16.249359779   343.9066   5   9   2.5831   1.7331   7.2508   0.4524   1.5473   3.5395   0.00    0.0
2018/03/11 10:54:17.000   78.254778956   16.249367127   343.5693   5   9   2.5826   1.7332   7.2495   0.4521   1.5472   3.5385   0.00    0.0
2018/03/11 10:54:18.000   78.254772464   16.249367633   341.5381   5   9   2.5821   1.7333   7.2482   0.4518   1.5470   3.5376   0.00    0.0
2018/03/11 10:54:19.000   78.254765618   16.249373959   338.5555   5   9   2.5816   1.7333   7.2469   0.4515   1.5468   3.5366   0.00    0.0
2018/03/11 10:54:20.000   78.254760221   16.249402373   336.3227   5   9   2.5811   1.7334   7.2456   0.4512   1.5466   3.5357   0.00    0.0
2018/03/11 10:54:21.000   78.254763535   16.249368427   337.4779   5   9   2.5806   1.7335   7.2443   0.4509   1.5464   3.5348   0.00    0.0
2018/03/11 10:54:22.000   78.254772006   16.249362650   340.7790   5   9   2.5801   1.7335   7.2430   0.4506   1.5462   3.5338   0.00    0.0
2018/03/11 10:54:23.000   78.254772702   16.249361707   341.9031   5   9   2.5796   1.7336   7.2417   0.4503   1.5461   3.5329   0.00    0.0
2018/03/11 10:54:24.000   78.254773619   16.249377131   341.2331   5   9   2.5791   1.7337   7.2404   0.4500   1.5459   3.5319   0.00    0.0
2018/03/11 10:54:25.000   78.254770718   16.249381717   340.2471   5   9   2.5787   1.7337   7.2391   0.4497   1.5457   3.5310   0.00    0.0
2018/03/11 10:54:26.000   78.254768464   16.249398417   339.5109   5   9   2.5782   1.7338   7.2378   0.4494   1.5455   3.5300   0.00    0.0
2018/03/11 10:54:27.000   78.254772085   16.249383119   339.5481   5   9   2.5777   1.7339   7.2365   0.4490   1.5453   3.5291   0.00    0.0
2018/03/11 10:54:28.000   78.254773262   16.249379931   341.3255   5   9   2.5772   1.7339   7.2352   0.4487   1.5451   3.5281   0.00    0.0
2018/03/11 10:54:29.000   78.254775192   16.249384810   342.7684   5   9   2.5767   1.7340   7.2338   0.4484   1.5450   3.5272   0.00    0.0
2018/03/11 10:54:30.000   78.254774790   16.249393465   343.5994   5   9   2.5762   1.7341   7.2325   0.4481   1.5448   3.5262   0.00    0.0
2018/03/11 10:54:31.000   78.254773896   16.249402086   343.5050   5   9   2.5757   1.7341   7.2312   0.4478   1.5446   3.5253   0.00    0.0
2018/03/11 10:54:32.000   78.254770654   16.249378265   340.7685   5   9   2.5752   1.7342   7.2299   0.4475   1.5444   3.5243   0.00    0.0
2018/03/11 10:54:33.000   78.254772090   16.249376313   340.8338   5   9   2.5747   1.7343   7.2286   0.4472   1.5442   3.5234   0.00    0.0
2018/03/11 10:54:34.000   78.254773246   16.249391994   341.0619   5   9   2.5742   1.7343   7.2273   0.4469   1.5440   3.5225   0.00    0.0
2018/03/11 10:54:35.000   78.254774858   16.249370746   341.9895   5   9   2.5738   1.7344   7.2260   0.4466   1.5438   3.5215   0.00    0.0
2018/03/11 10:54:36.000   78.254773750   16.249356546   341.9409   5   9   2.5733   1.7345   7.2247   0.4463   1.5437   3.5206   0.00    0.0
2018/03/11 10:54:37.000   78.254773098   16.249358743   341.1131   5   9   2.5728   1.7345   7.2234   0.4459   1.5435   3.5196   0.00    0.0
2018/03/11 10:54:38.000   78.254772676   16.249369355   341.2427   5   9   2.5723   1.7346   7.2221   0.4456   1.5433   3.5187   0.00    0.0
2018/03/11 10:54:39.000   78.254776222   16.249377719   342.1320   5   8   3.2221   1.9760  10.0879  -1.2800  -2.0700   5.1037   0.00    0.0
2018/03/11 10:54:40.000   78.254773849   16.249383146   342.1645   5   8   3.2212   1.9760  10.0858  -1.2798  -2.0697   5.1023   0.00    0.0
2018/03/11 10:54:41.000   78.254778369   16.249383127   342.8792   5   8   3.2204   1.9761  10.0838  -1.2797  -2.0695   5.1008   0.00    0.0
2018/03/11 10:54:42.000   78.254776213   16.249398296   343.0262   5   8   3.2196   1.9761  10.0817  -1.2795  -2.0692   5.0994   0.00    0.0
2018/03/11 10:54:43.000   78.254778634   16.249390413   342.6060   5   8   3.2188   1.9762  10.0797  -1.2793  -2.0689   5.0979   0.00    0.0
2018/03/11 10:54:44.000   78.254778222   16.249382694   342.8197   5   8   3.2179   1.9762  10.0776  -1.2791  -2.0687   5.0964   0.00    0.0
2018/03/11 10:54:45.000   78.254776811   16.249367867   341.3445   5   8   3.2171   1.9763  10.0756  -1.2790  -2.0684   5.0950   0.00    0.0
2018/03/11 10:54:46.000   78.254774658   16.249391811   342.0601   5   8   3.2163   1.9763  10.0735  -1.2788  -2.0681   5.0935   0.00    0.0
2018/03/11 10:54:47.000   78.254774466   16.249364974   341.4673   5   8   3.2155   1.9764  10.0715  -1.2786  -2.0679   5.0921   0.00    0.0
2018/03/11 10:54:48.000   78.254775759   16.249379737   342.2914   5   8   3.2146   1.9764  10.0694  -1.2784  -2.0676   5.0906   0.00    0.0
2018/03/11 10:54:49.000   78.254777714   16.249373126   341.9666   5   8   3.2138   1.9764  10.0673  -1.2783  -2.0673   5.0892   0.00    0.0
2018/03/11 10:54:50.000   78.254776217   16.249371581   341.9058   5   8   3.2130   1.9765  10.0653  -1.2781  -2.0670   5.0877   0.00    0.0
2018/03/11 10:54:51.000   78.254774697   16.249379075   340.9148   5   8   3.2122   1.9765  10.0632  -1.2779  -2.0668   5.0862   0.00    0.0
2018/03/11 10:54:52.000   78.254778686   16.249374862   341.6847   5   8   3.2113   1.9766  10.0611  -1.2777  -2.0665   5.0848   0.00    0.0
2018/03/11 10:54:53.000   78.254780061   16.249378041   343.0387   5   8   3.2105   1.9766  10.0591  -1.2775  -2.0662   5.0833   0.00    0.0
2018/03/11 10:54:54.000   78.254777576   16.249376178   341.7440   5   8   3.2097   1.9767  10.0570  -1.2774  -2.0659   5.0819   0.00    0.0
2018/03/11 10:54:55.000   78.254772707   16.249382929   341.4500   5   8   3.2089   1.9767  10.0549  -1.2772  -2.0657   5.0804   0.00    0.0
2018/03/11 10:54:56.000   78.254768596   16.249381167   339.7995   5   8   3.2080   1.9768  10.0529  -1.2770  -2.0654   5.0789   0.00    0.0
2018/03/11 10:54:57.000   78.254771915   16.249359396   340.4225   5   8   3.2072   1.9768  10.0508  -1.2768  -2.0651   5.0775   0.00    0.0
2018/03/11 10:54:58.000   78.254774509   16.249362338   340.3367   5   8   3.2064   1.9769  10.0487  -1.2766  -2.0648   5.0760   0.00    0.0
2018/03/11 10:54:59.000   78.254774443   16.249361253   342.0115   5   8   3.2056   1.9769  10.0466  -1.2765  -2.0645   5.0745   0.00    0.0
2018/03/11 10:55:00.000   78.254773279   16.249385003   340.2848   5   8   3.2047   1.9770  10.0446  -1.2763  -2.0643   5.0731   0.00    0.0
2018/03/11 10:55:01.000   78.254775328   16.249375291   341.4401   5   8   3.2039   1.9770  10.0425  -1.2761  -2.0640   5.0716   0.00    0.0
2018/03/11 10:55:02.000   78.254772395   16.249375419   341.3844   5   8   3.2031   1.9771  10.0404  -1.2759  -2.0637   5.0701   0.00    0.0
2018/03/11 10:55:03.000   78.254775635   16.249380105   342.2405   5   8   3.2022   1.9771  10.0383  -1.2757  -2.0634   5.0687   0.00    0.0
2018/03/11 10:55:04.000   78.254779087   16.249378836   342.8085   5   8   3.2014   1.9771  10.0362  -1.2756  -2.0631   5.0672   0.00    0.0
2018/03/11 10:55:05.000   78.254777501   16.249393319   342.7689   5   8   3.2006   1.9772  10.0342  -1.2754  -2.0629   5.0657   0.00    0.0
2018/03/11 10:55:06.000   78.254778070   16.249380216   342.4520   5   8   3.1998   1.9772  10.0321  -1.2752  -2.0626   5.0642   0.00    0.0
2018/03/11 10:55:07.000   78.254778943   16.249373430   343.0139   5   8   3.1989   1.9773  10.0300  -1.2750  -2.0623   5.0628   0.00    0.0
2018/03/11 10:55:08.000   78.254770526   16.249377134   340.7244   5   8   3.1981   1.9773  10.0279  -1.2748  -2.0620   5.0613   0.00    0.0
2018/03/11 10:55:09.000   78.254772328   16.249371598   341.1576   5   8   3.1973   1.9774  10.0258  -1.2746  -2.0617   5.0598   0.00    0.0
2018/03/11 10:55:10.000   78.254769714   16.249366643   340.4279   5   8   3.1964   1.9774  10.0237  -1.2745  -2.0614   5.0584   0.00    0.0
2018/03/11 10:55:11.000   78.254770872   16.249365570   340.1081   5   8   3.1956   1.9775  10.0216  -1.2743  -2.0611   5.0569   0.00    0.0
2018/03/11 10:55:12.000   78.254772420   16.249367100   340.9227   5   8   3.1948   1.9775  10.0195  -1.2741  -2.0609   5.0554   0.00    0.0
2018/03/11 10:55:13.000   78.254777311   16.249374463   342.3404   5   8   3.1940   1.9776  10.0174  -1.2739  -2.0606   5.0539   0.00    0.0
2018/03/11 10:55:14.000   78.254773280   16.249382330   340.2200   5   8   3.1931   1.9776  10.0153  -1.2737  -2.0603   5.0525   0.00    0.0
2018/03/11 10:55:15.000   78.254783658   16.249370879   342.9852   5   8   3.1923   1.9777  10.0132  -1.2735  -2.0600   5.0510   0.00    0.0
2018/03/11 10:55:16.000   78.254780874   16.249377017   342.5106   5   8   3.1915   1.9777  10.0111  -1.2733  -2.0597   5.0495   0.00    0.0
2018/03/11 10:55:17.000   78.254775893   16.249357166   342.6099   5   8   3.1906   1.9778  10.0090  -1.2732  -2.0594   5.0480   0.00    0.0
2018/03/11 10:55:18.000   78.254772762   16.249375540   341.6807   5   8   3.1898   1.9778  10.0069  -1.2730  -2.0591   5.0465   0.00    0.0
2018/03/11 10:55:19.000   78.254772599   16.249369187   342.1386   5   8   3.1890   1.9778  10.0048  -1.2728  -2.0588   5.0451   0.00    0.0
2018/03/11 10:55:20.000   78.254774418   16.249370009   341.7323   5   8   3.1881   1.9779  10.0027  -1.2726  -2.0585   5.0436   0.00    0.0
2018/03/11 10:55:21.000   78.254775231   16.249375948   341.6263   5   8   3.1873   1.9779  10.0006  -1.2724  -2.0583   5.0421   0.00    0.0
2018/03/11 10:55:22.000   78.254773911   16.249379988   341.0955   5   8   3.1865   1.9780   9.9985  -1.2722  -2.0580   5.0406   0.00    0.0
2018/03/11 10:55:23.000   78.254774777   16.249376603   341.3096   5   8   3.1857   1.9780   9.9964  -1.2720  -2.0577   5.0391   0.00    0.0
2018/03/11 10:55:24.000   78.254778918   16.249376212   343.4305   5   8   3.1848   1.9781   9.9943  -1.2719  -2.0574   5.0376   0.00    0.0
2018/03/11 10:55:25.000   78.254776019   16.249372490   342.2804   5   8   3.1840   1.9781   9.9922  -1.2717  -2.0571   5.0362   0.00    0.0
2018/03/11 10:55:26.000   78.254776318   16.249385679   342.6170   5   8   3.1832   1.9782   9.9901  -1.2715  -2.0568   5.0347   0.00    0.0
2018/03/11 10:55:27.000   78.254777359   16.249375116   342.2651   5   8   3.1823   1.9782   9.9880  -1.2713  -2.0565   5.0332   0.00    0.0
2018/03/11 10:55:28.000   78.254776619   16.249381924   343.4679   5   8   3.1815   1.9783   9.9859  -1.2711  -2.0562   5.0317   0.00    0.0
2018/03/11 10:55:29.000   78.254778399   16.249380214   342.5962   5   8   3.1807   1.9783   9.9837  -1.2709  -2.0559   5.0302   0.00    0.0
2018/03/11 10:55:30.000   78.254774361   16.249376647   341.3571   5   8   3.1798   1.9783   9.9816  -1.2707  -2.0556   5.0287   0.00    0.0
2018/03/11 10:55:31.000   78.254772019   16.249375187   340.9202   5   8   3.1790   1.9784   9.9795  -1.2705  -2.0553   5.0273   0.00    0.0
2018/03/11 10:55:32.000   78.254773624   16.249374029   341.0351   5   8   3.1782   1.9784   9.9774  -1.2703  -2.0550   5.0258   0.00    0.0
2018/03/11 10:55:33.000   78.254772349   16.249362139   341.5203   5   8   3.1773   1.9785   9.9753  -1.2702  -2.0547   5.0243   0.00    0.0
2018/03/11 10:55:34.000   78.254773217   16.249373346   341.0420   5   8   3.1765   1.9785   9.9731  -1.2700  -2.0544   5.0228   0.00    0.0
2018/03/11 10:55:35.000   78.254776905   16.249390431   342.6513   5   8   3.1757   1.9786   9.9710  -1.2698  -2.0541   5.0213   0.00    0.0
2018/03/11 10:55:36.000   78.254771038   16.249384434   340.0585   5   8   3.1748   1.9786   9.9689  -1.2696  -2.0538   5.0198   0.00    0.0
2018/03/11 10:55:37.000   78.254776223   16.249385445   342.0239   5   8   3.1740   1.9787   9.9668  -1.2694  -2.0535   5.0183   0.00    0.0
2018/03/11 10:55:38.000   78.254777355   16.249374925   342.6108   5   8   3.1732   1.9787   9.9646  -1.2692  -2.0532   5.0168   0.00    0.0
2018/03/11 10:55:39.000   78.254782148   16.249377215   343.7241   5   8   3.1723   1.9788   9.9625  -1.2690  -2.0529   5.0153   0.00    0.0
2018/03/11 10:55:40.000   78.254777495   16.249363107   342.7578   5   8   3.1715   1.9788   9.9604  -1.2688  -2.0526   5.0138   0.00    0.0
2018/03/11 10:55:41.000   78.254775926   16.249364839   342.0942   5   8   3.1707   1.9788   9.9582  -1.2686  -2.0523   5.0123   0.00    0.0
2018/03/11 10:55:42.000   78.254772487   16.249351165   341.1651   5   8   3.1699   1.9789   9.9561  -1.2684  -2.0520   5.0109   0.00    0.0
2018/03/11 10:55:43.000   78.254771727   16.249379163   340.3581   5   8   3.1690   1.9789   9.9540  -1.2682  -2.0517   5.0094   0.00    0.0
2018/03/11 10:55:44.000   78.254773266   16.249370482   340.7945   5   8   3.1682   1.9790   9.9518  -1.2680  -2.0514   5.0079   0.00    0.0
2018/03/11 10:55:45.000   78.254777147   16.249365045   342.5662   5   8   3.1674   1.9790   9.9497  -1.2679  -2.0510   5.0064   0.00    0.0
2018/03/11 10:55:46.000   78.254775656   16.249375124   342.4169   5   8   3.1665   1.9791   9.9476  -1.2677  -2.0507   5.0049   0.00    0.0
2018/03/11 10:55:47.000   78.254774680   16.249375912   341.6481   5   8   3.1657   1.9791   9.9454  -1.2675  -2.0504   5.0034   0.00    0.0
2018/03/11 10:55:48.000   78.254774147   16.249368227   341.2346   5   8   3.1649   1.9792   9.9433  -1.2673  -2.0501   5.0019   0.00    0.0
2018/03/11 10:55:49.000   78.254775406   16.249355499   341.8355   5   8   3.1640   1.9792   9.9411  -1.2671  -2.0498   5.0004   0.00    0.0
2018/03/11 10:55:50.000   78.254774477   16.249369109   341.4725   5   8   3.1632   1.9793   9.9390  -1.2669  -2.0495   4.9989   0.00    0.0
2018/03/11 10:55:51.000   78.254774319   16.249378796   341.5999   5   8   3.1624   1.9793   9.9369  -1.2667  -2.0492   4.9974   0.00    0.0
2018/03/11 10:55:52.000   78.254773527   16.249385863   341.3417   5   8   3.1615   1.9793   9.9347  -1.2665  -2.0489   4.9959   0.00    0.0
2018/03/11 10:55:53.000   78.254777560   16.249371502   343.5316   5   8   3.1607   1.9794   9.9326  -1.2663  -2.0486   4.9944   0.00    0.0
2018/03/11 10:55:54.000   78.254770229   16.249384668   341.5052   5   8   3.1599   1.9794   9.9304  -1.2661  -2.0483   4.9929   0.00    0.0
2018/03/11 10:55:55.000   78.254768891   16.249386187   341.0205   5   8   3.1590   1.9795   9.9283  -1.2659  -2.0479   4.9914   0.00    0.0
2018/03/11 10:55:56.000   78.254771580   16.249380031   341.8172   5   8   3.1582   1.9795   9.9261  -1.2657  -2.0476   4.9899   0.00    0.0
2018/03/11 10:55:57.000   78.254777193   16.249365656   343.9610   5   8   3.1573   1.9796   9.9240  -1.2655  -2.0473   4.9884   0.00    0.0
2018/03/11 10:55:58.000   78.254779515   16.249373312   344.3770   5   8   3.1565   1.9796   9.9218  -1.2653  -2.0470   4.9869   0.00    0.0
2018/03/11 10:55:59.000   78.254775188   16.249389125   342.3901   5   8   3.1557   1.9797   9.9197  -1.2651  -2.0467   4.9854   0.00    0.0
2018/03/11 10:56:00.000   78.254773246   16.249390148   341.8330   5   8   3.1548   1.9797   9.9175  -1.2649  -2.0464   4.9839   0.00    0.0
2018/03/11 10:56:01.000   78.254773365   16.249372938   341.1951   5   8   3.1540   1.9797   9.9154  -1.2647  -2.0461   4.9824   0.00    0.0
2018/03/11 10:56:02.000   78.254775988   16.249355911   342.6574   5   8   3.1532   1.9798   9.9132  -1.2645  -2.0457   4.9809   0.00    0.0
2018/03/11 10:56:03.000   78.254772435   16.249356615   341.3658   5   8   3.1523   1.9798   9.9110  -1.2643  -2.0454   4.9794   0.00    0.0
2018/03/11 10:56:04.000   78.254771527   16.249375069   341.3566   5   8   3.1515   1.9799   9.9089  -1.2641  -2.0451   4.9778   0.00    0.0
2018/03/11 10:56:05.000   78.254771705   16.249372239   341.7075   5   8   3.1507   1.9799   9.9067  -1.2639  -2.0448   4.9763   0.00    0.0
2018/03/11 10:56:06.000   78.254771791   16.249361583   340.8345   5   8   3.1498   1.9800   9.9046  -1.2637  -2.0445   4.9748   0.00    0.0
2018/03/11 10:56:07.000   78.254779508   16.249368892   343.9259   5   8   3.1490   1.9800   9.9024  -1.2635  -2.0441   4.9733   0.00    0.0
2018/03/11 10:56:08.000   78.254773558   16.249385001   341.9430   5   8   3.1482   1.9801   9.9002  -1.2633  -2.0438   4.9718   0.00    0.0
2018/03/11 10:56:09.000   78.254776327   16.249389310   342.6930   5   8   3.1473   1.9801   9.8981  -1.2631  -2.0435   4.9703   0.00    0.0
2018/03/11 10:56:10.000   78.254774630   16.249385357   341.5611   5   8   3.1465   1.9801   9.8959  -1.2629  -2.0432   4.9688   0.00    0.0
2018/03/11 10:56:11.000   78.254783156   16.249364007   343.9782   5   8   3.1457   1.9802   9.8937  -1.2627  -2.0429   4.9673   0.00    0.0
2018/03/11 10:56:12.000   78.254773774   16.249383541   341.6675   5   8   3.1448   1.9802   9.8916  -1.2625  -2.0425   4.9658   0.00    0.0
2018/03/11 10:56:13.000   78.254772424   16.249386976   341.7289   5   8   3.1440   1.9803   9.8894  -1.2623  -2.0422   4.9643   0.00    0.0
2018/03/11 10:56:14.000   78.254778199   16.249363047   342.9829   5   8   3.1432   1.9803   9.8872  -1.2621  -2.0419   4.9628   0.00    0.0
2018/03/11 10:56:15.000   78.254772976   16.249368372   340.5924   5   8   3.1423   1.9804   9.8851  -1.2619  -2.0416   4.9612   0.00    0.0
2018/03/11 10:56:16.000   78.254776481   16.249356027   342.3703   5   8   3.1415   1.9804   9.8829  -1.2617  -2.0412   4.9597   0.00    0.0
2018/03/11 10:56:17.000   78.254777631   16.249376145   342.3968   5   8   3.1406   1.9804   9.8807  -1.2615  -2.0409   4.9582   0.00    0.0
2018/03/11 10:56:18.000   78.254776114   16.249375908   342.4429   5   8   3.1398   1.9805   9.8786  -1.2613  -2.0406   4.9567   0.00    0.0
2018/03/11 10:56:19.000   78.254778949   16.249359681   343.1965   5   8   3.1390   1.9805   9.8764  -1.2611  -2.0403   4.9552   0.00    0.0
2018/03/11 10:56:20.000   78.254778152   16.249377840   341.8077   5   8   3.1381   1.9806   9.8742  -1.2609  -2.0399   4.9537   0.00    0.0
2018/03/11 10:56:21.000   78.254776297   16.249372613   341.7523   5   8   3.1373   1.9806   9.8720  -1.2607  -2.0396   4.9522   0.00    0.0
2018/03/11 10:56:22.000   78.254770669   16.249371821   341.0444   5   8   3.1365   1.9807   9.8698  -1.2605  -2.0393   4.9507   0.00    0.0
2018/03/11 10:56:23.000   78.254768997   16.249362709   340.4515   5   8   3.1356   1.9807   9.8677  -1.2603  -2.0390   4.9491   0.00    0.0
2018/03/11 10:56:24.000   78.254767907   16.249372311   340.2268   5   8   3.1348   1.9808   9.8655  -1.2601  -2.0386   4.9476   0.00    0.0
2018/03/11 10:56:25.000   78.254769693   16.249361959   339.6651   5   8   3.1340   1.9808   9.8633  -1.2599  -2.0383   4.9461   0.00    0.0
2018/03/11 10:56:26.000   78.254764348   16.249368072   339.5555   5   8   3.1331   1.9808   9.8611  -1.2597  -2.0380   4.9446   0.00    0.0
2018/03/11 10:56:27.000   78.254767448   16.249369957   340.1103   5   8   3.1323   1.9809   9.8589  -1.2595  -2.0376   4.9431   0.00    0.0
2018/03/11 10:56:28.000   78.254763645   16.249358302   339.4156   5   8   3.1315   1.9809   9.8568  -1.2593  -2.0373   4.9416   0.00    0.0
2018/03/11 10:56:29.000   78.254772696   16.249373141   341.8980   5   8   3.1306   1.9810   9.8546  -1.2591  -2.0370   4.9400   0.00    0.0
2018/03/11 10:56:30.000   78.254775424   16.249374628   342.9661   5   8   3.1298   1.9810   9.8524  -1.2589  -2.0366   4.9385   0.00    0.0
2018/03/11 10:56:31.000   78.254779243   16.249391500   344.2410   5   8   3.1289   1.9811   9.8502  -1.2587  -2.0363   4.9370   0.00    0.0
2018/03/11 10:56:32.000   78.254779188   16.249385160   344.9200   5   8   3.1281   1.9811   9.8480  -1.2585  -2.0360   4.9355   0.00    0.0
2018/03/11 10:56:33.000   78.254779084   16.249381098   345.4820   5   8   3.1273   1.9811   9.8458  -1.2583  -2.0356   4.9340   0.00    0.0
2018/03/11 10:56:34.000   78.254777937   16.249370990   343.1112   5   8   3.1264   1.9812   9.8436  -1.2581  -2.0353   4.9324   0.00    0.0
2018/03/11 10:56:35.000   78.254771726   16.249379908   341.8951   5   8   3.1256   1.9812   9.8414  -1.2579  -2.0350   4.9309   0.00    0.0
2018/03/11 10:56:36.000   78.254774725   16.249380383   342.1428   5   8   3.1248   1.9813   9.8392  -1.2577  -2.0346   4.9294   0.00    0.0
2018/03/11 10:56:37.000   78.254776382   16.249369779   341.5500   5   8   3.1239   1.9813   9.8370  -1.2575  -2.0343   4.9279   0.00    0.0
2018/03/11 10:56:38.000   78.254777034   16.249364888   341.4414   5   8   3.1231   1.9814   9.8349  -1.2573  -2.0340   4.9263   0.00    0.0
2018/03/11 10:56:39.000   78.254774245   16.249371449   340.8377   5   8   3.1223   1.9814   9.8327  -1.2571  -2.0336   4.9248   0.00    0.0
2018/03/11 10:56:40.000   78.254769505   16.249386456   339.5381   5   8   3.1214   1.9814   9.8305  -1.2569  -2.0333   4.9233   0.00    0.0
2018/03/11 10:56:41.000   78.254774719   16.249368717   339.9729   5   8   3.1206   1.9815   9.8283  -1.2567  -2.0330   4.9218   0.00    0.0
2018/03/11 10:56:42.000   78.254776404   16.249359401   340.9092   5   8   3.1197   1.9815   9.8261  -1.2564  -2.0326   4.9203   0.00    0.0
2018/03/11 10:56:43.000   78.254770809   16.249368054   339.3757   5   8   3.1189   1.9816   9.8239  -1.2562  -2.0323   4.9187   0.00    0.0
2018/03/11 10:56:44.000   78.254771592   16.249374317   338.8753   5   8   3.1181   1.9816   9.8217  -1.2560  -2.0319   4.9172   0.00    0.0
2018/03/11 10:56:45.000   78.254772805   16.249368881   339.4279   5   8   3.1172   1.9817   9.8195  -1.2558  -2.0316   4.9157   0.00    0.0
2018/03/11 10:56:46.000   78.254775783   16.249366027   340.7286   5   8   3.1164   1.9817   9.8173  -1.2556  -2.0313   4.9142   0.00    0.0
2018/03/11 10:56:47.000   78.254777955   16.249375990   341.8447   5   8   3.1156   1.9818   9.8151  -1.2554  -2.0309   4.9126   0.00    0.0
2018/03/11 10:56:48.000   78.254781543   16.249386933   343.5927   5   8   3.1147   1.9818   9.8128  -1.2552  -2.0306   4.9111   0.00    0.0
2018/03/11 10:56:49.000   78.254776314   16.249398974   342.7937   5   8   3.1139   1.9818   9.8106  -1.2550  -2.0302   4.9096   0.00    0.0
2018/03/11 10:56:50.000   78.254776774   16.249379362   343.7193   5   8   3.1131   1.9819   9.8084  -1.2548  -2.0299   4.9080   0.00    0.0
2018/03/11 10:56:51.000   78.254774423   16.249369056   342.5760   5   8   3.1122   1.9819   9.8062  -1.2546  -2.0296   4.9065   0.00    0.0
2018/03/11 10:56:52.000   78.254772294   16.249394636   342.0634   5   8   3.1114   1.9820   9.8040  -1.2544  -2.0292   4.9050   0.00    0.0
2018/03/11 10:56:53.000   78.254773035   16.249378121   341.9883   5   8   3.1105   1.9820   9.8018  -1.2542  -2.0289   4.9035   0.00    0.0
2018/03/11 10:56:54.000   78.254774671   16.249392123   342.0826   5   8   3.1097   1.9821   9.7996  -1.2540  -2.0285   4.9019   0.00    0.0
2018/03/11 10:56:55.000   78.254777866   16.249375588   342.8281   5   8   3.1089   1.9821   9.7974  -1.2537  -2.0282   4.9004   0.00    0.0
2018/03/11 10:56:56.000   78.254772540   16.249372298   341.5983   5   8   3.1080   1.9821   9.7952  -1.2535  -2.0278   4.8989   0.00    0.0
2018/03/11 10:56:57.000   78.254768627   16.249372570   339.5936   5   8   3.1072   1.9822   9.7930  -1.2533  -2.0275   4.8973   0.00    0.0
2018/03/11 10:56:58.000   78.254766696   16.249374625   340.2881   5   8   3.1064   1.9822   9.7908  -1.2531  -2.0271   4.8958   0.00    0.0
2018/03/11 10:56:59.000   78.254767361   16.249384488   340.1184   5   8   3.1055   1.9823   9.7885  -1.2529  -2.0268   4.8943   0.00    0.0
2018/03/11 10:57:00.000   78.254773932   16.249361807   341.9882   5   8   3.1047   1.9823   9.7863  -1.2527  -2.0264   4.8927   0.00    0.0
2018/03/11 10:57:01.000   78.254768726   16.249369013   339.7470   5   8   3.1038   1.9823   9.7841  -1.2525  -2.0261   4.8912   0.00    0.0
2018/03/11 10:57:02.000   78.254768818   16.249371058   339.8571   5   8   3.1030   1.9824   9.7819  -1.2523  -2.0257   4.8897   0.00    0.0
2018/03/11 10:57:03.000   78.254766541   16.249385891   340.3928   5   8   3.1022   1.9824   9.7797  -1.2521  -2.0254   4.8881   0.00    0.0
2018/03/11 10:57:04.000   78.254773173   16.249369683   342.7965   5   8   3.1013   1.9825   9.7774  -1.2518  -2.0250   4.8866   0.00    0.0
2018/03/11 10:57:05.000   78.254775995   16.249369014   343.1648   5   8   3.1005   1.9825   9.7752  -1.2516  -2.0247   4.8851   0.00    0.0
2018/03/11 10:57:06.000   78.254772400   16.249385415   341.2502   5   8   3.0997   1.9826   9.7730  -1.2514  -2.0243   4.8835   0.00    0.0
2018/03/11 10:57:07.000   78.254774553   16.249372392   342.3278   5   8   3.0988   1.9826   9.7708  -1.2512  -2.0240   4.8820   0.00    0.0
2018/03/11 10:57:08.000   78.254775406   16.249376799   341.8511   5   8   3.0980   1.9826   9.7686  -1.2510  -2.0236   4.8805   0.00    0.0
2018/03/11 10:57:09.000   78.254773371   16.249374688   341.4542   5   8   3.0972   1.9827   9.7663  -1.2508  -2.0233   4.8789   0.00    0.0
2018/03/11 10:57:10.000   78.254779976   16.249392327   342.6621   5   8   3.0963   1.9827   9.7641  -1.2506  -2.0229   4.8774   0.00    0.0
2018/03/11 10:57:11.000   78.254779832   16.249396129   343.6823   5   8   3.0955   1.9828   9.7619  -1.2504  -2.0226   4.8759   0.00    0.0
2018/03/11 10:57:12.000   78.254781415   16.249384320   343.5898   5   8   3.0946   1.9828   9.7597  -1.2501  -2.0222   4.8743   0.00    0.0
2018/03/11 10:57:13.000   78.254780325   16.249384394   342.8650   5   8   3.0938   1.9829   9.7574  -1.2499  -2.0219   4.8728   0.00    0.0
2018/03/11 10:57:14.000   78.254775907   16.249375957   341.4714   5   8   3.0930   1.9829   9.7552  -1.2497  -2.0215   4.8713   0.00    0.0
2018/03/11 10:57:15.000   78.254775385   16.249374192   340.4467   5   8   3.0921   1.9829   9.7530  -1.2495  -2.0212   4.8697   0.00    0.0
2018/03/11 10:57:16.000   78.254774592   16.249364905   340.7354   5   8   3.0913   1.9830   9.7508  -1.2493  -2.0208   4.8682   0.00    0.0
2018/03/11 10:57:17.000   78.254769951   16.249374975   340.2688   5   8   3.0905   1.9830   9.7485  -1.2491  -2.0205   4.8666   0.00    0.0
2018/03/11 10:57:18.000   78.254772105   16.249382666   339.8098   5   8   3.0896   1.9831   9.7463  -1.2489  -2.0201   4.8651   0.00    0.0
2018/03/11 10:57:19.000   78.254775143   16.249369011   341.7867   5   8   3.0888   1.9831   9.7441  -1.2487  -2.0197   4.8636   0.00    0.0
2018/03/11 10:57:20.000   78.254770956   16.249371315   339.7510   5   8   3.0879   1.9831   9.7418  -1.2484  -2.0194   4.8620   0.00    0.0
2018/03/11 10:57:21.000   78.254772590   16.249360544   340.8227   5   8   3.0871   1.9832   9.7396  -1.2482  -2.0190   4.8605   0.00    0.0
2018/03/11 10:57:22.000   78.254771259   16.249371224   340.8409   5   8   3.0863   1.9832   9.7374  -1.2480  -2.0187   4.8589   0.00    0.0
2018/03/11 10:57:23.000   78.254774501   16.249369523   341.9457   5   8   3.0854   1.9833   9.7351  -1.2478  -2.0183   4.8574   0.00    0.0
2018/03/11 10:57:24.000   78.254776960   16.249380660   342.9854   5   8   3.0846   1.9833   9.7329  -1.2476  -2.0179   4.8559   0.00    0.0
2018/03/11 10:57:25.000   78.254778786   16.249383022   342.6406   5   8   3.0838   1.9834   9.7306  -1.2474  -2.0176   4.8543   0.00    0.0
2018/03/11 10:57:26.000   78.254776556   16.249393592   343.0782   5   8   3.0829   1.9834   9.7284  -1.2471  -2.0172   4.8528   0.00    0.0
2018/03/11 10:57:27.000   78.254775405   16.249376682   343.2525   5   8   3.0821   1.9834   9.7262  -1.2469  -2.0169   4.8512   0.00    0.0
2018/03/11 10:57:28.000   78.254774027   16.249379329   342.4785   5   8   3.0813   1.9835   9.7239  -1.2467  -2.0165   4.8497   0.00    0.0
2018/03/11 10:57:29.000   78.254772734   16.249366897   342.1536   5   8   3.0804   1.9835   9.7217  -1.2465  -2.0161   4.8482   0.00    0.0
2018/03/11 10:57:30.000   78.254772943   16.249379829   341.3601   5   8   3.0796   1.9836   9.7194  -1.2463  -2.0158   4.8466   0.00    0.0
2018/03/11 10:57:31.000   78.254774309   16.249376652   342.8888   5   8   3.0787   1.9836   9.7172  -1.2461  -2.0154   4.8451   0.00    0.0
2018/03/11 10:57:32.000   78.254774733   16.249390308   342.9639   5   8   3.0779   1.9836   9.7150  -1.2458  -2.0151   4.8435   0.00    0.0
2018/03/11 10:57:33.000   78.254773342   16.249382825   342.7824   5   8   3.0771   1.9837   9.7127  -1.2456  -2.0147   4.8420   0.00    0.0
2018/03/11 10:57:34.000   78.254769280   16.249376536   341.3048   5   8   3.0762   1.9837   9.7105  -1.2454  -2.0143   4.8404   0.00    0.0
2018/03/11 10:57:35.000   78.254770996   16.249371339   341.9625   5   8   3.0754   1.9838   9.7082  -1.2452  -2.0140   4.8389   0.00    0.0
2018/03/11 10:57:36.000   78.254769630   16.249360774   341.3548   5   8   3.0746   1.9838   9.7060  -1.2450  -2.0136   4.8374   0.00    0.0
2018/03/11 10:57:37.000   78.254769087   16.249356498   341.2866   5   8   3.0737   1.9839   9.7037  -1.2448  -2.0132   4.8358   0.00    0.0
2018/03/11 10:57:38.000   78.254763902   16.249360156   339.5154   5   8   3.0729   1.9839   9.7015  -1.2445  -2.0129   4.8343   0.00    0.0
2018/03/11 10:57:39.000   78.254767842   16.249362948   339.4878   5   8   3.0721   1.9839   9.6992  -1.2443  -2.0125   4.8327   0.00    0.0
2018/03/11 10:57:40.000   78.254770049   16.249364287   339.3798   5   8   3.0712   1.9840   9.6970  -1.2441  -2.0121   4.8312   0.00    0.0
2018/03/11 10:57:41.000   78.254774586   16.249361855   341.8287   5   8   3.0704   1.9840   9.6947  -1.2439  -2.0118   4.8296   0.00    0.0
2018/03/11 10:57:42.000   78.254772183   16.249367383   340.2587   5   8   3.0695   1.9841   9.6925  -1.2437  -2.0114   4.8281   0.00    0.0
2018/03/11 10:57:43.000   78.254770596   16.249382937   340.4074   5   8   3.0687   1.9841   9.6902  -1.2434  -2.0110   4.8265   0.00    0.0
2018/03/11 10:57:44.000   78.254774092   16.249367168   341.2912   5   8   3.0679   1.9841   9.6880  -1.2432  -2.0107   4.8250   0.00    0.0
2018/03/11 10:57:45.000   78.254775363   16.249370891   341.3786   5   8   3.0670   1.9842   9.6857  -1.2430  -2.0103   4.8234   0.00    0.0
2018/03/11 10:57:46.000   78.254777813   16.249390794   342.6415   5   8   3.0662   1.9842   9.6835  -1.2428  -2.0099   4.8219   0.00    0.0
2018/03/11 10:57:47.000   78.254773719   16.249381675   341.5536   5   8   3.0654   1.9843   9.6812  -1.2426  -2.0096   4.8203   0.00    0.0
2018/03/11 10:57:48.000   78.254774778   16.249382870   341.7364   5   8   3.0645   1.9843   9.6790  -1.2423  -2.0092   4.8188   0.00    0.0
2018/03/11 10:57:49.000   78.254769117   16.249375012   341.7394   5   8   3.0637   1.9844   9.6767  -1.2421  -2.0088   4.8172   0.00    0.0
2018/03/11 10:57:50.000   78.254771708   16.249369594   341.3996   5   8   3.0629   1.9844   9.6745  -1.2419  -2.0084   4.8157   0.00    0.0
2018/03/11 10:57:51.000   78.254772284   16.249376030   342.0756   5   8   3.0620   1.9844   9.6722  -1.2417  -2.0081   4.8141   0.00    0.0
2018/03/11 10:57:52.000   78.254772337   16.249389111   342.8494   5   8   3.0612   1.9845   9.6700  -1.2415  -2.0077   4.8126   0.00    0.0
2018/03/11 10:57:53.000   78.254776089   16.249363224   343.4930   5   8   3.0604   1.9845   9.6677  -1.2412  -2.0073   4.8110   0.00    0.0
2018/03/11 10:57:54.000   78.254777101   16.249363076   344.0939   5   8   3.0595   1.9846   9.6654  -1.2410  -2.0070   4.8095   0.00    0.0
2018/03/11 10:57:55.000   78.254776945   16.249374724   343.0765   5   8   3.0587   1.9846   9.6632  -1.2408  -2.0066   4.8079   0.00    0.0
2018/03/11 10:57:56.000   78.254773409   16.249377678   342.4268   5   8   3.0578   1.9846   9.6609  -1.2406  -2.0062   4.8064   0.00    0.0
2018/03/11 10:57:57.000   78.254771101   16.249376064   340.1970   5   8   3.0570   1.9847   9.6587  -1.2404  -2.0058   4.8048   0.00    0.0
2018/03/11 10:57:58.000   78.254765260   16.249363113   339.2821   5   8   3.0562   1.9847   9.6564  -1.2401  -2.0055   4.8033   0.00    0.0
2018/03/11 10:57:59.000   78.254765460   16.249367373   338.8900   5   8   3.0553   1.9848   9.6541  -1.2399  -2.0051   4.8017   0.00    0.0
2018/03/11 10:58:00.000   78.254762579   16.249360160   338.7346   5   8   3.0545   1.9848   9.6519  -1.2397  -2.0047   4.8002   0.00    0.0
2018/03/11 10:58:01.000   78.254766304   16.249359509   338.7681   5   8   3.0537   1.9848   9.6496  -1.2395  -2.0043   4.7986   0.00    0.0
2018/03/11 10:58:02.000   78.254771383   16.249363344   340.8199   5   8   3.0528   1.9849   9.6473  -1.2392  -2.0040   4.7971   0.00    0.0
2018/03/11 10:58:03.000   78.254773642   16.249375579   341.7139   5   8   3.0520   1.9849   9.6451  -1.2390  -2.0036   4.7955   0.00    0.0
2018/03/11 10:58:04.000   78.254779771   16.249388242   342.9887   5   8   3.0512   1.9850   9.6428  -1.2388  -2.0032   4.7940   0.00    0.0
2018/03/11 10:58:05.000   78.254782350   16.249392736   343.7858   5   8   3.0503   1.9850   9.6405  -1.2386  -2.0028   4.7924   0.00    0.0
2018/03/11 10:58:06.000   78.254783068   16.249394716   344.4934   5   8   3.0495   1.9850   9.6383  -1.2384  -2.0024   4.7909   0.00    0.0
2018/03/11 10:58:07.000   78.254780716   16.249386330   343.7721   5   8   3.0487   1.9851   9.6360  -1.2381  -2.0021   4.7893   0.00    0.0
2018/03/11 10:58:08.000   78.254774744   16.249376815   341.9419   5   8   3.0478   1.9851   9.6337  -1.2379  -2.0017   4.7878   0.00    0.0
2018/03/11 10:58:09.000   78.254775346   16.249389468   342.8093   5   8   3.0470   1.9852   9.6315  -1.2377  -2.0013   4.7862   0.00    0.0
2018/03/11 10:58:10.000   78.254771808   16.249381820   342.3833   5   8   3.0462   1.9852   9.6292  -1.2375  -2.0009   4.7847   0.00    0.0
2018/03/11 10:58:11.000   78.254772291   16.249383120   340.7885   5   8   3.0453   1.9852   9.6269  -1.2372  -2.0005   4.7831   0.00    0.0
2018/03/11 10:58:12.000   78.254778068   16.249364269   343.7167   5   8   3.0445   1.9853   9.6247  -1.2370  -2.0002   4.7815   0.00    0.0
2018/03/11 10:58:13.000   78.254771913   16.249375703   341.5143   5   8   3.0437   1.9853   9.6224  -1.2368  -1.9998   4.7800   0.00    0.0
2018/03/11 10:58:14.000   78.254773504   16.249378210   342.0591   5   8   3.0428   1.9854   9.6201  -1.2366  -1.9994   4.7784   0.00    0.0
2018/03/11 10:58:15.000   78.254772680   16.249369114   341.0559   5   8   3.0420   1.9854   9.6178  -1.2363  -1.9990   4.7769   0.00    0.0
2018/03/11 10:58:16.000   78.254772994   16.249364230   341.3539   5   8   3.0411   1.9854   9.6156  -1.2361  -1.9986   4.7753   0.00    0.0
2018/03/11 10:58:17.000   78.254776277   16.249363784   342.2944   5   8   3.0403   1.9855   9.6133  -1.2359  -1.9982   4.7738   0.00    0.0
2018/03/11 10:58:18.000   78.254772161   16.249367253   340.1476   5   8   3.0395   1.9855   9.6110  -1.2357  -1.9979   4.7722   0.00    0.0
2018/03/11 10:58:19.000   78.254772538   16.249370396   341.1048   5   8   3.0386   1.9856   9.6087  -1.2354  -1.9975   4.7707   0.00    0.0
2018/03/11 10:58:20.000   78.254771307   16.249379139   341.1920   5   8   3.0378   1.9856   9.6065  -1.2352  -1.9971   4.7691   0.00    0.0
2018/03/11 10:58:21.000   78.254774092   16.249363717   341.7603   5   8   3.0370   1.9857   9.6042  -1.2350  -1.9967   4.7675   0.00    0.0
2018/03/11 10:58:22.000   78.254780148   16.249370183   344.1419   5   8   3.0361   1.9857   9.6019  -1.2348  -1.9963   4.7660   0.00    0.0
2018/03/11 10:58:23.000   78.254781907   16.249384106   344.7712   5   8   3.0353   1.9857   9.5996  -1.2345  -1.9959   4.7644   0.00    0.0
2018/03/11 10:58:24.000   78.254779430   16.249381797   344.9478   5   8   3.0345   1.9858   9.5974  -1.2343  -1.9956   4.7629   0.00    0.0
2018/03/11 10:58:25.000   78.254777235   16.249392527   342.6638   5   8   3.0336   1.9858   9.5951  -1.2341  -1.9952   4.7613   0.00    0.0
2018/03/11 10:58:26.000   78.254778118   16.249383786   344.4517   5   8   3.0328   1.9859   9.5928  -1.2339  -1.9948   4.7598   0.00    0.0
2018/03/11 10:58:27.000   78.254777260   16.249390717   342.8162   5   8   3.0320   1.9859   9.5905  -1.2336  -1.9944   4.7582   0.00    0.0
2018/03/11 10:58:28.000   78.254776460   16.249385656   343.2588   5   8   3.0311   1.9859   9.5882  -1.2334  -1.9940   4.7566   0.00    0.0
2018/03/11 10:58:29.000   78.254767676   16.249381656   340.5616   5   8   3.0303   1.9860   9.5860  -1.2332  -1.9936   4.7551   0.00    0.0
2018/03/11 10:58:30.000   78.254763155   16.249386578   339.2758   5   8   3.0295   1.9860   9.5837  -1.2329  -1.9932   4.7535   0.00    0.0
2018/03/11 10:58:31.000   78.254769444   16.249359138   341.1345   5   8   3.0286   1.9861   9.5814  -1.2327  -1.9928   4.7520   0.00    0.0
2018/03/11 10:58:32.000   78.254769205   16.249363733   340.7615   5   8   3.0278   1.9861   9.5791  -1.2325  -1.9925   4.7504   0.00    0.0
2018/03/11 10:58:33.000   78.254767211   16.249377097   340.1287   5   8   3.0270   1.9861   9.5768  -1.2323  -1.9921   4.7488   0.00    0.0
2018/03/11 10:58:34.000   78.254767003   16.249371545   340.2831   5   8   3.0261   1.9862   9.5745  -1.2320  -1.9917   4.7473   0.00    0.0
2018/03/11 10:58:35.000   78.254769290   16.249363734   340.0672   5   8   3.0253   1.9862   9.5723  -1.2318  -1.9913   4.7457   0.00    0.0
2018/03/11 10:58:36.000   78.254772098   16.249369682   340.3750   5   8   3.0245   1.9863   9.5700  -1.2316  -1.9909   4.7442   0.00    0.0
2018/03/11 10:58:37.000   78.254769342   16.249366598   340.1844   5   8   3.0237   1.9863   9.5677  -1.2313  -1.9905   4.7426   0.00    0.0
2018/03/11 10:58:38.000   78.254773928   16.249367674   342.1148   5   8   3.0228   1.9863   9.5654  -1.2311  -1.9901   4.7410   0.00    0.0
2018/03/11 10:58:39.000   78.254772738   16.249365163   340.7914   5   8   3.0220   1.9864   9.5631  -1.2309  -1.9897   4.7395   0.00    0.0
2018/03/11 10:58:40.000   78.254769601   16.249375503   340.8292   5   8   3.0212   1.9864   9.5608  -1.2307  -1.9893   4.7379   0.00    0.0
2018/03/11 10:58:41.000   78.254767132   16.249384725   339.9723   5   8   3.0203   1.9865   9.5585  -1.2304  -1.9889   4.7364   0.00    0.0
2018/03/11 10:58:42.000   78.254770399   16.249366698   340.6228   5   8   3.0195   1.9865   9.5562  -1.2302  -1.9885   4.7348   0.00    0.0
2018/03/11 10:58:43.000   78.254772008   16.249376039   342.1804   5   8   3.0187   1.9865   9.5540  -1.2300  -1.9881   4.7332   0.00    0.0
2018/03/11 10:58:44.000   78.254769716   16.249379676   341.6439   5   8   3.0178   1.9866   9.5517  -1.2297  -1.9877   4.7317   0.00    0.0
2018/03/11 10:58:45.000   78.254775286   16.249382218   342.6563   5   8   3.0170   1.9866   9.5494  -1.2295  -1.9874   4.7301   0.00    0.0
2018/03/11 10:58:46.000   78.254773338   16.249368181   342.4831   5   8   3.0162   1.9866   9.5471  -1.2293  -1.9870   4.7286   0.00    0.0
2018/03/11 10:58:47.000   78.254769232   16.249375546   340.4316   5   8   3.0153   1.9867   9.5448  -1.2291  -1.9866   4.7270   0.00    0.0
2018/03/11 10:58:48.000   78.254774523   16.249374226   341.7039   5   8   3.0145   1.9867   9.5425  -1.2288  -1.9862   4.7254   0.00    0.0
2018/03/11 10:58:49.000   78.254774301   16.249374879   342.7734   5   8   3.0137   1.9868   9.5402  -1.2286  -1.9858   4.7239   0.00    0.0
2018/03/11 10:58:50.000   78.254770175   16.249368731   341.1038   5   8   3.0128   1.9868   9.5379  -1.2284  -1.9854   4.7223   0.00    0.0
2018/03/11 10:58:51.000   78.254774981   16.249362158   342.3147   5   8   3.0120   1.9868   9.5356  -1.2281  -1.9850   4.7207   0.00    0.0
2018/03/11 10:58:52.000   78.254770603   16.249369689   341.5769   5   8   3.0112   1.9869   9.5333  -1.2279  -1.9846   4.7192   0.00    0.0
2018/03/11 10:58:53.000   78.254766826   16.249379089   340.2211   5   8   3.0103   1.9869   9.5310  -1.2277  -1.9842   4.7176   0.00    0.0
2018/03/11 10:58:54.000   78.254769575   16.249380153   340.7262   5   8   3.0095   1.9870   9.5287  -1.2274  -1.9838   4.7161   0.00    0.0
2018/03/11 10:58:55.000   78.254766477   16.249372032   340.2770   5   8   3.0087   1.9870   9.5265  -1.2272  -1.9834   4.7145   0.00    0.0
2018/03/11 10:58:56.000   78.254766166   16.249372706   339.5947   5   8   3.0079   1.9870   9.5242  -1.2270  -1.9830   4.7129   0.00    0.0
2018/03/11 10:58:57.000   78.254773280   16.249365467   341.8581   5   8   3.0070   1.9871   9.5219  -1.2267  -1.9826   4.7114   0.00    0.0
2018/03/11 10:58:58.000   78.254775117   16.249369640   342.4879   5   8   3.0062   1.9871   9.5196  -1.2265  -1.9822   4.7098   0.00    0.0
2018/03/11 10:58:59.000   78.254772587   16.249375803   341.3832   5   8   3.0054   1.9872   9.5173  -1.2263  -1.9818   4.7082   0.00    0.0
2018/03/11 10:59:00.000   78.254770312   16.249372744   341.7532   5   8   3.0045   1.9872   9.5150  -1.2261  -1.9814   4.7067   0.00    0.0
2018/03/11 10:59:01.000   78.254769053   16.249371666   341.1677   5   8   3.0037   1.9872   9.5127  -1.2258  -1.9810   4.7051   0.00    0.0
2018/03/11 10:59:02.000   78.254764063   16.249366368   340.1542   5   8   3.0029   1.9873   9.5104  -1.2256  -1.9806   4.7035   0.00    0.0
2018/03/11 10:59:03.000   78.254767972   16.249361802   341.7866   5   8   3.0020   1.9873   9.5081  -1.2254  -1.9802   4.7020   0.00    0.0
2018/03/11 10:59:04.000   78.254766299   16.249369239   340.2286   5   8   3.0012   1.9874   9.5058  -1.2251  -1.9798   4.7004   0.00    0.0
2018/03/11 10:59:05.000   78.254770437   16.249392041   341.1681   5   8   3.0004   1.9874   9.5035  -1.2249  -1.9794   4.6989   0.00    0.0
2018/03/11 10:59:06.000   78.254775772   16.249377066   343.5076   5   8   2.9996   1.9874   9.5012  -1.2247  -1.9790   4.6973   0.00    0.0
2018/03/11 10:59:07.000   78.254781505   16.249382038   344.2111   5   8   2.9987   1.9875   9.4989  -1.2244  -1.9786   4.6957   0.00    0.0
2018/03/11 10:59:08.000   78.254780979   16.249373071   344.9955   5   8   2.9979   1.9875   9.4966  -1.2242  -1.9782   4.6942   0.00    0.0
2018/03/11 10:59:09.000   78.254778712   16.249375806   343.7722   5   8   2.9971   1.9876   9.4943  -1.2240  -1.9778   4.6926   0.00    0.0
2018/03/11 10:59:10.000   78.254770413   16.249383652   340.6003   5   8   2.9962   1.9876   9.4920  -1.2237  -1.9774   4.6910   0.00    0.0
2018/03/11 10:59:11.000   78.254772817   16.249379940   340.8823   5   8   2.9954   1.9876   9.4897  -1.2235  -1.9770   4.6895   0.00    0.0
2018/03/11 10:59:12.000   78.254775809   16.249371903   342.5745   5   8   2.9946   1.9877   9.4874  -1.2233  -1.9766   4.6879   0.00    0.0
2018/03/11 10:59:13.000   78.254772600   16.249358333   341.1913   5   8   2.9938   1.9877   9.4851  -1.2230  -1.9761   4.6863   0.00    0.0
2018/03/11 10:59:14.000   78.254768655   16.249370358   340.9597   5   8   2.9929   1.9877   9.4828  -1.2228  -1.9757   4.6848   0.00    0.0
2018/03/11 10:59:15.000   78.254763573   16.249361316   339.2249   5   8   2.9921   1.9878   9.4805  -1.2226  -1.9753   4.6832   0.00    0.0
2018/03/11 10:59:16.000   78.254769400   16.249369692   341.1076   5   8   2.9913   1.9878   9.4782  -1.2223  -1.9749   4.6816   0.00    0.0
2018/03/11 10:59:17.000   78.254768533   16.249368681   340.0727   5   8   2.9904   1.9879   9.4758  -1.2221  -1.9745   4.6801   0.00    0.0
2018/03/11 10:59:18.000   78.254772845   16.249383759   341.9304   5   8   2.9896   1.9879   9.4735  -1.2219  -1.9741   4.6785   0.00    0.0
2018/03/11 10:59:19.000   78.254773800   16.249399172   342.1053   5   8   2.9888   1.9879   9.4712  -1.2216  -1.9737   4.6769   0.00    0.0
2018/03/11 10:59:20.000   78.254777787   16.249377262   343.5805   5   8   2.9880   1.9880   9.4689  -1.2214  -1.9733   4.6754   0.00    0.0
2018/03/11 10:59:21.000   78.254776389   16.249367060   343.6860   5   8   2.9871   1.9880   9.4666  -1.2211  -1.9729   4.6738   0.00    0.0
2018/03/11 10:59:22.000   78.254773422   16.249373007   342.5129   5   8   2.9863   1.9881   9.4643  -1.2209  -1.9725   4.6722   0.00    0.0
2018/03/11 10:59:23.000   78.254773925   16.249390514   342.5764   5   8   2.9855   1.9881   9.4620  -1.2207  -1.9721   4.6707   0.00    0.0
2018/03/11 10:59:24.000   78.254774167   16.249388753   343.1041   5   8   2.9847   1.9881   9.4597  -1.2204  -1.9717   4.6691   0.00    0.0
2018/03/11 10:59:25.000   78.254778326   16.249369674   343.1894   5   8   2.9838   1.9882   9.4574  -1.2202  -1.9713   4.6675   0.00    0.0
2018/03/11 10:59:26.000   78.254777040   16.249362518   342.3814   5   8   2.9830   1.9882   9.4551  -1.2200  -1.9708   4.6660   0.00    0.0
2018/03/11 10:59:27.000   78.254766298   16.249367348   339.8624   5   8   2.9822   1.9883   9.4528  -1.2197  -1.9704   4.6644   0.00    0.0
2018/03/11 10:59:28.000   78.254763619   16.249377723   337.5578   5   8   2.9814   1.9883   9.4505  -1.2195  -1.9700   4.6628   0.00    0.0
2018/03/11 10:59:29.000   78.254769597   16.249357562   340.1744   5   8   2.9805   1.9883   9.4482  -1.2193  -1.9696   4.6613   0.00    0.0
2018/03/11 10:59:30.000   78.254771577   16.249363279   340.8960   5   8   2.9797   1.9884   9.4459  -1.2190  -1.9692   4.6597   0.00    0.0
2018/03/11 10:59:31.000   78.254776798   16.249370042   342.7516   5   8   2.9789   1.9884   9.4435  -1.2188  -1.9688   4.6581   0.00    0.0
2018/03/11 10:59:32.000   78.254773280   16.249384453   342.2160   5   8   2.9780   1.9884   9.4412  -1.2186  -1.9684   4.6566   0.00    0.0
2018/03/11 10:59:33.000   78.254774626   16.249389090   342.2238   5   8   2.9772   1.9885   9.4389  -1.2183  -1.9680   4.6550   0.00    0.0
2018/03/11 10:59:34.000   78.254771102   16.249370618   341.1855   5   8   2.9764   1.9885   9.4366  -1.2181  -1.9676   4.6534   0.00    0.0
2018/03/11 10:59:35.000   78.254763000   16.249362091   339.5642   5   8   2.9756   1.9886   9.4343  -1.2178  -1.9671   4.6519   0.00    0.0
2018/03/11 10:59:36.000   78.254765069   16.249376281   340.2136   5   8   2.9747   1.9886   9.4320  -1.2176  -1.9667   4.6503   0.00    0.0
2018/03/11 10:59:37.000   78.254766671   16.249382937   340.4172   5   8   2.9739   1.9886   9.4297  -1.2174  -1.9663   4.6487   0.00    0.0
2018/03/11 10:59:38.000   78.254771446   16.249382965   342.3935   5   8   2.9731   1.9887   9.4274  -1.2171  -1.9659   4.6471   0.00    0.0
2018/03/11 10:59:39.000   78.254779153   16.249382040   344.0684   5   8   2.9723   1.9887   9.4250  -1.2169  -1.9655   4.6456   0.00    0.0
2018/03/11 10:59:40.000   78.254779754   16.249380599   344.1542   5   8   2.9714   1.9888   9.4227  -1.2167  -1.9651   4.6440   0.00    0.0
2018/03/11 10:59:41.000   78.254778838   16.249372416   343.9831   5   8   2.9706   1.9888   9.4204  -1.2164  -1.9647   4.6424   0.00    0.0
2018/03/11 10:59:42.000   78.254769060   16.249391542   341.0337   5   8   2.9698   1.9888   9.4181  -1.2162  -1.9642   4.6409   0.00    0.0
2018/03/11 10:59:43.000   78.254768745   16.249377360   340.9730   5   8   2.9690   1.9889   9.4158  -1.2159  -1.9638   4.6393   0.00    0.0
2018/03/11 10:59:44.000   78.254772408   16.249356221   341.0940   5   8   2.9681   1.9889   9.4135  -1.2157  -1.9634   4.6377   0.00    0.0
2018/03/11 10:59:45.000   78.254771469   16.249380970   340.6182   5   8   2.9673   1.9889   9.4112  -1.2155  -1.9630   4.6362   0.00    0.0
2018/03/11 10:59:46.000   78.254776321   16.249385200   341.7402   5   8   2.9665   1.9890   9.4088  -1.2152  -1.9626   4.6346   0.00    0.0
2018/03/11 10:59:47.000   78.254770607   16.249398882   340.5365   5   8   2.9657   1.9890   9.4065  -1.2150  -1.9622   4.6330   0.00    0.0
2018/03/11 10:59:48.000   78.254771461   16.249358377   340.7919   5   8   2.9649   1.9891   9.4042  -1.2148  -1.9617   4.6315   0.00    0.0
2018/03/11 10:59:49.000   78.254769923   16.249358683   340.7492   5   8   2.9640   1.9891   9.4019  -1.2145  -1.9613   4.6299   0.00    0.0
2018/03/11 10:59:50.000   78.254768563   16.249375367   340.8390   5   8   2.9632   1.9891   9.3996  -1.2143  -1.9609   4.6283   0.00    0.0
2018/03/11 10:59:51.000   78.254766713   16.249372796   340.4094   5   8   2.9624   1.9892   9.3973  -1.2140  -1.9605   4.6268   0.00    0.0
2018/03/11 10:59:52.000   78.254771512   16.249388901   341.4453   5   8   2.9616   1.9892   9.3950  -1.2138  -1.9601   4.6252   0.00    0.0
2018/03/11 10:59:53.000   78.254776517   16.249375970   343.1533   5   8   2.9607   1.9893   9.3926  -1.2136  -1.9596   4.6236   0.00    0.0
2018/03/11 10:59:54.000   78.254773237   16.249391368   342.0105   5   8   2.9599   1.9893   9.3903  -1.2133  -1.9592   4.6220   0.00    0.0
2018/03/11 10:59:55.000   78.254775660   16.249375885   342.5886   5   8   2.9591   1.9893   9.3880  -1.2131  -1.9588   4.6205   0.00    0.0
2018/03/11 10:59:56.000   78.254765869   16.249370085   340.9023   5   8   2.9583   1.9894   9.3857  -1.2128  -1.9584   4.6189   0.00    0.0
2018/03/11 10:59:57.000   78.254768733   16.249363634   342.0490   5   8   2.9575   1.9894   9.3834  -1.2126  -1.9580   4.6173   0.00    0.0
2018/03/11 10:59:58.000   78.254765518   16.249365866   340.5126   5   8   2.9566   1.9894   9.3810  -1.2124  -1.9575   4.6158   0.00    0.0
2018/03/11 10:59:59.000   78.254763622   16.249373513   339.2644   5   8   2.9558   1.9895   9.3787  -1.2121  -1.9571   4.6142   0.00    0.0
2018/03/11 11:00:00.000   78.254773239   16.249373719   341.4559   5   8   2.9550   1.9895   9.3764  -1.2119  -1.9567   4.6126   0.00    0.0
2018/03/11 11:00:01.000   78.254774896   16.249387147   342.0138   5   8   2.9542   1.9896   9.3741  -1.2116  -1.9563   4.6111   0.00    0.0
2018/03/11 11:00:02.000   78.254774557   16.249386549   341.5330   5   8   2.9533   1.9896   9.3718  -1.2114  -1.9559   4.6095   0.00    0.0
2018/03/11 11:00:03.000   78.254775412   16.249372481   341.7228   5   8   2.9525   1.9896   9.3694  -1.2112  -1.9554   4.6079   0.00    0.0
