     2.11           OBSERVATION DATA    M (MIXED)           RINEX VERSION / TYPE
teqc  2018Mar15                         20180319 14:17:34UTCPGM / RUN BY / DATE
Linux 2.6.32-573.12.1.x86_64|x86_64|gcc -static|Linux 64|=+ COMMENT
END OF STATIC MODE OBSERVATION                              COMMENT
BIT 2 OF LLI FLAGS DATA COLLECTED UNDER A/S CONDITION       COMMENT
-Unknown-                                                   MARKER NAME
4625                                                        MARKER NUMBER
-Unknown-           -Unknown-                               OBSERVER / AGENCY
5127468778          TRIMBLE             4.63                REC # / TYPE / VERS
47477114                            NONE                    ANT # / TYPE
 -2038930.7965  3725740.2257  4742433.6290                  APPROX POSITION XYZ
        0.0000        0.0000        0.0000                  ANTENNA: DELTA H/E/N
     1     1                                                WAVELENGTH FACT L1/2
     7    L1    L2    C1    P1    P2    S1    S2            # / TYPES OF OBSERV
    18                                                      LEAP SECONDS
 SNR is mapped to RINEX snr flag value [0-9]                COMMENT
  L1 & L2: min(max(int(snr_dBHz/6), 0), 9)                  COMMENT
  2018     3    15    13    14   46.0000000     GPS         TIME OF FIRST OBS
                                                            END OF HEADER
 18  3 15 13 14 46.0000000  0 18R01R02G11G12R09R10R11R20R18G17G22G01
                                G10R19G24G32G28G19
                  87405473.700 6  21022717.945                    21022722.598
                        36.800
                  85885773.399 6  20693517.258                    20693519.125
                        38.500
 120934300.449 7  94234527.00444  23013032.164                    23013036.078
        44.500          29.400
 121560788.193 7  94722732.62344  23132256.594                    23132259.910
        42.100          25.300
                  90386167.810 6  21762547.469                    21762547.480
                        38.900
                  79670543.290 5  19216273.969                    19216277.672
                        34.500
                  88628525.099 6  21324370.406                    21324371.910
                        39.200
                  96151621.613 6  23118218.430                    23118220.922
                        37.600
                  88589480.612 6  21337452.773                    21337450.711
                        39.200
 114982520.026 8  89596820.92345  21880456.000                    21880459.492
        48.300          32.800
 129371119.502 6 100808584.63744  24618483.180                    24618483.777
        40.300          25.900
 116993162.254 7  91163526.45145  22263058.641                    22263064.699
        44.700          34.800
 121442662.578 7  94630671.64845  23109772.617                    23109780.504
        45.800          32.800
                  84046715.884 6  20200691.109                    20200690.066
                        38.700
 109424408.523 7  85265794.94245  20822773.023                    20822778.480
        45.100          35.500
 120163470.100 7  93633895.62044  22866348.422                    22866354.086
        45.800          27.400
 125362746.855 7  97685274.56244  23855737.258                    23855741.027
        43.800          28.100
 116496014.851 7  90776122.45744  22168454.664                    22168456.754
        42.900          28.700
 18  3 15 13 14 47.0000000  0 18R01R02G11G12R09R10R11R20R18G17G22G01
                                G10R19G24G32G28G19
                  87408040.827 6  21023335.375                    21023339.277
                        36.700
                  85884534.010 6  20693218.734                    20693220.434
                        38.700
 120936838.058 7  94236504.36944  23013514.805                    23013518.707
        44.900          28.500
 121557420.531 6  94720108.43944  23131615.453                    23131618.945
        41.900          25.600
                  90389562.555 6  21763363.852                    21763364.191
                        38.400
                  79671087.887 5  19216406.000                    19216409.363
                        34.700
                  88625951.905 6  21323750.609                    21323752.762
                        38.900
                  96148401.922 6  23117443.273                    23117447.328
                        37.000
                  88592191.208 6  21338105.180                    21338104.223
                        39.800
 114981862.590 8  89596308.63345  21880331.398                    21880334.563
        48.200          32.900
 129368648.577 6 100806659.23544  24618013.336                    24618013.852
        39.400          24.700
 116993807.931 7  91164029.57045  22263181.313                    22263187.832
        44.500          35.200
 121445574.477 7  94632940.69145  23110326.430                    23110334.449
        44.700          32.600
                  84046071.879 6  20200535.734                    20200535.816
                        38.500
 109425007.332 7  85266261.54846  20822886.664                    20822892.637
        45.300          36.000
 120161389.809 7  93632274.58344  22865952.344                    22865958.211
        45.400          28.300
 125366366.771 7  97688095.27144  23856427.758                    23856429.992
        45.300          28.100
 116493725.848 7  90774338.82044  22168019.672                    22168020.836
        42.600          29.300
 18  3 15 13 14 48.0000000  0 18R01R02G11G12R09R10R11R20R18G17G22G01
                                G10R19G24G32G28G19
                  87410608.527 6  21023953.875                    21023957.105
                        37.000
                  85883295.254 6  20692918.961                    20692922.570
                        38.300
 120939376.273 7  94238482.21544  23013998.094                    23014002.016
        45.200          28.800
 121554053.141 6  94717484.47944  23130974.844                    23130977.941
        41.800          25.600
                  90392957.610 6  21764182.336                    21764181.371
                        38.700
                  79671633.159 5  19216537.094                    19216540.973
                        34.500
                  88623379.114 6  21323131.789                    21323133.211
                        39.000
                  96145182.467 6  23116668.367                    23116672.586
                        36.500
                  88594902.323 6  21338758.180                    21338758.598
                        40.100
 114981205.781 8  89595796.83545  21880206.242                    21880209.707
        48.000          33.100
 129366178.015 6 100804734.12144  24617543.039                    24617543.961
        39.600          24.000
 116994454.396 7  91164533.30846  22263304.617                    22263310.859
        44.600          36.000
 121448486.957 7  94635210.18345  23110880.508                    23110888.688
        44.100          32.600
                  84045428.619 6  20200381.328                    20200381.020
                        38.900
 109425606.833 7  85266728.69746  20823000.930                    20823006.570
        45.200          36.100
 120159310.056 7  93630653.96144  22865556.000                    22865562.328
        44.700          26.900
 125369986.917 7  97690916.17244  23857116.055                    23857118.598
        45.400          26.700
 116491437.411 7  90772555.62345  22167583.914                    22167586.066
        42.400          30.400
 18  3 15 13 14 49.0000000  0 18R01R02G11G12R09R10R11R20R18G17G22G01
                                G10R19G24G32G28G19
                  87413176.839 6  21024570.805                    21024574.598
                        36.800
                  85882057.198 6  20692620.180                    20692624.230
                        38.700
 120941915.169 7  94240460.58144  23014480.563                    23014484.566
        45.600          29.700
 121550686.103 6  94714860.82244  23130334.422                    23130337.746
        41.300          26.400
                  90396352.981 6  21765000.703                    21764999.449
                        38.700
                  79672179.128 5  19216669.859                    19216672.516
                        35.100
                  88620806.689 6  21322512.344                    21322514.422
                        39.500
                  96141963.246 6  23115895.664                    23115898.242
                        36.400
                  88597614.021 6  21339409.484                    21339411.984
                        40.600
 114980549.648 7  89595285.56445  21880081.844                    21880084.609
        47.900          33.800
 129363707.848 6 100802809.31444  24617073.219                    24617073.758
        39.900          26.000
 116995101.644 7  91165037.66045  22263427.383                    22263433.969
        44.300          34.800
 121451400.006 7  94637480.10945  23111435.484                    23111442.801
        44.700          32.800
                  84044786.112 6  20200227.328                    20200226.379
                        38.600
 109426207.035 7  85267196.38445  20823115.031                    20823121.207
        45.200          35.900
 120157230.883 7  93629033.81844  22865160.117                    22865166.668
        43.900          26.200
 125373607.304 7  97693737.28344  23857804.359                    23857806.973
        44.500          26.400
 116489149.625 7  90770772.94144  22167148.648                    22167150.570
        42.800          29.900
 18  3 15 13 14 50.0000000  0 18R01R02G11G12R09R10R11R20R18G17G22G01
                                G10R19G24G32G28G19
                  87415745.730 6  21025189.180                    21025192.453
                        36.400
                  85880819.828 6  20692323.078                    20692325.625
                        38.500
 120944454.727 7  94242439.46044  23014964.234                    23014967.902
        45.600          28.600
 121547319.366 6  94712237.40144  23129693.781                    23129696.930
        41.800          25.800
                  90399748.680 6  21765816.484                    21765816.707
                        38.300
                  79672725.796 5  19216801.617                    19216804.770
                        34.500
                  88618234.637 6  21321893.219                    21321895.707
                        39.100
                  96138744.220 6  23115121.367                    23115124.629
                        36.500
                  88600326.238 6  21340062.789                    21340065.859
                        40.700
 114979894.155 8  89594774.78545  21879957.141                    21879960.113
        48.000          33.300
 129361238.083 6 100800884.81344  24616602.695                    24616603.625
        40.400          25.300
 116995749.682 7  91165542.62745  22263550.836                    22263557.391
        44.400          35.400
 121454313.629 7  94639750.49845  23111990.078                    23111996.953
        45.100          32.100
                  84044144.357 6  20200073.242                    20200072.180
                        38.400
 109426807.952 7  85267664.63645  20823229.242                    20823235.332
        44.800          35.900
 120155152.228 7  93627414.09744  22864764.523                    22864771.426
        43.600          27.400
 125377228.023 6  97696558.66044  23858491.188                    23858496.332
        41.600          26.300
 116486862.418 7  90768990.70745  22166713.641                    22166715.137
        43.000          31.200
 18  3 15 13 14 51.0000000  0 18R01R02G11G12R09R10R11R20R18G17G22G01
                                G10R19G24G32G28G19
                  87418315.159 6  21025806.609                    21025810.477
                        37.100
                  85879583.114 6  20692026.570                    20692027.820
                        38.100
 120946994.873 7  94244418.79044  23015448.000                    23015451.262
        45.900          29.500
 121543952.915 6  94709614.21344  23129053.164                    23129056.668
        41.400          27.300
                  90403144.652 6  21766633.195                    21766634.039
                        38.600
                  79673273.104 5  19216932.992                    19216936.605
                        34.800
                  88615662.881 6  21321274.586                    21321276.508
                        39.500
                  96135525.365 6  23114346.820                    23114351.039
                        37.000
                  88603038.987 6  21340715.875                    21340720.203
                        41.000
 114979239.290 8  89594264.49945  21879831.883                    21879835.531
        48.000          33.300
 129358768.621 6 100798960.55544  24616132.953                    24616133.941
        40.500          24.100
 116996398.423 7  91166048.14645  22263674.813                    22263681.277
        44.600          35.500
 121457227.718 7  94642021.28145  23112544.563                    23112551.402
        46.100          32.300
                  84043503.311 6  20199918.688                    20199918.305
                        38.600
 109427409.547 7  85268133.41045  20823343.828                    20823349.926
        44.500          35.800
 120153074.112 7  93625794.80444  22864368.891                    22864375.469
        43.400          26.200
 125380848.944 6  97699380.15644  23859180.531                    23859184.793
        40.700          27.200
 116484575.758 7  90767208.89245  22166279.164                    22166280.105
        43.000          30.900
 18  3 15 13 14 52.0000000  0 18R01R02G11G12R09R10R11R20R18G17G22G01
                                G10R19G24G32G28G19
                  87420885.059 6  21026424.891                    21026428.762
                        36.900
                  85878346.995 6  20691728.586                    20691729.840
                        37.900
 120949535.573 7  94246398.55644  23015931.336                    23015934.352
        45.400          28.900
 121540586.657 6  94706991.18144  23128412.406                    23128416.680
        41.600          26.600
                  90406540.851 6  21767452.258                    21767452.117
                        38.600
                  79673821.021 5  19217064.930                    19217068.223
                        35.100
                  88613091.447 6  21320656.781                    21320658.219
                        39.400
                  96132306.751 6  23113571.336                    23113577.004
                        36.100
                  88605752.197 6  21341368.398                    21341374.113
                        41.100
 114978584.953 8  89593754.62945  21879707.914                    21879711.332
        48.100          32.800
 129356299.412 6 100797036.50644  24615663.023                    24615663.844
        40.500          24.000
 116997047.853 7  91166554.19645  22263798.609                    22263804.730
        44.800          35.200
 121460142.306 7  94644292.47545  23113099.875                    23113106.500
        47.000          33.900
                  84042862.956 6  20199765.125                    20199764.711
                        38.700
 109428011.768 7  85268602.67645  20823458.445                    20823464.254
        44.800          35.800
 120150996.387 7  93624175.82044  22863973.820                    22863980.449
        43.700          27.200
 125384469.973 7  97702201.70144  23859870.945                    23859873.445
        43.500          27.700
 116482289.611 7  90765427.48445  22165843.758                    22165845.316
        42.200          30.200
 18  3 15 13 14 53.0000000  0 18R01R02G11G12R09R10R11R20R18G17G22G01
                                G10R19G24G32G28G19
                  87423455.545 6  21027043.023                    21027047.000
                        37.300
                  85877111.495 6  20691430.789                    20691431.199
                        37.900
 120952076.906 7  94248378.81844  23016415.078                    23016418.176
        44.900          27.800
 121537220.704 6  94704368.38144  23127771.484                    23127776.082
        41.100          25.900
                  90409937.329 6  21768271.281                    21768269.945
                        39.100
                  79674369.619 5  19217197.305                    19217200.348
                        34.900
                  88610520.385 6  21320037.758                    21320040.004
                        39.700
                  96129088.327 5  23112796.992                    23112803.066
                        35.400
                  88608465.943 6  21342022.016                    21342027.805
                        41.200
 114977931.234 8  89593245.23745  21879583.117                    21879586.582
        48.500          32.800
 129353830.597 6 100795112.75544  24615192.945                    24615193.941
        40.100          24.100
 116997698.038 7  91167060.83345  22263922.102                    22263928.668
        44.900          35.800
 121463057.338 7  94646564.02245  23113653.813                    23113661.004
        46.300          33.100
                  84042223.312 6  20199610.617                    20199610.355
                        39.100
 109428614.651 7  85269072.45545  20823572.813                    20823579.027
        44.500          35.500
 120148919.158 7  93622557.22144  22863579.250                    22863584.805
        43.400          27.300
 125388091.210 7  97705023.40944  23860561.680                    23860563.297
        44.900          28.800
 116480004.049 7  90763646.52844  22165408.648                    22165410.180
        42.600          29.800
 18  3 15 13 14 54.0000000  0 18R01R02G11G12R09R10R11R20R18G17G22G01
                                G10R19G24G32G28G19
                  87426026.666 6  21027661.922                    21027665.477
                        36.900
                  85875876.733 6  20691131.813                    20691134.254
                        38.100
 120954618.968 7  94250359.64444  23016898.703                    23016901.266
        45.200          29.000
 121533855.130 6  94701745.87344  23127131.094                    23127135.445
        40.800          25.000
                  90413334.198 6  21769087.289                    21769087.973
                        38.800
                  79674918.977 5  19217329.906                    19217333.426
                        35.200
                  88607949.740 6  21319419.367                    21319421.016
                        39.200
                  96125870.199 5  23112024.547                    23112028.363
                        35.200
                  88611180.337 6  21342676.313                    21342682.164
                        41.200
 114977278.270 8  89592736.43545  21879459.188                    21879462.445
        48.800          32.600
 129351362.215 6 100793189.33944  24614723.516                    24614724.344
        40.400          25.000
 116998349.092 7  91167568.13745  22264045.805                    22264052.496
        44.700          35.400
 121465972.958 7  94648836.02745  23114208.445                    23114215.926
        45.700          32.600
                  84041584.499 6  20199457.227                    20199457.672
                        38.600
 109429218.370 7  85269542.88345  20823687.500                    20823693.805
        44.200          35.500
 120146842.609 7  93620939.12944  22863184.078                    22863189.574
        42.800          26.300
 125391712.765 7  97707845.40444  23861249.797                    23861253.090
        44.300          26.800
 116477719.178 7  90761866.10645  22164973.867                    22164975.340
        42.500          30.200
 18  3 15 13 14 55.0000000  0 18R01R02G11G12R09R10R11R20R18G17G22G01
                                G10R19G24G32G28G19
                  87428598.307 6  21028280.461                    21028283.734
                        36.900
                  85874642.604 6  20690833.258                    20690836.277
                        38.000
 120957161.603 7  94252340.90944  23017382.531                    23017385.203
        45.000          29.100
 121530489.803 6  94699123.55943  23126490.125                    23126495.480
        39.700          22.000
                  90416731.332 6  21769906.844                    21769905.609
                        38.900
                  79675468.982 5  19217462.727                    19217465.762
                        34.900
                  88605379.400 6  21318800.461                    21318803.215
                        39.400
                  96122652.235 6  23111250.906                    23111254.605
                        36.400
                  88613895.224 6  21343330.664                    21343336.063
                        40.900
 114976625.894 8  89592228.08645  21879335.164                    21879338.309
        48.500          33.500
 129348894.121 6 100791266.14844  24614253.875                    24614254.621
        40.000          25.000
 116999000.843 7  91168075.99545  22264169.391                    22264176.066
        44.400          35.700
 121468889.088 7  94651108.38645  23114762.836                    23114770.504
        44.700          32.300
                  84040946.381 6  20199303.617                    20199304.180
                        39.200
 109429822.752 7  85270013.83245  20823802.688                    20823809.102
        44.200          35.700
 120144766.496 7  93619321.37844  22862788.391                    22862794.453
        43.100          27.200
 125395334.538 7  97710667.57844  23861937.633                    23861942.348
        42.000          28.900
 116475434.837 7  90760086.10045  22164538.867                    22164540.875
        42.600          30.500
 18  3 15 13 14 56.0000000  0 18R01R02G11G12R09R10R11R20R18G17G22G01
                                G10R19G24G32G28G19
                  87431170.501 6  21028898.156                    21028902.293
                        36.900
                  85873409.108 6  20690537.594                    20690539.316
                        38.100
 120959704.873 7  94254322.68244  23017866.633                    23017868.758
        45.500          28.600
 121527124.740 6  94696501.44543  23125849.766                    23125855.000
        40.000          21.800
                  90420128.723 6  21770724.984                    21770724.297
                        38.700
                  79676019.650 5  19217595.625                    19217598.969
                        34.600
                  88602809.382 6  21318182.102                    21318184.719
                        39.400
                  96119434.453 6  23110477.305                    23110481.387
                        36.700
                  88616610.558 6  21343985.594                    21343990.145
                        40.200
 114975974.118 8  89591720.21345  21879211.008                    21879214.316
        48.700          33.100
 129346426.408 6 100789343.26544  24613785.492                    24613785.480
        40.000          24.800
 116999653.350 7  91168584.44745  22264293.438                    22264300.785
        44.400          35.100
 121471805.750 7  94653381.15145  23115317.773                    23115325.355
        44.200          32.300
                  84040308.955 6  20199150.414                    20199150.598
                        39.300
 109430427.804 7  85270485.30445  20823918.070                    20823924.156
        44.400          35.300
 120142690.886 7  93617704.02344  22862394.195                    22862399.402
        44.000          27.700
 125398956.535 6  97713489.92144  23862627.336                    23862631.496
        41.400          28.200
 116473151.046 7  90758306.52044  22164104.320                    22164106.070
        43.100          29.700
 18  3 15 13 14 57.0000000  0 18R01R02G11G12R09R10R11R20R18G17G22G01
                                G10R19G24G32G28G19
                  87433743.238 6  21029517.844                    21029520.934
                        36.900
                  85872176.306 6  20690241.281                    20690242.590
                        38.200
 120962248.779 7  94256304.94144  23018351.172                    23018352.586
        45.800          29.300
 121523759.984 6  94693879.56543  23125209.133                    23125214.137
        40.200          22.300
                  90423526.456 6  21771541.609                    21771542.055
                        38.500
                  79676571.012 5  19217728.445                    19217732.203
                        34.800
                  88600239.766 6  21317564.000                    21317566.184
                        39.400
                  96116216.880 6  23109702.945                    23109707.906
                        37.100
                  88619326.412 6  21344640.922                    21344644.988
                        39.800
 114975323.001 8  89591212.85445  21879086.711                    21879090.695
        48.100          33.200
 129343959.074 6 100787420.67843  24613315.406                    24613315.668
        39.700          23.500
 117000306.618 7  91169093.49745  22264418.141                    22264425.250
        44.900          35.300
 121474722.917 7  94655654.30145  23115872.797                    23115880.117
        44.500          32.700
                  84039672.260 6  20198997.789                    20198997.129
                        39.200
 109431033.594 7  85270957.34846  20824033.219                    20824039.547
        44.600          36.000
 120140615.820 7  93616087.10444  22861999.609                    22862004.594
        45.200          28.700
 125402578.778 7  97716312.42644  23863318.234                    23863320.547
        42.400          29.400
 116470867.891 7  90756527.44045  22163670.336                    22163671.746
        43.900          31.400
 18  3 15 13 14 58.0000000  0 18R01R02G11G12R09R10R11R20R18G17G22G01
                                G10R19G24G32G28G19
                  87436316.563 6  21030136.734                    21030139.938
                        36.700
                  85870944.173 6  20689944.758                    20689945.449
                        38.000
 120964793.321 7  94258287.69844  23018835.508                    23018836.902
        45.500          28.700
 121520395.551 6  94691257.90543  23124569.164                    23124573.953
        39.800          21.800
                  90426924.471 6  21772360.211                    21772359.270
                        38.500
                  79677123.064 5  19217861.578                    19217864.770
                        34.500
                  88597670.513 6  21316946.141                    21316947.969
                        39.400
                  96112999.580 6  23108931.070                    23108934.563
                        36.700
                  88622042.771 6  21345295.742                    21345298.148
                        39.600
 114974672.509 8  89590705.97945  21878963.320                    21878966.680
        48.200          33.400
 129341492.071 6 100785498.34243  24612845.313                    24612846.125
        40.400          22.900
 117000960.617 7  91169603.11145  22264543.078                    22264549.820
        45.300          35.800
 121477640.575 7  94657927.83445  23116428.594                    23116435.766
        44.200          32.400
                  84039036.323 6  20198844.992                    20198844.457
                        39.100
 109431640.068 7  85271429.92245  20824148.875                    20824154.402
        44.300          35.400
 120138541.325 7  93614470.62044  22861604.797                    22861609.586
        45.500          28.700
 125406201.208 7  97719135.07344  23864008.813                    23864009.703
        44.700          28.000
 116468585.295 7  90754748.80345  22163235.727                    22163237.313
        44.100          30.900
 18  3 15 13 14 59.0000000  0 18R01R02G11G12R09R10R11R20R18G17G22G01
                                G10R19G24G32G28G19
                  87438890.439 6  21030755.219                    21030759.176
                        36.500
                  85869712.688 6  20689647.914                    20689649.621
                        38.200
 120967338.502 7  94260270.95944  23019319.844                    23019320.992
        45.400          28.700
 121517031.389 6  94688636.43743  23123929.039                    23123933.629
        39.900          21.500
                  90430322.789 6  21773178.734                    21773178.285
                        37.700
                  79677675.782 5  19217995.375                    19217998.141
                        34.700
                  88595101.611 6  21316328.039                    21316330.160
                        39.100
                  96109782.502 6  23108159.438                    23108161.086
                        37.000
                  88624759.671 6  21345950.500                    21345952.344
                        38.800
 114974022.664 8  89590199.60545  21878839.438                    21878842.938
        48.500          32.500
 129339025.460 6 100783576.32444  24612375.742                    24612376.785
        40.000          24.400
 117001615.381 7  91170113.30745  22264667.641                    22264674.164
        45.300          35.600
 121480558.761 7  94660201.77645  23116984.297                    23116990.559
        44.900          32.000
                  84038401.134 6  20198692.023                    20198692.219
                        39.100
 109432247.267 7  85271903.06345  20824264.008                    20824270.023
        44.500          35.500
 120136467.317 7  93612854.51844  22861210.414                    22861215.125
        46.000          29.100
 125409823.846 7  97721957.90644  23864697.695                    23864699.813
        45.700          29.300
 116466303.306 7  90752970.63145  22162801.703                    22162802.703
        43.600          30.100
 18  3 15 13 15  0.0000000  0 18R01R02G11G12R09R10R11R20R18G17G22G01
                                G10R19G24G32G28G19
                  87441464.913 6  21031373.508                    21031379.199
                        36.600
                  85868481.853 6  20689350.867                    20689352.730
                        38.100
 120969884.320 7  94262254.71444  23019804.320                    23019805.477
        45.800          28.600
 121513667.551 6  94686015.22543  23123289.031                    23123293.180
        40.800          21.700
                  90433721.400 6  21773996.797                    21773996.719
                        38.200
                  79678229.186 5  19218128.719                    19218131.750
                        33.700
                  88592533.053 6  21315709.227                    21315712.145
                        39.400
                  96106565.602 6  23107384.555                    23107387.668
                        37.200
                  88627477.186 6  21346604.641                    21346607.895
                        38.300
 114973373.445 8  89589693.72245  21878716.148                    21878719.484
        48.600          33.600
 129336559.170 6 100781654.55044  24611906.445                    24611907.336
        40.000          25.000
 117002270.895 7  91170624.08345  22264792.078                    22264798.816
        44.900          35.000
 121483477.432 7  94662476.09545  23117540.063                    23117545.969
        45.300          32.100
                  84037766.694 6  20198539.742                    20198539.422
                        39.100
 109432855.157 7  85272376.74645  20824379.656                    20824385.902
        44.300          35.200
 120134393.884 7  93611238.84844  22860815.984                    22860820.520
        46.500          28.900
 125413446.704 7  97724780.93844  23865387.180                    23865389.020
        45.800          29.700
 116464021.895 7  90751192.90244  22162366.641                    22162369.148
        43.000          29.700
 18  3 15 13 15  1.0000000  0 18R01R02G11G12R09R10R11R20R18G17G22G01
                                G10R19G24G32G28G19
                  87444039.886 6  21031994.180                    21031997.684
                        36.600
                  85867251.650 6  20689053.641                    20689056.207
                        38.000
 120972430.703 7  94264238.91844  23020289.188                    23020289.871
        46.200          29.500
 121510303.939 6  94683394.20544  23122649.609                    23122653.324
        40.600          24.100
                  90437120.304 6  21774814.477                    21774814.801
                        38.100
                  79678783.229 5  19218261.633                    19218265.293
                        34.300
                  88589964.823 6  21315092.945                    21315094.422
                        39.200
                  96103348.967 6  23106610.070                    23106614.445
                        36.700
                  88630195.218 6  21347259.031                    21347260.805
                        37.600
 114972724.826 8  89589188.31145  21878592.805                    21878595.766
        48.800          33.300
 129334093.180 6 100779732.99643  24611437.602                    24611437.992
        39.700          23.000
 117002927.128 7  91171135.41345  22264916.992                    22264923.930
        45.100          35.700
 121486396.584 7  94664750.78645  23118095.672                    23118101.426
        45.700          32.100
                  84037132.935 6  20198387.234                    20198386.969
                        38.700
 109433463.667 7  85272850.91445  20824495.602                    20824501.992
        44.600          35.100
 120132320.904 7  93609623.53044  22860420.727                    22860426.551
        45.700          27.900
 125417069.763 7  97727604.13244  23866075.688                    23866079.141
        45.000          28.800
 116461741.012 7  90749415.58144  22161932.594                    22161934.578
        42.500          29.700
 18  3 15 13 15  2.0000000  0 18R01R02G11G12R09R10R11R20R18G17G22G01
                                G10R19G24G32G28G19
                  87446615.394 6  21032614.461                    21032617.758
                        36.700
                  85866022.096 6  20688758.242                    20688760.199
                        38.100
 120974977.708 7  94266223.59744  23020773.281                    23020774.598
        46.800          29.300
 121506940.620 6  94680773.44143  23122009.359                    23122013.453
        41.100          23.400
                  90440519.435 6  21775634.805                    21775633.430
                        38.300
                  79679337.943 5  19218396.289                    19218399.402
                        34.500
                  88587396.905 6  21314473.430                    21314475.754
                        39.500
                  96100132.461 5  23105837.750                    23105840.836
                        35.800
                  88632913.806 6  21347913.805                    21347914.832
                        37.700
 114972076.792 8  89588683.34445  21878469.867                    21878472.629
        48.200          33.400
 129331627.527 6 100777811.70943  24610968.180                    24610968.973
        39.500          23.600
 117003584.093 7  91171647.31046  22265042.172                    22265048.938
        45.100          36.100
 121489316.208 7  94667025.86145  23118651.078                    23118657.301
        46.500          33.400
                  84036499.876 6  20198234.766                    20198235.066
                        38.700
 109434072.869 7  85273325.61845  20824611.875                    20824617.813
        44.800          35.300
 120130248.398 7  93608008.58044  22860026.109                    22860032.422
        44.900          28.100
 125420693.049 7  97730427.48744  23866763.734                    23866768.789
        43.300          29.300
 116459460.696 7  90747638.71745  22161498.867                    22161501.090
        43.000          30.200
 18  3 15 13 15  3.0000000  0 18R01R02G11G12R09R10R11R20R18G17G22G01
                                G10R19G24G32G28G19
                  87449191.477 6  21033232.773                    21033237.234
                        36.900
                  85864793.212 6  20688462.367                    20688463.184
                        38.300
 120977525.378 7  94268208.79245  23021258.453                    23021259.383
        47.000          30.100
 121503577.609 6  94678152.93444  23121369.297                    23121373.547
        41.000          26.000
                  90443918.882 6  21776451.797                    21776452.391
                        38.500
                  79679893.320 5  19218529.906                    19218533.461
                        34.600
                  88584829.352 6  21313856.594                    21313858.402
                        39.300
                  96096916.184 5  23105065.008                    23105067.535
                        35.300
                  88635632.887 6  21348569.031                    21348568.934
                        37.300
 114971429.422 8  89588178.89945  21878346.031                    21878349.586
        48.100          33.500
 129329162.196 6 100775890.66243  24610499.336                    24610499.563
        39.400          23.800
 117004241.847 7  91172159.83745  22265167.156                    22265174.301
        45.200          34.800
 121492236.358 7  94669301.33945  23119206.422                    23119212.617
        46.400          33.000
                  84035867.561 6  20198082.906                    20198083.234
                        38.600
 109434682.801 7  85273800.88945  20824727.555                    20824733.637
        44.500          35.200
 120128176.383 7  93606394.02344  22859630.930                    22859637.793
        43.900          27.000
 125424316.600 7  97733251.03144  23867452.453                    23867457.969
        42.600          27.900
 116457180.974 7  90745862.31344  22161065.477                    22161067.156
        43.100          29.800
 18  3 15 13 15  4.0000000  0 18R01R02G11G12R09R10R11R20R18G17G22G01
                                G10R19G24G32G28G19
                  87451768.117 6  21033852.078                    21033856.508
                        36.300
                  85863564.924 6  20688166.398                    20688167.848
                        38.600
 120980073.583 7  94270194.39645  23021743.977                    23021744.699
        46.300          30.800
 121500214.825 6  94675532.61444  23120729.578                    23120733.629
        41.200          26.300
                  90447318.617 6  21777270.375                    21777270.457
                        38.600
                  79680449.322 5  19218663.742                    19218667.535
                        34.900
                  88582262.112 6  21313238.844                    21313240.418
                        39.400
                  96093700.043 5  23104291.414                    23104293.930
                        35.900
                  88638352.437 6  21349223.266                    21349222.941
                        37.300
 114970782.638 8  89587674.91445  21878223.102                    21878226.293
        48.400          34.000
 129326697.190 6 100773969.84944  24610029.773                    24610030.852
        39.600          24.600
 117004900.295 7  91172672.91045  22265292.398                    22265299.527
        45.500          35.500
 121495156.986 7  94671577.19645  23119761.852                    23119768.590
        46.200          33.300
                  84035235.924 6  20197931.594                    20197931.164
                        38.700
 109435293.352 7  85274276.63745  20824843.961                    20824849.711
        44.500          35.400
 120126104.854 7  93604779.84844  22859237.141                    22859243.961
        43.000          27.300
 125427940.321 7  97736074.68544  23868143.898                    23868147.488
        43.500          27.500
 116454901.796 7  90744086.33345  22160631.383                    22160633.340
        43.200          30.400
 18  3 15 13 15  5.0000000  0 18R01R02G11G12R09R10R11R20R18G17G22G01
                                G10R19G24G32G28G19
                  87454345.266 6  21034474.164                    21034476.219
                        36.600
                  85862337.232 6  20687870.289                    20687872.754
                        38.500
 120982622.430 7  94272180.50445  23022228.313                    23022229.422
        46.300          30.200
 121496852.320 6  94672912.51644  23120089.758                    23120093.867
        41.800          25.000
                  90450718.583 6  21778090.703                    21778089.492
                        38.700
                  79681005.974 5  19218798.211                    19218801.750
                        35.000
                  88579695.238 6  21312621.367                    21312623.316
                        39.400
                  96090484.064 6  23103517.758                    23103520.570
                        36.400
                  88641072.508 6  21349877.695                    21349877.383
                        37.600
 114970136.434 8  89587171.37445  21878099.930                    21878103.578
        48.600          33.800
 129324232.586 6 100772049.37343  24609561.156                    24609561.938
        39.000          22.800
 117005559.465 7  91173186.55645  22265418.063                    22265425.250
        45.200          35.100
 121498078.081 7  94673853.41845  23120317.328                    23120324.629
        45.200          31.900
                  84034605.002 6  20197780.234                    20197779.254
                        38.500
 109435904.588 7  85274752.92145  20824960.320                    20824966.281
        45.000          35.300
 120124033.814 7  93603166.05844  22858843.055                    22858849.789
        43.100          26.000
 125431564.182 7  97738898.45744  23868833.820                    23868837.270
        45.300          28.100
 116452623.170 7  90742310.79345  22160197.422                    22160199.750
        43.100          30.000
 18  3 15 13 15  6.0000000  0 18R01R02G11G12R09R10R11R20R18G17G22G01
                                G10R19G24G32G28G19
                  87456922.935 6  21035092.945                    21035096.516
                        36.300
                  85861110.151 6  20687574.148                    20687576.438
                        38.400
 120985171.844 7  94274167.05844  23022713.633                    23022715.027
        46.700          29.900
 121493490.055 7  94670292.58444  23119449.953                    23119454.258
        42.300          25.600
                  90454118.812 6  21778907.695                    21778908.148
                        38.400
                  79681563.271 5  19218932.789                    19218936.078
                        35.100
                  88577128.654 6  21312003.797                    21312005.438
                        39.400
                  96087268.317 6  23102744.148                    23102747.738
                        37.000
                  88643793.095 6  21350531.773                    21350532.340
                        38.500
 114969490.827 8  89586668.29945  21877976.984                    21877980.883
        48.800          33.200
 129321768.229 6 100770129.07943  24609091.242                    24609092.727
        39.000          22.600
 117006219.379 7  91173700.78345  22265543.836                    22265550.703
        45.600          35.700
 121500999.650 7  94676129.99145  23120873.086                    23120880.727
        45.400          32.400
                  84033974.780 6  20197628.227                    20197628.012
                        38.800
 109436516.472 7  85275229.71245  20825076.867                    20825082.359
        45.300          35.200
 120121963.277 7  93601552.67344  22858449.016                    22858455.434
        43.700          26.900
 125435188.228 7  97741722.40044  23869523.453                    23869526.598
        46.300          27.100
 116450345.069 7  90740535.65344  22159764.594                    22159766.297
        43.600          29.800
 18  3 15 13 15  7.0000000  0 18R01R02G11G12R09R10R11R20R18G17G22G01
                                G10R19G24G32G28G19
                  87459501.177 6  21035712.172                    21035717.078
                        36.500
                  85859883.727 6  20687278.164                    20687281.199
                        38.100
 120987721.897 7  94276154.10745  23023198.609                    23023200.602
        46.000          30.000
 121490128.114 7  94667672.90044  23118810.547                    23118814.633
        42.400          25.800
                  90457519.367 6  21779725.883                    21779726.988
                        38.500
                  79682121.229 5  19219067.359                    19219070.355
                        34.900
                  88574562.412 6  21311385.547                    21311388.047
                        39.400
                  96084052.751 6  23101970.492                    23101975.047
                        36.800
                  88646514.193 6  21351186.625                    21351188.387
                        38.900
 114968845.864 8  89586165.73145  21877854.352                    21877858.047
        48.800          33.400
 129319304.244 6 100768209.09143  24608622.781                    24608623.746
        38.400          22.600
 117006880.052 7  91174215.60545  22265669.641                    22265676.441
        45.500          35.600
 121503921.748 7  94678406.96145  23121429.547                    23121436.363
        44.900          31.700
                  84033345.297 6  20197477.375                    20197476.277
                        38.600
 109437129.041 7  85275707.03945  20825193.555                    20825199.074
        45.400          35.100
 120119893.278 7  93599939.70444  22858055.750                    22858061.035
        44.200          27.100
 125438812.482 7  97744546.53844  23870212.406                    23870215.840
        44.700          26.500
 116448067.572 7  90738760.98145  22159331.352                    22159333.230
        42.800          30.000
 18  3 15 13 15  8.0000000  0 18R01R02G11G12R09R10R11R20R18G17G22G01
                                G10R19G24G32G28G19
                  87462079.965 6  21036333.297                    21036337.363
                        36.500
                  85858657.957 6  20686983.492                    20686985.469
                        38.300
 120990272.586 7  94278141.65445  23023683.914                    23023685.684
        46.300          31.400
 121486766.416 7  94665053.39343  23118171.328                    23118174.258
        42.000          22.800
                  90460920.224 6  21780545.336                    21780545.051
                        38.500
                  79682679.854 5  19219202.414                    19219205.391
                        35.200
                  88571996.521 6  21310768.852                    21310770.141
                        39.100
                  96080837.443 6  23101196.523                    23101201.738
                        36.800
                  88649235.793 6  21351842.234                    21351844.086
                        39.600
 114968201.510 8  89585663.63945  21877731.734                    21877735.094
        48.500          32.800
 129316840.629 6 100766289.38343  24608154.320                    24608155.172
        38.700          22.800
 117007541.494 7  91174731.02446  22265795.141                    22265802.207
        45.100          36.100
 121506844.327 7  94680684.30645  23121985.375                    23121992.289
        45.300          32.600
                  84032716.507 6  20197326.211                    20197325.688
                        38.900
 109437742.289 7  85276184.89545  20825309.906                    20825315.660
        46.100          34.800
 120117823.764 7  93598327.10044  22857662.070                    22857667.699
        44.300          27.200
 125442436.987 6  97747370.87344  23870899.813                    23870906.082
        41.400          26.500
 116445790.610 7  90736986.72045  22158897.391                    22158899.781
        42.600          30.100
 18  3 15 13 15  9.0000000  0 18R01R02G11G12R09R10R11R20R18G17G22G01
                                G10R19G24G32G28G19
                  87464659.287 6  21036954.039                    21036956.922
                        36.800
                  85857432.851 6  20686688.930                    20686690.172
                        38.100
 120992823.879 7  94280129.67745  23024169.672                    23024171.320
        46.400          30.400
 121483405.043 6  94662434.09843  23117531.453                    23117534.438
        41.600          23.400
                  90464321.284 6  21781365.773                    21781364.348
                        38.700
                  79683239.158 5  19219336.688                    19219340.453
                        34.800
                  88569430.973 6  21310150.852                    21310153.598
                        38.900
                  96077622.337 6  23100423.273                    23100428.938
                        36.900
                  88651957.914 6  21352496.836                    21352500.250
                        39.900
 114967557.763 8  89585162.01445  21877609.602                    21877612.758
        48.500          33.400
 129314377.329 6 100764369.93443  24607685.828                    24607686.484
        38.400          22.900
 117008203.621 7  91175246.98046  22265921.258                    22265928.871
        45.200          36.000
 121509767.428 7  94682962.06045  23122541.867                    23122548.324
        45.300          32.700
                  84032088.462 6  20197175.664                    20197174.711
                        38.900
 109438356.186 7  85276663.26545  20825426.727                    20825432.602
        46.200          34.700
 120115754.752 7  93596714.89144  22857268.547                    22857273.730
        44.500          26.900
 125446061.781 6  97750195.40044  23871589.688                    23871595.391
        38.900          26.500
 116443514.266 7  90735212.94745  22158464.789                    22158466.664
        42.800          30.600
 18  3 15 13 15 10.0000000  0 18R01R02G11G12R09R10R11R20R18G17G22G01
                                G10R19G24G32G28G19
                  87467239.155 6  21037573.789                    21037578.105
                        36.500
                  85856208.444 6  20686393.813                    20686395.711
                        38.500
 120995375.812 7  94282118.19645  23024655.164                    23024657.281
        46.300          30.800
 121480043.933 6  94659815.00944  23116891.422                    23116894.555
        41.400          24.900
                  90467722.666 6  21782182.008                    21782183.313
                        38.600
                  79683799.136 5  19219471.898                    19219475.547
                        34.100
                  88566865.781 6  21309534.266                    21309536.488
                        38.900
                  96074407.495 6  23099650.609                    23099656.496
                        37.000
                  88654680.534 6  21353153.109                    21353156.984
                        40.200
 114966914.652 8  89584660.88945  21877487.367                    21877490.766
        48.500          33.000
 129311914.333 6 100762450.71443  24607216.727                    24607217.656
        38.400          22.800
 117008866.511 7  91175763.53145  22266047.664                    22266054.566
        45.500          35.300
 121512691.012 7  94685240.19245  23123098.523                    23123105.035
        45.400          31.700
                  84031461.124 6  20197024.570                    20197023.879
                        38.900
 109438970.767 7  85277142.15745  20825543.695                    20825549.633
        45.900          35.100
 120113686.253 7  93595103.05444  22856874.617                    22856879.891
        44.900          26.200
 125449686.782 6  97753020.01944  23872282.391                    23872284.566
        41.400          24.100
 116441238.460 7  90733439.58644  22158031.961                    22158033.754
        42.800          29.700
 18  3 15 13 15 11.0000000  0 18R01R02G11G12R09R10R11R20R18G17G22G01
                                G10R19G24G32G28G19
                  87469819.551 6  21038195.000                    21038198.402
                        36.700
                  85854984.627 6  20686098.672                    20686100.375
                        38.300
 120997928.315 7  94284107.17245  23025140.281                    23025142.512
        45.900          31.000
 121476683.063 6  94657196.10944  23116251.156                    23116255.105
        40.300          25.400
                  90471124.349 6  21783000.961                    21783002.621
                        38.600
                  79684359.759 5  19219606.844                    19219610.613
                        34.700
                  88564300.881 6  21308916.570                    21308919.039
                        38.900
                  96071192.738 6  23098877.711                    23098882.844
                        36.100
                  88657403.653 6  21353809.953                    21353813.516
                        40.800
 114966272.104 8  89584160.20745  21877364.703                    21877368.215
        48.700          33.600
 129309451.677 6 100760531.75344  24606748.359                    24606749.047
        38.100          24.800
 117009530.143 7  91176280.65846  22266173.734                    22266180.805
        45.900          36.000
 121515615.070 7  94687518.70745  23123654.602                    23123661.543
        45.100          32.300
                  84030834.486 6  20196873.781                    20196873.156
                        38.900
 109439586.004 7  85277621.56345  20825660.781                    20825666.871
        46.300          35.300
 120111618.251 7  93593491.60744  22856481.297                    22856486.469
        44.900          27.600
 125453311.870 7  97755844.70744  23872973.719                    23872974.328
        44.100          25.800
 116438963.188 7  90731666.64845  22157598.383                    22157600.320
        42.800          30.800
 18  3 15 13 15 12.0000000  0 18R01R02G11G12R09R10R11R20R18G17G22G01
                                G10R19G24G32G28G19
                  87472400.498 6  21038815.695                    21038818.738
                        37.000
                  85853761.421 6  20685802.992                    20685806.184
                        38.600
 121000481.409 7  94286096.60045  23025626.430                    23025629.063
        46.500          30.200
 121473322.411 6  94654577.39544  23115611.758                    23115616.102
        40.300          25.700
                  90474526.258 6  21783821.391                    21783821.484
                        38.800
                  79684921.029 5  19219742.602                    19219746.152
                        35.000
                  88561736.286 6  21308300.109                    21308302.543
                        39.100
                  96067978.227 5  23098105.531                    23098110.008
                        35.600
                  88660127.241 6  21354466.977                    21354470.172
                        40.900
 114965630.149 8  89583659.98745  21877242.680                    21877246.004
        48.800          33.500
 129306989.335 6 100758613.05443  24606279.461                    24606280.098
        38.400          22.300
 117010194.445 7  91176798.31346  22266300.609                    22266307.492
        46.000          36.100
 121518539.552 7  94689797.55045  23124211.219                    23124218.027
        44.900          32.200
                  84030208.564 6  20196723.008                    20196723.133
                        39.100
 109440201.874 7  85278101.46145  20825777.641                    20825784.016
        45.900          35.800
 120109550.688 7  93591880.50844  22856087.336                    22856092.660
        44.900          28.600
 125456937.116 7  97758669.56044  23873663.250                    23873664.645
        45.100          26.900
 116436688.454 7  90729894.13045  22157166.258                    22157167.648
        43.000          30.200
 18  3 15 13 15 13.0000000  0 18R01R02G11G12R09R10R11R20R18G17G22G01
                                G10R19G24G32G28G19
                  87474981.968 6  21039436.180                    21039439.949
                        36.700
                  85852538.840 6  20685508.586                    20685511.230
                        38.500
 121003035.115 7  94288086.50845  23026112.195                    23026114.809
        46.200          31.000
 121469962.066 6  94651958.95244  23114971.633                    23114976.609
        39.800          25.200
                  90477928.402 6  21784642.813                    21784640.445
                        38.600
                  79685482.950 5  19219877.859                    19219881.645
                        34.400
                  88559172.057 6  21307683.523                    21307685.184
                        39.100
                  96064763.853 5  23097333.086                    23097335.590
                        35.400
                  88662851.321 6  21355123.852                    21355126.555
                        40.400
 114964988.800 8  89583160.23645  21877120.531                    21877123.570
        48.700          33.300
 129304527.346 6 100756694.63043  24605811.414                    24605812.070
        38.500          23.800
 117010859.484 7  91177316.53945  22266427.164                    22266433.996
        46.000          35.800
 121521464.568 7  94692076.80745  23124767.547                    23124774.758
        45.100          31.800
                  84029583.364 6  20196573.188                    20196572.742
                        39.100
 109440818.438 7  85278581.90145  20825895.250                    20825901.152
        45.700          35.900
 120107483.685 7  93590269.86044  22855694.227                    22855699.609
