% program   : RTKPOST ver.2.4.2
% inp file  : Z:\home\linda\Documents\Spring18\GitHub_Unis\data\processed_data\4625074I.obs
% inp file  : Z:\home\linda\Documents\Spring18\GitHub_Unis\data\base_station_data\lyrs0740.18o
% inp file  : Z:\home\linda\Documents\Spring18\GitHub_Unis\data\processed_data\4625074I.nav
% obs start : 2018/03/15 14:07:50.0 GPST (week1992 396470.0s)
% obs end   : 2018/03/15 14:22:55.0 GPST (week1992 397375.0s)
% pos mode  : static
% freqs     : L1+L2
% solution  : forward
% elev mask : 15.0 deg
% dynamics  : on
% tidecorr  : off
% ionos opt : iono-free
% tropo opt : saastamoinen
% ephemeris : broadcast
% navi sys  : gps glonass galileo qzss sbas
% amb res   : fix and hold
% amb glo   : on
% val thres : 3.0
% antenna1  :                       ( 0.0000  0.0000  0.0000)
% antenna2  :                       ( 0.0000  0.0000  0.0000)
% ref pos   : 78.228825638   15.397310064   495.6816
%
% (lat/lon/height=WGS84/ellipsoidal,Q=1:fix,2:float,3:sbas,4:dgps,5:single,6:ppp,ns=# of satellites)
%  GPST                  latitude(deg) longitude(deg)  height(m)   Q  ns   sdn(m)   sde(m)   sdu(m)  sdne(m)  sdeu(m)  sdun(m) age(s)  ratio
2018/03/15 14:07:50.000   78.251293314   16.154770704   559.5441   2   8   1.5746   1.0601   8.0450  -0.6882  -1.8443   3.2174   0.00    1.5
2018/03/15 14:07:51.000   78.251299503   16.154791796   558.4593   2   8   1.1275   0.7523   5.7926  -0.4969  -1.3282   2.3168   0.00    1.2
2018/03/15 14:07:52.000   78.251296298   16.154800357   556.4786   2   8   0.9234   0.6148   4.7509  -0.4078  -1.0893   1.9001   0.00    1.1
2018/03/15 14:07:53.000   78.251296272   16.154785036   558.0348   2   8   0.7999   0.5325   4.1160  -0.3533  -0.9437   1.6460   0.00    1.3
2018/03/15 14:07:54.000   78.251301982   16.154788988   559.7469   2   8   0.7145   0.4761   3.6750  -0.3153  -0.8425   1.4695   0.00    1.4
2018/03/15 14:07:55.000   78.251305584   16.154770117   561.3941   2   8   0.6507   0.4344   3.3440  -0.2867  -0.7666   1.3370   0.00    1.6
2018/03/15 14:07:56.000   78.251305517   16.154754758   562.5554   2   8   0.6005   0.4018   3.0825  -0.2641  -0.7066   1.2323   0.00    1.8
2018/03/15 14:07:57.000   78.251308504   16.154756155   563.4807   2   8   0.5596   0.3755   2.8681  -0.2455  -0.6573   1.1464   0.00    1.7
2018/03/15 14:07:58.000   78.251307072   16.154745366   563.1244   2   8   0.5252   0.3536   2.6873  -0.2297  -0.6159   1.0739   0.00    1.8
2018/03/15 14:07:59.000   78.251306586   16.154742094   563.3605   2   8   0.4958   0.3351   2.5315  -0.2162  -0.5801   1.0115   0.00    1.8
2018/03/15 14:08:00.000   78.251307984   16.154738500   563.8940   2   8   0.4701   0.3191   2.3951  -0.2042  -0.5488   0.9567   0.00    1.8
2018/03/15 14:08:01.000   78.251307362   16.154733293   563.8662   2   8   0.4474   0.3050   2.2739  -0.1936  -0.5210   0.9081   0.00    1.9
2018/03/15 14:08:02.000   78.251308076   16.154734721   564.4859   2   8   0.4271   0.2926   2.1650  -0.1840  -0.4961   0.8644   0.00    1.8
2018/03/15 14:08:03.000   78.251307774   16.154736093   564.6034   2   8   0.4088   0.2815   2.0663  -0.1753  -0.4734   0.8247   0.00    1.7
2018/03/15 14:08:04.000   78.251307086   16.154740561   564.0781   2   8   0.3922   0.2715   1.9760  -0.1673  -0.4527   0.7884   0.00    1.6
2018/03/15 14:08:05.000   78.251305192   16.154745363   563.5953   2   8   0.3769   0.2624   1.8929  -0.1600  -0.4337   0.7551   0.00    1.5
2018/03/15 14:08:06.000   78.251304640   16.154749015   563.3388   2   8   0.3629   0.2542   1.8161  -0.1532  -0.4161   0.7242   0.00    1.4
2018/03/15 14:08:07.000   78.251304361   16.154750899   562.8525   2   8   0.3499   0.2465   1.7447  -0.1468  -0.3997   0.6954   0.00    1.4
2018/03/15 14:08:08.000   78.251303360   16.154750353   562.3613   2   8   0.3378   0.2395   1.6780  -0.1408  -0.3844   0.6686   0.00    1.3
2018/03/15 14:08:09.000   78.251304450   16.154747822   562.7676   2   8   0.3265   0.2330   1.6155  -0.1353  -0.3701   0.6434   0.00    1.3
2018/03/15 14:08:10.000   78.251304873   16.154748966   562.7177   2   8   0.3160   0.2270   1.5569  -0.1300  -0.3567   0.6198   0.00    1.3
2018/03/15 14:08:11.000   78.251305282   16.154748311   562.9171   2   8   0.3061   0.2213   1.5016  -0.1251  -0.3440   0.5975   0.00    1.3
2018/03/15 14:08:12.000   78.251305994   16.154748223   563.3817   2   8   0.2968   0.2161   1.4494  -0.1204  -0.3321   0.5765   0.00    1.3
2018/03/15 14:08:13.000   78.251305799   16.154749759   563.3331   2   8   0.2880   0.2111   1.4001  -0.1159  -0.3208   0.5566   0.00    1.2
2018/03/15 14:08:14.000   78.251306180   16.154748710   563.5229   2   8   0.2797   0.2065   1.3534  -0.1117  -0.3101   0.5378   0.00    1.3
2018/03/15 14:08:15.000   78.251305981   16.154750454   563.5840   2   8   0.2719   0.2021   1.3090  -0.1077  -0.2999   0.5199   0.00    1.2
2018/03/15 14:08:16.000   78.251306145   16.154751257   563.6305   2   8   0.2644   0.1979   1.2669  -0.1039  -0.2903   0.5029   0.00    1.2
2018/03/15 14:08:17.000   78.251305937   16.154751079   563.6380   2   8   0.2574   0.1940   1.2268  -0.1002  -0.2811   0.4867   0.00    1.2
2018/03/15 14:08:18.000   78.251305917   16.154752821   563.6396   2   8   0.2507   0.1902   1.1886  -0.0968  -0.2724   0.4713   0.00    1.2
2018/03/15 14:08:19.000   78.251306323   16.154750321   564.0080   2   8   0.2443   0.1867   1.1522  -0.0935  -0.2640   0.4566   0.00    1.2
2018/03/15 14:08:20.000   78.251306446   16.154750959   564.0952   2   8   0.2383   0.1833   1.1175  -0.0903  -0.2561   0.4425   0.00    1.3
2018/03/15 14:08:21.000   78.251306653   16.154751043   564.1758   2   8   0.2325   0.1801   1.0844  -0.0873  -0.2485   0.4291   0.00    1.3
2018/03/15 14:08:22.000   78.251306418   16.154749851   564.1250   2   8   0.2270   0.1771   1.0527  -0.0844  -0.2413   0.4163   0.00    1.3
2018/03/15 14:08:23.000   78.251306514   16.154749143   564.1353   2   8   0.2217   0.1741   1.0224  -0.0816  -0.2343   0.4041   0.00    1.3
2018/03/15 14:08:24.000   78.251306764   16.154746831   564.3265   2   8   0.2167   0.1713   0.9934  -0.0790  -0.2277   0.3923   0.00    1.3
2018/03/15 14:08:25.000   78.251306418   16.154745700   564.3432   2   8   0.2119   0.1686   0.9656  -0.0764  -0.2214   0.3811   0.00    1.3
2018/03/15 14:08:26.000   78.251306607   16.154745389   564.4968   2   8   0.2073   0.1661   0.9390  -0.0740  -0.2153   0.3703   0.00    1.4
2018/03/15 14:08:27.000   78.251306491   16.154747115   564.5054   2   8   0.2028   0.1636   0.9135  -0.0716  -0.2094   0.3600   0.00    1.3
2018/03/15 14:08:28.000   78.251306398   16.154747459   564.4951   2   8   0.1986   0.1612   0.8890  -0.0694  -0.2039   0.3501   0.00    1.3
2018/03/15 14:08:29.000   78.251306167   16.154746990   564.3119   2   8   0.1946   0.1589   0.8655  -0.0672  -0.1985   0.3406   0.00    1.3
2018/03/15 14:08:30.000   78.251306365   16.154747850   564.1570   2   8   0.1907   0.1567   0.8429  -0.0652  -0.1933   0.3314   0.00    1.3
2018/03/15 14:08:31.000   78.251306101   16.154748563   564.0214   2   8   0.1869   0.1546   0.8213  -0.0632  -0.1884   0.3227   0.00    1.2
2018/03/15 14:08:32.000   78.251305756   16.154749567   563.8065   2   8   0.1833   0.1526   0.8004  -0.0613  -0.1836   0.3142   0.00    1.2
2018/03/15 14:08:33.000   78.251306026   16.154750104   563.9259   2   8   0.1799   0.1506   0.7804  -0.0594  -0.1791   0.3061   0.00    1.2
2018/03/15 14:08:34.000   78.251305851   16.154749873   563.8908   2   8   0.1766   0.1487   0.7612  -0.0576  -0.1747   0.2983   0.00    1.2
2018/03/15 14:08:35.000   78.251305987   16.154748772   564.0304   2   8   0.1734   0.1468   0.7426  -0.0559  -0.1704   0.2908   0.00    1.2
2018/03/15 14:08:36.000   78.251306122   16.154748734   564.1571   2   8   0.1703   0.1450   0.7248  -0.0543  -0.1664   0.2835   0.00    1.1
2018/03/15 14:08:37.000   78.251305796   16.154749193   564.1072   2   8   0.1673   0.1433   0.7076  -0.0527  -0.1624   0.2766   0.00    1.1
2018/03/15 14:08:38.000   78.251305734   16.154748557   564.0687   2   8   0.1645   0.1416   0.6910  -0.0512  -0.1586   0.2699   0.00    1.1
2018/03/15 14:08:39.000   78.251305576   16.154749185   564.0459   2   8   0.1617   0.1400   0.6750  -0.0497  -0.1550   0.2634   0.00    1.1
2018/03/15 14:08:40.000   78.251305666   16.154749471   563.9707   2   8   0.1590   0.1384   0.6596  -0.0483  -0.1515   0.2571   0.00    1.1
2018/03/15 14:08:41.000   78.251305442   16.154748864   563.8655   2   8   0.1565   0.1369   0.6448  -0.0469  -0.1481   0.2511   0.00    1.0
2018/03/15 14:08:42.000   78.251305354   16.154748715   563.7812   2   8   0.1540   0.1354   0.6304  -0.0456  -0.1448   0.2453   0.00    1.0
2018/03/15 14:08:43.000   78.251305496   16.154748605   563.7398   2   8   0.1516   0.1340   0.6166  -0.0443  -0.1417   0.2397   0.00    1.0
2018/03/15 14:08:44.000   78.251305397   16.154748117   563.7657   2   8   0.1493   0.1326   0.6032  -0.0431  -0.1386   0.2342   0.00    1.1
2018/03/15 14:08:45.000   78.251305618   16.154748869   563.8669   2   8   0.1470   0.1312   0.5903  -0.0419  -0.1357   0.2290   0.00    1.1
2018/03/15 14:08:46.000   78.251305426   16.154748920   563.8680   2   8   0.1448   0.1299   0.5778  -0.0407  -0.1328   0.2239   0.00    1.1
2018/03/15 14:08:47.000   78.251305584   16.154748747   563.9138   2   8   0.1427   0.1286   0.5657  -0.0396  -0.1301   0.2190   0.00    1.1
2018/03/15 14:08:48.000   78.251305685   16.154748662   563.9981   2   8   0.1407   0.1273   0.5541  -0.0385  -0.1274   0.2143   0.00    1.1
2018/03/15 14:08:49.000   78.251305612   16.154748754   563.9514   2   8   0.1387   0.1261   0.5428  -0.0375  -0.1248   0.2097   0.00    1.1
2018/03/15 14:08:50.000   78.251305711   16.154747896   563.9190   2   8   0.1368   0.1249   0.5318  -0.0365  -0.1223   0.2052   0.00    1.1
2018/03/15 14:08:51.000   78.251305714   16.154747871   563.8368   2   8   0.1349   0.1237   0.5212  -0.0355  -0.1199   0.2009   0.00    1.1
2018/03/15 14:08:52.000   78.251305624   16.154747291   563.8490   2   8   0.1331   0.1226   0.5110  -0.0346  -0.1176   0.1968   0.00    1.1
2018/03/15 14:08:53.000   78.251305780   16.154747120   563.9097   2   8   0.1314   0.1214   0.5011  -0.0337  -0.1153   0.1927   0.00    1.1
2018/03/15 14:08:54.000   78.251305675   16.154746812   563.9144   2   8   0.1296   0.1204   0.4914  -0.0328  -0.1131   0.1888   0.00    1.1
2018/03/15 14:08:55.000   78.251305539   16.154746742   563.9044   2   8   0.1280   0.1193   0.4821  -0.0319  -0.1110   0.1850   0.00    1.1
2018/03/15 14:08:56.000   78.251305582   16.154747036   563.8246   2   8   0.1264   0.1182   0.4731  -0.0311  -0.1089   0.1813   0.00    1.1
2018/03/15 14:08:57.000   78.251305552   16.154746255   563.7903   2   8   0.1248   0.1172   0.4643  -0.0303  -0.1069   0.1778   0.00    1.2
2018/03/15 14:08:58.000   78.251305514   16.154746904   563.7815   2   8   0.1233   0.1162   0.4558  -0.0296  -0.1050   0.1743   0.00    1.2
2018/03/15 14:08:59.000   78.251305708   16.154748034   563.7899   2   8   0.1218   0.1152   0.4475  -0.0288  -0.1031   0.1710   0.00    1.2
2018/03/15 14:09:00.000   78.251305645   16.154747811   563.7445   2   8   0.1204   0.1143   0.4395  -0.0281  -0.1013   0.1677   0.00    1.2
2018/03/15 14:09:01.000   78.251305505   16.154747370   563.7190   2   8   0.1189   0.1133   0.4317  -0.0274  -0.0995   0.1645   0.00    1.2
2018/03/15 14:09:02.000   78.251305577   16.154746464   563.7056   2   8   0.1176   0.1124   0.4241  -0.0267  -0.0978   0.1615   0.00    1.2
2018/03/15 14:09:03.000   78.251305399   16.154745575   563.6843   2   8   0.1162   0.1115   0.4168  -0.0261  -0.0961   0.1585   0.00    1.2
2018/03/15 14:09:04.000   78.251305419   16.154745554   563.6874   2   8   0.1149   0.1106   0.4096  -0.0254  -0.0944   0.1556   0.00    1.2
2018/03/15 14:09:05.000   78.251305381   16.154745015   563.6433   2   8   0.1137   0.1098   0.4027  -0.0248  -0.0929   0.1527   0.00    1.2
2018/03/15 14:09:06.000   78.251305264   16.154744749   563.6442   2   8   0.1124   0.1089   0.3959  -0.0242  -0.0913   0.1500   0.00    1.2
2018/03/15 14:09:07.000   78.251305311   16.154745516   563.6628   2   8   0.1112   0.1081   0.3893  -0.0236  -0.0898   0.1473   0.00    1.2
2018/03/15 14:09:08.000   78.251305201   16.154745517   563.6613   2   8   0.1100   0.1073   0.3829  -0.0231  -0.0884   0.1447   0.00    1.2
2018/03/15 14:09:09.000   78.251305242   16.154745182   563.6922   2   8   0.1089   0.1065   0.3767  -0.0225  -0.0869   0.1422   0.00    1.2
2018/03/15 14:09:10.000   78.251305315   16.154744521   563.7334   2   8   0.1077   0.1057   0.3707  -0.0220  -0.0856   0.1397   0.00    1.2
2018/03/15 14:09:11.000   78.251305438   16.154744037   563.7835   2   8   0.1066   0.1049   0.3648  -0.0215  -0.0842   0.1373   0.00    1.1
2018/03/15 14:09:12.000   78.251305496   16.154744168   563.8150   2   8   0.1055   0.1041   0.3590  -0.0210  -0.0829   0.1350   0.00    1.1
2018/03/15 14:09:13.000   78.251305462   16.154743658   563.8225   2   8   0.1045   0.1034   0.3534  -0.0205  -0.0816   0.1327   0.00    1.1
2018/03/15 14:09:14.000   78.251305459   16.154742713   563.8647   2   8   0.1034   0.1027   0.3480  -0.0201  -0.0804   0.1305   0.00    1.1
2018/03/15 14:09:15.000   78.251305422   16.154742866   563.8540   2   8   0.1024   0.1019   0.3427  -0.0196  -0.0792   0.1284   0.00    1.1
2018/03/15 14:09:16.000   78.251305395   16.154742349   563.8493   2   8   0.1014   0.1012   0.3375  -0.0192  -0.0780   0.1263   0.00    1.1
2018/03/15 14:09:17.000   78.251305288   16.154742063   563.8271   2   8   0.1005   0.1005   0.3324  -0.0188  -0.0768   0.1242   0.00    1.1
2018/03/15 14:09:18.000   78.251305258   16.154742456   563.8081   2   8   0.0995   0.0998   0.3275  -0.0184  -0.0757   0.1222   0.00    1.1
2018/03/15 14:09:19.000   78.251305235   16.154742274   563.8011   2   8   0.0986   0.0992   0.3227  -0.0180  -0.0746   0.1203   0.00    1.1
2018/03/15 14:09:20.000   78.251305182   16.154741929   563.8116   2   8   0.0977   0.0985   0.3180  -0.0176  -0.0735   0.1184   0.00    1.1
2018/03/15 14:09:21.000   78.251305288   16.154741805   563.8375   2   7   0.0969   0.0978   0.3140  -0.0171  -0.0724   0.1166   0.00    1.1
2018/03/15 14:09:22.000   78.251305303   16.154742344   563.8435   2   7   0.0960   0.0972   0.3101  -0.0166  -0.0712   0.1149   0.00    1.1
2018/03/15 14:09:23.000   78.251305238   16.154742881   563.8414   2   7   0.0952   0.0966   0.3062  -0.0162  -0.0701   0.1132   0.00    1.1
2018/03/15 14:09:24.000   78.251305179   16.154743432   563.8368   2   7   0.0944   0.0960   0.3024  -0.0157  -0.0690   0.1115   0.00    1.1
2018/03/15 14:09:25.000   78.251305219   16.154743869   563.8564   2   7   0.0937   0.0953   0.2987  -0.0153  -0.0679   0.1099   0.00    1.1
2018/03/15 14:09:26.000   78.251305267   16.154742980   563.8545   2   7   0.0929   0.0947   0.2951  -0.0148  -0.0669   0.1083   0.00    1.8
2018/03/15 14:09:27.000   78.251305287   16.154742719   563.8514   2   8   0.0921   0.0942   0.2914  -0.0145  -0.0658   0.1068   0.00    1.5
2018/03/15 14:09:28.000   78.251305424   16.154743266   563.8648   2   8   0.0913   0.0936   0.2879  -0.0141  -0.0648   0.1053   0.00    2.0
2018/03/15 14:09:29.000   78.251305300   16.154743181   563.8661   2   8   0.0906   0.0930   0.2844  -0.0138  -0.0638   0.1039   0.00    2.2
2018/03/15 14:09:30.000   78.251305276   16.154742500   563.9392   2   8   0.0898   0.0924   0.2810  -0.0134  -0.0628   0.1024   0.00    2.2
2018/03/15 14:09:31.000   78.251305389   16.154742375   563.8791   2   8   0.0891   0.0919   0.2776  -0.0131  -0.0618   0.1011   0.00    2.2
2018/03/15 14:09:32.000   78.251305347   16.154741662   563.8847   2   8   0.0884   0.0913   0.2743  -0.0128  -0.0608   0.0997   0.00    2.1
2018/03/15 14:09:33.000   78.251305492   16.154741487   563.8838   2   8   0.0877   0.0908   0.2711  -0.0125  -0.0599   0.0984   0.00    2.1
2018/03/15 14:09:34.000   78.251305537   16.154741207   563.8731   2   8   0.0870   0.0902   0.2679  -0.0122  -0.0590   0.0971   0.00    2.1
2018/03/15 14:09:35.000   78.251305629   16.154741277   563.8828   2   8   0.0863   0.0897   0.2648  -0.0119  -0.0581   0.0958   0.00    2.0
2018/03/15 14:09:36.000   78.251305637   16.154741680   563.8864   2   8   0.0856   0.0892   0.2617  -0.0116  -0.0572   0.0945   0.00    2.0
2018/03/15 14:09:37.000   78.251305599   16.154742117   563.8580   2   8   0.0849   0.0887   0.2588  -0.0114  -0.0563   0.0933   0.00    2.0
2018/03/15 14:09:38.000   78.251305596   16.154742301   563.8516   2   8   0.0843   0.0882   0.2558  -0.0111  -0.0555   0.0921   0.00    2.0
2018/03/15 14:09:39.000   78.251305550   16.154742560   563.8197   2   8   0.0836   0.0877   0.2529  -0.0109  -0.0546   0.0909   0.00    1.9
2018/03/15 14:09:40.000   78.251305594   16.154742829   563.8117   2   8   0.0830   0.0872   0.2501  -0.0106  -0.0538   0.0897   0.00    1.9
2018/03/15 14:09:41.000   78.251305632   16.154742605   563.8075   2   8   0.0824   0.0867   0.2473  -0.0104  -0.0530   0.0886   0.00    1.9
2018/03/15 14:09:42.000   78.251305639   16.154742492   563.7930   2   8   0.0818   0.0862   0.2446  -0.0102  -0.0522   0.0875   0.00    1.8
2018/03/15 14:09:43.000   78.251305677   16.154742527   563.7847   2   8   0.0811   0.0857   0.2419  -0.0100  -0.0515   0.0864   0.00    1.8
2018/03/15 14:09:44.000   78.251305620   16.154742187   563.7757   2   8   0.0805   0.0853   0.2393  -0.0098  -0.0507   0.0853   0.00    1.8
2018/03/15 14:09:45.000   78.251305624   16.154742280   563.7796   2   8   0.0800   0.0848   0.2367  -0.0096  -0.0500   0.0843   0.00    1.8
2018/03/15 14:09:46.000   78.251305608   16.154742302   563.7756   2   8   0.0794   0.0843   0.2341  -0.0094  -0.0492   0.0832   0.00    1.7
2018/03/15 14:09:47.000   78.251305600   16.154742219   563.7740   2   8   0.0788   0.0839   0.2316  -0.0092  -0.0485   0.0822   0.00    1.7
2018/03/15 14:09:48.000   78.251305634   16.154742328   563.7636   2   8   0.0782   0.0834   0.2292  -0.0090  -0.0478   0.0812   0.00    1.7
2018/03/15 14:09:49.000   78.251305537   16.154742539   563.7407   2   8   0.0777   0.0830   0.2268  -0.0089  -0.0471   0.0802   0.00    1.7
2018/03/15 14:09:50.000   78.251305518   16.154742546   563.7328   2   8   0.0771   0.0826   0.2244  -0.0087  -0.0465   0.0792   0.00    1.7
2018/03/15 14:09:51.000   78.251305501   16.154743031   563.7175   2   8   0.0766   0.0821   0.2221  -0.0086  -0.0458   0.0783   0.00    1.7
2018/03/15 14:09:52.000   78.251305504   16.154742866   563.6885   2   8   0.0761   0.0817   0.2198  -0.0085  -0.0451   0.0774   0.00    1.6
2018/03/15 14:09:53.000   78.251305502   16.154742908   563.6917   2   8   0.0755   0.0813   0.2175  -0.0083  -0.0445   0.0764   0.00    1.6
2018/03/15 14:09:54.000   78.251305478   16.154742953   563.6817   2   8   0.0750   0.0809   0.2153  -0.0082  -0.0439   0.0756   0.00    1.6
2018/03/15 14:09:55.000   78.251305547   16.154743041   563.6743   2   8   0.0745   0.0805   0.2132  -0.0081  -0.0433   0.0747   0.00    1.6
2018/03/15 14:09:56.000   78.251305498   16.154743311   563.6549   2   8   0.0740   0.0800   0.2110  -0.0080  -0.0427   0.0738   0.00    1.6
2018/03/15 14:09:57.000   78.251305485   16.154743109   563.6545   2   8   0.0735   0.0796   0.2089  -0.0079  -0.0421   0.0729   0.00    1.6
2018/03/15 14:09:58.000   78.251305507   16.154742732   563.6541   2   8   0.0730   0.0792   0.2069  -0.0078  -0.0415   0.0721   0.00    1.5
2018/03/15 14:09:59.000   78.251305478   16.154742238   563.6671   2   8   0.0725   0.0788   0.2048  -0.0077  -0.0409   0.0713   0.00    1.5
2018/03/15 14:10:00.000   78.251305506   16.154742159   563.6695   2   8   0.0720   0.0785   0.2028  -0.0076  -0.0403   0.0705   0.00    1.5
2018/03/15 14:10:01.000   78.251305455   16.154742301   563.6618   2   8   0.0716   0.0781   0.2009  -0.0076  -0.0398   0.0697   0.00    1.5
2018/03/15 14:10:02.000   78.251305470   16.154742412   563.6573   2   8   0.0711   0.0777   0.1989  -0.0075  -0.0392   0.0689   0.00    1.5
2018/03/15 14:10:03.000   78.251305447   16.154742845   563.6352   2   8   0.0706   0.0773   0.1970  -0.0075  -0.0387   0.0681   0.00    1.5
2018/03/15 14:10:04.000   78.251305420   16.154742879   563.6160   2   8   0.0702   0.0769   0.1952  -0.0074  -0.0382   0.0674   0.00    1.5
2018/03/15 14:10:05.000   78.251305350   16.154742964   563.6133   2   8   0.0697   0.0766   0.1933  -0.0074  -0.0377   0.0666   0.00    1.5
2018/03/15 14:10:06.000   78.251305364   16.154743123   563.6099   2   8   0.0693   0.0762   0.1915  -0.0073  -0.0372   0.0659   0.00    1.4
2018/03/15 14:10:07.000   78.251305332   16.154742951   563.6160   2   8   0.0689   0.0758   0.1897  -0.0073  -0.0367   0.0652   0.00    1.4
2018/03/15 14:10:08.000   78.251305270   16.154743213   563.6276   2   8   0.0684   0.0755   0.1880  -0.0072  -0.0362   0.0645   0.00    1.4
2018/03/15 14:10:09.000   78.251305338   16.154742827   563.6414   2   8   0.0680   0.0751   0.1862  -0.0072  -0.0357   0.0638   0.00    1.4
2018/03/15 14:10:10.000   78.251305278   16.154742455   563.6559   2   8   0.0676   0.0748   0.1845  -0.0072  -0.0352   0.0631   0.00    1.3
2018/03/15 14:10:11.000   78.251305366   16.154742651   563.6554   2   8   0.0672   0.0744   0.1829  -0.0072  -0.0348   0.0624   0.00    1.3
2018/03/15 14:10:12.000   78.251305371   16.154742361   563.6560   2   8   0.0668   0.0741   0.1812  -0.0072  -0.0343   0.0618   0.00    1.3
2018/03/15 14:10:13.000   78.251305397   16.154742236   563.6643   2   8   0.0664   0.0737   0.1796  -0.0072  -0.0338   0.0611   0.00    1.3
2018/03/15 14:10:14.000   78.251305484   16.154742175   563.6691   2   8   0.0660   0.0734   0.1780  -0.0071  -0.0334   0.0605   0.00    1.3
2018/03/15 14:10:15.000   78.251305463   16.154742092   563.6639   2   8   0.0656   0.0730   0.1764  -0.0071  -0.0330   0.0599   0.00    1.3
2018/03/15 14:10:16.000   78.251305473   16.154742143   563.6698   2   8   0.0652   0.0727   0.1749  -0.0071  -0.0325   0.0592   0.00    1.2
2018/03/15 14:10:17.000   78.251305423   16.154742346   563.6608   2   8   0.0648   0.0724   0.1734  -0.0072  -0.0321   0.0586   0.00    1.2
2018/03/15 14:10:18.000   78.251305350   16.154742624   563.6582   2   8   0.0644   0.0721   0.1719  -0.0072  -0.0317   0.0580   0.00    1.2
2018/03/15 14:10:19.000   78.251305380   16.154742804   563.6586   2   8   0.0640   0.0717   0.1704  -0.0072  -0.0313   0.0574   0.00    1.2
2018/03/15 14:10:20.000   78.251305363   16.154742934   563.6686   2   8   0.0636   0.0714   0.1689  -0.0072  -0.0309   0.0569   0.00    1.2
2018/03/15 14:10:21.000   78.251305376   16.154742800   563.6662   2   8   0.0633   0.0711   0.1675  -0.0072  -0.0305   0.0563   0.00    1.1
2018/03/15 14:10:22.000   78.251305429   16.154742636   563.6554   2   8   0.0629   0.0708   0.1661  -0.0072  -0.0301   0.0557   0.00    1.1
2018/03/15 14:10:23.000   78.251305436   16.154742575   563.6543   2   8   0.0625   0.0705   0.1647  -0.0072  -0.0297   0.0552   0.00    1.1
2018/03/15 14:10:24.000   78.251305492   16.154742777   563.6510   2   8   0.0622   0.0702   0.1633  -0.0072  -0.0294   0.0546   0.00    1.1
2018/03/15 14:10:25.000   78.251305591   16.154742648   563.6571   2   8   0.0618   0.0699   0.1619  -0.0073  -0.0290   0.0541   0.00    1.1
2018/03/15 14:10:26.000   78.251305611   16.154742417   563.6564   2   8   0.0615   0.0695   0.1606  -0.0073  -0.0286   0.0536   0.00    1.1
2018/03/15 14:10:27.000   78.251305646   16.154742310   563.6619   2   8   0.0611   0.0692   0.1593  -0.0073  -0.0283   0.0531   0.00    1.1
2018/03/15 14:10:28.000   78.251305663   16.154742383   563.6612   2   8   0.0608   0.0689   0.1580  -0.0073  -0.0279   0.0525   0.00    1.0
2018/03/15 14:10:29.000   78.251305607   16.154742387   563.6667   2   8   0.0605   0.0687   0.1567  -0.0074  -0.0276   0.0520   0.00    1.0
2018/03/15 14:10:30.000   78.251305607   16.154742515   563.6702   2   8   0.0601   0.0684   0.1555  -0.0074  -0.0272   0.0515   0.00    1.0
2018/03/15 14:10:31.000   78.251305562   16.154742544   563.6775   2   8   0.0598   0.0681   0.1542  -0.0074  -0.0269   0.0511   0.00    1.0
2018/03/15 14:10:32.000   78.251305608   16.154742455   563.6844   2   8   0.0595   0.0678   0.1530  -0.0075  -0.0266   0.0506   0.00    1.0
2018/03/15 14:10:33.000   78.251305610   16.154742362   563.6697   2   8   0.0592   0.0675   0.1518  -0.0075  -0.0262   0.0501   0.00    1.0
2018/03/15 14:10:34.000   78.251305568   16.154742407   563.6698   2   8   0.0588   0.0672   0.1506  -0.0075  -0.0259   0.0496   0.00    1.0
2018/03/15 14:10:35.000   78.251305560   16.154742367   563.6786   2   8   0.0585   0.0669   0.1494  -0.0075  -0.0256   0.0492   0.00    1.1
2018/03/15 14:10:36.000   78.251305590   16.154742393   563.6771   2   8   0.0582   0.0667   0.1483  -0.0076  -0.0253   0.0487   0.00    1.1
2018/03/15 14:10:37.000   78.251305648   16.154742472   563.6878   2   8   0.0579   0.0664   0.1471  -0.0076  -0.0250   0.0483   0.00    1.1
2018/03/15 14:10:38.000   78.251305628   16.154742450   563.6939   2   8   0.0576   0.0661   0.1460  -0.0076  -0.0247   0.0478   0.00    1.1
2018/03/15 14:10:39.000   78.251305685   16.154742519   563.6933   2   8   0.0573   0.0658   0.1449  -0.0077  -0.0244   0.0474   0.00    1.1
2018/03/15 14:10:40.000   78.251305728   16.154742343   563.6863   2   8   0.0570   0.0656   0.1438  -0.0077  -0.0241   0.0470   0.00    1.1
2018/03/15 14:10:41.000   78.251305724   16.154742067   563.6881   2   8   0.0567   0.0653   0.1427  -0.0077  -0.0238   0.0466   0.00    1.1
2018/03/15 14:10:42.000   78.251305724   16.154741888   563.6934   2   8   0.0564   0.0650   0.1417  -0.0078  -0.0235   0.0462   0.00    1.1
2018/03/15 14:10:43.000   78.251305750   16.154741653   563.6897   2   8   0.0561   0.0648   0.1406  -0.0078  -0.0233   0.0457   0.00    1.1
2018/03/15 14:10:44.000   78.251305726   16.154741437   563.6920   2   8   0.0558   0.0645   0.1396  -0.0078  -0.0230   0.0453   0.00    1.1
2018/03/15 14:10:45.000   78.251305742   16.154741483   563.6928   2   8   0.0555   0.0642   0.1385  -0.0079  -0.0227   0.0449   0.00    1.1
2018/03/15 14:10:46.000   78.251305757   16.154741554   563.6900   2   8   0.0553   0.0640   0.1375  -0.0079  -0.0225   0.0446   0.00    1.1
2018/03/15 14:10:47.000   78.251305738   16.154741498   563.6899   2   8   0.0550   0.0637   0.1365  -0.0079  -0.0222   0.0442   0.00    1.1
2018/03/15 14:10:48.000   78.251305758   16.154741693   563.6919   2   8   0.0547   0.0635   0.1355  -0.0080  -0.0219   0.0438   0.00    1.1
2018/03/15 14:10:49.000   78.251305811   16.154741890   563.7006   2   8   0.0544   0.0632   0.1346  -0.0080  -0.0217   0.0434   0.00    1.1
2018/03/15 14:10:50.000   78.251305799   16.154741900   563.7038   2   8   0.0542   0.0630   0.1336  -0.0080  -0.0214   0.0431   0.00    1.1
2018/03/15 14:10:51.000   78.251305844   16.154742005   563.7134   2   8   0.0539   0.0627   0.1327  -0.0081  -0.0212   0.0427   0.00    1.1
2018/03/15 14:10:52.000   78.251305820   16.154742017   563.7126   2   8   0.0536   0.0625   0.1317  -0.0081  -0.0209   0.0423   0.00    1.1
2018/03/15 14:10:53.000   78.251305799   16.154741926   563.7158   2   8   0.0534   0.0622   0.1308  -0.0081  -0.0207   0.0420   0.00    1.1
2018/03/15 14:10:54.000   78.251305843   16.154741636   563.7186   2   8   0.0531   0.0620   0.1299  -0.0082  -0.0205   0.0416   0.00    1.1
2018/03/15 14:10:55.000   78.251305840   16.154741354   563.7221   2   8   0.0528   0.0618   0.1290  -0.0082  -0.0202   0.0413   0.00    1.1
2018/03/15 14:10:56.000   78.251305883   16.154741097   563.7300   2   8   0.0526   0.0615   0.1281  -0.0082  -0.0200   0.0409   0.00    1.1
2018/03/15 14:10:57.000   78.251305876   16.154740620   563.7402   2   8   0.0523   0.0613   0.1272  -0.0083  -0.0198   0.0406   0.00    1.1
2018/03/15 14:10:58.000   78.251305878   16.154740272   563.7520   2   8   0.0521   0.0610   0.1264  -0.0083  -0.0196   0.0403   0.00    1.1
2018/03/15 14:10:59.000   78.251305911   16.154739794   563.7621   2   8   0.0518   0.0608   0.1255  -0.0083  -0.0193   0.0400   0.00    1.1
2018/03/15 14:11:00.000   78.251305854   16.154739495   563.7727   2   8   0.0516   0.0606   0.1247  -0.0084  -0.0191   0.0396   0.00    1.1
2018/03/15 14:11:01.000   78.251305844   16.154739493   563.7832   2   8   0.0514   0.0604   0.1238  -0.0084  -0.0189   0.0393   0.00    1.1
2018/03/15 14:11:02.000   78.251305843   16.154739453   563.7937   2   8   0.0511   0.0601   0.1230  -0.0084  -0.0187   0.0390   0.00    1.1
2018/03/15 14:11:03.000   78.251305796   16.154739393   563.8050   2   8   0.0509   0.0599   0.1222  -0.0084  -0.0185   0.0387   0.00    1.1
2018/03/15 14:11:04.000   78.251305799   16.154739453   563.8117   2   8   0.0506   0.0597   0.1214  -0.0085  -0.0183   0.0384   0.00    1.1
2018/03/15 14:11:05.000   78.251305787   16.154739386   563.8086   2   8   0.0504   0.0594   0.1206  -0.0085  -0.0181   0.0381   0.00    1.1
2018/03/15 14:11:06.000   78.251305747   16.154739279   563.8094   2   8   0.0502   0.0592   0.1198  -0.0085  -0.0179   0.0378   0.00    1.1
2018/03/15 14:11:07.000   78.251305741   16.154739394   563.8108   2   8   0.0499   0.0590   0.1190  -0.0086  -0.0177   0.0375   0.00    1.1
2018/03/15 14:11:08.000   78.251305739   16.154739264   563.8072   2   8   0.0497   0.0588   0.1183  -0.0086  -0.0175   0.0372   0.00    1.1
2018/03/15 14:11:09.000   78.251305737   16.154739197   563.8132   2   8   0.0495   0.0586   0.1175  -0.0086  -0.0173   0.0369   0.00    1.1
2018/03/15 14:11:10.000   78.251305746   16.154739118   563.8193   2   8   0.0493   0.0584   0.1168  -0.0086  -0.0171   0.0367   0.00    1.1
2018/03/15 14:11:11.000   78.251305742   16.154739204   563.8305   2   8   0.0490   0.0581   0.1160  -0.0087  -0.0170   0.0364   0.00    1.1
2018/03/15 14:11:12.000   78.251305755   16.154739058   563.8443   2   8   0.0488   0.0579   0.1153  -0.0087  -0.0168   0.0361   0.00    1.1
2018/03/15 14:11:13.000   78.251305714   16.154739172   563.8510   2   8   0.0486   0.0577   0.1146  -0.0087  -0.0166   0.0358   0.00    1.1
2018/03/15 14:11:14.000   78.251305697   16.154739423   563.8548   2   8   0.0484   0.0575   0.1139  -0.0087  -0.0164   0.0356   0.00    1.2
2018/03/15 14:11:15.000   78.251305661   16.154739589   563.8542   2   8   0.0482   0.0573   0.1132  -0.0087  -0.0163   0.0353   0.00    1.2
2018/03/15 14:11:16.000   78.251305649   16.154739610   563.8586   2   8   0.0480   0.0571   0.1125  -0.0088  -0.0161   0.0351   0.00    1.2
2018/03/15 14:11:17.000   78.251305615   16.154739686   563.8583   2   8   0.0478   0.0569   0.1118  -0.0088  -0.0159   0.0348   0.00    1.2
2018/03/15 14:11:18.000   78.251305643   16.154739570   563.8556   2   8   0.0475   0.0567   0.1111  -0.0088  -0.0158   0.0346   0.00    1.2
2018/03/15 14:11:19.000   78.251305614   16.154739251   563.8535   2   8   0.0473   0.0565   0.1104  -0.0088  -0.0156   0.0343   0.00    1.2
2018/03/15 14:11:20.000   78.251305596   16.154739109   563.8529   2   8   0.0471   0.0563   0.1098  -0.0089  -0.0154   0.0341   0.00    1.2
2018/03/15 14:11:21.000   78.251305571   16.154738906   563.8572   2   8   0.0469   0.0561   0.1091  -0.0089  -0.0153   0.0338   0.00    1.2
2018/03/15 14:11:22.000   78.251305535   16.154738678   563.8588   2   8   0.0467   0.0559   0.1084  -0.0089  -0.0151   0.0336   0.00    1.2
2018/03/15 14:11:23.000   78.251305528   16.154738871   563.8640   2   8   0.0465   0.0557   0.1078  -0.0089  -0.0150   0.0333   0.00    1.2
2018/03/15 14:11:24.000   78.251305466   16.154738811   563.8740   2   8   0.0463   0.0555   0.1072  -0.0089  -0.0148   0.0331   0.00    1.2
2018/03/15 14:11:25.000   78.251305448   16.154738910   563.8820   2   8   0.0461   0.0553   0.1065  -0.0090  -0.0147   0.0329   0.00    1.2
2018/03/15 14:11:26.000   78.251305439   16.154738713   563.8864   2   8   0.0459   0.0551   0.1059  -0.0090  -0.0145   0.0326   0.00    1.2
2018/03/15 14:11:27.000   78.251305401   16.154738625   563.8891   2   8   0.0458   0.0549   0.1053  -0.0090  -0.0144   0.0324   0.00    1.2
2018/03/15 14:11:28.000   78.251305409   16.154738457   563.8885   2   8   0.0456   0.0547   0.1047  -0.0090  -0.0142   0.0322   0.00    1.2
2018/03/15 14:11:29.000   78.251305407   16.154738319   563.8844   2   8   0.0454   0.0545   0.1041  -0.0090  -0.0141   0.0320   0.00    1.2
2018/03/15 14:11:30.000   78.251305361   16.154738193   563.8896   2   8   0.0452   0.0544   0.1035  -0.0090  -0.0139   0.0318   0.00    1.2
2018/03/15 14:11:31.000   78.251305314   16.154738238   563.8933   2   8   0.0450   0.0542   0.1029  -0.0091  -0.0138   0.0316   0.00    1.2
2018/03/15 14:11:32.000   78.251305249   16.154738011   563.8967   2   8   0.0448   0.0540   0.1023  -0.0091  -0.0137   0.0313   0.00    1.2
2018/03/15 14:11:33.000   78.251305225   16.154737958   563.9005   2   8   0.0446   0.0538   0.1017  -0.0091  -0.0135   0.0311   0.00    1.2
2018/03/15 14:11:34.000   78.251305208   16.154737977   563.9040   2   8   0.0445   0.0536   0.1012  -0.0091  -0.0134   0.0309   0.00    1.2
2018/03/15 14:11:35.000   78.251305193   16.154738240   563.9092   2   8   0.0443   0.0534   0.1006  -0.0091  -0.0133   0.0307   0.00    1.2
2018/03/15 14:11:36.000   78.251305202   16.154738491   563.9116   2   8   0.0441   0.0533   0.1001  -0.0091  -0.0131   0.0305   0.00    1.2
2018/03/15 14:11:37.000   78.251305172   16.154738530   563.9131   2   8   0.0439   0.0531   0.0995  -0.0091  -0.0130   0.0303   0.00    1.2
2018/03/15 14:11:38.000   78.251305183   16.154738535   563.9164   2   8   0.0437   0.0529   0.0990  -0.0092  -0.0129   0.0301   0.00    1.2
2018/03/15 14:11:39.000   78.251305177   16.154738401   563.9234   2   8   0.0436   0.0527   0.0984  -0.0092  -0.0128   0.0299   0.00    1.2
2018/03/15 14:11:40.000   78.251305132   16.154738063   563.9296   2   8   0.0434   0.0525   0.0979  -0.0092  -0.0126   0.0297   0.00    1.2
2018/03/15 14:11:41.000   78.251305106   16.154738001   563.9351   2   8   0.0432   0.0524   0.0974  -0.0092  -0.0125   0.0296   0.00    1.2
2018/03/15 14:11:42.000   78.251305084   16.154737794   563.9349   2   8   0.0431   0.0522   0.0968  -0.0092  -0.0124   0.0294   0.00    1.2
2018/03/15 14:11:43.000   78.251305069   16.154737760   563.9345   2   8   0.0429   0.0520   0.0963  -0.0092  -0.0123   0.0292   0.00    1.2
2018/03/15 14:11:44.000   78.251305086   16.154737739   563.9361   2   8   0.0427   0.0519   0.0958  -0.0092  -0.0122   0.0290   0.00    1.2
2018/03/15 14:11:45.000   78.251305060   16.154737670   563.9364   2   8   0.0426   0.0517   0.0953  -0.0092  -0.0121   0.0288   0.00    1.2
2018/03/15 14:11:46.000   78.251305062   16.154737517   563.9361   2   8   0.0424   0.0515   0.0948  -0.0093  -0.0120   0.0286   0.00    1.2
2018/03/15 14:11:47.000   78.251305030   16.154737476   563.9314   2   8   0.0422   0.0513   0.0943  -0.0093  -0.0118   0.0285   0.00    1.2
2018/03/15 14:11:48.000   78.251304998   16.154737445   563.9320   2   8   0.0421   0.0512   0.0938  -0.0093  -0.0117   0.0283   0.00    1.2
2018/03/15 14:11:49.000   78.251304963   16.154737551   563.9395   2   8   0.0419   0.0510   0.0933  -0.0093  -0.0116   0.0281   0.00    1.2
2018/03/15 14:11:50.000   78.251304878   16.154737426   563.9421   2   8   0.0418   0.0509   0.0928  -0.0093  -0.0115   0.0279   0.00    1.2
2018/03/15 14:11:51.000   78.251304850   16.154737436   563.9442   2   8   0.0416   0.0507   0.0924  -0.0093  -0.0114   0.0278   0.00    1.2
2018/03/15 14:11:52.000   78.251304787   16.154737498   563.9453   2   8   0.0414   0.0505   0.0919  -0.0093  -0.0113   0.0276   0.00    1.2
2018/03/15 14:11:53.000   78.251304745   16.154737433   563.9441   2   8   0.0413   0.0504   0.0914  -0.0093  -0.0112   0.0274   0.00    1.2
2018/03/15 14:11:54.000   78.251304739   16.154737502   563.9453   2   8   0.0411   0.0502   0.0909  -0.0093  -0.0111   0.0273   0.00    1.2
2018/03/15 14:11:55.000   78.251304725   16.154737509   563.9436   2   8   0.0410   0.0500   0.0905  -0.0093  -0.0110   0.0271   0.00    1.2
2018/03/15 14:11:56.000   78.251304731   16.154737367   563.9363   2   8   0.0408   0.0499   0.0900  -0.0093  -0.0109   0.0270   0.00    1.2
2018/03/15 14:11:57.000   78.251304762   16.154737335   563.9250   2   8   0.0407   0.0497   0.0896  -0.0094  -0.0108   0.0268   0.00    1.2
2018/03/15 14:11:58.000   78.251304794   16.154737284   563.9204   2   8   0.0405   0.0496   0.0891  -0.0094  -0.0107   0.0267   0.00    1.2
2018/03/15 14:11:59.000   78.251304811   16.154737251   563.9187   2   8   0.0404   0.0494   0.0887  -0.0094  -0.0107   0.0265   0.00    1.2
2018/03/15 14:12:00.000   78.251304785   16.154737308   563.9221   2   8   0.0402   0.0493   0.0883  -0.0094  -0.0106   0.0264   0.00    1.2
2018/03/15 14:12:01.000   78.251304744   16.154737161   563.9298   2   8   0.0401   0.0491   0.0878  -0.0094  -0.0105   0.0262   0.00    1.2
2018/03/15 14:12:02.000   78.251304704   16.154737075   563.9388   2   8   0.0399   0.0490   0.0874  -0.0094  -0.0104   0.0261   0.00    1.2
2018/03/15 14:12:03.000   78.251304687   16.154736977   563.9437   2   8   0.0398   0.0488   0.0870  -0.0094  -0.0103   0.0259   0.00    1.2
2018/03/15 14:12:04.000   78.251304627   16.154736798   563.9487   2   8   0.0397   0.0487   0.0866  -0.0094  -0.0102   0.0258   0.00    1.2
2018/03/15 14:12:05.000   78.251304617   16.154736860   563.9475   2   8   0.0395   0.0485   0.0861  -0.0094  -0.0101   0.0256   0.00    1.2
2018/03/15 14:12:06.000   78.251304599   16.154736862   563.9463   2   8   0.0394   0.0484   0.0857  -0.0094  -0.0100   0.0255   0.00    1.2
2018/03/15 14:12:07.000   78.251304608   16.154736733   563.9478   2   8   0.0392   0.0482   0.0853  -0.0094  -0.0100   0.0253   0.00    1.2
2018/03/15 14:12:08.000   78.251304646   16.154736562   563.9458   2   8   0.0391   0.0481   0.0849  -0.0094  -0.0099   0.0252   0.00    1.2
2018/03/15 14:12:09.000   78.251304664   16.154736354   563.9483   2   9   0.0390   0.0479   0.0845  -0.0094  -0.0098   0.0251   0.00    1.1
2018/03/15 14:12:10.000   78.251304658   16.154736234   563.9532   2   9   0.0388   0.0478   0.0841  -0.0094  -0.0098   0.0249   0.00    1.1
2018/03/15 14:12:11.000   78.251304639   16.154736332   563.9598   2   9   0.0387   0.0476   0.0837  -0.0094  -0.0097   0.0248   0.00    1.2
2018/03/15 14:12:12.000   78.251304627   16.154736230   563.9676   2   9   0.0385   0.0475   0.0833  -0.0095  -0.0097   0.0246   0.00    1.2
2018/03/15 14:12:13.000   78.251304577   16.154736294   563.9758   2   9   0.0384   0.0473   0.0829  -0.0095  -0.0097   0.0245   0.00    1.2
2018/03/15 14:12:14.000   78.251304525   16.154736191   563.9813   2   9   0.0383   0.0472   0.0825  -0.0095  -0.0096   0.0244   0.00    1.2
2018/03/15 14:12:15.000   78.251304509   16.154736076   563.9842   2   9   0.0382   0.0470   0.0822  -0.0095  -0.0096   0.0242   0.00    1.2
2018/03/15 14:12:16.000   78.251304499   16.154736100   563.9770   2   9   0.0380   0.0469   0.0818  -0.0095  -0.0095   0.0241   0.00    1.2
2018/03/15 14:12:17.000   78.251304486   16.154735874   563.9679   2   9   0.0379   0.0467   0.0814  -0.0095  -0.0095   0.0240   0.00    1.2
2018/03/15 14:12:18.000   78.251304479   16.154735912   563.9614   2   9   0.0378   0.0466   0.0810  -0.0095  -0.0094   0.0238   0.00    1.2
2018/03/15 14:12:19.000   78.251304479   16.154735837   563.9579   2   9   0.0376   0.0464   0.0807  -0.0095  -0.0094   0.0237   0.00    1.2
2018/03/15 14:12:20.000   78.251304463   16.154735789   563.9592   2   9   0.0375   0.0463   0.0803  -0.0095  -0.0094   0.0236   0.00    1.2
2018/03/15 14:12:21.000   78.251304481   16.154735810   563.9550   2   9   0.0374   0.0462   0.0799  -0.0096  -0.0093   0.0235   0.00    1.2
2018/03/15 14:12:22.000   78.251304463   16.154735707   563.9505   2   9   0.0373   0.0460   0.0796  -0.0096  -0.0093   0.0233   0.00    1.2
2018/03/15 14:12:23.000   78.251304479   16.154735681   563.9423   2   9   0.0371   0.0459   0.0792  -0.0096  -0.0092   0.0232   0.00    1.2
2018/03/15 14:12:24.000   78.251304500   16.154735558   563.9431   2   9   0.0370   0.0458   0.0789  -0.0096  -0.0092   0.0231   0.00    1.2
2018/03/15 14:12:25.000   78.251304479   16.154735489   563.9439   2   9   0.0369   0.0456   0.0785  -0.0096  -0.0092   0.0230   0.00    1.2
2018/03/15 14:12:26.000   78.251304461   16.154735473   563.9424   2   9   0.0368   0.0455   0.0782  -0.0096  -0.0091   0.0228   0.00    1.2
2018/03/15 14:12:27.000   78.251304460   16.154735331   563.9407   2   9   0.0366   0.0453   0.0778  -0.0096  -0.0091   0.0227   0.00    1.2
2018/03/15 14:12:28.000   78.251304463   16.154735157   563.9348   2   9   0.0365   0.0452   0.0775  -0.0096  -0.0090   0.0226   0.00    1.2
2018/03/15 14:12:29.000   78.251304499   16.154734972   563.9266   2   9   0.0364   0.0451   0.0771  -0.0096  -0.0090   0.0225   0.00    1.2
2018/03/15 14:12:30.000   78.251304516   16.154734785   563.9207   2   9   0.0363   0.0449   0.0768  -0.0096  -0.0090   0.0224   0.00    1.2
2018/03/15 14:12:31.000   78.251304524   16.154734691   563.9168   2   9   0.0362   0.0448   0.0765  -0.0096  -0.0089   0.0223   0.00    1.2
2018/03/15 14:12:32.000   78.251304513   16.154734597   563.9150   2   9   0.0360   0.0447   0.0761  -0.0096  -0.0089   0.0222   0.00    1.2
2018/03/15 14:12:33.000   78.251304508   16.154734524   563.9151   2   9   0.0359   0.0446   0.0758  -0.0096  -0.0089   0.0221   0.00    1.2
2018/03/15 14:12:34.000   78.251304488   16.154734502   563.9170   2   9   0.0358   0.0444   0.0755  -0.0096  -0.0088   0.0219   0.00    1.2
2018/03/15 14:12:35.000   78.251304471   16.154734427   563.9186   2   9   0.0357   0.0443   0.0752  -0.0096  -0.0088   0.0218   0.00    1.2
2018/03/15 14:12:36.000   78.251304467   16.154734383   563.9216   2   9   0.0356   0.0442   0.0749  -0.0096  -0.0088   0.0217   0.00    1.2
2018/03/15 14:12:37.000   78.251304472   16.154734354   563.9222   2   9   0.0355   0.0440   0.0745  -0.0096  -0.0087   0.0216   0.00    1.2
2018/03/15 14:12:38.000   78.251304483   16.154734257   563.9228   2   9   0.0354   0.0439   0.0742  -0.0096  -0.0087   0.0215   0.00    1.2
2018/03/15 14:12:39.000   78.251304502   16.154734265   563.9197   2   9   0.0353   0.0438   0.0739  -0.0096  -0.0087   0.0214   0.00    1.2
2018/03/15 14:12:40.000   78.251304513   16.154734191   563.9164   2   9   0.0351   0.0437   0.0736  -0.0096  -0.0086   0.0213   0.00    1.2
2018/03/15 14:12:41.000   78.251304525   16.154734144   563.9133   2   9   0.0350   0.0435   0.0733  -0.0096  -0.0086   0.0212   0.00    1.2
2018/03/15 14:12:42.000   78.251304530   16.154734134   563.9097   2   9   0.0349   0.0434   0.0730  -0.0096  -0.0086   0.0211   0.00    1.2
2018/03/15 14:12:43.000   78.251304531   16.154733994   563.9090   2   9   0.0348   0.0433   0.0727  -0.0096  -0.0086   0.0210   0.00    1.2
2018/03/15 14:12:44.000   78.251304530   16.154733876   563.9099   2   9   0.0347   0.0432   0.0724  -0.0096  -0.0085   0.0209   0.00    1.2
2018/03/15 14:12:45.000   78.251304538   16.154733991   563.9133   2   9   0.0346   0.0431   0.0721  -0.0096  -0.0085   0.0208   0.00    1.2
2018/03/15 14:12:46.000   78.251304535   16.154733944   563.9143   2   9   0.0345   0.0429   0.0718  -0.0096  -0.0085   0.0207   0.00    1.2
2018/03/15 14:12:47.000   78.251304545   16.154733751   563.9140   2   9   0.0344   0.0428   0.0715  -0.0096  -0.0084   0.0206   0.00    1.2
2018/03/15 14:12:48.000   78.251304557   16.154733602   563.9114   2   9   0.0343   0.0427   0.0712  -0.0096  -0.0084   0.0205   0.00    1.2
2018/03/15 14:12:49.000   78.251304554   16.154733553   563.9077   2   9   0.0342   0.0426   0.0710  -0.0096  -0.0084   0.0204   0.00    1.2
2018/03/15 14:12:50.000   78.251304576   16.154733496   563.9075   2   9   0.0341   0.0425   0.0707  -0.0096  -0.0084   0.0203   0.00    1.2
2018/03/15 14:12:51.000   78.251304580   16.154733450   563.9034   2   9   0.0340   0.0423   0.0704  -0.0096  -0.0083   0.0203   0.00    1.2
2018/03/15 14:12:52.000   78.251304583   16.154733403   563.9008   2   9   0.0339   0.0422   0.0701  -0.0096  -0.0083   0.0202   0.00    1.2
2018/03/15 14:12:53.000   78.251304592   16.154733355   563.9011   2   9   0.0338   0.0421   0.0698  -0.0096  -0.0083   0.0201   0.00    1.2
2018/03/15 14:12:54.000   78.251304587   16.154733320   563.9008   2   9   0.0337   0.0420   0.0696  -0.0096  -0.0082   0.0200   0.00    1.2
2018/03/15 14:12:55.000   78.251304595   16.154733320   563.9028   2   9   0.0336   0.0419   0.0693  -0.0096  -0.0082   0.0199   0.00    1.2
2018/03/15 14:12:56.000   78.251304586   16.154733269   563.9065   2   9   0.0335   0.0418   0.0690  -0.0096  -0.0082   0.0198   0.00    1.2
2018/03/15 14:12:57.000   78.251304571   16.154733261   563.9105   2   9   0.0334   0.0417   0.0688  -0.0096  -0.0082   0.0197   0.00    1.2
2018/03/15 14:12:58.000   78.251304563   16.154733259   563.9103   2   9   0.0333   0.0415   0.0685  -0.0096  -0.0081   0.0196   0.00    1.2
2018/03/15 14:12:59.000   78.251304556   16.154733238   563.9084   2   9   0.0332   0.0414   0.0682  -0.0096  -0.0081   0.0196   0.00    1.2
2018/03/15 14:13:00.000   78.251304549   16.154733285   563.9054   2   9   0.0331   0.0413   0.0680  -0.0096  -0.0081   0.0195   0.00    1.2
2018/03/15 14:13:01.000   78.251304571   16.154733277   563.9019   2   9   0.0330   0.0412   0.0677  -0.0096  -0.0081   0.0194   0.00    1.2
2018/03/15 14:13:02.000   78.251304577   16.154733248   563.9015   2   9   0.0329   0.0411   0.0675  -0.0096  -0.0080   0.0193   0.00    1.2
2018/03/15 14:13:03.000   78.251304584   16.154733240   563.9023   2   9   0.0328   0.0410   0.0672  -0.0096  -0.0080   0.0192   0.00    1.2
2018/03/15 14:13:04.000   78.251304589   16.154733252   563.9050   2   9   0.0327   0.0409   0.0670  -0.0096  -0.0080   0.0191   0.00    1.2
2018/03/15 14:13:05.000   78.251304590   16.154733267   563.9055   2   9   0.0326   0.0408   0.0667  -0.0096  -0.0080   0.0191   0.00    1.2
2018/03/15 14:13:06.000   78.251304582   16.154733407   563.9063   2   9   0.0325   0.0407   0.0665  -0.0096  -0.0080   0.0190   0.00    1.2
2018/03/15 14:13:07.000   78.251304573   16.154733462   563.9059   2   9   0.0324   0.0406   0.0662  -0.0096  -0.0079   0.0189   0.00    1.2
2018/03/15 14:13:08.000   78.251304580   16.154733470   563.9047   2   9   0.0323   0.0405   0.0660  -0.0096  -0.0079   0.0188   0.00    1.2
2018/03/15 14:13:09.000   78.251304598   16.154733454   563.9006   2   9   0.0323   0.0404   0.0657  -0.0096  -0.0079   0.0187   0.00    1.2
2018/03/15 14:13:10.000   78.251304589   16.154733424   563.9000   2   9   0.0322   0.0402   0.0655  -0.0096  -0.0079   0.0187   0.00    1.2
2018/03/15 14:13:11.000   78.251304590   16.154733483   563.8993   2   9   0.0321   0.0401   0.0652  -0.0096  -0.0079   0.0186   0.00    1.2
2018/03/15 14:13:12.000   78.251304597   16.154733469   563.8992   2   9   0.0320   0.0400   0.0650  -0.0096  -0.0078   0.0185   0.00    1.2
2018/03/15 14:13:13.000   78.251304589   16.154733409   563.8987   2   9   0.0319   0.0399   0.0648  -0.0096  -0.0078   0.0184   0.00    1.2
2018/03/15 14:13:14.000   78.251304599   16.154733426   563.8987   2   9   0.0318   0.0398   0.0645  -0.0096  -0.0078   0.0184   0.00    1.2
2018/03/15 14:13:15.000   78.251304608   16.154733386   563.8992   2   9   0.0317   0.0397   0.0643  -0.0096  -0.0078   0.0183   0.00    1.2
2018/03/15 14:13:16.000   78.251304603   16.154733374   563.9007   2   9   0.0316   0.0396   0.0641  -0.0096  -0.0078   0.0182   0.00    1.2
2018/03/15 14:13:17.000   78.251304598   16.154733458   563.9001   2   9   0.0316   0.0395   0.0639  -0.0096  -0.0077   0.0182   0.00    1.1
2018/03/15 14:13:18.000   78.251304596   16.154733488   563.8995   2   9   0.0315   0.0394   0.0636  -0.0096  -0.0077   0.0181   0.00    1.1
2018/03/15 14:13:19.000   78.251304592   16.154733373   563.8970   2   9   0.0314   0.0393   0.0634  -0.0095  -0.0077   0.0180   0.00    1.1
2018/03/15 14:13:20.000   78.251304591   16.154733350   563.8933   2   9   0.0313   0.0392   0.0632  -0.0095  -0.0077   0.0179   0.00    1.1
2018/03/15 14:13:21.000   78.251304605   16.154733368   563.8896   2   9   0.0312   0.0391   0.0630  -0.0095  -0.0077   0.0179   0.00    1.1
2018/03/15 14:13:22.000   78.251304601   16.154733346   563.8898   2   9   0.0311   0.0390   0.0627  -0.0095  -0.0076   0.0178   0.00    1.1
2018/03/15 14:13:23.000   78.251304587   16.154733283   563.8904   2   9   0.0310   0.0389   0.0625  -0.0095  -0.0076   0.0177   0.00    1.1
2018/03/15 14:13:24.000   78.251304606   16.154733134   563.8901   2   9   0.0310   0.0388   0.0623  -0.0095  -0.0076   0.0177   0.00    1.1
2018/03/15 14:13:25.000   78.251304601   16.154733111   563.8875   2   9   0.0309   0.0387   0.0621  -0.0095  -0.0076   0.0176   0.00    1.1
2018/03/15 14:13:26.000   78.251304593   16.154732981   563.8870   2   9   0.0308   0.0386   0.0619  -0.0095  -0.0076   0.0175   0.00    1.1
2018/03/15 14:13:27.000   78.251304587   16.154733009   563.8894   2   9   0.0307   0.0385   0.0617  -0.0095  -0.0076   0.0175   0.00    1.1
2018/03/15 14:13:28.000   78.251304586   16.154732866   563.8946   2   9   0.0306   0.0385   0.0614  -0.0095  -0.0075   0.0174   0.00    1.1
2018/03/15 14:13:29.000   78.251304571   16.154732744   563.8983   2   9   0.0306   0.0384   0.0612  -0.0095  -0.0075   0.0173   0.00    1.1
2018/03/15 14:13:30.000   78.251304576   16.154732673   563.9004   2   9   0.0305   0.0383   0.0610  -0.0095  -0.0075   0.0173   0.00    1.1
2018/03/15 14:13:31.000   78.251304578   16.154732549   563.9014   2   9   0.0304   0.0382   0.0608  -0.0095  -0.0075   0.0172   0.00    1.1
2018/03/15 14:13:32.000   78.251304573   16.154732453   563.9025   2   9   0.0303   0.0381   0.0606  -0.0095  -0.0075   0.0172   0.00    1.1
2018/03/15 14:13:33.000   78.251304578   16.154732384   563.9049   2   9   0.0302   0.0380   0.0604  -0.0095  -0.0075   0.0171   0.00    1.1
2018/03/15 14:13:34.000   78.251304572   16.154732377   563.9073   2   9   0.0302   0.0379   0.0602  -0.0095  -0.0075   0.0170   0.00    1.1
2018/03/15 14:13:35.000   78.251304557   16.154732253   563.9092   2   9   0.0301   0.0378   0.0600  -0.0095  -0.0074   0.0170   0.00    1.1
2018/03/15 14:13:36.000   78.251304558   16.154732213   563.9129   2   9   0.0300   0.0377   0.0598  -0.0094  -0.0074   0.0169   0.00    1.1
2018/03/15 14:13:37.000   78.251304556   16.154732239   563.9178   2   9   0.0299   0.0376   0.0596  -0.0094  -0.0074   0.0169   0.00    1.1
2018/03/15 14:13:38.000   78.251304550   16.154732283   563.9191   2   9   0.0299   0.0375   0.0594  -0.0094  -0.0074   0.0168   0.00    1.1
2018/03/15 14:13:39.000   78.251304550   16.154732245   563.9184   2   9   0.0298   0.0374   0.0592  -0.0094  -0.0074   0.0167   0.00    1.1
2018/03/15 14:13:40.000   78.251304557   16.154732207   563.9171   2   9   0.0297   0.0373   0.0590  -0.0094  -0.0074   0.0167   0.00    1.1
2018/03/15 14:13:41.000   78.251304553   16.154732247   563.9155   2   9   0.0296   0.0373   0.0588  -0.0094  -0.0074   0.0166   0.00    1.1
2018/03/15 14:13:42.000   78.251304552   16.154732210   563.9150   2   9   0.0296   0.0372   0.0586  -0.0094  -0.0073   0.0166   0.00    1.1
2018/03/15 14:13:43.000   78.251304546   16.154732135   563.9161   2   9   0.0295   0.0371   0.0585  -0.0094  -0.0073   0.0165   0.00    1.1
2018/03/15 14:13:44.000   78.251304535   16.154732068   563.9205   2   9   0.0294   0.0370   0.0583  -0.0094  -0.0073   0.0164   0.00    1.1
2018/03/15 14:13:45.000   78.251304523   16.154731984   563.9231   2   9   0.0293   0.0369   0.0581  -0.0094  -0.0073   0.0164   0.00    1.1
2018/03/15 14:13:46.000   78.251304528   16.154731979   563.9235   2   9   0.0293   0.0368   0.0579  -0.0094  -0.0073   0.0163   0.00    1.1
2018/03/15 14:13:47.000   78.251304520   16.154731970   563.9218   2   9   0.0292   0.0367   0.0577  -0.0094  -0.0073   0.0163   0.00    1.1
2018/03/15 14:13:48.000   78.251304525   16.154732007   563.9205   2   9   0.0291   0.0366   0.0575  -0.0094  -0.0073   0.0162   0.00    1.1
2018/03/15 14:13:49.000   78.251304517   16.154732035   563.9181   2   9   0.0291   0.0366   0.0573  -0.0094  -0.0073   0.0162   0.00    1.1
2018/03/15 14:13:50.000   78.251304512   16.154732012   563.9167   2   9   0.0290   0.0365   0.0572  -0.0093  -0.0072   0.0161   0.00    1.1
2018/03/15 14:13:51.000   78.251304513   16.154731970   563.9166   2   9   0.0289   0.0364   0.0570  -0.0093  -0.0072   0.0161   0.00    1.1
2018/03/15 14:13:52.000   78.251304503   16.154731882   563.9186   2   9   0.0289   0.0363   0.0568  -0.0093  -0.0072   0.0160   0.00    1.1
2018/03/15 14:13:53.000   78.251304494   16.154731773   563.9215   2   9   0.0288   0.0362   0.0566  -0.0093  -0.0072   0.0160   0.00    1.1
2018/03/15 14:13:54.000   78.251304474   16.154731720   563.9234   2   9   0.0287   0.0361   0.0565  -0.0093  -0.0072   0.0159   0.00    1.1
2018/03/15 14:13:55.000   78.251304461   16.154731627   563.9265   2   9   0.0286   0.0361   0.0563  -0.0093  -0.0072   0.0159   0.00    1.1
2018/03/15 14:13:56.000   78.251304442   16.154731664   563.9309   2   9   0.0286   0.0360   0.0561  -0.0093  -0.0072   0.0158   0.00    1.1
2018/03/15 14:13:57.000   78.251304424   16.154731695   563.9328   2   9   0.0285   0.0359   0.0559  -0.0093  -0.0072   0.0158   0.00    1.1
2018/03/15 14:13:58.000   78.251304408   16.154731629   563.9342   2   9   0.0284   0.0358   0.0558  -0.0093  -0.0072   0.0157   0.00    1.1
2018/03/15 14:13:59.000   78.251304406   16.154731658   563.9353   2   9   0.0284   0.0357   0.0556  -0.0093  -0.0071   0.0157   0.00    1.0
2018/03/15 14:14:00.000   78.251304414   16.154731624   563.9351   2   9   0.0283   0.0357   0.0554  -0.0093  -0.0071   0.0156   0.00    1.0
2018/03/15 14:14:01.000   78.251304406   16.154731607   563.9372   2   9   0.0282   0.0356   0.0553  -0.0093  -0.0071   0.0156   0.00    1.0
2018/03/15 14:14:02.000   78.251304398   16.154731617   563.9381   2   9   0.0282   0.0355   0.0551  -0.0093  -0.0071   0.0155   0.00    1.0
2018/03/15 14:14:03.000   78.251304410   16.154731660   563.9403   2   9   0.0281   0.0354   0.0549  -0.0092  -0.0071   0.0155   0.00    1.0
2018/03/15 14:14:04.000   78.251304403   16.154731672   563.9431   2   9   0.0280   0.0353   0.0548  -0.0092  -0.0071   0.0154   0.00    1.0
2018/03/15 14:14:05.000   78.251304403   16.154731685   563.9460   2   9   0.0280   0.0353   0.0546  -0.0092  -0.0071   0.0154   0.00    1.0
2018/03/15 14:14:06.000   78.251304409   16.154731729   563.9496   2   9   0.0279   0.0352   0.0544  -0.0092  -0.0071   0.0153   0.00    1.0
2018/03/15 14:14:07.000   78.251304399   16.154731788   563.9526   2   9   0.0279   0.0351   0.0543  -0.0092  -0.0071   0.0153   0.00    1.0
2018/03/15 14:14:08.000   78.251304404   16.154731907   563.9532   2   9   0.0278   0.0350   0.0541  -0.0092  -0.0071   0.0152   0.00    1.0
2018/03/15 14:14:09.000   78.251304416   16.154732044   563.9503   2   9   0.0277   0.0349   0.0539  -0.0092  -0.0070   0.0152   0.00    1.0
2018/03/15 14:14:10.000   78.251304405   16.154732133   563.9479   2   9   0.0277   0.0349   0.0538  -0.0092  -0.0070   0.0151   0.00    1.0
2018/03/15 14:14:11.000   78.251304410   16.154732252   563.9458   2   9   0.0276   0.0348   0.0536  -0.0092  -0.0070   0.0151   0.00    1.0
2018/03/15 14:14:12.000   78.251304438   16.154732307   563.9439   2   9   0.0275   0.0347   0.0535  -0.0092  -0.0070   0.0150   0.00    1.0
2018/03/15 14:14:13.000   78.251304432   16.154732223   563.9439   2   9   0.0275   0.0346   0.0533  -0.0092  -0.0070   0.0150   0.00    1.0
2018/03/15 14:14:14.000   78.251304441   16.154732264   563.9408   2   9   0.0274   0.0346   0.0532  -0.0092  -0.0070   0.0149   0.00    1.0
2018/03/15 14:14:15.000   78.251304434   16.154732374   563.9380   2   9   0.0274   0.0345   0.0530  -0.0092  -0.0070   0.0149   0.00    1.0
2018/03/15 14:14:16.000   78.251304421   16.154732433   563.9381   2   9   0.0273   0.0344   0.0529  -0.0091  -0.0070   0.0149   0.00    1.0
2018/03/15 14:14:17.000   78.251304419   16.154732489   563.9377   2   9   0.0272   0.0343   0.0527  -0.0091  -0.0070   0.0148   0.00    1.0
2018/03/15 14:14:18.000   78.251304424   16.154732462   563.9387   2   9   0.0272   0.0343   0.0525  -0.0091  -0.0070   0.0148   0.00    1.0
2018/03/15 14:14:19.000   78.251304426   16.154732434   563.9369   2   9   0.0271   0.0342   0.0524  -0.0091  -0.0070   0.0147   0.00    1.0
2018/03/15 14:14:20.000   78.251304428   16.154732516   563.9348   2   9   0.0271   0.0341   0.0522  -0.0091  -0.0070   0.0147   0.00    1.0
2018/03/15 14:14:21.000   78.251304435   16.154732616   563.9325   2   9   0.0270   0.0340   0.0521  -0.0091  -0.0069   0.0146   0.00    1.0
2018/03/15 14:14:22.000   78.251304449   16.154732679   563.9304   2   9   0.0269   0.0340   0.0520  -0.0091  -0.0069   0.0146   0.00    1.0
2018/03/15 14:14:23.000   78.251304453   16.154732714   563.9310   2   9   0.0269   0.0339   0.0518  -0.0091  -0.0069   0.0146   0.00    1.0
2018/03/15 14:14:24.000   78.251304459   16.154732825   563.9337   2   9   0.0268   0.0338   0.0517  -0.0091  -0.0069   0.0145   0.00    1.0
2018/03/15 14:14:25.000   78.251304462   16.154732859   563.9378   2   9   0.0268   0.0338   0.0515  -0.0091  -0.0069   0.0145   0.00    1.0
2018/03/15 14:14:26.000   78.251304462   16.154733004   563.9407   2   9   0.0267   0.0337   0.0514  -0.0091  -0.0069   0.0144   0.00    1.0
2018/03/15 14:14:27.000   78.251304468   16.154733102   563.9420   2   9   0.0266   0.0336   0.0512  -0.0091  -0.0069   0.0144   0.00    1.0
2018/03/15 14:14:28.000   78.251304460   16.154733248   563.9444   2   9   0.0266   0.0336   0.0511  -0.0090  -0.0069   0.0144   0.00    1.0
2018/03/15 14:14:29.000   78.251304442   16.154733449   563.9486   2   9   0.0265   0.0335   0.0509  -0.0090  -0.0069   0.0143   0.00    1.0
2018/03/15 14:14:30.000   78.251304437   16.154733617   563.9518   2   9   0.0265   0.0334   0.0508  -0.0090  -0.0069   0.0143   0.00    1.0
2018/03/15 14:14:31.000   78.251304437   16.154733719   563.9533   2   9   0.0264   0.0333   0.0507  -0.0090  -0.0069   0.0142   0.00    1.0
2018/03/15 14:14:32.000   78.251304442   16.154733880   563.9542   2   9   0.0264   0.0333   0.0505  -0.0090  -0.0069   0.0142   0.00    1.0
2018/03/15 14:14:33.000   78.251304448   16.154733957   563.9563   2   9   0.0263   0.0332   0.0504  -0.0090  -0.0069   0.0142   0.00    1.1
2018/03/15 14:14:34.000   78.251304470   16.154734004   563.9583   2   9   0.0263   0.0331   0.0502  -0.0090  -0.0069   0.0141   0.00    1.1
2018/03/15 14:14:35.000   78.251304485   16.154734062   563.9601   2   9   0.0262   0.0331   0.0501  -0.0090  -0.0069   0.0141   0.00    1.0
2018/03/15 14:14:36.000   78.251304496   16.154734056   563.9643   2   9   0.0261   0.0330   0.0500  -0.0090  -0.0068   0.0140   0.00    1.0
2018/03/15 14:14:37.000   78.251304490   16.154734078   563.9685   2   9   0.0261   0.0329   0.0498  -0.0090  -0.0068   0.0140   0.00    1.0
2018/03/15 14:14:38.000   78.251304478   16.154734019   563.9712   2   9   0.0260   0.0329   0.0497  -0.0090  -0.0068   0.0140   0.00    1.0
2018/03/15 14:14:39.000   78.251304457   16.154733996   563.9734   2   9   0.0260   0.0328   0.0496  -0.0089  -0.0068   0.0139   0.00    1.0
2018/03/15 14:14:40.000   78.251304445   16.154734020   563.9733   2   9   0.0259   0.0327   0.0494  -0.0089  -0.0068   0.0139   0.00    1.0
2018/03/15 14:14:41.000   78.251304446   16.154734077   563.9741   2   9   0.0259   0.0327   0.0493  -0.0089  -0.0068   0.0139   0.00    1.0
2018/03/15 14:14:42.000   78.251304451   16.154734092   563.9754   2   9   0.0258   0.0326   0.0492  -0.0089  -0.0068   0.0138   0.00    1.0
2018/03/15 14:14:43.000   78.251304459   16.154734113   563.9756   2   9   0.0258   0.0325   0.0490  -0.0089  -0.0068   0.0138   0.00    1.0
