% program   : RTKPOST ver.2.4.2
% inp file  : Z:\home\linda\Documents\Spring18\GitHub_Unis\data\processed_data\46250703.obs
% inp file  : Z:\home\linda\Documents\Spring18\GitHub_Unis\data\base_station_data\lyrs0700.18o
% inp file  : Z:\home\linda\Documents\Spring18\GitHub_Unis\data\processed_data\46250703.nav
% obs start : 2018/03/11 11:29:01.0 GPST (week1992  41341.0s)
% obs end   : 2018/03/11 11:52:36.0 GPST (week1992  42756.0s)
% pos mode  : static
% freqs     : L1+L2
% solution  : forward
% elev mask : 15.0 deg
% dynamics  : on
% tidecorr  : off
% ionos opt : iono-free
% tropo opt : saastamoinen
% ephemeris : broadcast
% navi sys  : gps glonass galileo qzss sbas
% amb res   : fix and hold
% amb glo   : on
% val thres : 3.0
% antenna1  :                       ( 0.0000  0.0000  0.0000)
% antenna2  :                       ( 0.0000  0.0000  0.0000)
% ref pos   : 78.228825638   15.397310064   495.6816
%
% (lat/lon/height=WGS84/ellipsoidal,Q=1:fix,2:float,3:sbas,4:dgps,5:single,6:ppp,ns=# of satellites)
%  GPST                  latitude(deg) longitude(deg)  height(m)   Q  ns   sdn(m)   sde(m)   sdu(m)  sdne(m)  sdeu(m)  sdun(m) age(s)  ratio
2018/03/11 11:29:01.000   78.256808490   16.230333007   400.7828   2   9   1.1982   1.0140   3.3085  -0.5194  -0.6841   1.3814   0.00    1.3
2018/03/11 11:29:02.000   78.256802816   16.230329478   402.3661   2   9   0.8488   0.7180   2.3485  -0.3680  -0.4857   0.9810   0.00    1.2
2018/03/11 11:29:03.000   78.256799723   16.230327703   401.0668   2   9   0.6933   0.5865   1.9194  -0.3006  -0.3969   0.8017   0.00    1.2
2018/03/11 11:29:04.000   78.256799830   16.230335695   399.9067   2   9   0.6005   0.5080   1.6625  -0.2603  -0.3437   0.6943   0.00    1.2
2018/03/11 11:29:05.000   78.256800513   16.230325692   400.0871   2   9   0.5370   0.4544   1.4865  -0.2327  -0.3071   0.6207   0.00    1.1
2018/03/11 11:29:06.000   78.256802993   16.230314638   400.4775   2   9   0.4900   0.4148   1.3562  -0.2123  -0.2801   0.5661   0.00    1.1
2018/03/11 11:29:07.000   78.256803149   16.230307923   400.3330   2   9   0.4534   0.3840   1.2545  -0.1964  -0.2589   0.5235   0.00    1.1
2018/03/11 11:29:08.000   78.256802379   16.230305656   399.9472   2   9   0.4239   0.3592   1.1723  -0.1835  -0.2417   0.4890   0.00    1.0
2018/03/11 11:29:09.000   78.256802944   16.230301616   399.7863   2   9   0.3994   0.3386   1.1039  -0.1728  -0.2274   0.4602   0.00    1.0
2018/03/11 11:29:10.000   78.256803456   16.230297268   399.3874   2   9   0.3786   0.3212   1.0458  -0.1637  -0.2152   0.4358   0.00    1.0
2018/03/11 11:29:11.000   78.256804217   16.230295365   399.2031   2   9   0.3607   0.3062   0.9956  -0.1559  -0.2046   0.4146   0.00    1.0
2018/03/11 11:29:12.000   78.256803804   16.230292338   398.9078   2   9   0.3450   0.2931   0.9516  -0.1490  -0.1953   0.3960   0.00    1.0
2018/03/11 11:29:13.000   78.256803745   16.230291551   398.7462   2   9   0.3311   0.2816   0.9125  -0.1429  -0.1870   0.3795   0.00    1.0
2018/03/11 11:29:14.000   78.256803417   16.230292635   398.7534   2   9   0.3187   0.2713   0.8775  -0.1375  -0.1795   0.3647   0.00    1.0
2018/03/11 11:29:15.000   78.256802855   16.230292507   398.6604   2   9   0.3076   0.2620   0.8459  -0.1326  -0.1728   0.3513   0.00    1.1
2018/03/11 11:29:16.000   78.256802274   16.230294737   398.5496   2   9   0.2975   0.2536   0.8172  -0.1281  -0.1666   0.3391   0.00    1.1
2018/03/11 11:29:17.000   78.256801814   16.230296088   398.4889   2   9   0.2882   0.2460   0.7908  -0.1240  -0.1609   0.3278   0.00    1.1
2018/03/11 11:29:18.000   78.256801637   16.230293289   398.5747   2   9   0.2797   0.2390   0.7666  -0.1202  -0.1556   0.3175   0.00    1.1
2018/03/11 11:29:19.000   78.256801269   16.230291366   398.7616   2   9   0.2718   0.2325   0.7441  -0.1167  -0.1507   0.3079   0.00    1.1
2018/03/11 11:29:20.000   78.256801068   16.230290526   398.7334   2   9   0.2646   0.2266   0.7232  -0.1135  -0.1461   0.2989   0.00    1.1
2018/03/11 11:29:21.000   78.256800699   16.230292084   398.5586   2   9   0.2578   0.2210   0.7036  -0.1104  -0.1418   0.2905   0.00    1.1
2018/03/11 11:29:22.000   78.256800149   16.230291969   398.2834   2   9   0.2514   0.2159   0.6853  -0.1076  -0.1377   0.2826   0.00    1.1
2018/03/11 11:29:23.000   78.256799691   16.230291545   398.1657   2   9   0.2455   0.2110   0.6680  -0.1049  -0.1339   0.2752   0.00    1.1
2018/03/11 11:29:24.000   78.256799144   16.230289839   397.9973   2   9   0.2399   0.2065   0.6518  -0.1024  -0.1302   0.2682   0.00    1.1
2018/03/11 11:29:25.000   78.256798592   16.230289937   397.8700   2   9   0.2346   0.2023   0.6364  -0.1000  -0.1267   0.2615   0.00    1.1
2018/03/11 11:29:26.000   78.256797446   16.230294376   397.6713   2   9   0.2297   0.1983   0.6218  -0.0977  -0.1234   0.2551   0.00    1.1
2018/03/11 11:29:27.000   78.256796513   16.230296492   397.4683   2   9   0.2249   0.1945   0.6079  -0.0956  -0.1203   0.2491   0.00    1.1
2018/03/11 11:29:28.000   78.256795464   16.230299492   397.4274   2   9   0.2205   0.1909   0.5947  -0.0935  -0.1172   0.2433   0.00    1.1
2018/03/11 11:29:29.000   78.256795264   16.230299859   397.5792   2   9   0.2162   0.1875   0.5820  -0.0916  -0.1143   0.2378   0.00    1.1
2018/03/11 11:29:30.000   78.256795400   16.230299534   397.6575   2   9   0.2121   0.1842   0.5699  -0.0897  -0.1115   0.2325   0.00    1.1
2018/03/11 11:29:31.000   78.256795559   16.230299788   397.7693   2   9   0.2082   0.1812   0.5584  -0.0879  -0.1088   0.2274   0.00    1.1
2018/03/11 11:29:32.000   78.256795664   16.230302775   397.6865   2   9   0.2045   0.1782   0.5473  -0.0862  -0.1062   0.2225   0.00    1.1
2018/03/11 11:29:33.000   78.256796013   16.230304853   397.6137   2   9   0.2010   0.1754   0.5366  -0.0845  -0.1036   0.2178   0.00    1.1
2018/03/11 11:29:34.000   78.256796705   16.230305650   397.6526   2   9   0.1975   0.1727   0.5263  -0.0829  -0.1012   0.2133   0.00    1.1
2018/03/11 11:29:35.000   78.256796910   16.230305839   397.6892   2   9   0.1943   0.1702   0.5164  -0.0814  -0.0988   0.2089   0.00    1.1
2018/03/11 11:29:36.000   78.256796908   16.230305261   397.7138   2   9   0.1911   0.1677   0.5068  -0.0799  -0.0965   0.2047   0.00    1.1
2018/03/11 11:29:37.000   78.256797237   16.230302929   397.7519   2   9   0.1881   0.1653   0.4976  -0.0785  -0.0943   0.2006   0.00    1.2
2018/03/11 11:29:38.000   78.256797603   16.230303710   397.7557   2   9   0.1851   0.1630   0.4887  -0.0771  -0.0921   0.1966   0.00    1.2
2018/03/11 11:29:39.000   78.256797477   16.230304049   397.6609   2   9   0.1823   0.1608   0.4801  -0.0758  -0.0900   0.1928   0.00    1.2
2018/03/11 11:29:40.000   78.256797663   16.230302862   397.5974   2   9   0.1796   0.1587   0.4717  -0.0745  -0.0880   0.1891   0.00    1.2
2018/03/11 11:29:41.000   78.256797813   16.230302368   397.5065   2   9   0.1769   0.1567   0.4637  -0.0733  -0.0860   0.1854   0.00    1.2
2018/03/11 11:29:42.000   78.256798025   16.230299970   397.4138   2   9   0.1744   0.1547   0.4558  -0.0720  -0.0840   0.1819   0.00    1.2
2018/03/11 11:29:43.000   78.256798134   16.230297295   397.4545   2   9   0.1719   0.1528   0.4482  -0.0709  -0.0821   0.1785   0.00    1.2
2018/03/11 11:29:44.000   78.256798168   16.230296375   397.4904   2   8   0.1697   0.1511   0.4419  -0.0694  -0.0792   0.1758   0.00    1.2
2018/03/11 11:29:45.000   78.256798265   16.230296195   397.5522   2   8   0.1675   0.1495   0.4358  -0.0680  -0.0763   0.1732   0.00    1.2
2018/03/11 11:29:46.000   78.256798402   16.230296940   397.5313   2   8   0.1654   0.1479   0.4298  -0.0667  -0.0735   0.1706   0.00    1.2
2018/03/11 11:29:47.000   78.256798602   16.230296088   397.6269   2   8   0.1633   0.1463   0.4239  -0.0654  -0.0708   0.1681   0.00    1.2
2018/03/11 11:29:48.000   78.256798505   16.230295931   397.6828   2   8   0.1613   0.1448   0.4181  -0.0641  -0.0681   0.1656   0.00    1.2
2018/03/11 11:29:49.000   78.256798369   16.230295855   397.7168   2   8   0.1594   0.1434   0.4124  -0.0629  -0.0655   0.1631   0.00    1.0
2018/03/11 11:29:50.000   78.256798198   16.230294517   397.7241   2   8   0.1575   0.1420   0.4069  -0.0617  -0.0629   0.1607   0.00    1.0
2018/03/11 11:29:51.000   78.256798221   16.230294233   397.7050   2   8   0.1556   0.1406   0.4014  -0.0606  -0.0604   0.1583   0.00    1.0
2018/03/11 11:29:52.000   78.256798713   16.230296026   397.9316   2   9   0.1537   0.1391   0.3954  -0.0597  -0.0590   0.1556   0.00    1.0
2018/03/11 11:29:53.000   78.256799009   16.230295378   398.0681   2   9   0.1518   0.1377   0.3896  -0.0589  -0.0576   0.1530   0.00    1.1
2018/03/11 11:29:54.000   78.256799100   16.230294664   398.1793   2   9   0.1500   0.1363   0.3839  -0.0580  -0.0563   0.1504   0.00    1.1
2018/03/11 11:29:55.000   78.256799173   16.230293834   398.2093   2   9   0.1482   0.1350   0.3784  -0.0572  -0.0549   0.1478   0.00    1.1
2018/03/11 11:29:56.000   78.256798810   16.230294341   398.1632   2   8   0.1466   0.1338   0.3735  -0.0562  -0.0526   0.1457   0.00    1.1
2018/03/11 11:29:57.000   78.256798544   16.230294536   398.1358   2   9   0.1449   0.1325   0.3682  -0.0554  -0.0513   0.1433   0.00    1.0
2018/03/11 11:29:58.000   78.256798409   16.230293655   398.1612   2   9   0.1433   0.1312   0.3630  -0.0547  -0.0501   0.1409   0.00    1.1
2018/03/11 11:29:59.000   78.256798278   16.230293852   398.1884   2   8   0.1417   0.1301   0.3584  -0.0537  -0.0478   0.1388   0.00    1.1
2018/03/11 11:30:00.000   78.256797965   16.230294390   398.2078   2   8   0.1402   0.1290   0.3539  -0.0528  -0.0456   0.1368   0.00    1.0
2018/03/11 11:30:01.000   78.256797519   16.230295545   398.1863   2   8   0.1388   0.1280   0.3495  -0.0519  -0.0434   0.1349   0.00    1.0
2018/03/11 11:30:02.000   78.256797207   16.230296325   398.1920   2   8   0.1373   0.1269   0.3451  -0.0510  -0.0412   0.1329   0.00    1.0
2018/03/11 11:30:03.000   78.256797146   16.230296513   398.2229   2   8   0.1359   0.1259   0.3408  -0.0501  -0.0389   0.1310   0.00    1.0
2018/03/11 11:30:04.000   78.256797110   16.230296907   398.2217   2   8   0.1345   0.1249   0.3366  -0.0493  -0.0367   0.1291   0.00    1.1
2018/03/11 11:30:05.000   78.256797037   16.230297274   398.2230   2   8   0.1331   0.1240   0.3324  -0.0485  -0.0345   0.1273   0.00    1.1
2018/03/11 11:30:06.000   78.256796879   16.230298745   398.2246   2   8   0.1318   0.1230   0.3284  -0.0477  -0.0322   0.1254   0.00    1.1
2018/03/11 11:30:07.000   78.256796610   16.230299353   398.2113   2   8   0.1305   0.1221   0.3244  -0.0469  -0.0299   0.1236   0.00    1.1
2018/03/11 11:30:08.000   78.256796560   16.230301358   398.3001   2   9   0.1292   0.1211   0.3201  -0.0463  -0.0288   0.1216   0.00    1.2
2018/03/11 11:30:09.000   78.256796555   16.230302844   398.3658   2   9   0.1279   0.1201   0.3159  -0.0457  -0.0276   0.1197   0.00    1.2
2018/03/11 11:30:10.000   78.256796406   16.230303865   398.3734   2   9   0.1266   0.1191   0.3118  -0.0452  -0.0265   0.1178   0.00    1.2
2018/03/11 11:30:11.000   78.256796336   16.230304860   398.3837   2   9   0.1253   0.1182   0.3078  -0.0446  -0.0253   0.1159   0.00    1.2
2018/03/11 11:30:12.000   78.256796254   16.230305289   398.3571   2   9   0.1241   0.1172   0.3039  -0.0441  -0.0241   0.1141   0.00    1.2
2018/03/11 11:30:13.000   78.256796240   16.230305491   398.3406   2   9   0.1229   0.1163   0.3000  -0.0435  -0.0229   0.1123   0.00    1.2
2018/03/11 11:30:14.000   78.256796306   16.230305315   398.3237   2   9   0.1217   0.1154   0.2963  -0.0430  -0.0216   0.1106   0.00    1.1
2018/03/11 11:30:15.000   78.256796420   16.230305052   398.2946   2   9   0.1206   0.1146   0.2926  -0.0425  -0.0204   0.1088   0.00    1.1
2018/03/11 11:30:16.000   78.256796527   16.230304067   398.2561   2   9   0.1195   0.1137   0.2890  -0.0420  -0.0191   0.1072   0.00    1.1
2018/03/11 11:30:17.000   78.256796544   16.230302468   398.1835   2   9   0.1184   0.1129   0.2854  -0.0414  -0.0177   0.1055   0.00    1.1
2018/03/11 11:30:18.000   78.256796788   16.230301710   398.1731   2   8   0.1173   0.1121   0.2822  -0.0408  -0.0147   0.1040   0.00    1.2
2018/03/11 11:30:19.000   78.256796906   16.230300411   398.1016   2   9   0.1162   0.1113   0.2788  -0.0403  -0.0131   0.1025   0.00    1.2
2018/03/11 11:30:20.000   78.256797056   16.230299873   398.1127   2   9   0.1152   0.1105   0.2754  -0.0398  -0.0113   0.1009   0.00    1.2
2018/03/11 11:30:21.000   78.256797225   16.230299537   398.1239   2   9   0.1141   0.1097   0.2721  -0.0394  -0.0093   0.0994   0.00    1.3
2018/03/11 11:30:22.000   78.256797199   16.230299654   398.1675   2   9   0.1131   0.1090   0.2689  -0.0389  -0.0067   0.0979   0.00    1.3
2018/03/11 11:30:23.000   78.256797186   16.230299373   398.1945   2   9   0.1121   0.1082   0.2658  -0.0384  -0.0023   0.0964   0.00    1.3
2018/03/11 11:30:24.000   78.256797300   16.230300016   398.2430   2   9   0.1112   0.1075   0.2627  -0.0380   0.0058   0.0949   0.00    1.3
2018/03/11 11:30:25.000   78.256797299   16.230300462   398.2764   2   9   0.1102   0.1068   0.2596  -0.0375   0.0084   0.0935   0.00    1.3
2018/03/11 11:30:26.000   78.256797229   16.230300637   398.3209   2   9   0.1093   0.1060   0.2566  -0.0371   0.0103   0.0921   0.00    1.3
2018/03/11 11:30:27.000   78.256797118   16.230300658   398.3755   2   9   0.1083   0.1053   0.2537  -0.0366   0.0118   0.0908   0.00    1.3
2018/03/11 11:30:28.000   78.256797194   16.230300478   398.4117   2   9   0.1074   0.1046   0.2508  -0.0362   0.0132   0.0894   0.00    1.3
2018/03/11 11:30:29.000   78.256797299   16.230300771   398.4550   2   9   0.1065   0.1040   0.2480  -0.0358   0.0143   0.0881   0.00    1.3
2018/03/11 11:30:30.000   78.256797186   16.230301015   398.4771   2   9   0.1057   0.1033   0.2452  -0.0354   0.0154   0.0868   0.00    1.2
2018/03/11 11:30:31.000   78.256796945   16.230301292   398.5222   2   9   0.1048   0.1026   0.2425  -0.0349   0.0163   0.0855   0.00    1.2
2018/03/11 11:30:32.000   78.256796623   16.230301910   398.5244   2   9   0.1039   0.1020   0.2398  -0.0345   0.0172   0.0843   0.00    1.2
2018/03/11 11:30:33.000   78.256796363   16.230302762   398.5167   2   9   0.1031   0.1013   0.2372  -0.0341   0.0180   0.0831   0.00    1.2
2018/03/11 11:30:34.000   78.256796044   16.230302524   398.4869   2   9   0.1023   0.1007   0.2346  -0.0337   0.0187   0.0819   0.00    1.2
2018/03/11 11:30:35.000   78.256795753   16.230302400   398.4151   2   9   0.1015   0.1001   0.2321  -0.0333   0.0194   0.0807   0.00    1.2
2018/03/11 11:30:36.000   78.256795496   16.230302457   398.3446   2   9   0.1007   0.0995   0.2296  -0.0329   0.0200   0.0795   0.00    1.2
2018/03/11 11:30:37.000   78.256795307   16.230302471   398.2861   2   9   0.0999   0.0989   0.2271  -0.0326   0.0206   0.0784   0.00    1.2
2018/03/11 11:30:38.000   78.256795115   16.230302917   398.2575   2   9   0.0991   0.0983   0.2247  -0.0322   0.0211   0.0773   0.00    1.2
2018/03/11 11:30:39.000   78.256795059   16.230303326   398.2875   2   9   0.0983   0.0977   0.2223  -0.0318   0.0216   0.0762   0.00    1.2
2018/03/11 11:30:40.000   78.256795073   16.230303470   398.3100   2   9   0.0976   0.0971   0.2200  -0.0314   0.0221   0.0751   0.00    1.2
2018/03/11 11:30:41.000   78.256795169   16.230304103   398.3329   2   9   0.0968   0.0966   0.2177  -0.0311   0.0226   0.0740   0.00    1.2
2018/03/11 11:30:42.000   78.256795181   16.230304434   398.3560   2   9   0.0961   0.0960   0.2155  -0.0307   0.0230   0.0730   0.00    1.2
2018/03/11 11:30:43.000   78.256795152   16.230304873   398.3405   2   9   0.0954   0.0955   0.2133  -0.0304   0.0234   0.0719   0.00    1.2
2018/03/11 11:30:44.000   78.256795151   16.230305364   398.3462   2   9   0.0947   0.0949   0.2111  -0.0300   0.0238   0.0709   0.00    1.2
2018/03/11 11:30:45.000   78.256795200   16.230305526   398.3361   2   9   0.0940   0.0944   0.2089  -0.0297   0.0241   0.0699   0.00    1.2
2018/03/11 11:30:46.000   78.256795267   16.230305653   398.3202   2   9   0.0933   0.0938   0.2068  -0.0293   0.0245   0.0689   0.00    1.2
2018/03/11 11:30:47.000   78.256795323   16.230305792   398.3315   2   9   0.0926   0.0933   0.2048  -0.0290   0.0248   0.0680   0.00    1.2
2018/03/11 11:30:48.000   78.256795429   16.230305880   398.3326   2   9   0.0920   0.0928   0.2027  -0.0287   0.0251   0.0670   0.00    1.2
2018/03/11 11:30:49.000   78.256795564   16.230305811   398.3324   2   9   0.0913   0.0923   0.2007  -0.0283   0.0254   0.0661   0.00    1.2
2018/03/11 11:30:50.000   78.256795710   16.230305796   398.3288   2   9   0.0907   0.0918   0.1987  -0.0280   0.0256   0.0652   0.00    1.2
2018/03/11 11:30:51.000   78.256795812   16.230305338   398.3246   2   9   0.0900   0.0913   0.1968  -0.0277   0.0259   0.0643   0.00    1.2
2018/03/11 11:30:52.000   78.256795841   16.230304748   398.3166   2   9   0.0894   0.0908   0.1949  -0.0274   0.0261   0.0634   0.00    1.2
2018/03/11 11:30:53.000   78.256795811   16.230303752   398.2948   2   9   0.0888   0.0903   0.1930  -0.0270   0.0264   0.0625   0.00    1.2
2018/03/11 11:30:54.000   78.256795760   16.230303210   398.2798   2   9   0.0882   0.0898   0.1911  -0.0267   0.0266   0.0617   0.00    1.2
2018/03/11 11:30:55.000   78.256795600   16.230302404   398.2811   2   9   0.0876   0.0894   0.1893  -0.0264   0.0268   0.0608   0.00    1.2
2018/03/11 11:30:56.000   78.256795451   16.230302101   398.2804   2   9   0.0870   0.0889   0.1875  -0.0261   0.0270   0.0600   0.00    1.2
2018/03/11 11:30:57.000   78.256795441   16.230301782   398.3057   2   9   0.0864   0.0885   0.1858  -0.0258   0.0272   0.0592   0.00    1.2
2018/03/11 11:30:58.000   78.256795469   16.230301367   398.3417   2   9   0.0858   0.0880   0.1840  -0.0255   0.0273   0.0584   0.00    1.2
2018/03/11 11:30:59.000   78.256795355   16.230301460   398.3712   2   9   0.0852   0.0875   0.1823  -0.0252   0.0275   0.0576   0.00    1.2
2018/03/11 11:31:00.000   78.256795157   16.230301678   398.4023   2   9   0.0846   0.0871   0.1806  -0.0249   0.0276   0.0568   0.00    1.2
2018/03/11 11:31:01.000   78.256794979   16.230301795   398.4371   2   9   0.0841   0.0867   0.1789  -0.0247   0.0278   0.0561   0.00    1.2
2018/03/11 11:31:02.000   78.256794894   16.230302191   398.4715   2   9   0.0835   0.0862   0.1773  -0.0244   0.0279   0.0553   0.00    1.2
2018/03/11 11:31:03.000   78.256794756   16.230302753   398.4951   2   9   0.0830   0.0858   0.1757  -0.0241   0.0281   0.0546   0.00    1.2
2018/03/11 11:31:04.000   78.256794527   16.230303187   398.5090   2   9   0.0825   0.0854   0.1741  -0.0238   0.0282   0.0538   0.00    1.2
2018/03/11 11:31:05.000   78.256794287   16.230303664   398.5099   2   9   0.0819   0.0850   0.1725  -0.0235   0.0283   0.0531   0.00    1.2
2018/03/11 11:31:06.000   78.256794131   16.230304248   398.5029   2   9   0.0814   0.0845   0.1710  -0.0233   0.0284   0.0524   0.00    1.2
2018/03/11 11:31:07.000   78.256793963   16.230305019   398.5041   2   9   0.0809   0.0841   0.1695  -0.0230   0.0285   0.0517   0.00    1.2
2018/03/11 11:31:08.000   78.256793897   16.230306060   398.4954   2   9   0.0804   0.0837   0.1680  -0.0227   0.0286   0.0510   0.00    1.2
2018/03/11 11:31:09.000   78.256793753   16.230306601   398.4694   2   9   0.0799   0.0833   0.1665  -0.0225   0.0287   0.0503   0.00    1.2
2018/03/11 11:31:10.000   78.256793639   16.230307139   398.4340   2   9   0.0794   0.0829   0.1650  -0.0222   0.0288   0.0497   0.00    1.1
2018/03/11 11:31:11.000   78.256793636   16.230307573   398.4146   2   9   0.0789   0.0825   0.1636  -0.0219   0.0288   0.0490   0.00    1.1
2018/03/11 11:31:12.000   78.256793590   16.230307612   398.3897   2   9   0.0784   0.0822   0.1622  -0.0217   0.0289   0.0484   0.00    1.1
2018/03/11 11:31:13.000   78.256793571   16.230307822   398.3675   2   9   0.0779   0.0818   0.1608  -0.0214   0.0290   0.0477   0.00    1.1
2018/03/11 11:31:14.000   78.256793649   16.230308532   398.3478   2   9   0.0774   0.0814   0.1594  -0.0212   0.0290   0.0471   0.00    1.1
2018/03/11 11:31:15.000   78.256793718   16.230309368   398.3202   2   9   0.0770   0.0810   0.1581  -0.0209   0.0291   0.0465   0.00    1.1
2018/03/11 11:31:16.000   78.256793765   16.230309924   398.3078   2   9   0.0765   0.0806   0.1567  -0.0207   0.0291   0.0459   0.00    1.1
2018/03/11 11:31:17.000   78.256793865   16.230310083   398.3165   2   9   0.0761   0.0803   0.1554  -0.0204   0.0292   0.0453   0.00    1.0
2018/03/11 11:31:18.000   78.256793931   16.230310179   398.3279   2   9   0.0756   0.0799   0.1541  -0.0202   0.0292   0.0447   0.00    1.0
2018/03/11 11:31:19.000   78.256793996   16.230310515   398.3358   2   9   0.0752   0.0796   0.1528  -0.0200   0.0293   0.0441   0.00    1.0
2018/03/11 11:31:20.000   78.256793982   16.230311069   398.3423   2   9   0.0747   0.0792   0.1516  -0.0197   0.0293   0.0436   0.00    1.0
2018/03/11 11:31:21.000   78.256793910   16.230311583   398.3471   2   9   0.0743   0.0788   0.1503  -0.0195   0.0293   0.0430   0.00    1.0
2018/03/11 11:31:22.000   78.256793883   16.230311424   398.3578   2   9   0.0738   0.0785   0.1491  -0.0193   0.0294   0.0424   0.00    1.0
2018/03/11 11:31:23.000   78.256793943   16.230311318   398.3791   2   9   0.0734   0.0782   0.1479  -0.0190   0.0294   0.0419   0.00    1.0
2018/03/11 11:31:24.000   78.256793930   16.230311308   398.4034   2   9   0.0730   0.0778   0.1467  -0.0188   0.0294   0.0414   0.00    1.0
2018/03/11 11:31:25.000   78.256793824   16.230310808   398.4117   2   9   0.0726   0.0775   0.1455  -0.0186   0.0294   0.0408   0.00    1.0
2018/03/11 11:31:26.000   78.256793717   16.230310751   398.4181   2   9   0.0722   0.0771   0.1444  -0.0184   0.0294   0.0403   0.00    1.0
2018/03/11 11:31:27.000   78.256793604   16.230310404   398.4337   2   9   0.0718   0.0768   0.1432  -0.0181   0.0294   0.0398   0.00    1.0
2018/03/11 11:31:28.000   78.256793493   16.230310115   398.4552   2   9   0.0713   0.0765   0.1421  -0.0179   0.0295   0.0393   0.00    1.0
2018/03/11 11:31:29.000   78.256793387   16.230309831   398.4771   2   9   0.0709   0.0761   0.1410  -0.0177   0.0295   0.0388   0.00    1.0
2018/03/11 11:31:30.000   78.256793245   16.230309539   398.4901   2   9   0.0706   0.0758   0.1399  -0.0175   0.0295   0.0383   0.00    1.0
2018/03/11 11:31:31.000   78.256793211   16.230309321   398.4909   2   9   0.0702   0.0755   0.1388  -0.0173   0.0295   0.0378   0.00    1.0
2018/03/11 11:31:32.000   78.256793185   16.230309161   398.4941   2   9   0.0698   0.0752   0.1377  -0.0170   0.0295   0.0373   0.00    1.0
2018/03/11 11:31:33.000   78.256793150   16.230308696   398.5093   2   9   0.0694   0.0749   0.1366  -0.0168   0.0294   0.0368   0.00    1.0
2018/03/11 11:31:34.000   78.256793083   16.230308403   398.5263   2   9   0.0690   0.0746   0.1356  -0.0166   0.0294   0.0364   0.00    1.0
2018/03/11 11:31:35.000   78.256793098   16.230308316   398.5467   2   9   0.0686   0.0742   0.1346  -0.0164   0.0294   0.0359   0.00    1.0
2018/03/11 11:31:36.000   78.256793147   16.230308435   398.5616   2   9   0.0683   0.0739   0.1335  -0.0162   0.0294   0.0355   0.00    1.0
2018/03/11 11:31:37.000   78.256793089   16.230308770   398.5610   2   9   0.0679   0.0736   0.1325  -0.0160   0.0294   0.0350   0.00    1.0
2018/03/11 11:31:38.000   78.256793012   16.230308719   398.5611   2   9   0.0675   0.0733   0.1315  -0.0158   0.0294   0.0346   0.00    1.0
2018/03/11 11:31:39.000   78.256792951   16.230309032   398.5558   2   9   0.0672   0.0730   0.1306  -0.0156   0.0294   0.0341   0.00    1.0
2018/03/11 11:31:40.000   78.256792919   16.230309667   398.5508   2   9   0.0668   0.0727   0.1296  -0.0154   0.0294   0.0337   0.00    1.0
2018/03/11 11:31:41.000   78.256792887   16.230310053   398.5444   2   9   0.0665   0.0725   0.1286  -0.0152   0.0293   0.0333   0.00    1.1
2018/03/11 11:31:42.000   78.256792882   16.230310261   398.5310   2   9   0.0661   0.0722   0.1277  -0.0150   0.0293   0.0329   0.00    1.1
2018/03/11 11:31:43.000   78.256792903   16.230310495   398.5185   2   9   0.0658   0.0719   0.1268  -0.0148   0.0293   0.0325   0.00    1.1
2018/03/11 11:31:44.000   78.256792896   16.230310826   398.5229   2   9   0.0654   0.0716   0.1258  -0.0146   0.0293   0.0321   0.00    1.1
2018/03/11 11:31:45.000   78.256792920   16.230310997   398.5170   2   9   0.0651   0.0713   0.1249  -0.0144   0.0292   0.0317   0.00    1.1
2018/03/11 11:31:46.000   78.256793013   16.230311098   398.5151   2   9   0.0648   0.0710   0.1240  -0.0142   0.0292   0.0313   0.00    1.1
2018/03/11 11:31:47.000   78.256793147   16.230311286   398.5192   2   9   0.0644   0.0708   0.1232  -0.0140   0.0292   0.0309   0.00    1.1
2018/03/11 11:31:48.000   78.256793289   16.230311471   398.5141   2   9   0.0641   0.0705   0.1223  -0.0138   0.0291   0.0305   0.00    1.1
2018/03/11 11:31:49.000   78.256793401   16.230311748   398.5163   2   9   0.0638   0.0702   0.1214  -0.0137   0.0291   0.0301   0.00    1.1
2018/03/11 11:31:50.000   78.256793493   16.230311901   398.5143   2   9   0.0635   0.0699   0.1206  -0.0135   0.0291   0.0297   0.00    1.1
2018/03/11 11:31:51.000   78.256793533   16.230312063   398.5183   2   9   0.0632   0.0697   0.1197  -0.0133   0.0290   0.0294   0.00    1.1
2018/03/11 11:31:52.000   78.256793591   16.230311838   398.5273   2   9   0.0628   0.0694   0.1189  -0.0131   0.0290   0.0290   0.00    1.1
2018/03/11 11:31:53.000   78.256793657   16.230311518   398.5493   2   9   0.0625   0.0691   0.1181  -0.0129   0.0290   0.0286   0.00    1.1
2018/03/11 11:31:54.000   78.256793644   16.230311206   398.5789   2   9   0.0622   0.0689   0.1172  -0.0127   0.0289   0.0283   0.00    1.1
2018/03/11 11:31:55.000   78.256793656   16.230311004   398.6111   2   9   0.0619   0.0686   0.1164  -0.0125   0.0289   0.0279   0.00    1.1
2018/03/11 11:31:56.000   78.256793670   16.230310801   398.6341   2   9   0.0616   0.0684   0.1156  -0.0124   0.0288   0.0276   0.00    1.1
2018/03/11 11:31:57.000   78.256793655   16.230310669   398.6611   2   9   0.0613   0.0681   0.1148  -0.0122   0.0288   0.0272   0.00    1.1
2018/03/11 11:31:58.000   78.256793578   16.230310787   398.6884   2   9   0.0610   0.0678   0.1141  -0.0120   0.0288   0.0269   0.00    1.1
2018/03/11 11:31:59.000   78.256793436   16.230310634   398.7109   2   9   0.0607   0.0676   0.1133  -0.0118   0.0287   0.0266   0.00    1.1
2018/03/11 11:32:00.000   78.256793274   16.230310417   398.7285   2   9   0.0604   0.0673   0.1125  -0.0116   0.0287   0.0262   0.00    1.1
2018/03/11 11:32:01.000   78.256793156   16.230310250   398.7377   2   9   0.0601   0.0671   0.1118  -0.0115   0.0286   0.0259   0.00    1.1
2018/03/11 11:32:02.000   78.256793029   16.230309894   398.7423   2   9   0.0599   0.0668   0.1111  -0.0113   0.0286   0.0256   0.00    1.1
2018/03/11 11:32:03.000   78.256792856   16.230309719   398.7528   2   9   0.0596   0.0666   0.1103  -0.0111   0.0285   0.0253   0.00    1.1
2018/03/11 11:32:04.000   78.256792722   16.230309540   398.7582   2   9   0.0593   0.0664   0.1096  -0.0109   0.0285   0.0250   0.00    1.1
2018/03/11 11:32:05.000   78.256792644   16.230309647   398.7613   2   9   0.0590   0.0661   0.1089  -0.0108   0.0284   0.0247   0.00    1.1
2018/03/11 11:32:06.000   78.256792545   16.230310146   398.7614   2   9   0.0587   0.0659   0.1082  -0.0106   0.0284   0.0244   0.00    1.1
2018/03/11 11:32:07.000   78.256792466   16.230310714   398.7593   2   9   0.0585   0.0656   0.1075  -0.0104   0.0283   0.0241   0.00    1.1
2018/03/11 11:32:08.000   78.256792410   16.230311222   398.7517   2   9   0.0582   0.0654   0.1068  -0.0102   0.0283   0.0238   0.00    1.1
2018/03/11 11:32:09.000   78.256792410   16.230311935   398.7445   2   9   0.0579   0.0652   0.1061  -0.0101   0.0282   0.0235   0.00    1.1
2018/03/11 11:32:10.000   78.256792488   16.230312579   398.7296   2   9   0.0577   0.0650   0.1054  -0.0099   0.0282   0.0232   0.00    1.1
2018/03/11 11:32:11.000   78.256792572   16.230312954   398.7227   2   9   0.0574   0.0647   0.1047  -0.0097   0.0281   0.0229   0.00    1.1
2018/03/11 11:32:12.000   78.256792610   16.230313055   398.7143   2   9   0.0572   0.0645   0.1041  -0.0095   0.0281   0.0226   0.00    1.1
2018/03/11 11:32:13.000   78.256792667   16.230313015   398.7065   2   9   0.0569   0.0643   0.1034  -0.0094   0.0280   0.0223   0.00    1.1
2018/03/11 11:32:14.000   78.256792703   16.230313298   398.7055   2   9   0.0566   0.0640   0.1028  -0.0092   0.0280   0.0221   0.00    1.1
2018/03/11 11:32:15.000   78.256792725   16.230313498   398.7030   2   9   0.0564   0.0638   0.1021  -0.0090   0.0279   0.0218   0.00    1.1
2018/03/11 11:32:16.000   78.256792733   16.230313576   398.7007   2   9   0.0561   0.0636   0.1015  -0.0089   0.0279   0.0215   0.00    1.1
2018/03/11 11:32:17.000   78.256792785   16.230313501   398.7022   2   9   0.0559   0.0634   0.1009  -0.0087   0.0278   0.0213   0.00    1.1
2018/03/11 11:32:18.000   78.256792852   16.230313682   398.7037   2   9   0.0556   0.0632   0.1003  -0.0085   0.0278   0.0210   0.00    1.1
2018/03/11 11:32:19.000   78.256792878   16.230313809   398.7062   2   9   0.0554   0.0629   0.0997  -0.0083   0.0277   0.0207   0.00    1.1
2018/03/11 11:32:20.000   78.256792893   16.230313962   398.7137   2   9   0.0552   0.0627   0.0990  -0.0082   0.0276   0.0205   0.00    1.1
2018/03/11 11:32:21.000   78.256792953   16.230313976   398.7235   2   9   0.0549   0.0625   0.0984  -0.0080   0.0276   0.0202   0.00    1.1
2018/03/11 11:32:22.000   78.256792998   16.230313878   398.7331   2   9   0.0547   0.0623   0.0979  -0.0078   0.0275   0.0200   0.00    1.1
2018/03/11 11:32:23.000   78.256792972   16.230313874   398.7528   2   9   0.0544   0.0621   0.0973  -0.0077   0.0275   0.0197   0.00    1.1
2018/03/11 11:32:24.000   78.256792914   16.230313886   398.7720   2   9   0.0542   0.0619   0.0967  -0.0075   0.0274   0.0195   0.00    1.1
2018/03/11 11:32:25.000   78.256792825   16.230313691   398.7808   2   9   0.0540   0.0617   0.0961  -0.0073   0.0274   0.0192   0.00    1.1
2018/03/11 11:32:26.000   78.256792736   16.230313674   398.7901   2   9   0.0537   0.0615   0.0955  -0.0071   0.0273   0.0190   0.00    1.1
2018/03/11 11:32:27.000   78.256792670   16.230313900   398.7989   2   9   0.0535   0.0613   0.0950  -0.0070   0.0272   0.0188   0.00    1.2
2018/03/11 11:32:28.000   78.256792641   16.230314104   398.8074   2   9   0.0533   0.0611   0.0944  -0.0068   0.0272   0.0185   0.00    1.2
2018/03/11 11:32:29.000   78.256792591   16.230314400   398.8189   2   9   0.0531   0.0609   0.0939  -0.0066   0.0271   0.0183   0.00    1.2
2018/03/11 11:32:30.000   78.256792537   16.230314455   398.8301   2   9   0.0528   0.0607   0.0933  -0.0064   0.0271   0.0181   0.00    1.2
2018/03/11 11:32:31.000   78.256792460   16.230314621   398.8488   2   9   0.0526   0.0605   0.0928  -0.0062   0.0270   0.0179   0.00    1.2
2018/03/11 11:32:32.000   78.256792352   16.230314566   398.8601   2   9   0.0524   0.0603   0.0922  -0.0061   0.0270   0.0176   0.00    1.2
2018/03/11 11:32:33.000   78.256792284   16.230314746   398.8695   2   9   0.0522   0.0601   0.0917  -0.0059   0.0269   0.0174   0.00    1.2
2018/03/11 11:32:34.000   78.256792206   16.230315047   398.8680   2   9   0.0520   0.0599   0.0912  -0.0057   0.0268   0.0172   0.00    1.2
2018/03/11 11:32:35.000   78.256792159   16.230315387   398.8522   2   9   0.0518   0.0597   0.0907  -0.0055   0.0268   0.0170   0.00    1.2
2018/03/11 11:32:36.000   78.256792102   16.230315833   398.8344   2   9   0.0516   0.0595   0.0902  -0.0053   0.0267   0.0168   0.00    1.2
2018/03/11 11:32:37.000   78.256792064   16.230316302   398.8215   2   9   0.0513   0.0593   0.0897  -0.0051   0.0267   0.0166   0.00    1.2
2018/03/11 11:32:38.000   78.256792057   16.230316501   398.8087   2   9   0.0511   0.0591   0.0892  -0.0049   0.0266   0.0163   0.00    1.2
2018/03/11 11:32:39.000   78.256792045   16.230316620   398.7979   2   9   0.0509   0.0589   0.0887  -0.0047   0.0265   0.0161   0.00    1.2
2018/03/11 11:32:40.000   78.256792051   16.230316850   398.7885   2   9   0.0507   0.0587   0.0882  -0.0045   0.0265   0.0159   0.00    1.2
2018/03/11 11:32:41.000   78.256792098   16.230317048   398.7813   2   9   0.0505   0.0586   0.0877  -0.0043   0.0264   0.0157   0.00    1.2
2018/03/11 11:32:42.000   78.256792157   16.230317057   398.7723   2   9   0.0503   0.0584   0.0872  -0.0040   0.0264   0.0155   0.00    1.2
2018/03/11 11:32:43.000   78.256792200   16.230317132   398.7648   2   9   0.0501   0.0582   0.0867  -0.0038   0.0263   0.0153   0.00    1.2
2018/03/11 11:32:44.000   78.256792201   16.230317062   398.7602   2   9   0.0499   0.0580   0.0862  -0.0036   0.0262   0.0151   0.00    1.2
2018/03/11 11:32:45.000   78.256792220   16.230316987   398.7521   2   9   0.0497   0.0578   0.0858  -0.0033   0.0262   0.0149   0.00    1.2
2018/03/11 11:32:46.000   78.256792202   16.230317152   398.7485   2   9   0.0495   0.0576   0.0853  -0.0030   0.0261   0.0148   0.00    1.2
2018/03/11 11:32:47.000   78.256792159   16.230317337   398.7469   2   9   0.0493   0.0575   0.0848  -0.0027   0.0261   0.0146   0.00    1.2
2018/03/11 11:32:48.000   78.256792107   16.230317340   398.7449   2   9   0.0492   0.0573   0.0844  -0.0024   0.0260   0.0144   0.00    1.2
2018/03/11 11:32:49.000   78.256792077   16.230317324   398.7520   2   9   0.0490   0.0571   0.0839  -0.0020   0.0259   0.0142   0.00    1.2
2018/03/11 11:32:50.000   78.256792089   16.230317270   398.7592   2   9   0.0488   0.0569   0.0835  -0.0016   0.0259   0.0140   0.00    1.2
2018/03/11 11:32:51.000   78.256792105   16.230317245   398.7669   2   9   0.0486   0.0568   0.0831  -0.0010   0.0258   0.0138   0.00    1.2
2018/03/11 11:32:52.000   78.256792119   16.230317243   398.7718   2   9   0.0484   0.0566   0.0826   0.0008   0.0258   0.0136   0.00    1.2
2018/03/11 11:32:53.000   78.256792111   16.230317347   398.7741   2   9   0.0482   0.0564   0.0822   0.0015   0.0257   0.0135   0.00    1.2
2018/03/11 11:32:54.000   78.256792063   16.230317457   398.7756   2   9   0.0480   0.0563   0.0818   0.0019   0.0256   0.0133   0.00    1.2
2018/03/11 11:32:55.000   78.256792028   16.230317562   398.7790   2   9   0.0479   0.0561   0.0813   0.0023   0.0256   0.0131   0.00    1.2
2018/03/11 11:32:56.000   78.256791986   16.230317607   398.7801   2   9   0.0477   0.0559   0.0809   0.0026   0.0255   0.0129   0.00    1.2
2018/03/11 11:32:57.000   78.256791944   16.230317708   398.7811   2   9   0.0475   0.0557   0.0805   0.0028   0.0255   0.0128   0.00    1.2
2018/03/11 11:32:58.000   78.256791870   16.230317667   398.7798   2   9   0.0473   0.0556   0.0801   0.0030   0.0254   0.0126   0.00    1.2
2018/03/11 11:32:59.000   78.256791842   16.230317695   398.7751   2   9   0.0471   0.0554   0.0797   0.0033   0.0253   0.0124   0.00    1.2
2018/03/11 11:33:00.000   78.256791813   16.230317867   398.7703   2   9   0.0470   0.0553   0.0793   0.0035   0.0253   0.0123   0.00    1.2
2018/03/11 11:33:01.000   78.256791775   16.230317882   398.7687   2   9   0.0468   0.0551   0.0789   0.0036   0.0252   0.0121   0.00    1.2
2018/03/11 11:33:02.000   78.256791774   16.230317817   398.7660   2   9   0.0466   0.0549   0.0785   0.0038   0.0252   0.0119   0.00    1.2
2018/03/11 11:33:03.000   78.256791780   16.230317905   398.7585   2   9   0.0465   0.0548   0.0781   0.0040   0.0251   0.0118   0.00    1.2
2018/03/11 11:33:04.000   78.256791798   16.230318077   398.7455   2   9   0.0463   0.0546   0.0777   0.0041   0.0251   0.0116   0.00    1.2
2018/03/11 11:33:05.000   78.256791801   16.230318267   398.7301   2   9   0.0461   0.0544   0.0773   0.0043   0.0250   0.0114   0.00    1.2
2018/03/11 11:33:06.000   78.256791790   16.230318288   398.7239   2   9   0.0460   0.0543   0.0769   0.0044   0.0249   0.0113   0.00    1.2
2018/03/11 11:33:07.000   78.256791782   16.230318243   398.7223   2   9   0.0458   0.0541   0.0765   0.0045   0.0249   0.0111   0.00    1.2
2018/03/11 11:33:08.000   78.256791754   16.230318125   398.7244   2   9   0.0456   0.0540   0.0761   0.0047   0.0248   0.0110   0.00    1.2
2018/03/11 11:33:09.000   78.256791703   16.230317960   398.7288   2   9   0.0455   0.0538   0.0758   0.0048   0.0248   0.0108   0.00    1.2
2018/03/11 11:33:10.000   78.256791635   16.230317926   398.7326   2   9   0.0453   0.0537   0.0754   0.0049   0.0247   0.0107   0.00    1.2
2018/03/11 11:33:11.000   78.256791549   16.230317955   398.7360   2   9   0.0451   0.0535   0.0750   0.0050   0.0246   0.0105   0.00    1.2
2018/03/11 11:33:12.000   78.256791500   16.230317983   398.7373   2   9   0.0450   0.0534   0.0747   0.0051   0.0246   0.0104   0.00    1.2
2018/03/11 11:33:13.000   78.256791479   16.230317854   398.7335   2   9   0.0448   0.0532   0.0743   0.0052   0.0245   0.0102   0.00    1.2
2018/03/11 11:33:14.000   78.256791469   16.230318013   398.7264   2   9   0.0447   0.0531   0.0739   0.0053   0.0245   0.0101   0.00    1.2
2018/03/11 11:33:15.000   78.256791488   16.230318219   398.7228   2   9   0.0445   0.0529   0.0736   0.0054   0.0244   0.0099   0.00    1.2
2018/03/11 11:33:16.000   78.256791507   16.230318362   398.7187   2   9   0.0444   0.0528   0.0732   0.0055   0.0244   0.0098   0.00    1.2
2018/03/11 11:33:17.000   78.256791493   16.230318470   398.7156   2   9   0.0442   0.0526   0.0729   0.0056   0.0243   0.0096   0.00    1.2
2018/03/11 11:33:18.000   78.256791482   16.230318393   398.7117   2   9   0.0441   0.0525   0.0725   0.0057   0.0242   0.0095   0.00    1.2
2018/03/11 11:33:19.000   78.256791456   16.230318329   398.7062   2   9   0.0439   0.0523   0.0722   0.0057   0.0242   0.0093   0.00    1.2
2018/03/11 11:33:20.000   78.256791436   16.230318418   398.7008   2   9   0.0438   0.0522   0.0719   0.0058   0.0241   0.0092   0.00    1.2
2018/03/11 11:33:21.000   78.256791429   16.230318503   398.6935   2   9   0.0436   0.0520   0.0715   0.0059   0.0241   0.0090   0.00    1.2
2018/03/11 11:33:22.000   78.256791448   16.230318343   398.6815   2   9   0.0435   0.0519   0.0712   0.0060   0.0240   0.0089   0.00    1.2
2018/03/11 11:33:23.000   78.256791467   16.230318192   398.6722   2   9   0.0433   0.0517   0.0709   0.0060   0.0239   0.0088   0.00    1.3
2018/03/11 11:33:24.000   78.256791485   16.230318214   398.6640   2   9   0.0432   0.0516   0.0705   0.0061   0.0239   0.0086   0.00    1.3
2018/03/11 11:33:25.000   78.256791508   16.230318297   398.6577   2   9   0.0430   0.0515   0.0702   0.0062   0.0238   0.0085   0.00    1.3
2018/03/11 11:33:26.000   78.256791544   16.230318304   398.6557   2   9   0.0429   0.0513   0.0699   0.0062   0.0238   0.0083   0.00    1.3
2018/03/11 11:33:27.000   78.256791559   16.230318205   398.6537   2   9   0.0427   0.0512   0.0696   0.0063   0.0237   0.0082   0.00    1.3
2018/03/11 11:33:28.000   78.256791559   16.230318136   398.6541   2   9   0.0426   0.0510   0.0693   0.0064   0.0237   0.0081   0.00    1.3
2018/03/11 11:33:29.000   78.256791543   16.230318057   398.6553   2   9   0.0425   0.0509   0.0689   0.0064   0.0236   0.0079   0.00    1.3
2018/03/11 11:33:30.000   78.256791512   16.230318009   398.6511   2   9   0.0423   0.0508   0.0686   0.0065   0.0236   0.0078   0.00    1.3
2018/03/11 11:33:31.000   78.256791475   16.230317946   398.6485   2   9   0.0422   0.0506   0.0683   0.0065   0.0235   0.0077   0.00    1.3
2018/03/11 11:33:32.000   78.256791420   16.230317786   398.6454   2   9   0.0420   0.0505   0.0680   0.0066   0.0234   0.0075   0.00    1.3
2018/03/11 11:33:33.000   78.256791350   16.230317673   398.6450   2   9   0.0419   0.0504   0.0677   0.0066   0.0234   0.0074   0.00    1.3
2018/03/11 11:33:34.000   78.256791300   16.230317651   398.6427   2   9   0.0418   0.0502   0.0674   0.0067   0.0233   0.0073   0.00    1.3
2018/03/11 11:33:35.000   78.256791285   16.230317611   398.6428   2   9   0.0416   0.0501   0.0671   0.0067   0.0233   0.0071   0.00    1.3
2018/03/11 11:33:36.000   78.256791279   16.230317607   398.6440   2   9   0.0415   0.0500   0.0668   0.0068   0.0232   0.0070   0.00    1.3
2018/03/11 11:33:37.000   78.256791277   16.230317549   398.6426   2   9   0.0414   0.0498   0.0665   0.0068   0.0232   0.0069   0.00    1.3
2018/03/11 11:33:38.000   78.256791242   16.230317523   398.6396   2   9   0.0412   0.0497   0.0662   0.0069   0.0231   0.0067   0.00    1.3
2018/03/11 11:33:39.000   78.256791215   16.230317573   398.6343   2   9   0.0411   0.0496   0.0659   0.0069   0.0231   0.0066   0.00    1.3
2018/03/11 11:33:40.000   78.256791175   16.230317765   398.6271   2   9   0.0410   0.0494   0.0657   0.0070   0.0230   0.0065   0.00    1.3
2018/03/11 11:33:41.000   78.256791146   16.230317787   398.6173   2   9   0.0408   0.0493   0.0654   0.0070   0.0229   0.0064   0.00    1.3
2018/03/11 11:33:42.000   78.256791136   16.230317945   398.6068   2   9   0.0407   0.0492   0.0651   0.0071   0.0229   0.0062   0.00    1.3
2018/03/11 11:33:43.000   78.256791127   16.230317973   398.5955   2   9   0.0406   0.0491   0.0648   0.0071   0.0228   0.0061   0.00    1.3
2018/03/11 11:33:44.000   78.256791134   16.230318091   398.5865   2   9   0.0405   0.0489   0.0645   0.0071   0.0228   0.0060   0.00    1.3
2018/03/11 11:33:45.000   78.256791144   16.230318164   398.5778   2   9   0.0403   0.0488   0.0643   0.0072   0.0227   0.0058   0.00    1.3
2018/03/11 11:33:46.000   78.256791174   16.230318220   398.5722   2   9   0.0402   0.0487   0.0640   0.0072   0.0227   0.0057   0.00    1.3
2018/03/11 11:33:47.000   78.256791224   16.230318199   398.5696   2   9   0.0401   0.0486   0.0637   0.0072   0.0226   0.0056   0.00    1.3
2018/03/11 11:33:48.000   78.256791267   16.230318090   398.5659   2   9   0.0400   0.0484   0.0634   0.0073   0.0226   0.0055   0.00    1.3
2018/03/11 11:33:49.000   78.256791304   16.230318034   398.5617   2   9   0.0398   0.0483   0.0632   0.0073   0.0225   0.0053   0.00    1.3
2018/03/11 11:33:50.000   78.256791331   16.230318099   398.5561   2   9   0.0397   0.0482   0.0629   0.0073   0.0225   0.0052   0.00    1.3
2018/03/11 11:33:51.000   78.256791358   16.230318121   398.5493   2   9   0.0396   0.0481   0.0627   0.0074   0.0224   0.0051   0.00    1.3
2018/03/11 11:33:52.000   78.256791365   16.230318252   398.5445   2   9   0.0395   0.0479   0.0624   0.0074   0.0224   0.0049   0.00    1.3
2018/03/11 11:33:53.000   78.256791349   16.230318278   398.5399   2   9   0.0394   0.0478   0.0621   0.0074   0.0223   0.0048   0.00    1.3
2018/03/11 11:33:54.000   78.256791322   16.230318241   398.5401   2   9   0.0392   0.0477   0.0619   0.0075   0.0223   0.0047   0.00    1.3
2018/03/11 11:33:55.000   78.256791287   16.230318082   398.5415   2   9   0.0391   0.0476   0.0616   0.0075   0.0222   0.0045   0.00    1.3
2018/03/11 11:33:56.000   78.256791235   16.230317949   398.5452   2   9   0.0390   0.0475   0.0614   0.0075   0.0222   0.0044   0.00    1.3
2018/03/11 11:33:57.000   78.256791197   16.230317760   398.5487   2   9   0.0389   0.0473   0.0611   0.0076   0.0221   0.0043   0.00    1.3
2018/03/11 11:33:58.000   78.256791176   16.230317556   398.5491   2   9   0.0388   0.0472   0.0609   0.0076   0.0220   0.0041   0.00    1.3
2018/03/11 11:33:59.000   78.256791163   16.230317459   398.5475   2   9   0.0387   0.0471   0.0606   0.0076   0.0220   0.0040   0.00    1.3
2018/03/11 11:34:00.000   78.256791123   16.230317445   398.5446   2   9   0.0385   0.0470   0.0604   0.0076   0.0219   0.0038   0.00    1.3
2018/03/11 11:34:01.000   78.256791075   16.230317353   398.5415   2   9   0.0384   0.0469   0.0601   0.0077   0.0219   0.0037   0.00    1.3
2018/03/11 11:34:02.000   78.256791018   16.230317335   398.5388   2   9   0.0383   0.0468   0.0599   0.0077   0.0218   0.0035   0.00    1.3
2018/03/11 11:34:03.000   78.256790979   16.230317403   398.5330   2   9   0.0382   0.0466   0.0597   0.0077   0.0218   0.0034   0.00    1.3
2018/03/11 11:34:04.000   78.256790935   16.230317257   398.5289   2   9   0.0381   0.0465   0.0594   0.0077   0.0217   0.0032   0.00    1.3
2018/03/11 11:34:05.000   78.256790918   16.230317131   398.5247   2   9   0.0380   0.0464   0.0592   0.0078   0.0217   0.0031   0.00    1.3
2018/03/11 11:34:06.000   78.256790923   16.230317150   398.5185   2   9   0.0379   0.0463   0.0590   0.0078   0.0216   0.0029   0.00    1.3
2018/03/11 11:34:07.000   78.256790904   16.230317143   398.5147   2   9   0.0378   0.0462   0.0587   0.0078   0.0216   0.0028   0.00    1.3
2018/03/11 11:34:08.000   78.256790906   16.230317045   398.5105   2   9   0.0377   0.0461   0.0585   0.0078   0.0215   0.0026   0.00    1.3
2018/03/11 11:34:09.000   78.256790929   16.230316932   398.5039   2   9   0.0376   0.0460   0.0583   0.0078   0.0215   0.0024   0.00    1.3
2018/03/11 11:34:10.000   78.256790958   16.230317007   398.4975   2   9   0.0374   0.0459   0.0580   0.0079   0.0214   0.0022   0.00    1.3
2018/03/11 11:34:11.000   78.256790983   16.230317030   398.4889   2   9   0.0373   0.0458   0.0578   0.0079   0.0214   0.0020   0.00    1.4
2018/03/11 11:34:12.000   78.256790988   16.230316985   398.4798   2   9   0.0372   0.0456   0.0576   0.0079   0.0213   0.0018   0.00    1.4
2018/03/11 11:34:13.000   78.256790994   16.230316989   398.4724   2   9   0.0371   0.0455   0.0574   0.0079   0.0213   0.0015   0.00    1.4
2018/03/11 11:34:14.000   78.256791000   16.230317012   398.4654   2   9   0.0370   0.0454   0.0572   0.0079   0.0212   0.0012   0.00    1.4
2018/03/11 11:34:15.000   78.256791010   16.230316921   398.4571   2   9   0.0369   0.0453   0.0569   0.0080   0.0212   0.0008   0.00    1.4
2018/03/11 11:34:16.000   78.256791008   16.230316854   398.4481   2   9   0.0368   0.0452   0.0567   0.0080   0.0211  -0.0004   0.00    1.4
2018/03/11 11:34:17.000   78.256790994   16.230316902   398.4419   2   9   0.0367   0.0451   0.0565   0.0080   0.0211  -0.0010   0.00    1.4
2018/03/11 11:34:18.000   78.256790969   16.230316838   398.4383   2   9   0.0366   0.0450   0.0563   0.0080   0.0211  -0.0013   0.00    1.4
2018/03/11 11:34:19.000   78.256790939   16.230316769   398.4364   2   9   0.0365   0.0449   0.0561   0.0080   0.0210  -0.0016   0.00    1.4
2018/03/11 11:34:20.000   78.256790924   16.230316707   398.4333   2   9   0.0364   0.0448   0.0559   0.0080   0.0210  -0.0018   0.00    1.4
2018/03/11 11:34:21.000   78.256790946   16.230316578   398.4282   2   9   0.0363   0.0447   0.0557   0.0081   0.0209  -0.0020   0.00    1.4
2018/03/11 11:34:22.000   78.256790961   16.230316456   398.4235   2   9   0.0362   0.0446   0.0555   0.0081   0.0209  -0.0021   0.00    1.4
2018/03/11 11:34:23.000   78.256790954   16.230316345   398.4218   2   9   0.0361   0.0445   0.0552   0.0081   0.0208  -0.0023   0.00    1.4
2018/03/11 11:34:24.000   78.256790924   16.230316321   398.4226   2   9   0.0360   0.0444   0.0550   0.0081   0.0208  -0.0024   0.00    1.4
2018/03/11 11:34:25.000   78.256790894   16.230316263   398.4215   2   9   0.0359   0.0443   0.0548   0.0081   0.0207  -0.0026   0.00    1.4
2018/03/11 11:34:26.000   78.256790869   16.230316233   398.4204   2   9   0.0358   0.0442   0.0546   0.0081   0.0207  -0.0027   0.00    1.4
2018/03/11 11:34:27.000   78.256790844   16.230316262   398.4202   2   9   0.0357   0.0441   0.0544   0.0081   0.0206  -0.0028   0.00    1.4
2018/03/11 11:34:28.000   78.256790845   16.230316463   398.4189   2   9   0.0356   0.0440   0.0542   0.0081   0.0206  -0.0029   0.00    1.4
2018/03/11 11:34:29.000   78.256790835   16.230316494   398.4159   2   9   0.0355   0.0439   0.0540   0.0082   0.0205  -0.0030   0.00    1.4
2018/03/11 11:34:30.000   78.256790828   16.230316499   398.4122   2   9   0.0355   0.0438   0.0538   0.0082   0.0205  -0.0031   0.00    1.4
2018/03/11 11:34:31.000   78.256790824   16.230316556   398.4112   2   9   0.0354   0.0437   0.0537   0.0082   0.0204  -0.0032   0.00    1.4
2018/03/11 11:34:32.000   78.256790844   16.230316594   398.4100   2   9   0.0353   0.0436   0.0535   0.0082   0.0204  -0.0033   0.00    1.4
2018/03/11 11:34:33.000   78.256790878   16.230316369   398.4081   2   9   0.0352   0.0435   0.0533   0.0082   0.0204  -0.0034   0.00    1.4
2018/03/11 11:34:34.000   78.256790891   16.230316209   398.4036   2   9   0.0351   0.0434   0.0531   0.0082   0.0203  -0.0034   0.00    1.4
2018/03/11 11:34:35.000   78.256790902   16.230316138   398.3962   2   9   0.0350   0.0433   0.0529   0.0082   0.0203  -0.0035   0.00    1.4
2018/03/11 11:34:36.000   78.256790909   16.230315935   398.3881   2   9   0.0349   0.0432   0.0527   0.0082   0.0202  -0.0036   0.00    1.4
2018/03/11 11:34:37.000   78.256790899   16.230315872   398.3801   2   9   0.0348   0.0431   0.0525   0.0082   0.0202  -0.0036   0.00    1.4
2018/03/11 11:34:38.000   78.256790892   16.230315755   398.3718   2   9   0.0347   0.0430   0.0523   0.0083   0.0201  -0.0037   0.00    1.4
2018/03/11 11:34:39.000   78.256790904   16.230315644   398.3637   2   9   0.0346   0.0429   0.0521   0.0083   0.0201  -0.0038   0.00    1.4
2018/03/11 11:34:40.000   78.256790894   16.230315679   398.3561   2   9   0.0345   0.0428   0.0520   0.0083   0.0200  -0.0038   0.00    1.4
2018/03/11 11:34:41.000   78.256790889   16.230315567   398.3518   2   9   0.0345   0.0427   0.0518   0.0083   0.0200  -0.0039   0.00    1.4
2018/03/11 11:34:42.000   78.256790894   16.230315497   398.3488   2   9   0.0344   0.0426   0.0516   0.0083   0.0199  -0.0040   0.00    1.4
2018/03/11 11:34:43.000   78.256790882   16.230315306   398.3452   2   9   0.0343   0.0425   0.0514   0.0083   0.0199  -0.0040   0.00    1.3
2018/03/11 11:34:44.000   78.256790896   16.230315077   398.3434   2   9   0.0342   0.0424   0.0512   0.0083   0.0199  -0.0041   0.00    1.3
2018/03/11 11:34:45.000   78.256790899   16.230314889   398.3406   2   9   0.0341   0.0423   0.0511   0.0083   0.0198  -0.0041   0.00    1.3
2018/03/11 11:34:46.000   78.256790896   16.230314864   398.3350   2   9   0.0340   0.0423   0.0509   0.0083   0.0198  -0.0042   0.00    1.3
2018/03/11 11:34:47.000   78.256790885   16.230314810   398.3278   2   9   0.0339   0.0422   0.0507   0.0083   0.0197  -0.0042   0.00    1.3
2018/03/11 11:34:48.000   78.256790871   16.230314907   398.3212   2   9   0.0338   0.0421   0.0505   0.0083   0.0197  -0.0043   0.00    1.3
2018/03/11 11:34:49.000   78.256790856   16.230314865   398.3166   2   9   0.0338   0.0420   0.0504   0.0083   0.0196  -0.0043   0.00    1.3
2018/03/11 11:34:50.000   78.256790850   16.230314977   398.3169   2   9   0.0337   0.0419   0.0502   0.0083   0.0196  -0.0043   0.00    1.3
2018/03/11 11:34:51.000   78.256790847   16.230314921   398.3157   2   9   0.0336   0.0418   0.0500   0.0083   0.0196  -0.0044   0.00    1.3
2018/03/11 11:34:52.000   78.256790840   16.230314879   398.3162   2   9   0.0335   0.0417   0.0499   0.0084   0.0195  -0.0044   0.00    1.3
2018/03/11 11:34:53.000   78.256790821   16.230314845   398.3164   2   9   0.0334   0.0416   0.0497   0.0084   0.0195  -0.0045   0.00    1.3
2018/03/11 11:34:54.000   78.256790809   16.230314840   398.3165   2   9   0.0334   0.0415   0.0495   0.0084   0.0194  -0.0045   0.00    1.3
2018/03/11 11:34:55.000   78.256790809   16.230314842   398.3153   2   9   0.0333   0.0414   0.0494   0.0084   0.0194  -0.0045   0.00    1.3
2018/03/11 11:34:56.000   78.256790810   16.230314852   398.3168   2   9   0.0332   0.0414   0.0492   0.0084   0.0193  -0.0046   0.00    1.3
2018/03/11 11:34:57.000   78.256790820   16.230314983   398.3147   2   9   0.0331   0.0413   0.0490   0.0084   0.0193  -0.0046   0.00    1.3
2018/03/11 11:34:58.000   78.256790822   16.230315131   398.3138   2   9   0.0330   0.0412   0.0489   0.0084   0.0193  -0.0047   0.00    1.3
2018/03/11 11:34:59.000   78.256790817   16.230315195   398.3108   2   9   0.0329   0.0411   0.0487   0.0084   0.0192  -0.0047   0.00    1.3
2018/03/11 11:35:00.000   78.256790821   16.230315225   398.3076   2   9   0.0329   0.0410   0.0486   0.0084   0.0192  -0.0047   0.00    1.3
2018/03/11 11:35:01.000   78.256790830   16.230315250   398.3054   2   9   0.0328   0.0409   0.0484   0.0084   0.0191  -0.0047   0.00    1.3
2018/03/11 11:35:02.000   78.256790840   16.230315256   398.3032   2   9   0.0327   0.0408   0.0482   0.0084   0.0191  -0.0048   0.00    1.3
2018/03/11 11:35:03.000   78.256790844   16.230315250   398.2983   2   9   0.0326   0.0408   0.0481   0.0084   0.0191  -0.0048   0.00    1.3
2018/03/11 11:35:39.000   78.256790838   16.230315320   398.2987   2   9   0.0326   0.0407   0.0481   0.0084   0.0190  -0.0048   0.00    1.5
2018/03/11 11:35:40.000   78.256790831   16.230315387   398.2984   2   9   0.0326   0.0407   0.0481   0.0083   0.0190  -0.0047   0.00    1.7
2018/03/11 11:35:41.000   78.256790824   16.230315425   398.2990   2   9   0.0326   0.0406   0.0481   0.0083   0.0190  -0.0047   0.00    1.8
2018/03/11 11:35:42.000   78.256790817   16.230315451   398.2995   2   9   0.0326   0.0406   0.0481   0.0083   0.0190  -0.0047   0.00    1.8
2018/03/11 11:35:43.000   78.256790807   16.230315478   398.3007   2   9   0.0326   0.0406   0.0480   0.0083   0.0190  -0.0047   0.00    1.7
2018/03/11 11:35:44.000   78.256790789   16.230315503   398.3019   2   9   0.0325   0.0405   0.0480   0.0082   0.0189  -0.0046   0.00    1.7
2018/03/11 11:35:45.000   78.256790778   16.230315549   398.3024   2   9   0.0325   0.0405   0.0480   0.0082   0.0189  -0.0046   0.00    1.6
2018/03/11 11:35:46.000   78.256790767   16.230315632   398.3039   2   9   0.0325   0.0405   0.0480   0.0082   0.0189  -0.0046   0.00    1.6
2018/03/11 11:35:47.000   78.256790753   16.230315710   398.3052   2   9   0.0325   0.0404   0.0480   0.0082   0.0189  -0.0045   0.00    1.6
2018/03/11 11:35:48.000   78.256790741   16.230315812   398.3058   2   9   0.0325   0.0404   0.0480   0.0081   0.0189  -0.0045   0.00    1.5
2018/03/11 11:35:49.000   78.256790720   16.230315797   398.3069   2   9   0.0324   0.0404   0.0480   0.0081   0.0188  -0.0045   0.00    1.5
2018/03/11 11:35:50.000   78.256790699   16.230315789   398.3077   2   9   0.0324   0.0403   0.0480   0.0081   0.0188  -0.0044   0.00    1.4
2018/03/11 11:35:51.000   78.256790688   16.230315956   398.3096   2   9   0.0324   0.0403   0.0480   0.0081   0.0188  -0.0044   0.00    1.4
2018/03/11 11:35:52.000   78.256790677   16.230316129   398.3111   2   9   0.0324   0.0403   0.0480   0.0080   0.0188  -0.0044   0.00    1.3
2018/03/11 11:35:53.000   78.256790673   16.230316090   398.3113   2   9   0.0324   0.0402   0.0480   0.0080   0.0188  -0.0043   0.00    1.3
2018/03/11 11:35:54.000   78.256790681   16.230316073   398.3111   2   9   0.0324   0.0402   0.0480   0.0080   0.0187  -0.0043   0.00    1.2
2018/03/11 11:35:55.000   78.256790686   16.230316042   398.3106   2   9   0.0323   0.0402   0.0479   0.0080   0.0187  -0.0043   0.00    1.2
2018/03/11 11:35:56.000   78.256790693   16.230316027   398.3096   2   9   0.0323   0.0401   0.0479   0.0079   0.0187  -0.0042   0.00    1.1
2018/03/11 11:35:57.000   78.256790692   16.230316058   398.3090   2   9   0.0323   0.0401   0.0479   0.0079   0.0187  -0.0042   0.00    1.1
2018/03/11 11:35:58.000   78.256790700   16.230316101   398.3082   2   9   0.0323   0.0401   0.0479   0.0079   0.0187  -0.0042   0.00    1.0
2018/03/11 11:35:59.000   78.256790695   16.230316146   398.3080   2   9   0.0323   0.0400   0.0479   0.0079   0.0186  -0.0041   0.00    1.0
2018/03/11 11:36:00.000   78.256790673   16.230316126   398.3083   2   9   0.0323   0.0400   0.0479   0.0078   0.0186  -0.0041   0.00    1.0
2018/03/11 11:36:01.000   78.256790652   16.230316075   398.3095   2   9   0.0322   0.0400   0.0479   0.0078   0.0186  -0.0041   0.00    1.0
2018/03/11 11:36:02.000   78.256790634   16.230316044   398.3102   2   9   0.0322   0.0399   0.0479   0.0078   0.0186  -0.0041   0.00    1.1
2018/03/11 11:36:03.000   78.256790624   16.230316072   398.3099   2   9   0.0322   0.0399   0.0479   0.0078   0.0186  -0.0040   0.00    1.1
2018/03/11 11:36:04.000   78.256790626   16.230316108   398.3095   2   9   0.0322   0.0399   0.0479   0.0077   0.0186  -0.0040   0.00    1.1
2018/03/11 11:36:05.000   78.256790632   16.230316032   398.3085   2   9   0.0322   0.0398   0.0479   0.0077   0.0185  -0.0040   0.00    1.1
2018/03/11 11:36:06.000   78.256790642   16.230316013   398.3081   2   9   0.0322   0.0398   0.0478   0.0077   0.0185  -0.0039   0.00    1.1
2018/03/11 11:36:07.000   78.256790640   16.230315959   398.3085   2   9   0.0321   0.0398   0.0478   0.0077   0.0185  -0.0039   0.00    1.1
2018/03/11 11:36:08.000   78.256790633   16.230315871   398.3084   2   9   0.0321   0.0397   0.0478   0.0076   0.0185  -0.0039   0.00    1.1
2018/03/11 11:36:09.000   78.256790630   16.230315945   398.3084   2   9   0.0321   0.0397   0.0478   0.0076   0.0185  -0.0038   0.00    1.1
2018/03/11 11:36:10.000   78.256790632   16.230316080   398.3082   2   9   0.0321   0.0397   0.0478   0.0076   0.0184  -0.0038   0.00    1.1
2018/03/11 11:36:11.000   78.256790638   16.230316159   398.3084   2   9   0.0321   0.0396   0.0478   0.0076   0.0184  -0.0038   0.00    1.1
2018/03/11 11:36:12.000   78.256790633   16.230316218   398.3089   2   9   0.0321   0.0396   0.0478   0.0075   0.0184  -0.0037   0.00    1.1
2018/03/11 11:36:13.000   78.256790631   16.230316279   398.3100   2   9   0.0320   0.0396   0.0478   0.0075   0.0184  -0.0037   0.00    1.1
2018/03/11 11:36:14.000   78.256790636   16.230316266   398.3110   2   9   0.0320   0.0395   0.0478   0.0075   0.0184  -0.0036   0.00    1.1
2018/03/11 11:36:15.000   78.256790653   16.230316367   398.3117   2   9   0.0320   0.0395   0.0478   0.0075   0.0183  -0.0036   0.00    1.1
2018/03/11 11:36:16.000   78.256790661   16.230316475   398.3125   2   9   0.0320   0.0395   0.0477   0.0074   0.0183  -0.0036   0.00    1.1
2018/03/11 11:36:17.000   78.256790669   16.230316538   398.3120   2   9   0.0320   0.0394   0.0477   0.0074   0.0183  -0.0035   0.00    1.1
2018/03/11 11:36:18.000   78.256790666   16.230316626   398.3121   2   9   0.0319   0.0394   0.0477   0.0074   0.0183  -0.0035   0.00    1.1
2018/03/11 11:36:19.000   78.256790670   16.230316726   398.3117   2   9   0.0319   0.0394   0.0477   0.0074   0.0183  -0.0035   0.00    1.1
2018/03/11 11:36:20.000   78.256790666   16.230316770   398.3111   2   9   0.0319   0.0393   0.0477   0.0074   0.0182  -0.0034   0.00    1.1
2018/03/11 11:36:21.000   78.256790662   16.230316820   398.3099   2   9   0.0319   0.0393   0.0477   0.0073   0.0182  -0.0034   0.00    1.1
2018/03/11 11:36:22.000   78.256790656   16.230316858   398.3096   2   9   0.0319   0.0393   0.0477   0.0073   0.0182  -0.0034   0.00    1.1
2018/03/11 11:36:23.000   78.256790662   16.230316786   398.3095   2   9   0.0319   0.0392   0.0477   0.0073   0.0182  -0.0033   0.00    1.1
2018/03/11 11:36:24.000   78.256790660   16.230316710   398.3095   2   9   0.0318   0.0392   0.0477   0.0073   0.0182  -0.0033   0.00    1.1
2018/03/11 11:36:25.000   78.256790664   16.230316703   398.3102   2   9   0.0318   0.0392   0.0477   0.0072   0.0182  -0.0033   0.00    1.1
2018/03/11 11:36:26.000   78.256790674   16.230316574   398.3099   2   9   0.0318   0.0391   0.0476   0.0072   0.0181  -0.0032   0.00    1.1
2018/03/11 11:36:27.000   78.256790700   16.230316527   398.3089   2   9   0.0318   0.0391   0.0476   0.0072   0.0181  -0.0032   0.00    1.1
2018/03/11 11:36:28.000   78.256790717   16.230316574   398.3081   2   9   0.0318   0.0391   0.0476   0.0072   0.0181  -0.0032   0.00    1.1
2018/03/11 11:36:29.000   78.256790733   16.230316589   398.3074   2   9   0.0317   0.0390   0.0476   0.0071   0.0181  -0.0031   0.00    1.1
