% program   : RTKPOST ver.2.4.2
% inp file  : Z:\home\linda\Documents\Spring18\GitHub_Unis\data\processed_data\4625074B.obs
% inp file  : Z:\home\linda\Documents\Spring18\GitHub_Unis\data\base_station_data\lyrs0740.18o
% inp file  : Z:\home\linda\Documents\Spring18\GitHub_Unis\data\processed_data\4625074B.nav
% obs start : 2018/03/15 11:21:35.0 GPST (week1992 386495.0s)
% obs end   : 2018/03/15 11:38:20.0 GPST (week1992 387500.0s)
% pos mode  : static
% freqs     : L1+L2
% solution  : forward
% elev mask : 15.0 deg
% dynamics  : on
% tidecorr  : off
% ionos opt : broadcast
% tropo opt : saastamoinen
% ephemeris : broadcast
% navi sys  : gps glonass galileo qzss sbas
% amb res   : fix and hold
% amb glo   : on
% val thres : 3.0
% antenna1  :                       ( 0.0000  0.0000  0.0000)
% antenna2  :                       ( 0.0000  0.0000  0.0000)
% ref pos   : 78.228825638   15.397310064   495.6816
%
% (lat/lon/height=WGS84/ellipsoidal,Q=1:fix,2:float,3:sbas,4:dgps,5:single,6:ppp,ns=# of satellites)
%  GPST                  latitude(deg) longitude(deg)  height(m)   Q  ns   sdn(m)   sde(m)   sdu(m)  sdne(m)  sdeu(m)  sdun(m) age(s)  ratio
2018/03/15 11:21:35.000   78.246539376   16.035470485   493.8361   2   8   0.5233   0.4899   1.9092  -0.1969  -0.3335   0.7677   0.00    1.4
2018/03/15 11:21:36.000   78.246537440   16.035466348   493.8752   2   8   0.3724   0.3488   1.3604  -0.1409  -0.2403   0.5473   0.00    1.3
2018/03/15 11:21:37.000   78.246536440   16.035471215   493.9344   2   8   0.3046   0.2854   1.1131  -0.1154  -0.1973   0.4479   0.00    1.2
2018/03/15 11:21:38.000   78.246534413   16.035475280   493.5305   2   8   0.2639   0.2475   0.9645  -0.1001  -0.1712   0.3881   0.00    1.0
2018/03/15 11:21:39.000   78.246533622   16.035478179   493.2128   2   8   0.2361   0.2215   0.8625  -0.0895  -0.1532   0.3470   0.00    1.0
2018/03/15 11:21:40.000   78.246532751   16.035479593   493.2470   2   8   0.2155   0.2023   0.7868  -0.0817  -0.1398   0.3165   0.00    1.2
2018/03/15 11:21:41.000   78.246532569   16.035478322   493.0765   2   8   0.1994   0.1873   0.7277  -0.0756  -0.1292   0.2926   0.00    1.2
2018/03/15 11:21:42.000   78.246532828   16.035477409   492.9440   2   8   0.1864   0.1752   0.6797  -0.0706  -0.1206   0.2732   0.00    1.3
2018/03/15 11:21:43.000   78.246533020   16.035475999   492.9071   2   8   0.1756   0.1652   0.6398  -0.0665  -0.1134   0.2571   0.00    1.4
2018/03/15 11:21:44.000   78.246533342   16.035474729   492.9148   2   8   0.1664   0.1567   0.6057  -0.0628  -0.1070   0.2432   0.00    1.3
2018/03/15 11:21:45.000   78.246532977   16.035475860   492.7242   2   8   0.1584   0.1494   0.5764  -0.0598  -0.1017   0.2314   0.00    1.6
2018/03/15 11:21:46.000   78.246532327   16.035477440   492.3649   2   7   0.1522   0.1437   0.5564  -0.0591  -0.1030   0.2236   0.00    1.3
2018/03/15 11:21:47.000   78.246532049   16.035478386   492.2492   2   7   0.1488   0.1381   0.5373  -0.0575  -0.0995   0.2184   0.00    1.3
2018/03/15 11:21:48.000   78.246531394   16.035479889   492.0751   2   8   0.1446   0.1330   0.5194  -0.0558  -0.0963   0.2124   0.00    1.1
2018/03/15 11:21:49.000   78.246531333   16.035479432   491.9832   2   8   0.1407   0.1285   0.5030  -0.0542  -0.0932   0.2067   0.00    1.2
2018/03/15 11:21:50.000   78.246531583   16.035478523   491.9918   2   8   0.1370   0.1244   0.4880  -0.0528  -0.0905   0.2014   0.00    1.3
2018/03/15 11:21:51.000   78.246531681   16.035477571   491.9938   2   8   0.1336   0.1206   0.4741  -0.0514  -0.0879   0.1964   0.00    1.4
2018/03/15 11:21:52.000   78.246531517   16.035477814   491.9472   2   8   0.1305   0.1172   0.4612  -0.0502  -0.0856   0.1918   0.00    1.3
2018/03/15 11:21:53.000   78.246531940   16.035477351   491.9531   2   8   0.1275   0.1141   0.4493  -0.0490  -0.0834   0.1873   0.00    1.1
2018/03/15 11:21:54.000   78.246532139   16.035477945   491.9693   2   8   0.1247   0.1111   0.4381  -0.0479  -0.0813   0.1832   0.00    1.2
2018/03/15 11:21:55.000   78.246532421   16.035477859   491.9772   2   7   0.1222   0.1087   0.4293  -0.0462  -0.0774   0.1799   0.00    1.3
2018/03/15 11:21:56.000   78.246532455   16.035478510   491.9365   2   7   0.1199   0.1065   0.4209  -0.0447  -0.0737   0.1768   0.00    1.2
2018/03/15 11:21:57.000   78.246531972   16.035479180   491.7861   2   7   0.1169   0.1043   0.4114  -0.0429  -0.0698   0.1724   0.00    1.3
2018/03/15 11:21:58.000   78.246531728   16.035479768   491.6801   2   7   0.1140   0.1023   0.4025  -0.0412  -0.0662   0.1683   0.00    1.2
2018/03/15 11:21:59.000   78.246531747   16.035479841   491.6323   2   6   0.1117   0.1006   0.3962  -0.0404  -0.0649   0.1655   0.00    1.2
2018/03/15 11:22:00.000   78.246531759   16.035479114   491.5825   2   6   0.1101   0.0990   0.3912  -0.0398  -0.0641   0.1638   0.00    1.0
2018/03/15 11:22:01.000   78.246531879   16.035479039   491.5668   2   6   0.1086   0.0975   0.3864  -0.0393  -0.0633   0.1622   0.00    1.1
2018/03/15 11:22:02.000   78.246531428   16.035480134   491.4186   2   6   0.1071   0.0961   0.3815  -0.0388  -0.0624   0.1605   0.00    1.0
2018/03/15 11:22:03.000   78.246531466   16.035480421   491.4581   2   7   0.1055   0.0945   0.3757  -0.0376  -0.0600   0.1580   0.00    1.7
2018/03/15 11:22:04.000   78.246532501   16.035481648   491.6446   2   5   0.1038   0.0934   0.3717  -0.0370  -0.0604   0.1557   0.00    1.2
2018/03/15 11:22:05.000   78.246533996   16.035482064   492.0221   2   6   0.1018   0.0921   0.3658  -0.0357  -0.0587   0.1526   0.00    1.3
2018/03/15 11:22:06.000   78.246535180   16.035482221   492.3186   2   7   0.0998   0.0907   0.3590  -0.0350  -0.0585   0.1491   0.00    1.3
2018/03/15 11:22:07.000   78.246535902   16.035482031   492.4319   2   7   0.0980   0.0894   0.3525  -0.0343  -0.0583   0.1458   0.00    1.1
2018/03/15 11:22:08.000   78.246536237   16.035482149   492.4399   2   7   0.0962   0.0882   0.3463  -0.0336  -0.0580   0.1427   0.00    1.0
2018/03/15 11:22:09.000   78.246536362   16.035481919   492.4967   2   7   0.0949   0.0870   0.3412  -0.0332  -0.0580   0.1405   0.00    1.0
2018/03/15 11:22:10.000   78.246536800   16.035481617   492.5268   2   6   0.0937   0.0860   0.3376  -0.0332  -0.0593   0.1389   0.00    1.1
2018/03/15 11:22:11.000   78.246537624   16.035482457   492.6620   2   6   0.0923   0.0850   0.3333  -0.0330  -0.0602   0.1367   0.00    1.2
2018/03/15 11:22:12.000   78.246538739   16.035483057   492.8686   2   6   0.0909   0.0841   0.3291  -0.0328  -0.0609   0.1345   0.00    1.3
2018/03/15 11:22:13.000   78.246540063   16.035483281   493.1182   2   6   0.0896   0.0832   0.3251  -0.0326  -0.0615   0.1325   0.00    1.0
2018/03/15 11:22:14.000   78.246541256   16.035483375   493.3470   2   7   0.0883   0.0822   0.3205  -0.0322  -0.0611   0.1303   0.00    1.1
2018/03/15 11:22:15.000   78.246542457   16.035483391   493.6138   2   7   0.0870   0.0812   0.3161  -0.0319  -0.0607   0.1283   0.00    1.0
2018/03/15 11:22:16.000   78.246543514   16.035483239   493.8501   2   7   0.0858   0.0803   0.3118  -0.0315  -0.0603   0.1262   0.00    1.1
2018/03/15 11:22:17.000   78.246544480   16.035483077   494.0672   2   7   0.0846   0.0793   0.3076  -0.0311  -0.0599   0.1243   0.00    1.0
2018/03/15 11:22:18.000   78.246545343   16.035483069   494.2914   2   7   0.0834   0.0784   0.3034  -0.0308  -0.0594   0.1224   0.00    1.1
2018/03/15 11:22:19.000   78.246546293   16.035482721   494.5370   2   7   0.0823   0.0776   0.2994  -0.0304  -0.0589   0.1205   0.00    1.2
2018/03/15 11:22:20.000   78.246547203   16.035482532   494.7421   2   7   0.0812   0.0767   0.2954  -0.0300  -0.0583   0.1186   0.00    1.2
2018/03/15 11:22:21.000   78.246548012   16.035482193   494.9511   2   7   0.0802   0.0759   0.2916  -0.0297  -0.0578   0.1168   0.00    1.2
2018/03/15 11:22:22.000   78.246548669   16.035481863   495.1290   2   7   0.0791   0.0751   0.2877  -0.0293  -0.0572   0.1151   0.00    1.3
2018/03/15 11:22:23.000   78.246549320   16.035481744   495.3307   2   7   0.0781   0.0743   0.2840  -0.0289  -0.0566   0.1133   0.00    1.3
2018/03/15 11:22:24.000   78.246549845   16.035481658   495.4694   2   7   0.0771   0.0736   0.2803  -0.0286  -0.0560   0.1116   0.00    1.3
2018/03/15 11:22:25.000   78.246550389   16.035481649   495.6052   2   7   0.0761   0.0728   0.2767  -0.0282  -0.0554   0.1100   0.00    1.3
2018/03/15 11:22:26.000   78.246550603   16.035481199   495.6661   2   7   0.0752   0.0721   0.2731  -0.0279  -0.0548   0.1083   0.00    1.5
2018/03/15 11:22:27.000   78.246550369   16.035481193   495.5931   2   7   0.0744   0.0715   0.2700  -0.0274  -0.0537   0.1070   0.00    1.2
2018/03/15 11:22:28.000   78.246550147   16.035481329   495.5662   2   7   0.0737   0.0710   0.2669  -0.0269  -0.0526   0.1057   0.00    1.3
2018/03/15 11:22:29.000   78.246549843   16.035481325   495.4767   2   8   0.0729   0.0704   0.2633  -0.0265  -0.0518   0.1042   0.00    1.0
2018/03/15 11:22:30.000   78.246549663   16.035481364   495.4343   2   9   0.0720   0.0696   0.2593  -0.0261  -0.0509   0.1024   0.00    1.1
2018/03/15 11:22:31.000   78.246549611   16.035481197   495.4686   2   8   0.0715   0.0689   0.2559  -0.0258  -0.0502   0.1012   0.00    1.3
2018/03/15 11:22:32.000   78.246549426   16.035480741   495.4692   2   9   0.0709   0.0682   0.2526  -0.0255  -0.0495   0.0998   0.00    1.5
2018/03/15 11:22:33.000   78.246549281   16.035480270   495.5035   2   9   0.0702   0.0675   0.2494  -0.0252  -0.0488   0.0986   0.00    1.4
2018/03/15 11:22:34.000   78.246549171   16.035480091   495.5081   2   9   0.0696   0.0668   0.2462  -0.0249  -0.0481   0.0973   0.00    1.4
2018/03/15 11:22:35.000   78.246549016   16.035479668   495.5094   2   9   0.0690   0.0661   0.2431  -0.0246  -0.0475   0.0961   0.00    1.4
2018/03/15 11:22:36.000   78.246548792   16.035479529   495.4913   2   9   0.0684   0.0655   0.2401  -0.0243  -0.0468   0.0949   0.00    1.1
2018/03/15 11:22:37.000   78.246548573   16.035479083   495.5031   2   9   0.0679   0.0649   0.2372  -0.0240  -0.0461   0.0937   0.00    1.0
2018/03/15 11:22:38.000   78.246548356   16.035479240   495.4919   2   9   0.0673   0.0642   0.2343  -0.0238  -0.0454   0.0926   0.00    1.0
2018/03/15 11:22:39.000   78.246548247   16.035479058   495.4837   2   9   0.0667   0.0636   0.2315  -0.0235  -0.0448   0.0914   0.00    1.3
2018/03/15 11:22:40.000   78.246548124   16.035479141   495.4673   2   9   0.0662   0.0631   0.2288  -0.0232  -0.0441   0.0903   0.00    1.1
2018/03/15 11:22:41.000   78.246547976   16.035478818   495.4396   2   9   0.0657   0.0625   0.2262  -0.0229  -0.0435   0.0893   0.00    1.0
2018/03/15 11:22:42.000   78.246547809   16.035478695   495.4467   2   9   0.0652   0.0619   0.2236  -0.0226  -0.0428   0.0882   0.00    1.1
2018/03/15 11:22:43.000   78.246547556   16.035478673   495.4101   2   9   0.0645   0.0614   0.2208  -0.0223  -0.0421   0.0870   0.00    1.0
2018/03/15 11:22:44.000   78.246547314   16.035478517   495.3919   2   9   0.0639   0.0608   0.2181  -0.0219  -0.0413   0.0858   0.00    1.0
2018/03/15 11:22:45.000   78.246547057   16.035478450   495.3662   2   9   0.0633   0.0603   0.2154  -0.0216  -0.0406   0.0846   0.00    1.0
2018/03/15 11:22:46.000   78.246546720   16.035478623   495.3061   2   9   0.0627   0.0598   0.2129  -0.0213  -0.0399   0.0834   0.00    1.0
2018/03/15 11:22:47.000   78.246546440   16.035478390   495.2335   2   9   0.0622   0.0593   0.2103  -0.0210  -0.0392   0.0823   0.00    1.0
2018/03/15 11:22:48.000   78.246546185   16.035478362   495.1812   2   9   0.0616   0.0588   0.2079  -0.0206  -0.0385   0.0812   0.00    1.0
2018/03/15 11:22:49.000   78.246546059   16.035478199   495.1686   2   8   0.0611   0.0584   0.2057  -0.0203  -0.0376   0.0802   0.00    1.0
2018/03/15 11:22:50.000   78.246545980   16.035477661   495.1830   2   8   0.0606   0.0579   0.2035  -0.0199  -0.0367   0.0793   0.00    1.0
2018/03/15 11:22:51.000   78.246545919   16.035477055   495.2164   2   9   0.0601   0.0574   0.2012  -0.0196  -0.0360   0.0782   0.00    1.1
2018/03/15 11:22:52.000   78.246545847   16.035476634   495.2590   2   9   0.0596   0.0570   0.1989  -0.0193  -0.0354   0.0772   0.00    1.0
2018/03/15 11:22:53.000   78.246545683   16.035476627   495.2669   2   9   0.0591   0.0566   0.1966  -0.0190  -0.0347   0.0762   0.00    1.0
2018/03/15 11:22:54.000   78.246545461   16.035476635   495.2454   2   9   0.0586   0.0561   0.1944  -0.0187  -0.0340   0.0752   0.00    1.0
2018/03/15 11:22:55.000   78.246545225   16.035476575   495.2114   2   9   0.0581   0.0557   0.1922  -0.0184  -0.0334   0.0742   0.00    1.0
2018/03/15 11:22:56.000   78.246545068   16.035476564   495.2138   2   9   0.0576   0.0553   0.1901  -0.0181  -0.0327   0.0733   0.00    1.0
2018/03/15 11:22:57.000   78.246544957   16.035476334   495.2208   2   9   0.0571   0.0549   0.1880  -0.0179  -0.0321   0.0723   0.00    1.0
2018/03/15 11:22:58.000   78.246544889   16.035475959   495.2450   2   9   0.0567   0.0545   0.1859  -0.0176  -0.0314   0.0714   0.00    1.1
2018/03/15 11:22:59.000   78.246544753   16.035475781   495.2531   2   9   0.0562   0.0541   0.1838  -0.0173  -0.0308   0.0705   0.00    1.1
2018/03/15 11:23:00.000   78.246544557   16.035475816   495.2362   2   9   0.0558   0.0537   0.1818  -0.0171  -0.0301   0.0696   0.00    1.0
2018/03/15 11:23:01.000   78.246544312   16.035475887   495.2041   2   9   0.0553   0.0533   0.1799  -0.0168  -0.0295   0.0687   0.00    1.0
2018/03/15 11:23:02.000   78.246544073   16.035476050   495.1551   2   9   0.0549   0.0530   0.1779  -0.0166  -0.0289   0.0678   0.00    1.0
2018/03/15 11:23:03.000   78.246543835   16.035476059   495.1009   2   9   0.0545   0.0526   0.1760  -0.0163  -0.0282   0.0670   0.00    1.0
2018/03/15 11:23:04.000   78.246543620   16.035476086   495.0649   2   9   0.0541   0.0522   0.1741  -0.0160  -0.0276   0.0661   0.00    1.0
2018/03/15 11:23:05.000   78.246543431   16.035476129   495.0368   2   9   0.0536   0.0519   0.1722  -0.0158  -0.0270   0.0653   0.00    1.1
2018/03/15 11:23:06.000   78.246543221   16.035476189   495.0053   2   9   0.0532   0.0515   0.1703  -0.0156  -0.0264   0.0645   0.00    1.1
2018/03/15 11:23:07.000   78.246543015   16.035476116   494.9643   2   9   0.0528   0.0512   0.1685  -0.0153  -0.0257   0.0636   0.00    1.1
2018/03/15 11:23:08.000   78.246542867   16.035476063   494.9497   2   9   0.0524   0.0509   0.1667  -0.0151  -0.0251   0.0628   0.00    1.1
2018/03/15 11:23:09.000   78.246542704   16.035476066   494.9172   2   9   0.0520   0.0505   0.1650  -0.0148  -0.0245   0.0620   0.00    1.1
2018/03/15 11:23:10.000   78.246542519   16.035476339   494.8641   2   9   0.0517   0.0502   0.1632  -0.0146  -0.0239   0.0613   0.00    1.1
2018/03/15 11:23:11.000   78.246542315   16.035476477   494.8163   2   9   0.0513   0.0499   0.1615  -0.0144  -0.0233   0.0605   0.00    1.1
2018/03/15 11:23:12.000   78.246542123   16.035476671   494.7655   2   9   0.0509   0.0496   0.1598  -0.0141  -0.0226   0.0597   0.00    1.1
2018/03/15 11:23:13.000   78.246541949   16.035476985   494.7043   2   9   0.0505   0.0493   0.1581  -0.0139  -0.0220   0.0590   0.00    1.1
2018/03/15 11:23:14.000   78.246541750   16.035477315   494.6578   2   9   0.0502   0.0490   0.1564  -0.0137  -0.0214   0.0582   0.00    1.1
2018/03/15 11:23:15.000   78.246541676   16.035477365   494.6336   2   9   0.0498   0.0487   0.1548  -0.0135  -0.0208   0.0575   0.00    1.1
2018/03/15 11:23:16.000   78.246541636   16.035477337   494.6378   2   9   0.0495   0.0484   0.1531  -0.0133  -0.0202   0.0568   0.00    1.1
2018/03/15 11:23:17.000   78.246541513   16.035477607   494.6124   2   9   0.0491   0.0481   0.1515  -0.0131  -0.0195   0.0560   0.00    1.1
2018/03/15 11:23:18.000   78.246541358   16.035477973   494.5708   2   9   0.0488   0.0478   0.1500  -0.0128  -0.0189   0.0553   0.00    1.0
2018/03/15 11:23:19.000   78.246541184   16.035478328   494.5209   2   9   0.0484   0.0475   0.1484  -0.0126  -0.0183   0.0546   0.00    1.0
2018/03/15 11:23:20.000   78.246541036   16.035478792   494.4638   2   9   0.0481   0.0472   0.1469  -0.0124  -0.0176   0.0539   0.00    1.0
2018/03/15 11:23:21.000   78.246540870   16.035479179   494.3917   2   9   0.0477   0.0470   0.1453  -0.0122  -0.0170   0.0533   0.00    1.0
2018/03/15 11:23:22.000   78.246540714   16.035479451   494.3293   2   9   0.0474   0.0467   0.1438  -0.0120  -0.0164   0.0526   0.00    1.0
2018/03/15 11:23:23.000   78.246540526   16.035479804   494.2557   2   9   0.0471   0.0464   0.1423  -0.0118  -0.0157   0.0519   0.00    1.0
2018/03/15 11:23:24.000   78.246540343   16.035480085   494.1769   2   9   0.0468   0.0462   0.1409  -0.0116  -0.0151   0.0513   0.00    1.0
2018/03/15 11:23:25.000   78.246540135   16.035480533   494.0931   2   9   0.0464   0.0459   0.1394  -0.0114  -0.0144   0.0506   0.00    1.0
2018/03/15 11:23:26.000   78.246539948   16.035480987   493.9992   2   9   0.0461   0.0456   0.1380  -0.0112  -0.0137   0.0500   0.00    1.0
2018/03/15 11:23:27.000   78.246539849   16.035481259   493.9359   2   9   0.0458   0.0454   0.1366  -0.0111  -0.0130   0.0493   0.00    1.0
2018/03/15 11:23:28.000   78.246539745   16.035481405   493.9087   2   9   0.0455   0.0451   0.1352  -0.0109  -0.0123   0.0487   0.00    1.0
2018/03/15 11:23:29.000   78.246539620   16.035481538   493.8686   2   9   0.0452   0.0449   0.1338  -0.0107  -0.0116   0.0481   0.00    1.0
2018/03/15 11:23:30.000   78.246539488   16.035481654   493.8347   2   9   0.0449   0.0447   0.1324  -0.0105  -0.0108   0.0475   0.00    1.0
2018/03/15 11:23:31.000   78.246539369   16.035481905   493.7932   2   9   0.0446   0.0444   0.1311  -0.0103  -0.0100   0.0469   0.00    1.0
2018/03/15 11:23:32.000   78.246539197   16.035482229   493.7451   2   9   0.0443   0.0442   0.1298  -0.0102  -0.0092   0.0463   0.00    1.0
2018/03/15 11:23:33.000   78.246539073   16.035482471   493.6967   2   9   0.0440   0.0440   0.1285  -0.0100  -0.0083   0.0457   0.00    1.0
2018/03/15 11:23:34.000   78.246538968   16.035482583   493.6489   2   9   0.0438   0.0437   0.1272  -0.0098  -0.0074   0.0451   0.00    1.0
2018/03/15 11:23:35.000   78.246538837   16.035482627   493.6042   2   9   0.0435   0.0435   0.1259  -0.0096  -0.0063   0.0445   0.00    1.0
2018/03/15 11:23:36.000   78.246538730   16.035482706   493.5440   2   9   0.0432   0.0433   0.1247  -0.0095  -0.0050   0.0440   0.00    1.0
2018/03/15 11:23:37.000   78.246538584   16.035482936   493.4821   2   9   0.0429   0.0431   0.1236  -0.0093  -0.0033   0.0435   0.00    1.1
2018/03/15 11:23:38.000   78.246538457   16.035482980   493.4310   2   9   0.0427   0.0428   0.1224  -0.0091   0.0018   0.0429   0.00    1.1
2018/03/15 11:23:39.000   78.246538353   16.035483023   493.3881   2   9   0.0424   0.0426   0.1213  -0.0090   0.0041   0.0424   0.00    1.1
2018/03/15 11:23:40.000   78.246538241   16.035483159   493.3550   2   9   0.0421   0.0424   0.1202  -0.0088   0.0054   0.0419   0.00    1.1
2018/03/15 11:23:41.000   78.246538094   16.035483167   493.3156   2   9   0.0419   0.0422   0.1191  -0.0087   0.0065   0.0414   0.00    1.1
2018/03/15 11:23:42.000   78.246537976   16.035483179   493.2815   2   9   0.0416   0.0420   0.1181  -0.0085   0.0074   0.0409   0.00    1.1
2018/03/15 11:23:43.000   78.246537856   16.035483033   493.2538   2   9   0.0414   0.0418   0.1170  -0.0083   0.0082   0.0404   0.00    1.1
2018/03/15 11:23:44.000   78.246537771   16.035482876   493.2355   2   9   0.0411   0.0416   0.1159  -0.0082   0.0088   0.0399   0.00    1.1
2018/03/15 11:23:45.000   78.246537671   16.035482750   493.2224   2   9   0.0408   0.0414   0.1149  -0.0080   0.0095   0.0394   0.00    1.1
2018/03/15 11:23:46.000   78.246537542   16.035482772   493.1954   2   9   0.0406   0.0412   0.1139  -0.0079   0.0100   0.0390   0.00    1.1
2018/03/15 11:23:47.000   78.246537412   16.035482789   493.1655   2   9   0.0404   0.0410   0.1128  -0.0077   0.0105   0.0385   0.00    1.1
2018/03/15 11:23:48.000   78.246537309   16.035482742   493.1365   2   9   0.0401   0.0408   0.1118  -0.0076   0.0110   0.0380   0.00    1.1
2018/03/15 11:23:49.000   78.246537192   16.035482789   493.1135   2   9   0.0399   0.0406   0.1108  -0.0074   0.0115   0.0376   0.00    1.1
2018/03/15 11:23:50.000   78.246537095   16.035482641   493.0925   2   9   0.0396   0.0404   0.1099  -0.0073   0.0119   0.0371   0.00    1.1
2018/03/15 11:23:51.000   78.246537043   16.035482337   493.0945   2   9   0.0394   0.0402   0.1089  -0.0071   0.0123   0.0367   0.00    1.1
2018/03/15 11:23:52.000   78.246536928   16.035482255   493.0772   2   9   0.0392   0.0401   0.1079  -0.0070   0.0126   0.0362   0.00    1.1
2018/03/15 11:23:53.000   78.246536810   16.035482227   493.0518   2   9   0.0389   0.0399   0.1070  -0.0069   0.0130   0.0358   0.00    1.1
2018/03/15 11:23:54.000   78.246536693   16.035482311   493.0227   2   9   0.0387   0.0397   0.1060  -0.0067   0.0133   0.0353   0.00    1.1
2018/03/15 11:23:55.000   78.246536595   16.035482389   492.9996   2   9   0.0385   0.0395   0.1051  -0.0066   0.0136   0.0349   0.00    1.1
2018/03/15 11:23:56.000   78.246536514   16.035482377   492.9781   2   9   0.0383   0.0393   0.1042  -0.0065   0.0139   0.0345   0.00    1.1
2018/03/15 11:23:57.000   78.246536457   16.035482293   492.9571   2   9   0.0380   0.0392   0.1033  -0.0063   0.0141   0.0341   0.00    1.1
2018/03/15 11:23:58.000   78.246536386   16.035482239   492.9204   2   9   0.0378   0.0390   0.1024  -0.0062   0.0144   0.0336   0.00    1.1
2018/03/15 11:23:59.000   78.246536319   16.035482222   492.8939   2   9   0.0376   0.0388   0.1015  -0.0061   0.0147   0.0332   0.00    1.1
2018/03/15 11:24:00.000   78.246536243   16.035482213   492.8699   2   9   0.0374   0.0387   0.1006  -0.0059   0.0149   0.0328   0.00    1.1
2018/03/15 11:24:01.000   78.246536178   16.035482048   492.8431   2   9   0.0372   0.0385   0.0998  -0.0058   0.0151   0.0324   0.00    1.1
2018/03/15 11:24:02.000   78.246536108   16.035482043   492.8134   2   9   0.0370   0.0383   0.0989  -0.0057   0.0153   0.0320   0.00    1.1
2018/03/15 11:24:03.000   78.246536059   16.035482089   492.7853   2   9   0.0367   0.0382   0.0981  -0.0056   0.0155   0.0316   0.00    1.1
2018/03/15 11:24:04.000   78.246536020   16.035481976   492.7583   2   9   0.0365   0.0380   0.0972  -0.0055   0.0157   0.0312   0.00    1.1
2018/03/15 11:24:05.000   78.246535983   16.035481898   492.7413   2   9   0.0363   0.0378   0.0964  -0.0053   0.0159   0.0309   0.00    1.1
2018/03/15 11:24:06.000   78.246535958   16.035481876   492.7343   2   8   0.0361   0.0377   0.0956  -0.0052   0.0161   0.0305   0.00    1.1
2018/03/15 11:24:07.000   78.246535939   16.035481780   492.7265   2   8   0.0359   0.0375   0.0949  -0.0050   0.0163   0.0302   0.00    1.0
2018/03/15 11:24:08.000   78.246535906   16.035481669   492.7169   2   8   0.0357   0.0374   0.0941  -0.0049   0.0166   0.0298   0.00    1.0
2018/03/15 11:24:09.000   78.246535874   16.035481499   492.7167   2   8   0.0355   0.0373   0.0934  -0.0047   0.0168   0.0295   0.00    1.0
2018/03/15 11:24:10.000   78.246535861   16.035481257   492.7088   2   8   0.0353   0.0371   0.0926  -0.0046   0.0169   0.0291   0.00    1.0
2018/03/15 11:24:11.000   78.246535836   16.035481129   492.6912   2   8   0.0352   0.0370   0.0919  -0.0044   0.0171   0.0288   0.00    1.2
2018/03/15 11:24:12.000   78.246535811   16.035481034   492.6633   2   8   0.0350   0.0368   0.0912  -0.0043   0.0173   0.0285   0.00    1.2
2018/03/15 11:24:13.000   78.246535795   16.035481002   492.6367   2   8   0.0348   0.0367   0.0904  -0.0041   0.0175   0.0281   0.00    1.2
2018/03/15 11:24:14.000   78.246535758   16.035480801   492.6088   2   8   0.0346   0.0365   0.0897  -0.0039   0.0176   0.0278   0.00    1.2
2018/03/15 11:24:15.000   78.246535719   16.035480716   492.5900   2   8   0.0344   0.0364   0.0890  -0.0038   0.0178   0.0275   0.00    1.2
2018/03/15 11:24:16.000   78.246535676   16.035480682   492.5674   2   8   0.0342   0.0363   0.0883  -0.0036   0.0179   0.0272   0.00    1.2
2018/03/15 11:24:17.000   78.246535672   16.035480671   492.5443   2   8   0.0340   0.0361   0.0876  -0.0035   0.0180   0.0268   0.00    1.2
2018/03/15 11:24:18.000   78.246535653   16.035480567   492.5190   2   8   0.0339   0.0360   0.0870  -0.0033   0.0182   0.0265   0.00    1.2
2018/03/15 11:24:19.000   78.246535664   16.035480371   492.4966   2   8   0.0337   0.0359   0.0863  -0.0032   0.0183   0.0262   0.00    1.2
2018/03/15 11:24:20.000   78.246535669   16.035480102   492.4801   2   8   0.0335   0.0357   0.0856  -0.0030   0.0184   0.0259   0.00    1.2
2018/03/15 11:24:21.000   78.246535651   16.035479881   492.4602   2   8   0.0333   0.0356   0.0850  -0.0029   0.0185   0.0256   0.00    1.2
2018/03/15 11:24:22.000   78.246535625   16.035479746   492.4330   2   8   0.0331   0.0355   0.0843  -0.0027   0.0186   0.0253   0.00    1.1
2018/03/15 11:24:23.000   78.246535584   16.035479636   492.4020   2   8   0.0330   0.0353   0.0837  -0.0026   0.0187   0.0250   0.00    1.1
2018/03/15 11:24:24.000   78.246535522   16.035479679   492.3722   2   8   0.0328   0.0352   0.0830  -0.0024   0.0188   0.0247   0.00    1.1
2018/03/15 11:24:25.000   78.246535492   16.035479696   492.3491   2   8   0.0326   0.0351   0.0824  -0.0022   0.0189   0.0244   0.00    1.1
2018/03/15 11:24:26.000   78.246535477   16.035479757   492.3236   2   8   0.0325   0.0350   0.0818  -0.0021   0.0190   0.0241   0.00    1.1
2018/03/15 11:24:27.000   78.246535454   16.035479611   492.2953   2   8   0.0323   0.0348   0.0811  -0.0019   0.0191   0.0238   0.00    1.0
2018/03/15 11:24:28.000   78.246535427   16.035479606   492.2712   2   8   0.0321   0.0347   0.0805  -0.0017   0.0191   0.0236   0.00    1.0
2018/03/15 11:24:29.000   78.246535386   16.035479651   492.2312   2   8   0.0320   0.0346   0.0799  -0.0015   0.0192   0.0233   0.00    1.0
2018/03/15 11:24:30.000   78.246535314   16.035479734   492.1851   2   8   0.0318   0.0345   0.0793  -0.0012   0.0193   0.0230   0.00    1.0
2018/03/15 11:24:31.000   78.246535257   16.035479826   492.1366   2   8   0.0316   0.0343   0.0787  -0.0010   0.0193   0.0227   0.00    1.0
2018/03/15 11:24:32.000   78.246535191   16.035479970   492.0921   2   8   0.0315   0.0342   0.0781  -0.0006   0.0194   0.0225   0.00    1.0
2018/03/15 11:24:33.000   78.246535131   16.035480126   492.0576   2   8   0.0313   0.0341   0.0775   0.0004   0.0195   0.0222   0.00    1.0
2018/03/15 11:24:34.000   78.246535084   16.035480373   492.0201   2   8   0.0311   0.0340   0.0770   0.0008   0.0195   0.0219   0.00    1.0
2018/03/15 11:24:35.000   78.246535035   16.035480509   491.9892   2   8   0.0310   0.0339   0.0764   0.0011   0.0196   0.0217   0.00    1.1
2018/03/15 11:24:36.000   78.246534982   16.035480706   491.9492   2   8   0.0308   0.0338   0.0759   0.0013   0.0196   0.0214   0.00    1.1
2018/03/15 11:24:37.000   78.246534931   16.035480816   491.9120   2   8   0.0307   0.0336   0.0754   0.0015   0.0197   0.0212   0.00    1.1
2018/03/15 11:24:38.000   78.246534895   16.035480990   491.8781   2   8   0.0305   0.0335   0.0748   0.0016   0.0197   0.0209   0.00    1.1
2018/03/15 11:24:39.000   78.246534842   16.035481152   491.8431   2   8   0.0304   0.0334   0.0743   0.0018   0.0198   0.0207   0.00    1.1
2018/03/15 11:24:40.000   78.246534790   16.035481309   491.8093   2   8   0.0302   0.0333   0.0738   0.0019   0.0198   0.0204   0.00    1.1
2018/03/15 11:24:41.000   78.246534766   16.035481417   491.7791   2   8   0.0301   0.0332   0.0733   0.0020   0.0199   0.0202   0.00    1.0
2018/03/15 11:24:42.000   78.246534744   16.035481404   491.7579   2   8   0.0299   0.0331   0.0728   0.0021   0.0199   0.0199   0.00    1.0
2018/03/15 11:24:43.000   78.246534717   16.035481410   491.7338   2   8   0.0298   0.0330   0.0723   0.0022   0.0199   0.0197   0.00    1.0
2018/03/15 11:24:44.000   78.246534664   16.035481477   491.7079   2   8   0.0296   0.0329   0.0718   0.0022   0.0200   0.0195   0.00    1.0
2018/03/15 11:24:45.000   78.246534604   16.035481648   491.6876   2   8   0.0295   0.0327   0.0713   0.0023   0.0200   0.0193   0.00    1.0
2018/03/15 11:24:46.000   78.246534553   16.035481816   491.6613   2   8   0.0293   0.0326   0.0708   0.0024   0.0200   0.0190   0.00    1.0
2018/03/15 11:24:47.000   78.246534509   16.035482024   491.6283   2   8   0.0292   0.0325   0.0703   0.0024   0.0201   0.0188   0.00    1.1
2018/03/15 11:24:48.000   78.246534483   16.035482175   491.5918   2   8   0.0290   0.0324   0.0699   0.0025   0.0201   0.0186   0.00    1.1
2018/03/15 11:24:49.000   78.246534462   16.035482191   491.5602   2   8   0.0289   0.0323   0.0694   0.0025   0.0201   0.0184   0.00    1.1
2018/03/15 11:24:50.000   78.246534437   16.035482098   491.5351   2   8   0.0287   0.0322   0.0689   0.0026   0.0201   0.0181   0.00    1.1
2018/03/15 11:24:51.000   78.246534403   16.035482151   491.5066   2   8   0.0286   0.0321   0.0685   0.0026   0.0202   0.0179   0.00    1.2
2018/03/15 11:24:52.000   78.246534349   16.035482278   491.4777   2   8   0.0285   0.0320   0.0680   0.0027   0.0202   0.0177   0.00    1.1
2018/03/15 11:24:53.000   78.246534308   16.035482404   491.4491   2   8   0.0283   0.0319   0.0676   0.0027   0.0202   0.0175   0.00    1.2
2018/03/15 11:24:54.000   78.246534255   16.035482493   491.4157   2   8   0.0282   0.0318   0.0671   0.0027   0.0202   0.0173   0.00    1.1
2018/03/15 11:24:55.000   78.246534212   16.035482396   491.3878   2   8   0.0280   0.0317   0.0667   0.0028   0.0202   0.0171   0.00    1.1
2018/03/15 11:24:56.000   78.246534166   16.035482293   491.3607   2   8   0.0279   0.0316   0.0663   0.0028   0.0203   0.0169   0.00    1.1
2018/03/15 11:24:57.000   78.246534121   16.035482147   491.3387   2   8   0.0278   0.0315   0.0658   0.0028   0.0203   0.0167   0.00    1.0
2018/03/15 11:24:58.000   78.246534066   16.035482111   491.3226   2   8   0.0276   0.0314   0.0654   0.0028   0.0203   0.0165   0.00    1.0
2018/03/15 11:24:59.000   78.246534013   16.035482021   491.3060   2   8   0.0275   0.0313   0.0650   0.0029   0.0203   0.0163   0.00    1.0
2018/03/15 11:25:00.000   78.246533971   16.035481952   491.2904   2   8   0.0274   0.0312   0.0646   0.0029   0.0203   0.0161   0.00    1.0
2018/03/15 11:25:01.000   78.246533929   16.035481808   491.2779   2   8   0.0272   0.0311   0.0642   0.0029   0.0203   0.0159   0.00    1.0
2018/03/15 11:25:02.000   78.246533897   16.035481585   491.2649   2   8   0.0271   0.0310   0.0638   0.0029   0.0203   0.0157   0.00    1.0
2018/03/15 11:25:03.000   78.246533847   16.035481431   491.2507   2   8   0.0270   0.0309   0.0633   0.0029   0.0203   0.0155   0.00    1.0
2018/03/15 11:25:04.000   78.246533820   16.035481270   491.2445   2   8   0.0269   0.0308   0.0629   0.0029   0.0203   0.0153   0.00    1.0
2018/03/15 11:25:05.000   78.246533810   16.035481142   491.2456   2   8   0.0267   0.0307   0.0626   0.0029   0.0203   0.0151   0.00    1.0
2018/03/15 11:25:06.000   78.246533791   16.035481060   491.2441   2   8   0.0266   0.0306   0.0622   0.0030   0.0203   0.0149   0.00    1.0
2018/03/15 11:25:07.000   78.246533783   16.035481034   491.2355   2   8   0.0265   0.0305   0.0618   0.0030   0.0203   0.0147   0.00    1.0
2018/03/15 11:25:08.000   78.246533770   16.035481062   491.2338   2   8   0.0264   0.0304   0.0614   0.0030   0.0203   0.0146   0.00    1.0
2018/03/15 11:25:09.000   78.246533752   16.035481112   491.2273   2   8   0.0262   0.0303   0.0610   0.0030   0.0203   0.0144   0.00    1.0
2018/03/15 11:25:10.000   78.246533737   16.035481171   491.2211   2   8   0.0261   0.0303   0.0606   0.0030   0.0203   0.0142   0.00    1.0
2018/03/15 11:25:11.000   78.246533748   16.035481088   491.2153   2   8   0.0260   0.0302   0.0603   0.0030   0.0203   0.0140   0.00    1.0
2018/03/15 11:25:12.000   78.246533751   16.035480973   491.2065   2   8   0.0259   0.0301   0.0599   0.0030   0.0203   0.0138   0.00    1.0
2018/03/15 11:25:13.000   78.246533755   16.035480921   491.2030   2   8   0.0257   0.0300   0.0595   0.0030   0.0203   0.0137   0.00    1.0
2018/03/15 11:25:14.000   78.246533745   16.035480908   491.1927   2   8   0.0256   0.0299   0.0592   0.0030   0.0203   0.0135   0.00    1.0
2018/03/15 11:25:15.000   78.246533738   16.035480948   491.1790   2   8   0.0255   0.0298   0.0588   0.0030   0.0202   0.0133   0.00    1.0
2018/03/15 11:25:16.000   78.246533732   16.035480943   491.1646   2   8   0.0254   0.0297   0.0584   0.0030   0.0202   0.0132   0.00    1.0
2018/03/15 11:25:17.000   78.246533729   16.035480940   491.1541   2   8   0.0253   0.0296   0.0581   0.0030   0.0202   0.0130   0.00    1.0
2018/03/15 11:25:18.000   78.246533723   16.035480866   491.1471   2   8   0.0252   0.0295   0.0577   0.0030   0.0202   0.0128   0.00    1.0
2018/03/15 11:25:19.000   78.246533725   16.035480782   491.1408   2   8   0.0250   0.0295   0.0574   0.0030   0.0202   0.0127   0.00    1.1
2018/03/15 11:25:20.000   78.246533715   16.035480679   491.1389   2   8   0.0249   0.0294   0.0571   0.0030   0.0202   0.0125   0.00    1.1
2018/03/15 11:25:21.000   78.246533730   16.035480702   491.1281   2   8   0.0248   0.0293   0.0567   0.0030   0.0202   0.0123   0.00    1.1
2018/03/15 11:25:22.000   78.246533726   16.035480710   491.1194   2   8   0.0247   0.0292   0.0564   0.0029   0.0202   0.0122   0.00    1.0
2018/03/15 11:25:23.000   78.246533716   16.035480732   491.1038   2   8   0.0246   0.0291   0.0560   0.0029   0.0201   0.0120   0.00    1.1
2018/03/15 11:25:24.000   78.246533711   16.035480720   491.0960   2   8   0.0245   0.0290   0.0557   0.0029   0.0201   0.0119   0.00    1.1
2018/03/15 11:25:25.000   78.246533704   16.035480658   491.0870   2   8   0.0244   0.0289   0.0554   0.0029   0.0201   0.0117   0.00    1.1
2018/03/15 11:25:26.000   78.246533700   16.035480596   491.0825   2   8   0.0242   0.0288   0.0551   0.0029   0.0201   0.0115   0.00    1.1
2018/03/15 11:25:27.000   78.246533699   16.035480503   491.0760   2   8   0.0241   0.0288   0.0547   0.0029   0.0201   0.0114   0.00    1.1
2018/03/15 11:25:28.000   78.246533704   16.035480381   491.0745   2   8   0.0240   0.0287   0.0544   0.0029   0.0200   0.0112   0.00    1.1
2018/03/15 11:25:29.000   78.246533707   16.035480200   491.0744   2   8   0.0239   0.0286   0.0541   0.0029   0.0200   0.0111   0.00    1.1
2018/03/15 11:25:30.000   78.246533705   16.035480059   491.0788   2   8   0.0238   0.0285   0.0538   0.0029   0.0200   0.0109   0.00    1.1
2018/03/15 11:25:31.000   78.246533711   16.035479929   491.0821   2   8   0.0237   0.0284   0.0535   0.0028   0.0200   0.0108   0.00    1.1
2018/03/15 11:25:32.000   78.246533713   16.035479881   491.0803   2   8   0.0236   0.0284   0.0532   0.0028   0.0200   0.0106   0.00    1.0
2018/03/15 11:25:33.000   78.246533721   16.035479833   491.0839   2   8   0.0235   0.0283   0.0529   0.0028   0.0199   0.0105   0.00    1.0
2018/03/15 11:25:34.000   78.246533742   16.035479774   491.0876   2   8   0.0234   0.0282   0.0526   0.0028   0.0199   0.0104   0.00    1.0
2018/03/15 11:25:35.000   78.246533771   16.035479688   491.0920   2   8   0.0233   0.0281   0.0523   0.0028   0.0199   0.0102   0.00    1.0
2018/03/15 11:25:36.000   78.246533788   16.035479580   491.0978   2   8   0.0232   0.0280   0.0520   0.0028   0.0199   0.0101   0.00    1.0
2018/03/15 11:25:37.000   78.246533800   16.035479502   491.1028   2   8   0.0231   0.0279   0.0517   0.0028   0.0198   0.0099   0.00    1.0
2018/03/15 11:25:38.000   78.246533815   16.035479471   491.1131   2   8   0.0230   0.0279   0.0514   0.0027   0.0198   0.0098   0.00    1.0
2018/03/15 11:25:39.000   78.246533827   16.035479391   491.1214   2   8   0.0229   0.0278   0.0511   0.0027   0.0198   0.0097   0.00    1.0
2018/03/15 11:25:40.000   78.246533838   16.035479311   491.1307   2   8   0.0228   0.0277   0.0508   0.0027   0.0198   0.0095   0.00    1.0
2018/03/15 11:25:41.000   78.246533860   16.035479216   491.1440   2   8   0.0227   0.0276   0.0506   0.0027   0.0197   0.0094   0.00    1.0
2018/03/15 11:25:42.000   78.246533892   16.035479150   491.1557   2   8   0.0226   0.0276   0.0503   0.0027   0.0197   0.0092   0.00    1.0
2018/03/15 11:25:43.000   78.246533930   16.035479128   491.1656   2   8   0.0225   0.0275   0.0500   0.0026   0.0197   0.0091   0.00    1.0
2018/03/15 11:25:44.000   78.246533944   16.035479159   491.1710   2   8   0.0224   0.0274   0.0497   0.0026   0.0197   0.0090   0.00    1.0
2018/03/15 11:25:45.000   78.246533966   16.035479072   491.1720   2   8   0.0223   0.0273   0.0495   0.0026   0.0196   0.0088   0.00    1.0
2018/03/15 11:25:46.000   78.246533996   16.035479014   491.1778   2   8   0.0222   0.0272   0.0492   0.0026   0.0196   0.0087   0.00    1.0
2018/03/15 11:25:47.000   78.246534031   16.035478845   491.1846   2   8   0.0221   0.0272   0.0489   0.0026   0.0196   0.0086   0.00    1.0
2018/03/15 11:25:48.000   78.246534061   16.035478743   491.2012   2   8   0.0220   0.0271   0.0487   0.0025   0.0195   0.0085   0.00    1.0
2018/03/15 11:25:49.000   78.246534085   16.035478722   491.2164   2   8   0.0219   0.0270   0.0484   0.0025   0.0195   0.0083   0.00    1.0
2018/03/15 11:25:50.000   78.246534110   16.035478791   491.2251   2   8   0.0218   0.0269   0.0482   0.0025   0.0195   0.0082   0.00    1.0
2018/03/15 11:25:51.000   78.246534132   16.035478824   491.2300   2   8   0.0217   0.0269   0.0479   0.0025   0.0195   0.0081   0.00    1.0
2018/03/15 11:25:52.000   78.246534163   16.035478816   491.2319   2   8   0.0216   0.0268   0.0477   0.0024   0.0194   0.0080   0.00    1.0
2018/03/15 11:25:53.000   78.246534186   16.035478708   491.2369   2   8   0.0215   0.0267   0.0474   0.0024   0.0194   0.0078   0.00    1.0
2018/03/15 11:25:54.000   78.246534209   16.035478651   491.2426   2   8   0.0214   0.0267   0.0472   0.0024   0.0194   0.0077   0.00    1.0
2018/03/15 11:25:55.000   78.246534223   16.035478535   491.2487   2   8   0.0213   0.0266   0.0469   0.0024   0.0194   0.0076   0.00    1.0
2018/03/15 11:25:56.000   78.246534224   16.035478344   491.2528   2   8   0.0213   0.0265   0.0467   0.0024   0.0193   0.0075   0.00    1.1
2018/03/15 11:25:57.000   78.246534231   16.035478187   491.2620   2   8   0.0212   0.0264   0.0464   0.0023   0.0193   0.0073   0.00    1.0
2018/03/15 11:25:58.000   78.246534239   16.035478067   491.2662   2   8   0.0211   0.0264   0.0462   0.0023   0.0193   0.0072   0.00    1.0
2018/03/15 11:25:59.000   78.246534246   16.035477914   491.2734   2   8   0.0210   0.0263   0.0460   0.0023   0.0192   0.0071   0.00    1.0
2018/03/15 11:26:00.000   78.246534250   16.035477830   491.2755   2   8   0.0209   0.0262   0.0457   0.0023   0.0192   0.0070   0.00    1.0
2018/03/15 11:26:01.000   78.246534240   16.035477636   491.2740   2   8   0.0208   0.0262   0.0455   0.0022   0.0192   0.0069   0.00    1.0
2018/03/15 11:26:02.000   78.246534216   16.035477374   491.2781   2   8   0.0207   0.0261   0.0453   0.0022   0.0192   0.0067   0.00    1.0
2018/03/15 11:26:03.000   78.246534195   16.035477080   491.2863   2   8   0.0206   0.0260   0.0451   0.0022   0.0191   0.0066   0.00    1.1
2018/03/15 11:26:04.000   78.246534162   16.035476739   491.2941   2   8   0.0205   0.0259   0.0448   0.0022   0.0191   0.0065   0.00    1.1
2018/03/15 11:26:05.000   78.246534118   16.035476415   491.3062   2   8   0.0205   0.0259   0.0446   0.0021   0.0191   0.0064   0.00    1.1
2018/03/15 11:26:06.000   78.246534073   16.035476095   491.3143   2   8   0.0204   0.0258   0.0444   0.0021   0.0190   0.0063   0.00    1.1
2018/03/15 11:26:07.000   78.246534034   16.035475784   491.3214   2   8   0.0203   0.0257   0.0442   0.0021   0.0190   0.0062   0.00    1.0
2018/03/15 11:26:08.000   78.246533993   16.035475509   491.3232   2   8   0.0202   0.0257   0.0440   0.0020   0.0190   0.0061   0.00    1.0
2018/03/15 11:26:09.000   78.246533949   16.035475225   491.3282   2   8   0.0201   0.0256   0.0437   0.0020   0.0189   0.0059   0.00    1.0
2018/03/15 11:26:10.000   78.246533912   16.035474921   491.3318   2   8   0.0200   0.0255   0.0435   0.0020   0.0189   0.0058   0.00    1.0
2018/03/15 11:26:11.000   78.246533868   16.035474654   491.3348   2   8   0.0200   0.0255   0.0433   0.0020   0.0189   0.0057   0.00    1.0
2018/03/15 11:26:12.000   78.246533819   16.035474412   491.3399   2   8   0.0199   0.0254   0.0431   0.0019   0.0189   0.0056   0.00    1.0
2018/03/15 11:26:13.000   78.246533768   16.035474128   491.3437   2   8   0.0198   0.0253   0.0429   0.0019   0.0188   0.0055   0.00    1.1
2018/03/15 11:26:14.000   78.246533735   16.035473900   491.3432   2   8   0.0197   0.0253   0.0427   0.0019   0.0188   0.0054   0.00    1.1
2018/03/15 11:26:15.000   78.246533686   16.035473604   491.3431   2   8   0.0196   0.0252   0.0425   0.0018   0.0188   0.0053   0.00    1.1
2018/03/15 11:26:16.000   78.246533645   16.035473293   491.3435   2   8   0.0196   0.0251   0.0423   0.0018   0.0187   0.0051   0.00    1.1
2018/03/15 11:26:17.000   78.246533616   16.035473022   491.3409   2   8   0.0195   0.0251   0.0421   0.0018   0.0187   0.0050   0.00    1.1
2018/03/15 11:26:18.000   78.246533581   16.035472879   491.3347   2   8   0.0194   0.0250   0.0419   0.0017   0.0187   0.0049   0.00    1.1
2018/03/15 11:26:19.000   78.246533558   16.035472792   491.3269   2   8   0.0193   0.0249   0.0417   0.0017   0.0186   0.0048   0.00    1.1
2018/03/15 11:26:20.000   78.246533537   16.035472683   491.3179   2   8   0.0192   0.0249   0.0415   0.0017   0.0186   0.0047   0.00    1.2
2018/03/15 11:26:21.000   78.246533521   16.035472542   491.3099   2   8   0.0192   0.0248   0.0413   0.0016   0.0186   0.0046   0.00    1.2
2018/03/15 11:26:22.000   78.246533521   16.035472309   491.3044   2   8   0.0191   0.0247   0.0411   0.0016   0.0185   0.0045   0.00    1.2
2018/03/15 11:26:23.000   78.246533513   16.035472145   491.3006   2   8   0.0190   0.0247   0.0409   0.0016   0.0185   0.0044   0.00    1.2
2018/03/15 11:26:24.000   78.246533505   16.035472013   491.2931   2   8   0.0189   0.0246   0.0407   0.0015   0.0185   0.0042   0.00    1.2
2018/03/15 11:26:25.000   78.246533493   16.035471900   491.2861   2   8   0.0189   0.0246   0.0405   0.0015   0.0184   0.0041   0.00    1.2
2018/03/15 11:26:26.000   78.246533492   16.035471816   491.2756   2   8   0.0188   0.0245   0.0403   0.0015   0.0184   0.0040   0.00    1.2
2018/03/15 11:26:27.000   78.246533483   16.035471736   491.2691   2   8   0.0187   0.0244   0.0402   0.0014   0.0184   0.0039   0.00    1.2
2018/03/15 11:26:28.000   78.246533479   16.035471605   491.2614   2   8   0.0186   0.0244   0.0400   0.0014   0.0183   0.0038   0.00    1.2
2018/03/15 11:26:29.000   78.246533467   16.035471497   491.2526   2   8   0.0186   0.0243   0.0398   0.0014   0.0183   0.0037   0.00    1.2
2018/03/15 11:26:30.000   78.246533461   16.035471440   491.2459   2   8   0.0185   0.0242   0.0396   0.0013   0.0183   0.0035   0.00    1.2
2018/03/15 11:26:31.000   78.246533466   16.035471388   491.2380   2   8   0.0184   0.0242   0.0394   0.0013   0.0182   0.0034   0.00    1.2
2018/03/15 11:26:32.000   78.246533462   16.035471286   491.2328   2   8   0.0183   0.0241   0.0392   0.0012   0.0182   0.0033   0.00    1.2
2018/03/15 11:26:33.000   78.246533465   16.035471196   491.2260   2   8   0.0183   0.0241   0.0391   0.0012   0.0182   0.0032   0.00    1.2
2018/03/15 11:26:34.000   78.246533456   16.035471058   491.2240   2   8   0.0182   0.0240   0.0389   0.0011   0.0181   0.0031   0.00    1.2
2018/03/15 11:26:35.000   78.246533457   16.035470925   491.2218   2   8   0.0181   0.0239   0.0387   0.0011   0.0181   0.0029   0.00    1.1
2018/03/15 11:26:36.000   78.246533463   16.035470832   491.2190   2   8   0.0181   0.0239   0.0385   0.0010   0.0181   0.0028   0.00    1.1
2018/03/15 11:26:37.000   78.246533462   16.035470759   491.2163   2   8   0.0180   0.0238   0.0384   0.0010   0.0180   0.0027   0.00    1.1
2018/03/15 11:26:38.000   78.246533459   16.035470651   491.2165   2   8   0.0179   0.0237   0.0382   0.0009   0.0180   0.0025   0.00    1.1
2018/03/15 11:26:39.000   78.246533463   16.035470508   491.2190   2   8   0.0178   0.0237   0.0380   0.0009   0.0180   0.0024   0.00    1.1
2018/03/15 11:26:40.000   78.246533463   16.035470311   491.2217   2   8   0.0178   0.0236   0.0379   0.0008   0.0179   0.0022   0.00    1.1
2018/03/15 11:26:41.000   78.246533449   16.035470135   491.2234   2   8   0.0177   0.0236   0.0377   0.0008   0.0179   0.0021   0.00    1.1
2018/03/15 11:26:42.000   78.246533435   16.035469948   491.2283   2   8   0.0176   0.0235   0.0375   0.0007   0.0179   0.0019   0.00    1.1
2018/03/15 11:26:43.000   78.246533423   16.035469710   491.2283   2   8   0.0176   0.0235   0.0374   0.0006   0.0178   0.0018   0.00    1.1
2018/03/15 11:26:44.000   78.246533407   16.035469433   491.2285   2   8   0.0175   0.0234   0.0372   0.0006   0.0178   0.0016   0.00    1.1
2018/03/15 11:26:45.000   78.246533387   16.035469159   491.2314   2   8   0.0174   0.0233   0.0370   0.0005   0.0178   0.0014   0.00    1.1
2018/03/15 11:26:46.000   78.246533358   16.035468932   491.2386   2   8   0.0174   0.0233   0.0369   0.0003   0.0177   0.0011   0.00    1.1
2018/03/15 11:26:47.000   78.246533330   16.035468675   491.2445   2   8   0.0173   0.0232   0.0367   0.0002   0.0177   0.0008   0.00    1.1
2018/03/15 11:26:48.000   78.246533298   16.035468409   491.2509   2   8   0.0172   0.0232   0.0366  -0.0003   0.0177   0.0004   0.00    1.1
2018/03/15 11:26:49.000   78.246533271   16.035468190   491.2546   2   8   0.0172   0.0231   0.0364  -0.0004   0.0176  -0.0006   0.00    1.1
2018/03/15 11:26:50.000   78.246533253   16.035467941   491.2548   2   8   0.0171   0.0230   0.0362  -0.0005   0.0176  -0.0010   0.00    1.0
2018/03/15 11:26:51.000   78.246533235   16.035467762   491.2583   2   8   0.0170   0.0230   0.0361  -0.0006   0.0176  -0.0012   0.00    1.0
2018/03/15 11:26:52.000   78.246533219   16.035467573   491.2584   2   8   0.0170   0.0229   0.0359  -0.0007   0.0175  -0.0014   0.00    1.0
2018/03/15 11:26:53.000   78.246533199   16.035467404   491.2576   2   8   0.0169   0.0229   0.0358  -0.0007   0.0175  -0.0016   0.00    1.0
2018/03/15 11:26:54.000   78.246533174   16.035467218   491.2579   2   8   0.0168   0.0228   0.0356  -0.0008   0.0175  -0.0017   0.00    1.0
2018/03/15 11:26:55.000   78.246533157   16.035467041   491.2599   2   8   0.0168   0.0228   0.0355  -0.0008   0.0174  -0.0019   0.00    1.0
2018/03/15 11:26:56.000   78.246533146   16.035466897   491.2629   2   8   0.0167   0.0227   0.0353  -0.0009   0.0174  -0.0020   0.00    1.0
2018/03/15 11:26:57.000   78.246533136   16.035466797   491.2654   2   8   0.0167   0.0227   0.0352  -0.0009   0.0174  -0.0021   0.00    1.0
2018/03/15 11:26:58.000   78.246533126   16.035466765   491.2672   2   8   0.0166   0.0226   0.0350  -0.0010   0.0173  -0.0022   0.00    1.0
2018/03/15 11:26:59.000   78.246533125   16.035466714   491.2647   2   8   0.0165   0.0225   0.0349  -0.0010   0.0173  -0.0023   0.00    1.0
2018/03/15 11:27:00.000   78.246533136   16.035466695   491.2622   2   8   0.0165   0.0225   0.0347  -0.0011   0.0173  -0.0024   0.00    1.0
2018/03/15 11:27:01.000   78.246533150   16.035466634   491.2595   2   8   0.0164   0.0224   0.0346  -0.0011   0.0172  -0.0025   0.00    1.0
2018/03/15 11:27:02.000   78.246533170   16.035466554   491.2600   2   8   0.0164   0.0224   0.0345  -0.0011   0.0172  -0.0026   0.00    1.0
2018/03/15 11:27:03.000   78.246533182   16.035466552   491.2596   2   8   0.0163   0.0223   0.0343  -0.0012   0.0172  -0.0026   0.00    1.0
2018/03/15 11:27:04.000   78.246533180   16.035466615   491.2599   2   8   0.0162   0.0223   0.0342  -0.0012   0.0171  -0.0027   0.00    1.0
2018/03/15 11:27:05.000   78.246533181   16.035466705   491.2573   2   8   0.0162   0.0222   0.0340  -0.0012   0.0171  -0.0028   0.00    1.0
2018/03/15 11:27:06.000   78.246533201   16.035466850   491.2528   2   8   0.0161   0.0222   0.0339  -0.0013   0.0170  -0.0028   0.00    1.0
2018/03/15 11:27:07.000   78.246533204   16.035466952   491.2474   2   8   0.0161   0.0221   0.0338  -0.0013   0.0170  -0.0029   0.00    1.0
2018/03/15 11:27:08.000   78.246533201   16.035466964   491.2391   2   8   0.0160   0.0220   0.0336  -0.0013   0.0170  -0.0030   0.00    1.0
2018/03/15 11:27:09.000   78.246533203   16.035467043   491.2292   2   8   0.0159   0.0220   0.0335  -0.0013   0.0169  -0.0030   0.00    1.0
2018/03/15 11:27:10.000   78.246533195   16.035467128   491.2200   2   8   0.0159   0.0219   0.0333  -0.0014   0.0169  -0.0031   0.00    1.0
2018/03/15 11:27:11.000   78.246533189   16.035467224   491.2084   2   8   0.0158   0.0219   0.0332  -0.0014   0.0169  -0.0031   0.00    1.0
2018/03/15 11:27:12.000   78.246533185   16.035467229   491.1991   2   8   0.0158   0.0218   0.0331  -0.0014   0.0169  -0.0032   0.00    1.0
2018/03/15 11:27:13.000   78.246533192   16.035467282   491.1897   2   7   0.0157   0.0218   0.0330  -0.0015   0.0168  -0.0032   0.00    1.0
2018/03/15 11:27:14.000   78.246533188   16.035467260   491.1818   2   7   0.0157   0.0217   0.0329  -0.0015   0.0168  -0.0033   0.00    1.0
2018/03/15 11:27:15.000   78.246533191   16.035467320   491.1738   2   7   0.0156   0.0217   0.0327  -0.0015   0.0168  -0.0033   0.00    1.0
2018/03/15 11:27:16.000   78.246533188   16.035467450   491.1650   2   7   0.0155   0.0216   0.0326  -0.0015   0.0167  -0.0034   0.00    1.0
2018/03/15 11:27:17.000   78.246533203   16.035467555   491.1544   2   7   0.0155   0.0216   0.0325  -0.0016   0.0167  -0.0034   0.00    1.0
2018/03/15 11:27:18.000   78.246533244   16.035467751   491.1465   2   7   0.0154   0.0215   0.0324  -0.0016   0.0167  -0.0034   0.00    1.2
2018/03/15 11:27:19.000   78.246533280   16.035467880   491.1358   2   7   0.0154   0.0215   0.0323  -0.0016   0.0166  -0.0035   0.00    1.2
2018/03/15 11:27:20.000   78.246533320   16.035467999   491.1247   2   8   0.0153   0.0214   0.0321  -0.0016   0.0166  -0.0035   0.00    1.0
2018/03/15 11:27:21.000   78.246533348   16.035468137   491.1155   2   8   0.0153   0.0214   0.0320  -0.0016   0.0166  -0.0036   0.00    1.0
2018/03/15 11:27:22.000   78.246533376   16.035468311   491.1053   2   8   0.0152   0.0213   0.0319  -0.0017   0.0165  -0.0036   0.00    1.0
2018/03/15 11:27:23.000   78.246533409   16.035468429   491.0971   2   8   0.0152   0.0213   0.0318  -0.0017   0.0165  -0.0036   0.00    1.0
2018/03/15 11:27:24.000   78.246533445   16.035468548   491.0858   2   8   0.0151   0.0212   0.0317  -0.0017   0.0165  -0.0037   0.00    1.0
2018/03/15 11:27:25.000   78.246533479   16.035468581   491.0767   2   8   0.0151   0.0212   0.0316  -0.0017   0.0164  -0.0037   0.00    1.0
2018/03/15 11:27:26.000   78.246533510   16.035468632   491.0668   2   8   0.0150   0.0211   0.0314  -0.0017   0.0164  -0.0037   0.00    1.0
2018/03/15 11:27:27.000   78.246533538   16.035468691   491.0593   2   8   0.0149   0.0211   0.0313  -0.0018   0.0164  -0.0038   0.00    1.0
2018/03/15 11:27:28.000   78.246533566   16.035468731   491.0504   2   8   0.0149   0.0210   0.0312  -0.0018   0.0164  -0.0038   0.00    1.0
2018/03/15 11:27:29.000   78.246533583   16.035468715   491.0399   2   8   0.0148   0.0210   0.0311  -0.0018   0.0163  -0.0038   0.00    1.1
2018/03/15 11:27:30.000   78.246533605   16.035468685   491.0317   2   8   0.0148   0.0209   0.0310  -0.0018   0.0163  -0.0038   0.00    1.1
2018/03/15 11:27:31.000   78.246533629   16.035468614   491.0242   2   8   0.0147   0.0209   0.0309  -0.0018   0.0163  -0.0039   0.00    1.1
2018/03/15 11:27:32.000   78.246533649   16.035468592   491.0171   2   8   0.0147   0.0208   0.0308  -0.0018   0.0162  -0.0039   0.00    1.1
2018/03/15 11:27:33.000   78.246533669   16.035468531   491.0109   2   8   0.0146   0.0208   0.0307  -0.0019   0.0162  -0.0039   0.00    1.1
2018/03/15 11:27:34.000   78.246533685   16.035468442   491.0028   2   8   0.0146   0.0207   0.0306  -0.0019   0.0162  -0.0039   0.00    1.1
2018/03/15 11:27:35.000   78.246533706   16.035468363   490.9965   2   8   0.0145   0.0207   0.0304  -0.0019   0.0161  -0.0040   0.00    1.1
2018/03/15 11:27:36.000   78.246533721   16.035468181   490.9909   2   8   0.0145   0.0206   0.0303  -0.0019   0.0161  -0.0040   0.00    1.1
2018/03/15 11:27:37.000   78.246533729   16.035468017   490.9858   2   8   0.0144   0.0206   0.0302  -0.0019   0.0161  -0.0040   0.00    1.1
2018/03/15 11:27:38.000   78.246533739   16.035467872   490.9815   2   8   0.0144   0.0205   0.0301  -0.0019   0.0160  -0.0040   0.00    1.1
2018/03/15 11:27:39.000   78.246533744   16.035467755   490.9761   2   8   0.0143   0.0205   0.0300  -0.0019   0.0160  -0.0041   0.00    1.1
2018/03/15 11:27:40.000   78.246533752   16.035467628   490.9712   2   8   0.0143   0.0205   0.0299  -0.0020   0.0160  -0.0041   0.00    1.1
2018/03/15 11:27:41.000   78.246533762   16.035467483   490.9666   2   8   0.0142   0.0204   0.0298  -0.0020   0.0160  -0.0041   0.00    1.1
2018/03/15 11:27:42.000   78.246533771   16.035467323   490.9612   2   8   0.0142   0.0204   0.0297  -0.0020   0.0159  -0.0041   0.00    1.2
2018/03/15 11:27:43.000   78.246533781   16.035467175   490.9539   2   8   0.0141   0.0203   0.0296  -0.0020   0.0159  -0.0041   0.00    1.2
2018/03/15 11:27:44.000   78.246533789   16.035467084   490.9447   2   8   0.0141   0.0203   0.0295  -0.0020   0.0159  -0.0041   0.00    1.2
2018/03/15 11:27:45.000   78.246533791   16.035467021   490.9345   2   8   0.0140   0.0202   0.0294  -0.0020   0.0158  -0.0042   0.00    1.2
2018/03/15 11:27:46.000   78.246533794   16.035467002   490.9253   2   8   0.0140   0.0202   0.0293  -0.0020   0.0158  -0.0042   0.00    1.2
2018/03/15 11:27:47.000   78.246533797   16.035467029   490.9194   2   8   0.0140   0.0201   0.0292  -0.0020   0.0158  -0.0042   0.00    1.2
2018/03/15 11:27:48.000   78.246533808   16.035467067   490.9098   2   8   0.0139   0.0201   0.0291  -0.0021   0.0157  -0.0042   0.00    1.2
2018/03/15 11:27:49.000   78.246533825   16.035467110   490.9007   2   8   0.0139   0.0200   0.0290  -0.0021   0.0157  -0.0042   0.00    1.2
2018/03/15 11:27:50.000   78.246533845   16.035467185   490.8908   2   8   0.0138   0.0200   0.0289  -0.0021   0.0157  -0.0042   0.00    1.2
2018/03/15 11:27:51.000   78.246533859   16.035467329   490.8816   2   8   0.0138   0.0199   0.0288  -0.0021   0.0156  -0.0043   0.00    1.2
2018/03/15 11:27:52.000   78.246533871   16.035467420   490.8734   2   8   0.0137   0.0199   0.0287  -0.0021   0.0156  -0.0043   0.00    1.2
2018/03/15 11:27:53.000   78.246533882   16.035467577   490.8644   2   8   0.0137   0.0199   0.0286  -0.0021   0.0156  -0.0043   0.00    1.2
2018/03/15 11:27:54.000   78.246533888   16.035467685   490.8553   2   8   0.0136   0.0198   0.0285  -0.0021   0.0156  -0.0043   0.00    1.2
2018/03/15 11:27:55.000   78.246533885   16.035467793   490.8510   2   8   0.0136   0.0198   0.0284  -0.0021   0.0155  -0.0043   0.00    1.3
2018/03/15 11:27:56.000   78.246533885   16.035467949   490.8441   2   8   0.0135   0.0197   0.0283  -0.0021   0.0155  -0.0043   0.00    1.3
2018/03/15 11:27:57.000   78.246533882   16.035468058   490.8390   2   8   0.0135   0.0197   0.0282  -0.0021   0.0155  -0.0043   0.00    1.3
2018/03/15 11:27:58.000   78.246533873   16.035468159   490.8349   2   8   0.0135   0.0196   0.0281  -0.0022   0.0154  -0.0043   0.00    1.3
2018/03/15 11:27:59.000   78.246533856   16.035468247   490.8331   2   8   0.0134   0.0196   0.0280  -0.0022   0.0154  -0.0043   0.00    1.3
2018/03/15 11:28:00.000   78.246533844   16.035468317   490.8305   2   8   0.0134   0.0195   0.0279  -0.0022   0.0154  -0.0044   0.00    1.3
2018/03/15 11:28:01.000   78.246533839   16.035468326   490.8295   2   8   0.0133   0.0195   0.0278  -0.0022   0.0153  -0.0044   0.00    1.3
2018/03/15 11:28:02.000   78.246533825   16.035468336   490.8288   2   7   0.0133   0.0195   0.0277  -0.0022   0.0153  -0.0044   0.00    1.3
2018/03/15 11:28:03.000   78.246533809   16.035468315   490.8299   2   6   0.0132   0.0194   0.0276  -0.0022   0.0153  -0.0044   0.00    1.3
2018/03/15 11:28:04.000   78.246533794   16.035468273   490.8323   2   6   0.0132   0.0194   0.0276  -0.0022   0.0153  -0.0044   0.00    1.3
2018/03/15 11:28:05.000   78.246533766   16.035468138   490.8384   2   6   0.0132   0.0193   0.0275  -0.0022   0.0152  -0.0044   0.00    1.3
2018/03/15 11:28:06.000   78.246533745   16.035468091   490.8438   2   6   0.0131   0.0193   0.0274  -0.0022   0.0152  -0.0044   0.00    1.2
2018/03/15 11:28:07.000   78.246533722   16.035468070   490.8496   2   6   0.0131   0.0193   0.0273  -0.0022   0.0152  -0.0044   0.00    1.3
2018/03/15 11:28:08.000   78.246533703   16.035468006   490.8539   2   6   0.0130   0.0192   0.0272  -0.0022   0.0152  -0.0044   0.00    1.2
2018/03/15 11:28:09.000   78.246533673   16.035467961   490.8592   2   7   0.0130   0.0192   0.0271  -0.0022   0.0151  -0.0044   0.00    1.0
2018/03/15 11:28:10.000   78.246533646   16.035467865   490.8667   2   7   0.0129   0.0191   0.0270  -0.0023   0.0151  -0.0044   0.00    1.1
2018/03/15 11:28:11.000   78.246533618   16.035467773   490.8736   2   7   0.0129   0.0191   0.0270  -0.0023   0.0151  -0.0044   0.00    1.1
2018/03/15 11:28:12.000   78.246533596   16.035467701   490.8793   2   7   0.0129   0.0191   0.0269  -0.0023   0.0151  -0.0044   0.00    1.2
2018/03/15 11:28:13.000   78.246533566   16.035467624   490.8838   2   7   0.0128   0.0190   0.0268  -0.0023   0.0150  -0.0044   0.00    1.2
2018/03/15 11:28:14.000   78.246533536   16.035467588   490.8884   2   7   0.0128   0.0190   0.0267  -0.0023   0.0150  -0.0045   0.00    1.2
2018/03/15 11:28:15.000   78.246533513   16.035467553   490.8926   2   7   0.0127   0.0189   0.0266  -0.0023   0.0150  -0.0045   0.00    1.2
2018/03/15 11:28:16.000   78.246533487   16.035467500   490.8967   2   7   0.0127   0.0189   0.0266  -0.0023   0.0150  -0.0045   0.00    1.0
2018/03/15 11:28:17.000   78.246533463   16.035467414   490.9000   2   7   0.0127   0.0189   0.0265  -0.0023   0.0149  -0.0045   0.00    1.0
2018/03/15 11:28:18.000   78.246533437   16.035467345   490.9022   2   7   0.0126   0.0188   0.0264  -0.0023   0.0149  -0.0045   0.00    1.0
2018/03/15 11:28:19.000   78.246533410   16.035467313   490.9033   2   7   0.0126   0.0188   0.0263  -0.0023   0.0149  -0.0045   0.00    1.0
2018/03/15 11:28:20.000   78.246533388   16.035467327   490.9039   2   6   0.0125   0.0187   0.0262  -0.0023   0.0149  -0.0045   0.00    1.0
2018/03/15 11:28:21.000   78.246533374   16.035467371   490.9039   2   6   0.0125   0.0187   0.0262  -0.0023   0.0148  -0.0045   0.00    1.0
2018/03/15 11:28:22.000   78.246533362   16.035467394   490.9031   2   6   0.0125   0.0187   0.0261  -0.0023   0.0148  -0.0045   0.00    1.0
2018/03/15 11:28:23.000   78.246533355   16.035467425   490.9041   2   6   0.0124   0.0186   0.0260  -0.0023   0.0148  -0.0045   0.00    1.0
2018/03/15 11:28:24.000   78.246533349   16.035467360   490.9076   2   6   0.0124   0.0186   0.0259  -0.0024   0.0148  -0.0045   0.00    1.0
2018/03/15 11:28:25.000   78.246533334   16.035467310   490.9140   2   6   0.0124   0.0186   0.0258  -0.0024   0.0147  -0.0045   0.00    1.1
2018/03/15 11:28:26.000   78.246533327   16.035467337   490.9194   2   6   0.0123   0.0185   0.0258  -0.0024   0.0147  -0.0045   0.00    1.1
2018/03/15 11:28:27.000   78.246533310   16.035467360   490.9232   2   6   0.0123   0.0185   0.0257  -0.0024   0.0147  -0.0045   0.00    1.1
2018/03/15 11:28:28.000   78.246533292   16.035467411   490.9279   2   6   0.0122   0.0184   0.0256  -0.0024   0.0147  -0.0045   0.00    1.1
