% program   : RTKPOST ver.2.4.2
% inp file  : Z:\home\linda\Documents\Spring18\GitHub_Unis\data\processed_data\46250707.obs
% inp file  : Z:\home\linda\Documents\Spring18\GitHub_Unis\data\base_station_data\lyrs0700.18o
% inp file  : Z:\home\linda\Documents\Spring18\GitHub_Unis\data\processed_data\46250707.nav
% obs start : 2018/03/11 13:16:20.0 GPST (week1992  47780.0s)
% obs end   : 2018/03/11 13:31:22.0 GPST (week1992  48682.0s)
% pos mode  : static
% freqs     : L1+L2
% solution  : forward
% elev mask : 15.0 deg
% dynamics  : on
% tidecorr  : off
% ionos opt : iono-free
% tropo opt : saastamoinen
% ephemeris : broadcast
% navi sys  : gps glonass galileo qzss sbas
% amb res   : fix and hold
% amb glo   : on
% val thres : 3.0
% antenna1  :                       ( 0.0000  0.0000  0.0000)
% antenna2  :                       ( 0.0000  0.0000  0.0000)
% ref pos   : 78.228825638   15.397310064   495.6816
%
% (lat/lon/height=WGS84/ellipsoidal,Q=1:fix,2:float,3:sbas,4:dgps,5:single,6:ppp,ns=# of satellites)
%  GPST                  latitude(deg) longitude(deg)  height(m)   Q  ns   sdn(m)   sde(m)   sdu(m)  sdne(m)  sdeu(m)  sdun(m) age(s)  ratio
2018/03/11 13:16:20.000   78.253589022   16.174559575   533.4912   2  10   1.0008   0.9137   3.2906  -0.1651   0.3538   1.0014   0.00    1.5
2018/03/11 13:16:21.000   78.253592955   16.174537888   532.8910   2  10   0.7089   0.6468   2.3356  -0.1161   0.2522   0.7119   0.00    1.4
2018/03/11 13:16:22.000   78.253594013   16.174542200   532.8350   2  10   0.5791   0.5283   1.9087  -0.0947   0.2062   0.5821   0.00    1.4
2018/03/11 13:16:23.000   78.253591038   16.174540152   533.8890   2  10   0.5016   0.4576   1.6531  -0.0819   0.1785   0.5042   0.00    1.4
2018/03/11 13:16:24.000   78.253588910   16.174552592   533.7757   2  10   0.4487   0.4093   1.4780  -0.0732   0.1595   0.4508   0.00    1.4
2018/03/11 13:16:25.000   78.253588742   16.174569543   534.0292   2  10   0.4095   0.3736   1.3483  -0.0667   0.1453   0.4112   0.00    1.5
2018/03/11 13:16:26.000   78.253586933   16.174566120   534.4746   2  10   0.3791   0.3459   1.2471  -0.0618   0.1342   0.3803   0.00    1.4
2018/03/11 13:16:27.000   78.253585246   16.174570123   534.4586   2  10   0.3545   0.3235   1.1652  -0.0577   0.1252   0.3553   0.00    1.4
2018/03/11 13:16:28.000   78.253583247   16.174573256   534.1253   2  10   0.3342   0.3050   1.0971  -0.0544   0.1177   0.3344   0.00    1.4
2018/03/11 13:16:29.000   78.253583549   16.174579929   533.8541   2  10   0.3169   0.2893   1.0392  -0.0515   0.1112   0.3167   0.00    1.4
2018/03/11 13:16:30.000   78.253585494   16.174584490   533.7029   2  10   0.3021   0.2758   0.9892  -0.0491   0.1057   0.3013   0.00    1.4
2018/03/11 13:16:31.000   78.253585737   16.174578381   533.3888   2  10   0.2891   0.2640   0.9453  -0.0470   0.1008   0.2878   0.00    1.4
2018/03/11 13:16:32.000   78.253585822   16.174572342   533.6038   2  10   0.2776   0.2536   0.9064  -0.0451   0.0964   0.2758   0.00    1.4
2018/03/11 13:16:33.000   78.253585393   16.174570127   534.1231   2  10   0.2674   0.2444   0.8715  -0.0434   0.0925   0.2651   0.00    1.4
2018/03/11 13:16:34.000   78.253585943   16.174568786   534.2421   2  10   0.2582   0.2360   0.8400  -0.0419   0.0889   0.2553   0.00    1.4
2018/03/11 13:16:35.000   78.253586204   16.174572845   534.5678   2  10   0.2499   0.2285   0.8112  -0.0405   0.0856   0.2465   0.00    1.4
2018/03/11 13:16:36.000   78.253586789   16.174577419   534.8218   2  10   0.2423   0.2216   0.7849  -0.0392   0.0826   0.2383   0.00    1.4
2018/03/11 13:16:37.000   78.253587759   16.174577682   535.0301   2  10   0.2353   0.2153   0.7607  -0.0380   0.0798   0.2308   0.00    1.4
2018/03/11 13:16:38.000   78.253587929   16.174579232   535.2206   2  10   0.2289   0.2095   0.7382  -0.0370   0.0772   0.2238   0.00    1.4
2018/03/11 13:16:39.000   78.253588144   16.174583771   535.4110   2  10   0.2229   0.2042   0.7173  -0.0360   0.0748   0.2172   0.00    1.5
2018/03/11 13:16:40.000   78.253588519   16.174582724   535.4913   2  10   0.2174   0.1992   0.6977  -0.0350   0.0725   0.2111   0.00    1.5
2018/03/11 13:16:41.000   78.253588970   16.174579821   535.4846   2  10   0.2122   0.1946   0.6794  -0.0341   0.0704   0.2054   0.00    1.5
2018/03/11 13:16:42.000   78.253589112   16.174578151   535.4928   2  10   0.2074   0.1902   0.6621  -0.0333   0.0684   0.2000   0.00    1.5
2018/03/11 13:16:43.000   78.253589182   16.174577614   535.6206   2  10   0.2029   0.1862   0.6459  -0.0325   0.0664   0.1948   0.00    1.5
2018/03/11 13:16:44.000   78.253589426   16.174577859   535.7179   2  10   0.1986   0.1823   0.6304  -0.0318   0.0646   0.1900   0.00    1.5
2018/03/11 13:16:45.000   78.253589812   16.174578984   535.7444   2  10   0.1946   0.1787   0.6158  -0.0311   0.0628   0.1854   0.00    1.5
2018/03/11 13:16:46.000   78.253590233   16.174578391   535.8687   2  10   0.1908   0.1753   0.6019  -0.0304   0.0612   0.1809   0.00    1.4
2018/03/11 13:16:47.000   78.253590365   16.174579212   536.0181   2  10   0.1872   0.1721   0.5886  -0.0298   0.0596   0.1767   0.00    1.4
2018/03/11 13:16:48.000   78.253590723   16.174579751   536.1546   2  10   0.1837   0.1690   0.5759  -0.0292   0.0580   0.1727   0.00    1.4
2018/03/11 13:16:49.000   78.253590917   16.174577556   536.3253   2  10   0.1805   0.1661   0.5638  -0.0286   0.0565   0.1688   0.00    1.4
2018/03/11 13:16:50.000   78.253591293   16.174576841   536.3979   2  10   0.1774   0.1634   0.5522  -0.0280   0.0551   0.1651   0.00    1.4
2018/03/11 13:16:51.000   78.253591764   16.174575542   536.5126   2  10   0.1744   0.1607   0.5410  -0.0275   0.0537   0.1615   0.00    1.4
2018/03/11 13:16:52.000   78.253592463   16.174575848   536.4985   2  10   0.1716   0.1582   0.5303  -0.0270   0.0524   0.1581   0.00    1.4
2018/03/11 13:16:53.000   78.253593046   16.174573884   536.5156   2  10   0.1688   0.1558   0.5200  -0.0264   0.0511   0.1548   0.00    1.4
2018/03/11 13:16:54.000   78.253593490   16.174571270   536.5057   2  10   0.1662   0.1535   0.5100  -0.0260   0.0498   0.1516   0.00    1.4
2018/03/11 13:16:55.000   78.253593332   16.174569585   536.5592   2  10   0.1637   0.1512   0.5004  -0.0255   0.0486   0.1485   0.00    1.4
2018/03/11 13:16:56.000   78.253593056   16.174569338   536.6169   2  10   0.1613   0.1491   0.4912  -0.0250   0.0475   0.1455   0.00    1.4
2018/03/11 13:16:57.000   78.253593069   16.174569217   536.6551   2  10   0.1590   0.1471   0.4822  -0.0245   0.0463   0.1426   0.00    1.4
2018/03/11 13:16:58.000   78.253592919   16.174568666   536.7375   2  10   0.1568   0.1451   0.4735  -0.0241   0.0452   0.1397   0.00    1.4
2018/03/11 13:16:59.000   78.253592855   16.174570131   536.7488   2   9   0.1549   0.1432   0.4665  -0.0232   0.0448   0.1382   0.00    1.4
2018/03/11 13:17:00.000   78.253592868   16.174569991   536.7343   2   9   0.1532   0.1414   0.4596  -0.0224   0.0444   0.1367   0.00    1.4
2018/03/11 13:17:01.000   78.253593008   16.174568272   536.6900   2   9   0.1514   0.1396   0.4529  -0.0215   0.0440   0.1351   0.00    1.4
2018/03/11 13:17:02.000   78.253593355   16.174567077   536.6725   2   9   0.1498   0.1379   0.4463  -0.0207   0.0435   0.1336   0.00    1.4
2018/03/11 13:17:03.000   78.253593780   16.174565545   536.7660   2   9   0.1481   0.1363   0.4398  -0.0199   0.0431   0.1320   0.00    1.4
2018/03/11 13:17:04.000   78.253593856   16.174565565   536.8380   2   9   0.1465   0.1347   0.4335  -0.0192   0.0426   0.1304   0.00    1.3
2018/03/11 13:17:05.000   78.253593851   16.174564229   536.9110   2   9   0.1450   0.1332   0.4273  -0.0184   0.0421   0.1289   0.00    1.3
2018/03/11 13:17:06.000   78.253593679   16.174564718   536.9607   2   9   0.1434   0.1317   0.4212  -0.0177   0.0415   0.1273   0.00    1.3
2018/03/11 13:17:07.000   78.253593607   16.174565189   537.0044   2   9   0.1419   0.1302   0.4152  -0.0170   0.0410   0.1257   0.00    1.3
2018/03/11 13:17:08.000   78.253593726   16.174564722   537.1151   2   9   0.1405   0.1288   0.4094  -0.0163   0.0405   0.1242   0.00    1.3
2018/03/11 13:17:09.000   78.253593929   16.174563715   537.2184   2   9   0.1391   0.1274   0.4036  -0.0156   0.0399   0.1226   0.00    1.4
2018/03/11 13:17:10.000   78.253594177   16.174563739   537.3225   2   9   0.1377   0.1261   0.3980  -0.0149   0.0393   0.1211   0.00    1.4
2018/03/11 13:17:11.000   78.253594203   16.174563485   537.3530   2   9   0.1363   0.1248   0.3925  -0.0143   0.0388   0.1195   0.00    1.4
2018/03/11 13:17:12.000   78.253594143   16.174563425   537.3268   2   9   0.1350   0.1235   0.3871  -0.0136   0.0382   0.1180   0.00    1.4
2018/03/11 13:17:13.000   78.253594345   16.174562207   537.3153   2   9   0.1337   0.1223   0.3817  -0.0129   0.0376   0.1165   0.00    1.4
2018/03/11 13:17:14.000   78.253594392   16.174561788   537.3093   2   9   0.1324   0.1211   0.3765  -0.0123   0.0370   0.1149   0.00    1.4
2018/03/11 13:17:15.000   78.253594482   16.174561059   537.3322   2   9   0.1312   0.1200   0.3714  -0.0116   0.0364   0.1134   0.00    1.4
2018/03/11 13:17:16.000   78.253594743   16.174560663   537.4403   2   9   0.1300   0.1188   0.3664  -0.0109   0.0359   0.1119   0.00    1.4
2018/03/11 13:17:17.000   78.253594737   16.174560388   537.5051   2   9   0.1288   0.1177   0.3614  -0.0103   0.0353   0.1105   0.00    1.4
2018/03/11 13:17:18.000   78.253594724   16.174559854   537.5922   2   9   0.1276   0.1166   0.3566  -0.0096   0.0347   0.1090   0.00    1.4
2018/03/11 13:17:19.000   78.253594712   16.174560233   537.6391   2   9   0.1264   0.1156   0.3518  -0.0089   0.0341   0.1075   0.00    1.4
2018/03/11 13:17:20.000   78.253594590   16.174560617   537.6706   2   9   0.1253   0.1145   0.3472  -0.0082   0.0335   0.1061   0.00    1.4
2018/03/11 13:17:21.000   78.253594651   16.174560557   537.6910   2   9   0.1242   0.1135   0.3426  -0.0074   0.0329   0.1047   0.00    1.4
2018/03/11 13:17:22.000   78.253594733   16.174560622   537.6912   2   9   0.1231   0.1125   0.3381  -0.0066   0.0323   0.1033   0.00    1.4
2018/03/11 13:17:23.000   78.253594841   16.174559743   537.7264   2   9   0.1221   0.1116   0.3337  -0.0057   0.0317   0.1019   0.00    1.4
2018/03/11 13:17:24.000   78.253594872   16.174559788   537.7142   2   9   0.1210   0.1106   0.3293  -0.0047   0.0311   0.1005   0.00    1.4
2018/03/11 13:17:25.000   78.253594776   16.174559331   537.7218   2   9   0.1200   0.1097   0.3251  -0.0034   0.0305   0.0991   0.00    1.4
2018/03/11 13:17:26.000   78.253594693   16.174558887   537.7562   2   9   0.1190   0.1088   0.3209  -0.0014   0.0299   0.0978   0.00    1.4
2018/03/11 13:17:27.000   78.253594538   16.174558878   537.8142   2   9   0.1180   0.1079   0.3168   0.0027   0.0293   0.0964   0.00    1.4
2018/03/11 13:17:28.000   78.253594522   16.174558349   537.8582   2   9   0.1170   0.1070   0.3127   0.0041   0.0287   0.0951   0.00    1.4
2018/03/11 13:17:29.000   78.253594632   16.174557538   537.8787   2   9   0.1161   0.1062   0.3088   0.0050   0.0282   0.0938   0.00    1.4
2018/03/11 13:17:30.000   78.253594782   16.174557535   537.8546   2   9   0.1151   0.1053   0.3049   0.0058   0.0276   0.0925   0.00    1.4
2018/03/11 13:17:31.000   78.253595001   16.174557788   537.8353   2   9   0.1142   0.1045   0.3010   0.0065   0.0270   0.0912   0.00    1.4
2018/03/11 13:17:32.000   78.253595029   16.174557632   537.8255   2   9   0.1133   0.1037   0.2973   0.0070   0.0264   0.0900   0.00    1.4
2018/03/11 13:17:33.000   78.253595042   16.174557050   537.8783   2   9   0.1124   0.1029   0.2936   0.0076   0.0258   0.0888   0.00    1.4
2018/03/11 13:17:34.000   78.253595073   16.174557484   537.9473   2   9   0.1115   0.1021   0.2900   0.0080   0.0252   0.0875   0.00    1.4
2018/03/11 13:17:35.000   78.253595040   16.174558068   537.9788   2   9   0.1106   0.1014   0.2864   0.0085   0.0247   0.0863   0.00    1.4
2018/03/11 13:17:36.000   78.253594752   16.174558129   538.0082   2   9   0.1098   0.1006   0.2829   0.0089   0.0241   0.0851   0.00    1.4
2018/03/11 13:17:37.000   78.253594526   16.174558255   537.9784   2   9   0.1090   0.0999   0.2795   0.0092   0.0235   0.0839   0.00    1.4
2018/03/11 13:17:38.000   78.253594359   16.174558811   537.9925   2   9   0.1081   0.0992   0.2761   0.0096   0.0229   0.0828   0.00    1.4
2018/03/11 13:17:39.000   78.253594229   16.174559478   537.9841   2   9   0.1073   0.0985   0.2728   0.0099   0.0224   0.0816   0.00    1.4
2018/03/11 13:17:40.000   78.253594205   16.174558683   537.9968   2   9   0.1065   0.0978   0.2695   0.0102   0.0218   0.0805   0.00    1.4
2018/03/11 13:17:41.000   78.253594176   16.174558146   538.0085   2   9   0.1057   0.0971   0.2663   0.0105   0.0212   0.0794   0.00    1.4
2018/03/11 13:17:42.000   78.253594262   16.174557952   538.0168   2   9   0.1050   0.0964   0.2631   0.0108   0.0207   0.0783   0.00    1.4
2018/03/11 13:17:43.000   78.253594305   16.174558189   538.0341   2   9   0.1042   0.0957   0.2600   0.0110   0.0201   0.0772   0.00    1.4
2018/03/11 13:17:44.000   78.253594129   16.174558648   538.0449   2   9   0.1035   0.0951   0.2570   0.0113   0.0195   0.0761   0.00    1.4
2018/03/11 13:17:45.000   78.253594034   16.174557906   538.0712   2   9   0.1027   0.0944   0.2540   0.0115   0.0189   0.0751   0.00    1.4
2018/03/11 13:17:46.000   78.253594014   16.174558001   538.1238   2   9   0.1020   0.0938   0.2511   0.0117   0.0184   0.0740   0.00    1.4
2018/03/11 13:17:47.000   78.253594077   16.174559129   538.1570   2   9   0.1013   0.0932   0.2482   0.0119   0.0178   0.0730   0.00    1.4
2018/03/11 13:17:48.000   78.253594042   16.174559918   538.1929   2   9   0.1006   0.0926   0.2453   0.0121   0.0172   0.0720   0.00    1.4
2018/03/11 13:17:49.000   78.253594099   16.174560353   538.1985   2   9   0.0999   0.0920   0.2425   0.0123   0.0166   0.0710   0.00    1.4
2018/03/11 13:17:50.000   78.253594029   16.174560725   538.1941   2   9   0.0992   0.0914   0.2398   0.0125   0.0161   0.0700   0.00    1.4
2018/03/11 13:17:51.000   78.253593946   16.174561655   538.1701   2   9   0.0985   0.0908   0.2371   0.0127   0.0155   0.0690   0.00    1.4
2018/03/11 13:17:52.000   78.253593927   16.174561868   538.1578   2   9   0.0979   0.0902   0.2344   0.0129   0.0149   0.0681   0.00    1.4
2018/03/11 13:17:53.000   78.253594091   16.174561562   538.1381   2   9   0.0972   0.0896   0.2318   0.0131   0.0143   0.0671   0.00    1.5
2018/03/11 13:17:54.000   78.253594213   16.174561646   538.1492   2   9   0.0966   0.0891   0.2293   0.0132   0.0137   0.0662   0.00    1.5
2018/03/11 13:17:55.000   78.253594254   16.174562555   538.1609   2   9   0.0959   0.0885   0.2267   0.0134   0.0130   0.0653   0.00    1.5
2018/03/11 13:17:56.000   78.253594251   16.174563053   538.1703   2   9   0.0953   0.0880   0.2243   0.0135   0.0124   0.0644   0.00    1.5
2018/03/11 13:17:57.000   78.253594142   16.174563252   538.1674   2   9   0.0947   0.0874   0.2218   0.0137   0.0118   0.0635   0.00    1.5
2018/03/11 13:17:58.000   78.253594037   16.174563737   538.1821   2   9   0.0940   0.0869   0.2194   0.0138   0.0111   0.0626   0.00    1.5
2018/03/11 13:17:59.000   78.253594028   16.174564305   538.1734   2   9   0.0934   0.0864   0.2171   0.0140   0.0104   0.0617   0.00    1.5
2018/03/11 13:18:00.000   78.253594006   16.174564486   538.1702   2   9   0.0928   0.0858   0.2147   0.0141   0.0097   0.0608   0.00    1.5
2018/03/11 13:18:01.000   78.253593989   16.174564643   538.1445   2   9   0.0923   0.0853   0.2125   0.0142   0.0090   0.0600   0.00    1.5
2018/03/11 13:18:02.000   78.253593981   16.174564577   538.0915   2   9   0.0917   0.0848   0.2102   0.0144   0.0082   0.0592   0.00    1.5
2018/03/11 13:18:03.000   78.253593944   16.174564467   538.0646   2   9   0.0911   0.0843   0.2080   0.0145   0.0074   0.0583   0.00    1.5
2018/03/11 13:18:04.000   78.253593870   16.174564621   538.0653   2   9   0.0905   0.0838   0.2058   0.0146   0.0065   0.0575   0.00    1.5
2018/03/11 13:18:05.000   78.253593782   16.174564474   538.0837   2   9   0.0900   0.0834   0.2037   0.0147   0.0055   0.0567   0.00    1.5
2018/03/11 13:18:06.000   78.253593615   16.174565378   538.1179   2   9   0.0894   0.0829   0.2016   0.0148   0.0042   0.0559   0.00    1.5
2018/03/11 13:18:07.000   78.253593477   16.174566296   538.1312   2   9   0.0889   0.0824   0.1995   0.0149   0.0026   0.0552   0.00    1.5
2018/03/11 13:18:08.000   78.253593308   16.174566427   538.1324   2   9   0.0883   0.0819   0.1975   0.0150  -0.0021   0.0544   0.00    1.5
2018/03/11 13:18:09.000   78.253593249   16.174567131   538.1140   2   9   0.0878   0.0815   0.1955   0.0151  -0.0039   0.0536   0.00    1.5
2018/03/11 13:18:10.000   78.253593297   16.174567314   538.1029   2   9   0.0873   0.0810   0.1935   0.0152  -0.0051   0.0529   0.00    1.5
2018/03/11 13:18:11.000   78.253593353   16.174567697   538.0599   2   9   0.0868   0.0806   0.1916   0.0153  -0.0060   0.0522   0.00    1.6
2018/03/11 13:18:12.000   78.253593311   16.174567740   538.0396   2   9   0.0862   0.0801   0.1897   0.0154  -0.0068   0.0514   0.00    1.6
2018/03/11 13:18:13.000   78.253593175   16.174567628   538.0142   2   9   0.0857   0.0797   0.1878   0.0155  -0.0074   0.0507   0.00    1.6
2018/03/11 13:18:14.000   78.253592966   16.174567550   537.9932   2   9   0.0852   0.0792   0.1859   0.0156  -0.0080   0.0500   0.00    1.6
2018/03/11 13:18:15.000   78.253592769   16.174567428   538.0043   2   9   0.0847   0.0788   0.1841   0.0157  -0.0086   0.0493   0.00    1.6
2018/03/11 13:18:16.000   78.253592710   16.174567065   538.0120   2   9   0.0843   0.0784   0.1823   0.0158  -0.0091   0.0486   0.00    1.6
2018/03/11 13:18:17.000   78.253592763   16.174566759   538.0259   2   9   0.0838   0.0780   0.1806   0.0158  -0.0095   0.0479   0.00    1.6
2018/03/11 13:18:18.000   78.253592777   16.174567323   538.0164   2   9   0.0833   0.0775   0.1788   0.0159  -0.0099   0.0473   0.00    1.6
2018/03/11 13:18:19.000   78.253592731   16.174567191   538.0036   2   9   0.0828   0.0771   0.1771   0.0160  -0.0103   0.0466   0.00    1.6
2018/03/11 13:18:20.000   78.253592590   16.174567005   537.9620   2   9   0.0824   0.0767   0.1754   0.0161  -0.0107   0.0460   0.00    1.6
2018/03/11 13:18:21.000   78.253592395   16.174567387   537.9435   2   9   0.0819   0.0763   0.1738   0.0161  -0.0110   0.0453   0.00    1.6
2018/03/11 13:18:22.000   78.253592323   16.174567485   537.9481   2   8   0.0815   0.0760   0.1723   0.0163  -0.0110   0.0448   0.00    1.6
2018/03/11 13:18:23.000   78.253592310   16.174567210   537.9587   2   8   0.0811   0.0756   0.1709   0.0165  -0.0110   0.0443   0.00    1.6
2018/03/11 13:18:24.000   78.253592332   16.174566723   537.9619   2   8   0.0806   0.0752   0.1695   0.0167  -0.0109   0.0438   0.00    1.6
2018/03/11 13:18:25.000   78.253592373   16.174566907   537.9513   2   8   0.0802   0.0748   0.1680   0.0168  -0.0109   0.0433   0.00    1.6
2018/03/11 13:18:26.000   78.253592323   16.174567223   537.9421   2   8   0.0798   0.0745   0.1667   0.0170  -0.0109   0.0428   0.00    1.6
2018/03/11 13:18:27.000   78.253592140   16.174567534   537.9445   2   8   0.0794   0.0741   0.1653   0.0171  -0.0109   0.0424   0.00    1.4
2018/03/11 13:18:28.000   78.253592009   16.174567949   537.9638   2   8   0.0790   0.0737   0.1639   0.0172  -0.0109   0.0419   0.00    1.4
2018/03/11 13:18:29.000   78.253591933   16.174568422   537.9808   2   8   0.0786   0.0734   0.1626   0.0174  -0.0109   0.0414   0.00    1.4
2018/03/11 13:18:30.000   78.253591855   16.174568272   538.0095   2   8   0.0782   0.0730   0.1613   0.0175  -0.0110   0.0409   0.00    1.4
2018/03/11 13:18:31.000   78.253591794   16.174568029   538.0187   2   8   0.0778   0.0727   0.1600   0.0176  -0.0110   0.0405   0.00    1.4
2018/03/11 13:18:32.000   78.253591697   16.174568060   538.0087   2   8   0.0774   0.0724   0.1587   0.0177  -0.0110   0.0400   0.00    1.4
2018/03/11 13:18:33.000   78.253591669   16.174568218   537.9842   2   8   0.0770   0.0720   0.1574   0.0178  -0.0111   0.0395   0.00    1.4
2018/03/11 13:18:34.000   78.253591740   16.174568287   537.9528   2   8   0.0767   0.0717   0.1562   0.0179  -0.0111   0.0391   0.00    1.4
2018/03/11 13:18:35.000   78.253591832   16.174568184   537.9525   2   8   0.0763   0.0713   0.1549   0.0180  -0.0111   0.0386   0.00    1.4
2018/03/11 13:18:36.000   78.253591860   16.174568335   537.9557   2   8   0.0759   0.0710   0.1537   0.0181  -0.0112   0.0382   0.00    1.3
2018/03/11 13:18:37.000   78.253591791   16.174568506   537.9670   2   8   0.0755   0.0707   0.1525   0.0182  -0.0112   0.0377   0.00    1.3
2018/03/11 13:18:38.000   78.253591704   16.174568849   537.9731   2   8   0.0752   0.0704   0.1513   0.0183  -0.0113   0.0373   0.00    1.3
2018/03/11 13:18:39.000   78.253591616   16.174569625   537.9706   2   8   0.0748   0.0700   0.1501   0.0184  -0.0113   0.0369   0.00    1.3
2018/03/11 13:18:40.000   78.253591544   16.174570088   537.9648   2   8   0.0744   0.0697   0.1489   0.0185  -0.0114   0.0364   0.00    1.3
2018/03/11 13:18:41.000   78.253591546   16.174570204   537.9590   2   8   0.0741   0.0694   0.1478   0.0186  -0.0114   0.0360   0.00    1.3
2018/03/11 13:18:42.000   78.253591561   16.174569983   537.9654   2   8   0.0737   0.0691   0.1466   0.0186  -0.0115   0.0356   0.00    1.3
2018/03/11 13:18:43.000   78.253591627   16.174570102   537.9817   2   8   0.0734   0.0688   0.1455   0.0187  -0.0115   0.0351   0.00    1.3
2018/03/11 13:18:44.000   78.253591602   16.174570538   537.9964   2   8   0.0730   0.0685   0.1444   0.0188  -0.0116   0.0347   0.00    1.3
2018/03/11 13:18:45.000   78.253591500   16.174570524   538.0013   2   8   0.0727   0.0682   0.1433   0.0188  -0.0116   0.0343   0.00    1.3
2018/03/11 13:18:46.000   78.253591458   16.174570501   538.0047   2   8   0.0724   0.0679   0.1422   0.0189  -0.0117   0.0339   0.00    1.3
2018/03/11 13:18:47.000   78.253591440   16.174570741   538.0047   2   8   0.0720   0.0676   0.1411   0.0190  -0.0118   0.0335   0.00    1.3
2018/03/11 13:18:48.000   78.253591371   16.174570719   538.0050   2   8   0.0717   0.0673   0.1400   0.0190  -0.0118   0.0331   0.00    1.3
2018/03/11 13:18:49.000   78.253591367   16.174570793   538.0031   2   8   0.0713   0.0670   0.1390   0.0191  -0.0119   0.0327   0.00    1.3
2018/03/11 13:18:50.000   78.253591366   16.174570646   538.0088   2   8   0.0710   0.0667   0.1379   0.0191  -0.0119   0.0323   0.00    1.3
2018/03/11 13:18:51.000   78.253591308   16.174571070   538.0221   2   8   0.0707   0.0664   0.1369   0.0192  -0.0120   0.0319   0.00    1.3
2018/03/11 13:18:52.000   78.253591278   16.174571130   538.0234   2   8   0.0704   0.0661   0.1359   0.0192  -0.0121   0.0315   0.00    1.3
2018/03/11 13:18:53.000   78.253591259   16.174570742   538.0185   2   8   0.0700   0.0658   0.1349   0.0193  -0.0121   0.0311   0.00    1.3
2018/03/11 13:18:54.000   78.253591255   16.174570851   538.0093   2   8   0.0697   0.0655   0.1339   0.0193  -0.0122   0.0307   0.00    1.3
2018/03/11 13:18:55.000   78.253591223   16.174571221   538.0027   2   8   0.0694   0.0653   0.1329   0.0193  -0.0122   0.0303   0.00    1.3
2018/03/11 13:18:56.000   78.253591211   16.174571348   538.0057   2   8   0.0691   0.0650   0.1320   0.0194  -0.0123   0.0299   0.00    1.3
2018/03/11 13:18:57.000   78.253591326   16.174571082   538.0148   2   8   0.0688   0.0647   0.1310   0.0194  -0.0124   0.0296   0.00    1.3
2018/03/11 13:18:58.000   78.253591378   16.174571169   538.0376   2   8   0.0685   0.0644   0.1301   0.0195  -0.0124   0.0292   0.00    1.3
2018/03/11 13:18:59.000   78.253591355   16.174571454   538.0573   2   8   0.0682   0.0642   0.1291   0.0195  -0.0125   0.0288   0.00    1.3
2018/03/11 13:19:00.000   78.253591331   16.174571679   538.0731   2   8   0.0679   0.0639   0.1282   0.0195  -0.0125   0.0285   0.00    1.3
2018/03/11 13:19:01.000   78.253591214   16.174571731   538.0738   2   8   0.0676   0.0636   0.1273   0.0196  -0.0126   0.0281   0.00    1.3
2018/03/11 13:19:02.000   78.253591151   16.174571979   538.0704   2   8   0.0673   0.0634   0.1264   0.0196  -0.0126   0.0277   0.00    1.3
2018/03/11 13:19:03.000   78.253591189   16.174572255   538.0721   2   8   0.0670   0.0631   0.1255   0.0196  -0.0127   0.0274   0.00    1.3
2018/03/11 13:19:04.000   78.253591306   16.174572208   538.0713   2   8   0.0667   0.0629   0.1246   0.0196  -0.0127   0.0270   0.00    1.3
2018/03/11 13:19:05.000   78.253591390   16.174572166   538.0734   2   8   0.0664   0.0626   0.1238   0.0197  -0.0128   0.0267   0.00    1.3
2018/03/11 13:19:06.000   78.253591433   16.174572132   538.0741   2   8   0.0661   0.0623   0.1229   0.0197  -0.0128   0.0263   0.00    1.3
2018/03/11 13:19:07.000   78.253591427   16.174572283   538.0772   2   8   0.0658   0.0621   0.1220   0.0197  -0.0129   0.0260   0.00    1.3
2018/03/11 13:19:08.000   78.253591381   16.174572408   538.0862   2   8   0.0655   0.0618   0.1212   0.0197  -0.0129   0.0256   0.00    1.3
2018/03/11 13:19:09.000   78.253591362   16.174572606   538.0930   2   8   0.0653   0.0616   0.1204   0.0197  -0.0130   0.0253   0.00    1.3
2018/03/11 13:19:10.000   78.253591331   16.174572529   538.1064   2   8   0.0650   0.0613   0.1195   0.0198  -0.0130   0.0250   0.00    1.2
2018/03/11 13:19:11.000   78.253591356   16.174572292   538.1236   2   8   0.0647   0.0611   0.1187   0.0198  -0.0131   0.0246   0.00    1.2
2018/03/11 13:19:12.000   78.253591381   16.174571999   538.1326   2   8   0.0644   0.0609   0.1179   0.0198  -0.0131   0.0243   0.00    1.2
2018/03/11 13:19:13.000   78.253591373   16.174571844   538.1359   2   8   0.0642   0.0606   0.1171   0.0198  -0.0132   0.0240   0.00    1.2
2018/03/11 13:19:14.000   78.253591339   16.174571961   538.1364   2   8   0.0639   0.0604   0.1164   0.0198  -0.0132   0.0236   0.00    1.2
2018/03/11 13:19:15.000   78.253591355   16.174572098   538.1405   2   8   0.0636   0.0601   0.1156   0.0198  -0.0133   0.0233   0.00    1.2
2018/03/11 13:19:16.000   78.253591386   16.174572322   538.1458   2   8   0.0634   0.0599   0.1148   0.0198  -0.0133   0.0230   0.00    1.2
2018/03/11 13:19:17.000   78.253591439   16.174572583   538.1486   2   8   0.0631   0.0597   0.1141   0.0198  -0.0133   0.0227   0.00    1.2
2018/03/11 13:19:18.000   78.253591494   16.174572528   538.1481   2   8   0.0628   0.0594   0.1133   0.0198  -0.0134   0.0223   0.00    1.2
2018/03/11 13:19:19.000   78.253591507   16.174572682   538.1433   2   8   0.0626   0.0592   0.1126   0.0199  -0.0134   0.0220   0.00    1.2
2018/03/11 13:19:20.000   78.253591537   16.174572927   538.1343   2   8   0.0623   0.0590   0.1118   0.0199  -0.0135   0.0217   0.00    1.2
2018/03/11 13:19:21.000   78.253591539   16.174572851   538.1236   2   8   0.0621   0.0588   0.1111   0.0199  -0.0135   0.0214   0.00    1.2
2018/03/11 13:19:22.000   78.253591474   16.174572670   538.1271   2   8   0.0618   0.0585   0.1104   0.0199  -0.0135   0.0211   0.00    1.2
2018/03/11 13:19:23.000   78.253591529   16.174572864   538.1319   2   8   0.0616   0.0583   0.1097   0.0199  -0.0136   0.0208   0.00    1.2
2018/03/11 13:19:24.000   78.253591554   16.174572831   538.1397   2   8   0.0613   0.0581   0.1090   0.0199  -0.0136   0.0205   0.00    1.2
2018/03/11 13:19:25.000   78.253591517   16.174572664   538.1498   2   8   0.0611   0.0579   0.1083   0.0199  -0.0136   0.0202   0.00    1.2
2018/03/11 13:19:26.000   78.253591488   16.174572502   538.1519   2   8   0.0608   0.0577   0.1076   0.0199  -0.0137   0.0199   0.00    1.2
2018/03/11 13:19:27.000   78.253591448   16.174572471   538.1484   2   8   0.0606   0.0574   0.1069   0.0199  -0.0137   0.0196   0.00    1.2
2018/03/11 13:19:28.000   78.253591387   16.174572711   538.1474   2   8   0.0603   0.0572   0.1062   0.0199  -0.0137   0.0193   0.00    1.2
2018/03/11 13:19:29.000   78.253591404   16.174572710   538.1517   2   8   0.0601   0.0570   0.1056   0.0199  -0.0138   0.0190   0.00    1.2
2018/03/11 13:19:30.000   78.253591420   16.174572538   538.1591   2   8   0.0599   0.0568   0.1049   0.0199  -0.0138   0.0187   0.00    1.2
2018/03/11 13:19:31.000   78.253591440   16.174572574   538.1661   2   8   0.0596   0.0566   0.1043   0.0199  -0.0138   0.0184   0.00    1.2
2018/03/11 13:19:32.000   78.253591435   16.174572559   538.1708   2   8   0.0594   0.0564   0.1036   0.0199  -0.0139   0.0181   0.00    1.2
2018/03/11 13:19:33.000   78.253591472   16.174572699   538.1685   2   8   0.0591   0.0562   0.1030   0.0199  -0.0139   0.0179   0.00    1.2
2018/03/11 13:19:34.000   78.253591480   16.174572662   538.1637   2   8   0.0589   0.0560   0.1024   0.0199  -0.0139   0.0176   0.00    1.2
2018/03/11 13:19:35.000   78.253591479   16.174572674   538.1661   2   8   0.0587   0.0558   0.1017   0.0198  -0.0139   0.0173   0.00    1.2
2018/03/11 13:19:36.000   78.253591526   16.174572948   538.1761   2   8   0.0585   0.0556   0.1011   0.0198  -0.0140   0.0170   0.00    1.2
2018/03/11 13:19:37.000   78.253591533   16.174573054   538.1935   2   8   0.0582   0.0554   0.1005   0.0198  -0.0140   0.0167   0.00    1.2
2018/03/11 13:19:38.000   78.253591527   16.174573117   538.2089   2   8   0.0580   0.0552   0.0999   0.0198  -0.0140   0.0164   0.00    1.2
2018/03/11 13:19:39.000   78.253591468   16.174573265   538.2221   2   8   0.0578   0.0550   0.0993   0.0198  -0.0140   0.0162   0.00    1.2
2018/03/11 13:19:40.000   78.253591401   16.174573702   538.2241   2   8   0.0576   0.0548   0.0987   0.0198  -0.0140   0.0159   0.00    1.2
2018/03/11 13:19:41.000   78.253591374   16.174573847   538.2244   2   8   0.0573   0.0546   0.0981   0.0198  -0.0141   0.0156   0.00    1.2
2018/03/11 13:19:42.000   78.253591401   16.174573775   538.2212   2   8   0.0571   0.0544   0.0976   0.0198  -0.0141   0.0153   0.00    1.2
2018/03/11 13:19:43.000   78.253591472   16.174573828   538.2212   2   8   0.0569   0.0542   0.0970   0.0198  -0.0141   0.0151   0.00    1.2
2018/03/11 13:19:44.000   78.253591600   16.174573768   538.2201   2   8   0.0567   0.0540   0.0964   0.0198  -0.0141   0.0148   0.00    1.2
2018/03/11 13:19:45.000   78.253591633   16.174573714   538.2190   2   8   0.0565   0.0538   0.0959   0.0198  -0.0141   0.0145   0.00    1.2
2018/03/11 13:19:46.000   78.253591623   16.174573666   538.2150   2   8   0.0563   0.0536   0.0953   0.0197  -0.0142   0.0143   0.00    1.2
2018/03/11 13:19:47.000   78.253591570   16.174573814   538.2137   2   8   0.0561   0.0534   0.0948   0.0197  -0.0142   0.0140   0.00    1.2
2018/03/11 13:19:48.000   78.253591541   16.174574123   538.2207   2   9   0.0559   0.0532   0.0942   0.0197  -0.0142   0.0137   0.00    1.0
2018/03/11 13:19:49.000   78.253591567   16.174574091   538.2295   2   9   0.0556   0.0531   0.0937   0.0197  -0.0143   0.0134   0.00    1.0
2018/03/11 13:19:50.000   78.253591637   16.174574236   538.2326   2   9   0.0554   0.0529   0.0931   0.0196  -0.0143   0.0131   0.00    1.0
2018/03/11 13:19:51.000   78.253591690   16.174574295   538.2310   2   9   0.0552   0.0527   0.0926   0.0196  -0.0143   0.0128   0.00    1.1
2018/03/11 13:19:52.000   78.253591736   16.174574286   538.2275   2   9   0.0550   0.0525   0.0921   0.0196  -0.0144   0.0125   0.00    1.1
2018/03/11 13:19:53.000   78.253591713   16.174574411   538.2237   2   9   0.0548   0.0523   0.0916   0.0195  -0.0144   0.0122   0.00    1.1
2018/03/11 13:19:54.000   78.253591667   16.174574556   538.2248   2   9   0.0546   0.0521   0.0910   0.0195  -0.0144   0.0119   0.00    1.2
2018/03/11 13:19:55.000   78.253591665   16.174574620   538.2251   2   9   0.0544   0.0519   0.0905   0.0195  -0.0145   0.0116   0.00    1.2
2018/03/11 13:19:56.000   78.253591678   16.174574617   538.2318   2   9   0.0542   0.0518   0.0900   0.0194  -0.0145   0.0113   0.00    1.3
2018/03/11 13:19:57.000   78.253591666   16.174574541   538.2347   2   9   0.0540   0.0516   0.0895   0.0194  -0.0145   0.0110   0.00    1.3
2018/03/11 13:19:58.000   78.253591692   16.174574640   538.2267   2   9   0.0538   0.0514   0.0890   0.0193  -0.0146   0.0107   0.00    1.3
2018/03/11 13:19:59.000   78.253591700   16.174574667   538.2134   2   9   0.0536   0.0512   0.0885   0.0193  -0.0146   0.0104   0.00    1.3
2018/03/11 13:20:00.000   78.253591728   16.174574662   538.2057   2   9   0.0534   0.0510   0.0881   0.0193  -0.0146   0.0100   0.00    1.4
2018/03/11 13:20:01.000   78.253591733   16.174574678   538.2070   2   9   0.0532   0.0509   0.0876   0.0192  -0.0146   0.0097   0.00    1.4
2018/03/11 13:20:02.000   78.253591719   16.174574799   538.2145   2   9   0.0530   0.0507   0.0871   0.0192  -0.0147   0.0094   0.00    1.4
2018/03/11 13:20:03.000   78.253591679   16.174574642   538.2266   2   9   0.0528   0.0505   0.0866   0.0192  -0.0147   0.0091   0.00    1.5
2018/03/11 13:20:04.000   78.253591642   16.174574638   538.2374   2   9   0.0526   0.0504   0.0862   0.0191  -0.0147   0.0088   0.00    1.5
2018/03/11 13:20:05.000   78.253591642   16.174574776   538.2419   2   9   0.0524   0.0502   0.0857   0.0191  -0.0147   0.0085   0.00    1.5
2018/03/11 13:20:06.000   78.253591654   16.174574767   538.2415   2   9   0.0522   0.0500   0.0853   0.0191  -0.0147   0.0081   0.00    1.6
2018/03/11 13:20:07.000   78.253591661   16.174574877   538.2360   2   9   0.0520   0.0498   0.0848   0.0190  -0.0148   0.0078   0.00    1.6
2018/03/11 13:20:08.000   78.253591655   16.174574985   538.2371   2   9   0.0518   0.0497   0.0844   0.0190  -0.0148   0.0075   0.00    1.6
2018/03/11 13:20:09.000   78.253591693   16.174575219   538.2388   2   9   0.0517   0.0495   0.0839   0.0190  -0.0148   0.0071   0.00    1.7
2018/03/11 13:20:10.000   78.253591730   16.174575532   538.2442   2   9   0.0515   0.0494   0.0835   0.0189  -0.0148   0.0068   0.00    1.7
2018/03/11 13:20:11.000   78.253591736   16.174575596   538.2528   2   9   0.0513   0.0492   0.0830   0.0189  -0.0148   0.0064   0.00    1.7
2018/03/11 13:20:12.000   78.253591776   16.174575514   538.2544   2   9   0.0511   0.0490   0.0826   0.0189  -0.0148   0.0060   0.00    1.7
2018/03/11 13:20:13.000   78.253591735   16.174575530   538.2579   2   9   0.0509   0.0489   0.0822   0.0188  -0.0148   0.0056   0.00    1.8
2018/03/11 13:20:14.000   78.253591680   16.174575711   538.2610   2   9   0.0508   0.0487   0.0818   0.0188  -0.0148   0.0052   0.00    1.8
2018/03/11 13:20:15.000   78.253591666   16.174575668   538.2612   2   9   0.0506   0.0485   0.0813   0.0188  -0.0149   0.0048   0.00    1.8
2018/03/11 13:20:16.000   78.253591668   16.174575570   538.2666   2   9   0.0504   0.0484   0.0809   0.0187  -0.0149   0.0043   0.00    1.8
2018/03/11 13:20:17.000   78.253591712   16.174575722   538.2719   2   9   0.0502   0.0482   0.0805   0.0187  -0.0149   0.0038   0.00    1.9
2018/03/11 13:20:18.000   78.253591720   16.174575667   538.2760   2   9   0.0501   0.0481   0.0801   0.0187  -0.0149   0.0033   0.00    1.9
2018/03/11 13:20:19.000   78.253591759   16.174575615   538.2718   2   9   0.0499   0.0479   0.0797   0.0186  -0.0149   0.0026   0.00    1.9
2018/03/11 13:20:20.000   78.253591752   16.174575599   538.2576   2   9   0.0497   0.0478   0.0793   0.0186  -0.0149   0.0017   0.00    1.9
2018/03/11 13:20:21.000   78.253591749   16.174575696   538.2511   2   9   0.0495   0.0476   0.0789   0.0186  -0.0149  -0.0009   0.00    2.0
2018/03/11 13:20:22.000   78.253591757   16.174575776   538.2519   2   9   0.0494   0.0475   0.0785   0.0186  -0.0149  -0.0021   0.00    2.0
2018/03/11 13:20:23.000   78.253591787   16.174575735   538.2535   2   9   0.0492   0.0473   0.0781   0.0185  -0.0149  -0.0029   0.00    2.0
2018/03/11 13:20:24.000   78.253591803   16.174575689   538.2536   2   9   0.0490   0.0472   0.0778   0.0185  -0.0149  -0.0034   0.00    2.0
2018/03/11 13:20:25.000   78.253591801   16.174575666   538.2529   2   9   0.0489   0.0470   0.0774   0.0185  -0.0149  -0.0039   0.00    2.0
2018/03/11 13:20:26.000   78.253591772   16.174575629   538.2490   2   9   0.0487   0.0469   0.0770   0.0184  -0.0149  -0.0043   0.00    2.1
2018/03/11 13:20:27.000   78.253591744   16.174575632   538.2442   2   9   0.0485   0.0467   0.0766   0.0184  -0.0149  -0.0046   0.00    2.1
2018/03/11 13:20:28.000   78.253591727   16.174575683   538.2395   2   9   0.0484   0.0466   0.0763   0.0184  -0.0149  -0.0050   0.00    2.1
2018/03/11 13:20:29.000   78.253591754   16.174575571   538.2382   2   9   0.0482   0.0464   0.0759   0.0183  -0.0149  -0.0053   0.00    2.1
2018/03/11 13:20:30.000   78.253591859   16.174575477   538.2388   2   9   0.0481   0.0463   0.0755   0.0183  -0.0149  -0.0056   0.00    2.1
2018/03/11 13:20:31.000   78.253591933   16.174575487   538.2396   2   9   0.0479   0.0462   0.0752   0.0183  -0.0149  -0.0058   0.00    2.1
2018/03/11 13:20:32.000   78.253591915   16.174575368   538.2412   2   9   0.0477   0.0460   0.0748   0.0182  -0.0149  -0.0061   0.00    2.2
2018/03/11 13:20:33.000   78.253591895   16.174575427   538.2394   2   9   0.0476   0.0459   0.0745   0.0182  -0.0149  -0.0063   0.00    2.2
2018/03/11 13:20:34.000   78.253591874   16.174575529   538.2464   2   9   0.0474   0.0457   0.0741   0.0182  -0.0149  -0.0065   0.00    2.2
2018/03/11 13:20:35.000   78.253591888   16.174575563   538.2516   2   9   0.0473   0.0456   0.0738   0.0181  -0.0149  -0.0067   0.00    2.2
2018/03/11 13:20:36.000   78.253591911   16.174575714   538.2544   2   9   0.0471   0.0455   0.0734   0.0181  -0.0149  -0.0069   0.00    2.2
2018/03/11 13:20:37.000   78.253591964   16.174575877   538.2539   2   9   0.0470   0.0453   0.0731   0.0181  -0.0149  -0.0071   0.00    2.2
2018/03/11 13:20:38.000   78.253592011   16.174575970   538.2523   2   9   0.0468   0.0452   0.0727   0.0180  -0.0149  -0.0072   0.00    2.3
2018/03/11 13:20:39.000   78.253592060   16.174576066   538.2533   2   9   0.0467   0.0450   0.0724   0.0180  -0.0149  -0.0074   0.00    2.3
2018/03/11 13:20:40.000   78.253592099   16.174576294   538.2508   2   9   0.0465   0.0449   0.0721   0.0180  -0.0149  -0.0076   0.00    2.3
2018/03/11 13:20:41.000   78.253592128   16.174576312   538.2533   2   9   0.0464   0.0448   0.0717   0.0179  -0.0148  -0.0077   0.00    2.3
2018/03/11 13:20:42.000   78.253592111   16.174576237   538.2610   2   9   0.0462   0.0447   0.0714   0.0179  -0.0148  -0.0078   0.00    2.3
2018/03/11 13:20:43.000   78.253592094   16.174576256   538.2700   2   9   0.0461   0.0445   0.0711   0.0179  -0.0148  -0.0080   0.00    2.3
2018/03/11 13:20:44.000   78.253592084   16.174576343   538.2810   2   9   0.0459   0.0444   0.0708   0.0178  -0.0148  -0.0081   0.00    2.4
2018/03/11 13:20:45.000   78.253592095   16.174576335   538.2847   2   9   0.0458   0.0443   0.0704   0.0178  -0.0148  -0.0082   0.00    2.4
2018/03/11 13:20:46.000   78.253592110   16.174576295   538.2869   2   9   0.0456   0.0441   0.0701   0.0178  -0.0148  -0.0084   0.00    2.4
2018/03/11 13:20:47.000   78.253592152   16.174576384   538.2852   2   9   0.0455   0.0440   0.0698   0.0178  -0.0148  -0.0085   0.00    2.4
2018/03/11 13:20:48.000   78.253592206   16.174576612   538.2786   2   9   0.0454   0.0439   0.0695   0.0177  -0.0148  -0.0086   0.00    2.4
2018/03/11 13:20:49.000   78.253592276   16.174576520   538.2718   2   9   0.0452   0.0437   0.0692   0.0177  -0.0148  -0.0087   0.00    2.4
2018/03/11 13:20:50.000   78.253592328   16.174576409   538.2702   2   9   0.0451   0.0436   0.0689   0.0177  -0.0148  -0.0088   0.00    2.4
2018/03/11 13:20:51.000   78.253592373   16.174576377   538.2739   2   9   0.0449   0.0435   0.0686   0.0176  -0.0148  -0.0089   0.00    2.4
2018/03/11 13:20:52.000   78.253592404   16.174576302   538.2800   2   9   0.0448   0.0434   0.0683   0.0176  -0.0147  -0.0090   0.00    2.4
2018/03/11 13:20:53.000   78.253592375   16.174576273   538.2859   2   9   0.0447   0.0432   0.0680   0.0176  -0.0147  -0.0091   0.00    2.4
2018/03/11 13:20:54.000   78.253592339   16.174576314   538.2914   2   9   0.0445   0.0431   0.0677   0.0175  -0.0147  -0.0092   0.00    2.4
2018/03/11 13:20:55.000   78.253592297   16.174576300   538.2951   2   9   0.0444   0.0430   0.0674   0.0175  -0.0147  -0.0093   0.00    2.4
2018/03/11 13:20:56.000   78.253592263   16.174576274   538.2965   2   9   0.0443   0.0429   0.0671   0.0175  -0.0147  -0.0093   0.00    2.4
2018/03/11 13:20:57.000   78.253592313   16.174576333   538.2953   2   9   0.0441   0.0428   0.0668   0.0174  -0.0147  -0.0094   0.00    2.4
2018/03/11 13:20:58.000   78.253592356   16.174576445   538.2900   2   9   0.0440   0.0426   0.0665   0.0174  -0.0147  -0.0095   0.00    2.4
2018/03/11 13:20:59.000   78.253592399   16.174576254   538.2854   2   9   0.0439   0.0425   0.0663   0.0174  -0.0147  -0.0096   0.00    2.4
2018/03/11 13:21:00.000   78.253592466   16.174576233   538.2809   2   9   0.0437   0.0424   0.0660   0.0174  -0.0147  -0.0096   0.00    2.4
2018/03/11 13:21:01.000   78.253592507   16.174576119   538.2821   2   9   0.0436   0.0423   0.0657   0.0173  -0.0146  -0.0097   0.00    2.4
2018/03/11 13:21:02.000   78.253592524   16.174576167   538.2866   2   9   0.0435   0.0422   0.0654   0.0173  -0.0146  -0.0098   0.00    2.3
2018/03/11 13:21:03.000   78.253592528   16.174576094   538.2921   2   9   0.0433   0.0421   0.0651   0.0173  -0.0146  -0.0098   0.00    2.3
2018/03/11 13:21:04.000   78.253592519   16.174576095   538.2980   2   9   0.0432   0.0419   0.0649   0.0172  -0.0146  -0.0099   0.00    2.3
2018/03/11 13:21:05.000   78.253592530   16.174576186   538.3045   2   9   0.0431   0.0418   0.0646   0.0172  -0.0146  -0.0100   0.00    2.3
2018/03/11 13:21:06.000   78.253592544   16.174576249   538.3090   2   9   0.0430   0.0417   0.0643   0.0172  -0.0146  -0.0100   0.00    2.3
2018/03/11 13:21:07.000   78.253592575   16.174576297   538.3119   2   9   0.0428   0.0416   0.0641   0.0171  -0.0146  -0.0101   0.00    2.3
2018/03/11 13:21:08.000   78.253592616   16.174576329   538.3117   2   9   0.0427   0.0415   0.0638   0.0171  -0.0145  -0.0101   0.00    2.3
2018/03/11 13:21:09.000   78.253592673   16.174576318   538.3059   2   9   0.0426   0.0414   0.0635   0.0171  -0.0145  -0.0102   0.00    2.3
2018/03/11 13:21:10.000   78.253592721   16.174576322   538.3018   2   9   0.0425   0.0413   0.0633   0.0170  -0.0145  -0.0102   0.00    2.3
2018/03/11 13:21:11.000   78.253592767   16.174576385   538.2979   2   9   0.0423   0.0411   0.0630   0.0170  -0.0145  -0.0103   0.00    2.3
2018/03/11 13:21:12.000   78.253592804   16.174576365   538.3018   2   9   0.0422   0.0410   0.0628   0.0170  -0.0145  -0.0103   0.00    2.3
2018/03/11 13:21:13.000   78.253592802   16.174576442   538.3111   2   9   0.0421   0.0409   0.0625   0.0170  -0.0145  -0.0104   0.00    2.3
2018/03/11 13:21:14.000   78.253592800   16.174576534   538.3184   2   9   0.0420   0.0408   0.0623   0.0169  -0.0145  -0.0104   0.00    2.3
2018/03/11 13:21:15.000   78.253592798   16.174576507   538.3220   2   9   0.0419   0.0407   0.0620   0.0169  -0.0144  -0.0105   0.00    2.2
2018/03/11 13:21:16.000   78.253592800   16.174576481   538.3224   2   9   0.0417   0.0406   0.0618   0.0169  -0.0144  -0.0105   0.00    2.2
2018/03/11 13:21:17.000   78.253592805   16.174576465   538.3228   2   9   0.0416   0.0405   0.0615   0.0168  -0.0144  -0.0105   0.00    2.2
2018/03/11 13:21:18.000   78.253592835   16.174576517   538.3263   2   9   0.0415   0.0404   0.0613   0.0168  -0.0144  -0.0106   0.00    2.2
2018/03/11 13:21:19.000   78.253592867   16.174576446   538.3297   2   9   0.0414   0.0403   0.0610   0.0168  -0.0144  -0.0106   0.00    2.2
2018/03/11 13:21:20.000   78.253592866   16.174576188   538.3314   2   9   0.0413   0.0402   0.0608   0.0168  -0.0144  -0.0107   0.00    2.2
2018/03/11 13:21:21.000   78.253592857   16.174576192   538.3305   2   9   0.0412   0.0401   0.0606   0.0167  -0.0143  -0.0107   0.00    2.2
2018/03/11 13:21:22.000   78.253592851   16.174576233   538.3282   2   9   0.0410   0.0400   0.0603   0.0167  -0.0143  -0.0107   0.00    2.2
2018/03/11 13:21:23.000   78.253592870   16.174576358   538.3253   2   9   0.0409   0.0399   0.0601   0.0167  -0.0143  -0.0108   0.00    2.2
2018/03/11 13:21:24.000   78.253592905   16.174576404   538.3264   2   9   0.0408   0.0398   0.0599   0.0166  -0.0143  -0.0108   0.00    2.2
2018/03/11 13:21:25.000   78.253592950   16.174576211   538.3273   2   9   0.0407   0.0397   0.0596   0.0166  -0.0143  -0.0108   0.00    2.2
2018/03/11 13:21:26.000   78.253592970   16.174576190   538.3300   2   9   0.0406   0.0396   0.0594   0.0166  -0.0143  -0.0108   0.00    2.2
2018/03/11 13:21:27.000   78.253592968   16.174576135   538.3316   2   9   0.0405   0.0395   0.0592   0.0165  -0.0142  -0.0109   0.00    2.2
2018/03/11 13:21:28.000   78.253592950   16.174576170   538.3307   2   9   0.0404   0.0394   0.0589   0.0165  -0.0142  -0.0109   0.00    2.2
2018/03/11 13:21:29.000   78.253592930   16.174576084   538.3331   2   9   0.0403   0.0393   0.0587   0.0165  -0.0142  -0.0109   0.00    2.2
2018/03/11 13:21:30.000   78.253592946   16.174576139   538.3382   2   9   0.0401   0.0392   0.0585   0.0165  -0.0142  -0.0110   0.00    2.2
2018/03/11 13:21:31.000   78.253592973   16.174576240   538.3415   2   9   0.0400   0.0391   0.0583   0.0164  -0.0142  -0.0110   0.00    2.2
2018/03/11 13:21:32.000   78.253592962   16.174576238   538.3434   2   9   0.0399   0.0390   0.0581   0.0164  -0.0142  -0.0110   0.00    2.2
2018/03/11 13:21:33.000   78.253592967   16.174576283   538.3398   2   9   0.0398   0.0389   0.0578   0.0164  -0.0141  -0.0110   0.00    2.2
2018/03/11 13:21:34.000   78.253592957   16.174576253   538.3328   2   9   0.0397   0.0388   0.0576   0.0163  -0.0141  -0.0110   0.00    2.2
2018/03/11 13:21:35.000   78.253592958   16.174576378   538.3283   2   9   0.0396   0.0387   0.0574   0.0163  -0.0141  -0.0111   0.00    2.2
2018/03/11 13:21:36.000   78.253592974   16.174576345   538.3283   2   9   0.0395   0.0386   0.0572   0.0163  -0.0141  -0.0111   0.00    2.2
2018/03/11 13:21:37.000   78.253592987   16.174576283   538.3288   2   9   0.0394   0.0385   0.0570   0.0163  -0.0141  -0.0111   0.00    2.1
2018/03/11 13:21:38.000   78.253592993   16.174576312   538.3305   2   9   0.0393   0.0384   0.0568   0.0162  -0.0141  -0.0111   0.00    2.1
2018/03/11 13:21:39.000   78.253592984   16.174576347   538.3308   2   9   0.0392   0.0383   0.0566   0.0162  -0.0140  -0.0111   0.00    2.1
2018/03/11 13:21:40.000   78.253592955   16.174576412   538.3316   2   9   0.0391   0.0382   0.0564   0.0162  -0.0140  -0.0112   0.00    2.1
2018/03/11 13:21:41.000   78.253592933   16.174576482   538.3337   2   9   0.0390   0.0381   0.0562   0.0161  -0.0140  -0.0112   0.00    2.1
2018/03/11 13:21:42.000   78.253592929   16.174576509   538.3343   2   9   0.0389   0.0380   0.0560   0.0161  -0.0140  -0.0112   0.00    2.1
2018/03/11 13:21:43.000   78.253592932   16.174576462   538.3325   2   9   0.0388   0.0379   0.0557   0.0161  -0.0140  -0.0112   0.00    2.1
2018/03/11 13:21:44.000   78.253592937   16.174576443   538.3282   2   9   0.0387   0.0378   0.0555   0.0161  -0.0140  -0.0112   0.00    2.1
2018/03/11 13:21:45.000   78.253592960   16.174576480   538.3243   2   9   0.0386   0.0377   0.0553   0.0160  -0.0139  -0.0112   0.00    2.1
2018/03/11 13:21:46.000   78.253592964   16.174576435   538.3219   2   9   0.0385   0.0377   0.0552   0.0160  -0.0139  -0.0112   0.00    2.1
2018/03/11 13:21:47.000   78.253592943   16.174576386   538.3178   2   9   0.0384   0.0376   0.0550   0.0160  -0.0139  -0.0113   0.00    2.1
2018/03/11 13:21:48.000   78.253592915   16.174576310   538.3156   2   9   0.0383   0.0375   0.0548   0.0160  -0.0139  -0.0113   0.00    2.1
2018/03/11 13:21:49.000   78.253592903   16.174576334   538.3151   2   9   0.0382   0.0374   0.0546   0.0159  -0.0139  -0.0113   0.00    2.1
2018/03/11 13:21:50.000   78.253592874   16.174576370   538.3157   2   9   0.0381   0.0373   0.0544   0.0159  -0.0138  -0.0113   0.00    2.1
2018/03/11 13:21:51.000   78.253592870   16.174576401   538.3169   2   9   0.0380   0.0372   0.0542   0.0159  -0.0138  -0.0113   0.00    2.1
2018/03/11 13:21:52.000   78.253592888   16.174576385   538.3165   2   9   0.0379   0.0371   0.0540   0.0158  -0.0138  -0.0113   0.00    2.1
2018/03/11 13:21:53.000   78.253592915   16.174576367   538.3144   2   9   0.0378   0.0370   0.0538   0.0158  -0.0138  -0.0113   0.00    2.1
2018/03/11 13:21:54.000   78.253592944   16.174576483   538.3100   2   9   0.0377   0.0369   0.0536   0.0158  -0.0138  -0.0113   0.00    2.1
2018/03/11 13:21:55.000   78.253592958   16.174576537   538.3056   2   9   0.0376   0.0369   0.0534   0.0158  -0.0138  -0.0113   0.00    2.1
2018/03/11 13:21:56.000   78.253592957   16.174576645   538.3035   2   9   0.0375   0.0368   0.0532   0.0157  -0.0137  -0.0113   0.00    2.1
2018/03/11 13:21:57.000   78.253592948   16.174576709   538.3050   2   9   0.0374   0.0367   0.0531   0.0157  -0.0137  -0.0113   0.00    2.1
2018/03/11 13:21:58.000   78.253592941   16.174576825   538.3084   2   9   0.0373   0.0366   0.0529   0.0157  -0.0137  -0.0113   0.00    2.1
2018/03/11 13:21:59.000   78.253592921   16.174576858   538.3088   2   9   0.0372   0.0365   0.0527   0.0157  -0.0137  -0.0114   0.00    2.1
2018/03/11 13:22:00.000   78.253592901   16.174576916   538.3045   2   9   0.0371   0.0364   0.0525   0.0156  -0.0137  -0.0114   0.00    2.1
2018/03/11 13:22:01.000   78.253592889   16.174576968   538.2978   2   9   0.0370   0.0364   0.0523   0.0156  -0.0136  -0.0114   0.00    2.1
2018/03/11 13:22:02.000   78.253592894   16.174576976   538.2938   2   9   0.0370   0.0363   0.0522   0.0156  -0.0136  -0.0114   0.00    2.1
2018/03/11 13:22:03.000   78.253592932   16.174576985   538.2913   2   9   0.0369   0.0362   0.0520   0.0155  -0.0136  -0.0114   0.00    2.1
2018/03/11 13:22:04.000   78.253592961   16.174576826   538.2908   2   9   0.0368   0.0361   0.0518   0.0155  -0.0136  -0.0114   0.00    2.1
2018/03/11 13:22:05.000   78.253592958   16.174576782   538.2904   2   9   0.0367   0.0360   0.0516   0.0155  -0.0136  -0.0114   0.00    2.1
2018/03/11 13:22:06.000   78.253592913   16.174576763   538.2945   2   9   0.0366   0.0359   0.0515   0.0155  -0.0136  -0.0114   0.00    2.1
2018/03/11 13:22:07.000   78.253592874   16.174576834   538.2947   2   9   0.0365   0.0359   0.0513   0.0154  -0.0135  -0.0114   0.00    2.1
2018/03/11 13:22:08.000   78.253592853   16.174576880   538.2936   2   9   0.0364   0.0358   0.0511   0.0154  -0.0135  -0.0114   0.00    2.1
2018/03/11 13:22:09.000   78.253592850   16.174576881   538.2943   2   9   0.0363   0.0357   0.0510   0.0154  -0.0135  -0.0114   0.00    2.1
2018/03/11 13:22:10.000   78.253592877   16.174576971   538.2906   2   9   0.0362   0.0356   0.0508   0.0154  -0.0135  -0.0114   0.00    2.1
2018/03/11 13:22:11.000   78.253592901   16.174577000   538.2841   2   9   0.0361   0.0355   0.0506   0.0153  -0.0135  -0.0114   0.00    2.1
2018/03/11 13:22:12.000   78.253592913   16.174577100   538.2762   2   9   0.0361   0.0355   0.0505   0.0153  -0.0134  -0.0114   0.00    2.1
2018/03/11 13:22:13.000   78.253592926   16.174577089   538.2690   2   9   0.0360   0.0354   0.0503   0.0153  -0.0134  -0.0114   0.00    2.1
2018/03/11 13:22:14.000   78.253592927   16.174577054   538.2657   2   9   0.0359   0.0353   0.0501   0.0153  -0.0134  -0.0114   0.00    2.1
2018/03/11 13:22:15.000   78.253592924   16.174576980   538.2656   2   9   0.0358   0.0352   0.0500   0.0152  -0.0134  -0.0114   0.00    2.1
2018/03/11 13:22:16.000   78.253592907   16.174576904   538.2674   2   9   0.0357   0.0351   0.0498   0.0152  -0.0134  -0.0114   0.00    2.1
2018/03/11 13:22:17.000   78.253592890   16.174576944   538.2658   2   9   0.0356   0.0351   0.0496   0.0152  -0.0133  -0.0114   0.00    2.1
2018/03/11 13:22:18.000   78.253592861   16.174576928   538.2644   2   9   0.0356   0.0350   0.0495   0.0152  -0.0133  -0.0114   0.00    2.1
2018/03/11 13:22:19.000   78.253592863   16.174576933   538.2623   2   9   0.0355   0.0349   0.0493   0.0151  -0.0133  -0.0114   0.00    2.1
2018/03/11 13:22:20.000   78.253592895   16.174576978   538.2601   2   9   0.0354   0.0348   0.0492   0.0151  -0.0133  -0.0114   0.00    2.2
2018/03/11 13:22:21.000   78.253592925   16.174577038   538.2574   2   9   0.0353   0.0348   0.0490   0.0151  -0.0133  -0.0114   0.00    2.2
2018/03/11 13:22:22.000   78.253592930   16.174577050   538.2539   2   9   0.0352   0.0347   0.0489   0.0151  -0.0133  -0.0114   0.00    2.2
2018/03/11 13:22:23.000   78.253592941   16.174577059   538.2496   2   9   0.0351   0.0346   0.0487   0.0150  -0.0132  -0.0114   0.00    2.2
2018/03/11 13:22:24.000   78.253592954   16.174577034   538.2495   2   9   0.0351   0.0345   0.0485   0.0150  -0.0132  -0.0114   0.00    2.2
2018/03/11 13:22:25.000   78.253592960   16.174577071   538.2500   2   9   0.0350   0.0345   0.0484   0.0150  -0.0132  -0.0114   0.00    2.2
2018/03/11 13:22:26.000   78.253592977   16.174577056   538.2525   2   9   0.0349   0.0344   0.0482   0.0150  -0.0132  -0.0114   0.00    2.2
2018/03/11 13:22:27.000   78.253592977   16.174577010   538.2543   2   9   0.0348   0.0343   0.0481   0.0149  -0.0132  -0.0114   0.00    2.2
2018/03/11 13:22:28.000   78.253592973   16.174576986   538.2536   2   9   0.0347   0.0343   0.0479   0.0149  -0.0131  -0.0114   0.00    2.2
2018/03/11 13:22:29.000   78.253592953   16.174576908   538.2529   2   9   0.0347   0.0342   0.0478   0.0149  -0.0131  -0.0114   0.00    2.2
2018/03/11 13:22:30.000   78.253592962   16.174576869   538.2516   2   9   0.0346   0.0341   0.0477   0.0149  -0.0131  -0.0114   0.00    2.2
2018/03/11 13:22:31.000   78.253592978   16.174576821   538.2523   2   9   0.0345   0.0340   0.0475   0.0148  -0.0131  -0.0114   0.00    2.2
2018/03/11 13:22:32.000   78.253593015   16.174576789   538.2493   2   9   0.0344   0.0340   0.0474   0.0148  -0.0131  -0.0113   0.00    2.2
2018/03/11 13:22:33.000   78.253593039   16.174576816   538.2441   2   9   0.0343   0.0339   0.0472   0.0148  -0.0131  -0.0113   0.00    2.2
2018/03/11 13:22:34.000   78.253593038   16.174576786   538.2417   2   9   0.0343   0.0338   0.0471   0.0148  -0.0130  -0.0113   0.00    2.2
2018/03/11 13:22:35.000   78.253593027   16.174576810   538.2422   2   9   0.0342   0.0338   0.0469   0.0147  -0.0130  -0.0113   0.00    2.2
2018/03/11 13:22:36.000   78.253593033   16.174576756   538.2431   2   9   0.0341   0.0337   0.0468   0.0147  -0.0130  -0.0113   0.00    2.2
2018/03/11 13:22:37.000   78.253593038   16.174576713   538.2461   2   9   0.0340   0.0336   0.0466   0.0147  -0.0130  -0.0113   0.00    2.2
2018/03/11 13:22:38.000   78.253593037   16.174576664   538.2477   2   9   0.0340   0.0335   0.0465   0.0147  -0.0130  -0.0113   0.00    2.2
2018/03/11 13:22:39.000   78.253593056   16.174576680   538.2481   2   9   0.0339   0.0335   0.0464   0.0146  -0.0129  -0.0113   0.00    2.2
2018/03/11 13:22:40.000   78.253593044   16.174576660   538.2483   2   9   0.0338   0.0334   0.0462   0.0146  -0.0129  -0.0113   0.00    2.2
2018/03/11 13:22:41.000   78.253593058   16.174576646   538.2486   2   9   0.0337   0.0333   0.0461   0.0146  -0.0129  -0.0113   0.00    2.2
2018/03/11 13:22:42.000   78.253593099   16.174576613   538.2503   2   9   0.0337   0.0333   0.0460   0.0146  -0.0129  -0.0113   0.00    2.2
2018/03/11 13:22:43.000   78.253593132   16.174576608   538.2522   2   9   0.0336   0.0332   0.0458   0.0145  -0.0129  -0.0113   0.00    2.3
2018/03/11 13:22:44.000   78.253593156   16.174576686   538.2517   2   9   0.0335   0.0331   0.0457   0.0145  -0.0129  -0.0113   0.00    2.3
2018/03/11 13:22:45.000   78.253593170   16.174576727   538.2478   2   9   0.0334   0.0331   0.0455   0.0145  -0.0128  -0.0113   0.00    2.3
2018/03/11 13:22:46.000   78.253593170   16.174576707   538.2452   2   9   0.0334   0.0330   0.0454   0.0145  -0.0128  -0.0113   0.00    2.3
2018/03/11 13:22:47.000   78.253593189   16.174576660   538.2447   2   9   0.0333   0.0329   0.0453   0.0144  -0.0128  -0.0113   0.00    2.3
2018/03/11 13:22:48.000   78.253593209   16.174576615   538.2466   2   9   0.0332   0.0329   0.0451   0.0144  -0.0128  -0.0113   0.00    2.3
2018/03/11 13:22:49.000   78.253593219   16.174576488   538.2492   2   9   0.0331   0.0328   0.0450   0.0144  -0.0128  -0.0112   0.00    2.3
2018/03/11 13:22:50.000   78.253593236   16.174576461   538.2513   2   9   0.0331   0.0327   0.0449   0.0144  -0.0128  -0.0112   0.00    2.3
2018/03/11 13:22:51.000   78.253593237   16.174576421   538.2548   2   9   0.0330   0.0327   0.0448   0.0144  -0.0127  -0.0112   0.00    2.3
2018/03/11 13:22:52.000   78.253593222   16.174576410   538.2590   2   9   0.0329   0.0326   0.0446   0.0143  -0.0127  -0.0112   0.00    2.3
2018/03/11 13:22:53.000   78.253593213   16.174576491   538.2628   2   9   0.0329   0.0325   0.0445   0.0143  -0.0127  -0.0112   0.00    2.3
2018/03/11 13:22:54.000   78.253593209   16.174576512   538.2656   2   9   0.0328   0.0325   0.0444   0.0143  -0.0127  -0.0112   0.00    2.3
2018/03/11 13:22:55.000   78.253593210   16.174576510   538.2662   2   9   0.0327   0.0324   0.0442   0.0143  -0.0127  -0.0112   0.00    2.3
2018/03/11 13:22:56.000   78.253593250   16.174576533   538.2652   2   9   0.0327   0.0324   0.0441   0.0142  -0.0126  -0.0112   0.00    2.3
2018/03/11 13:22:57.000   78.253593287   16.174576575   538.2634   2   9   0.0326   0.0323   0.0440   0.0142  -0.0126  -0.0112   0.00    2.3
2018/03/11 13:22:58.000   78.253593302   16.174576577   538.2623   2   9   0.0325   0.0322   0.0439   0.0142  -0.0126  -0.0112   0.00    2.3
2018/03/11 13:22:59.000   78.253593307   16.174576591   538.2624   2   9   0.0324   0.0322   0.0437   0.0142  -0.0126  -0.0112   0.00    2.3
2018/03/11 13:23:00.000   78.253593295   16.174576552   538.2655   2   9   0.0324   0.0321   0.0436   0.0141  -0.0126  -0.0112   0.00    2.3
2018/03/11 13:23:01.000   78.253593274   16.174576514   538.2702   2   9   0.0323   0.0320   0.0435   0.0141  -0.0126  -0.0111   0.00    2.3
2018/03/11 13:23:02.000   78.253593267   16.174576507   538.2753   2   9   0.0322   0.0320   0.0434   0.0141  -0.0125  -0.0111   0.00    2.3
2018/03/11 13:23:03.000   78.253593249   16.174576429   538.2792   2   9   0.0322   0.0319   0.0433   0.0141  -0.0125  -0.0111   0.00    2.3
2018/03/11 13:23:04.000   78.253593251   16.174576403   538.2787   2   9   0.0321   0.0319   0.0431   0.0141  -0.0125  -0.0111   0.00    2.4
2018/03/11 13:23:05.000   78.253593269   16.174576384   538.2773   2   9   0.0320   0.0318   0.0430   0.0140  -0.0125  -0.0111   0.00    2.4
2018/03/11 13:23:06.000   78.253593284   16.174576438   538.2771   2   9   0.0320   0.0317   0.0429   0.0140  -0.0125  -0.0111   0.00    2.4
2018/03/11 13:23:07.000   78.253593311   16.174576508   538.2764   2   9   0.0319   0.0317   0.0428   0.0140  -0.0125  -0.0111   0.00    2.4
2018/03/11 13:23:08.000   78.253593318   16.174576491   538.2792   2   9   0.0318   0.0316   0.0427   0.0140  -0.0124  -0.0111   0.00    2.4
2018/03/11 13:23:09.000   78.253593305   16.174576468   538.2821   2   9   0.0318   0.0316   0.0425   0.0139  -0.0124  -0.0111   0.00    2.4
2018/03/11 13:23:10.000   78.253593287   16.174576521   538.2850   2   9   0.0317   0.0315   0.0424   0.0139  -0.0124  -0.0111   0.00    2.4
2018/03/11 13:23:11.000   78.253593260   16.174576579   538.2883   2   9   0.0316   0.0314   0.0423   0.0139  -0.0124  -0.0111   0.00    2.4
2018/03/11 13:23:12.000   78.253593268   16.174576636   538.2902   2   9   0.0316   0.0314   0.0422   0.0139  -0.0124  -0.0110   0.00    2.4
2018/03/11 13:23:13.000   78.253593277   16.174576639   538.2917   2   9   0.0315   0.0313   0.0421   0.0139  -0.0124  -0.0110   0.00    2.4
