% program   : RTKPOST ver.2.4.2
% inp file  : Z:\home\linda\Documents\Spring18\GitHub_Unis\data\processed_data\46250704.obs
% inp file  : Z:\home\linda\Documents\Spring18\GitHub_Unis\data\base_station_data\lyrs0700.18o
% inp file  : Z:\home\linda\Documents\Spring18\GitHub_Unis\data\processed_data\46250704.nav
% obs start : 2018/03/11 12:07:04.0 GPST (week1992  43624.0s)
% obs end   : 2018/03/11 12:22:36.0 GPST (week1992  44556.0s)
% pos mode  : static
% freqs     : L1+L2
% solution  : forward
% elev mask : 15.0 deg
% dynamics  : on
% tidecorr  : off
% ionos opt : iono-free
% tropo opt : saastamoinen
% ephemeris : broadcast
% navi sys  : gps glonass galileo qzss sbas
% amb res   : fix and hold
% amb glo   : on
% val thres : 3.0
% antenna1  :                       ( 0.0000  0.0000  0.0000)
% antenna2  :                       ( 0.0000  0.0000  0.0000)
% ref pos   : 78.228825638   15.397310064   495.6816
%
% (lat/lon/height=WGS84/ellipsoidal,Q=1:fix,2:float,3:sbas,4:dgps,5:single,6:ppp,ns=# of satellites)
%  GPST                  latitude(deg) longitude(deg)  height(m)   Q  ns   sdn(m)   sde(m)   sdu(m)  sdne(m)  sdeu(m)  sdun(m) age(s)  ratio
2018/03/11 12:07:04.000   78.256423997   16.214713460   426.4012   2   9   1.0232   0.9653   3.8221  -0.3918   0.5795   0.8421   0.00    1.3
2018/03/11 12:07:05.000   78.256422925   16.214737095   426.5459   2   9   0.7245   0.6832   2.7152  -0.2774   0.4108   0.5982   0.00    1.2
2018/03/11 12:07:06.000   78.256426132   16.214745132   427.0594   2   9   0.5917   0.5580   2.2195  -0.2266   0.3358   0.4888   0.00    1.2
2018/03/11 12:07:07.000   78.256425773   16.214746928   426.3037   2   9   0.5125   0.4833   1.9222  -0.1963   0.2909   0.4231   0.00    1.2
2018/03/11 12:07:08.000   78.256425627   16.214745912   426.5053   2   9   0.4584   0.4323   1.7185  -0.1755   0.2603   0.3780   0.00    1.2
2018/03/11 12:07:09.000   78.256427971   16.214746579   427.3890   2   9   0.4184   0.3946   1.5673  -0.1603   0.2377   0.3445   0.00    1.2
2018/03/11 12:07:10.000   78.256426909   16.214741472   427.4913   2   9   0.3873   0.3653   1.4493  -0.1484   0.2201   0.3183   0.00    1.2
2018/03/11 12:07:11.000   78.256428054   16.214733333   427.2698   2   9   0.3623   0.3417   1.3537  -0.1388   0.2058   0.2970   0.00    1.2
2018/03/11 12:07:12.000   78.256429759   16.214729202   427.2292   2   9   0.3415   0.3222   1.2740  -0.1308   0.1940   0.2793   0.00    1.2
2018/03/11 12:07:13.000   78.256429636   16.214724813   427.1809   2   9   0.3238   0.3056   1.2062  -0.1241   0.1840   0.2641   0.00    1.2
2018/03/11 12:07:14.000   78.256429929   16.214724630   427.3460   2   9   0.3087   0.2914   1.1475  -0.1183   0.1754   0.2509   0.00    1.2
2018/03/11 12:07:15.000   78.256429159   16.214727300   427.0155   2   9   0.2954   0.2789   1.0959  -0.1133   0.1678   0.2394   0.00    1.2
2018/03/11 12:07:16.000   78.256427760   16.214725770   427.0949   2   9   0.2838   0.2679   1.0501  -0.1088   0.1612   0.2290   0.00    1.2
2018/03/11 12:07:17.000   78.256427071   16.214726104   427.0564   2   9   0.2733   0.2582   1.0089  -0.1049   0.1552   0.2198   0.00    1.2
2018/03/11 12:07:18.000   78.256426559   16.214723833   426.8366   2   9   0.2639   0.2494   0.9717  -0.1013   0.1498   0.2113   0.00    1.1
2018/03/11 12:07:19.000   78.256426068   16.214720975   426.9966   2   9   0.2555   0.2414   0.9377  -0.0981   0.1449   0.2036   0.00    1.1
2018/03/11 12:07:20.000   78.256425206   16.214717775   426.8013   2   9   0.2477   0.2342   0.9065  -0.0951   0.1405   0.1965   0.00    1.1
2018/03/11 12:07:21.000   78.256425012   16.214716286   426.6270   2   9   0.2406   0.2275   0.8777  -0.0924   0.1364   0.1899   0.00    1.1
2018/03/11 12:07:22.000   78.256423800   16.214712600   426.6519   2   9   0.2341   0.2214   0.8509  -0.0899   0.1326   0.1838   0.00    1.1
2018/03/11 12:07:23.000   78.256423651   16.214709771   426.4672   2   9   0.2280   0.2158   0.8260  -0.0876   0.1291   0.1780   0.00    1.1
2018/03/11 12:07:24.000   78.256423438   16.214712524   426.0906   2   9   0.2224   0.2105   0.8026  -0.0855   0.1258   0.1727   0.00    1.1
2018/03/11 12:07:25.000   78.256422698   16.214712825   425.9560   2   9   0.2172   0.2056   0.7807  -0.0835   0.1228   0.1676   0.00    1.0
2018/03/11 12:07:26.000   78.256421727   16.214715736   426.0135   2   9   0.2123   0.2011   0.7600  -0.0817   0.1199   0.1628   0.00    1.0
2018/03/11 12:07:27.000   78.256421586   16.214717595   426.0920   2   9   0.2077   0.1968   0.7404  -0.0799   0.1172   0.1582   0.00    1.0
2018/03/11 12:07:28.000   78.256421347   16.214716963   426.2305   2   9   0.2033   0.1928   0.7219  -0.0783   0.1147   0.1539   0.00    1.0
2018/03/11 12:07:29.000   78.256421145   16.214718661   426.3785   2   9   0.1992   0.1890   0.7043  -0.0768   0.1123   0.1498   0.00    1.0
2018/03/11 12:07:30.000   78.256421113   16.214721043   426.5518   2   9   0.1954   0.1854   0.6875  -0.0753   0.1100   0.1458   0.00    1.1
2018/03/11 12:07:31.000   78.256420961   16.214720681   426.7536   2   9   0.1917   0.1820   0.6715  -0.0739   0.1078   0.1421   0.00    1.1
2018/03/11 12:07:32.000   78.256421368   16.214721510   426.7998   2   9   0.1882   0.1788   0.6562  -0.0726   0.1058   0.1384   0.00    1.1
2018/03/11 12:07:33.000   78.256422189   16.214724590   426.7646   2   9   0.1849   0.1757   0.6415  -0.0714   0.1038   0.1350   0.00    1.1
2018/03/11 12:07:34.000   78.256422210   16.214724707   426.7838   2   9   0.1818   0.1728   0.6274  -0.0702   0.1019   0.1316   0.00    1.1
2018/03/11 12:07:35.000   78.256422281   16.214722449   426.8818   2   9   0.1788   0.1700   0.6139  -0.0691   0.1001   0.1284   0.00    1.1
2018/03/11 12:07:36.000   78.256423057   16.214720852   426.9529   2   9   0.1759   0.1674   0.6009  -0.0680   0.0984   0.1253   0.00    1.1
2018/03/11 12:07:37.000   78.256423328   16.214718265   426.9849   2   9   0.1732   0.1649   0.5884  -0.0669   0.0968   0.1223   0.00    1.1
2018/03/11 12:07:38.000   78.256423420   16.214713945   426.9956   2   9   0.1705   0.1624   0.5763  -0.0659   0.0952   0.1194   0.00    1.1
2018/03/11 12:07:39.000   78.256424022   16.214713088   426.8978   2   9   0.1680   0.1601   0.5647  -0.0650   0.0937   0.1166   0.00    1.1
2018/03/11 12:07:40.000   78.256424336   16.214712330   426.8625   2   9   0.1656   0.1579   0.5535  -0.0641   0.0922   0.1139   0.00    1.0
2018/03/11 12:07:41.000   78.256424587   16.214712010   426.8258   2   9   0.1632   0.1557   0.5426  -0.0632   0.0908   0.1112   0.00    1.0
2018/03/11 12:07:42.000   78.256424867   16.214712695   426.6968   2   9   0.1610   0.1536   0.5321  -0.0624   0.0894   0.1087   0.00    1.0
2018/03/11 12:07:43.000   78.256424516   16.214711615   426.6670   2   9   0.1588   0.1517   0.5219  -0.0615   0.0881   0.1062   0.00    1.0
2018/03/11 12:07:44.000   78.256423852   16.214710241   426.6450   2   9   0.1567   0.1497   0.5120  -0.0608   0.0868   0.1038   0.00    1.0
2018/03/11 12:07:45.000   78.256423429   16.214710792   426.6020   2   9   0.1547   0.1479   0.5025  -0.0600   0.0856   0.1014   0.00    1.0
2018/03/11 12:07:46.000   78.256422644   16.214711645   426.4350   2   9   0.1528   0.1461   0.4932  -0.0593   0.0844   0.0991   0.00    1.0
2018/03/11 12:07:47.000   78.256421872   16.214712893   426.3429   2   9   0.1509   0.1444   0.4842  -0.0586   0.0833   0.0969   0.00    1.1
2018/03/11 12:07:48.000   78.256421669   16.214712684   426.2198   2   9   0.1490   0.1427   0.4754  -0.0579   0.0822   0.0948   0.00    1.1
2018/03/11 12:07:49.000   78.256421436   16.214713822   426.2227   2   9   0.1473   0.1411   0.4669  -0.0572   0.0811   0.0926   0.00    1.1
2018/03/11 12:07:50.000   78.256421242   16.214713839   426.3268   2   9   0.1455   0.1395   0.4587  -0.0565   0.0800   0.0906   0.00    1.1
2018/03/11 12:07:51.000   78.256421374   16.214713401   426.3599   2   9   0.1439   0.1380   0.4507  -0.0559   0.0790   0.0886   0.00    1.0
2018/03/11 12:07:52.000   78.256421904   16.214712795   426.4467   2   9   0.1422   0.1365   0.4428  -0.0553   0.0780   0.0866   0.00    1.0
2018/03/11 12:07:53.000   78.256422106   16.214712604   426.5454   2   9   0.1407   0.1351   0.4352  -0.0547   0.0771   0.0847   0.00    1.0
2018/03/11 12:07:54.000   78.256422403   16.214712240   426.6236   2   9   0.1391   0.1337   0.4278  -0.0541   0.0761   0.0829   0.00    1.0
2018/03/11 12:07:55.000   78.256422829   16.214711744   426.7029   2   9   0.1377   0.1323   0.4206  -0.0536   0.0752   0.0811   0.00    1.1
2018/03/11 12:07:56.000   78.256423366   16.214710609   426.7927   2   9   0.1362   0.1310   0.4136  -0.0530   0.0743   0.0793   0.00    1.1
2018/03/11 12:07:57.000   78.256423724   16.214709935   426.8036   2   9   0.1348   0.1297   0.4068  -0.0525   0.0735   0.0776   0.00    1.1
2018/03/11 12:07:58.000   78.256424173   16.214710114   426.8066   2   9   0.1334   0.1285   0.4001  -0.0520   0.0726   0.0759   0.00    1.1
2018/03/11 12:07:59.000   78.256424118   16.214710067   426.8233   2   9   0.1321   0.1272   0.3936  -0.0515   0.0718   0.0742   0.00    1.1
2018/03/11 12:08:00.000   78.256424087   16.214709876   426.8455   2   9   0.1308   0.1260   0.3873  -0.0510   0.0710   0.0726   0.00    1.1
2018/03/11 12:08:01.000   78.256424166   16.214710670   426.8306   2   9   0.1295   0.1249   0.3811  -0.0505   0.0702   0.0710   0.00    1.1
2018/03/11 12:08:02.000   78.256424055   16.214710804   426.8568   2   9   0.1283   0.1238   0.3751  -0.0500   0.0695   0.0695   0.00    1.1
2018/03/11 12:08:03.000   78.256423657   16.214711530   426.8561   2   9   0.1270   0.1227   0.3692  -0.0495   0.0687   0.0679   0.00    1.1
2018/03/11 12:08:04.000   78.256423523   16.214711903   426.8016   2   9   0.1258   0.1216   0.3634  -0.0491   0.0680   0.0665   0.00    1.1
2018/03/11 12:08:05.000   78.256423393   16.214712287   426.7710   2   9   0.1247   0.1205   0.3578  -0.0486   0.0673   0.0650   0.00    1.1
2018/03/11 12:08:06.000   78.256423169   16.214713090   426.6995   2   9   0.1235   0.1195   0.3523  -0.0482   0.0666   0.0636   0.00    1.1
2018/03/11 12:08:07.000   78.256422996   16.214713479   426.6121   2   9   0.1224   0.1185   0.3470  -0.0478   0.0659   0.0622   0.00    1.1
2018/03/11 12:08:08.000   78.256422665   16.214712740   426.5085   2   9   0.1214   0.1175   0.3417  -0.0474   0.0653   0.0608   0.00    1.1
2018/03/11 12:08:09.000   78.256422476   16.214712715   426.4425   2   9   0.1203   0.1165   0.3366  -0.0470   0.0646   0.0595   0.00    1.1
2018/03/11 12:08:10.000   78.256422393   16.214713511   426.3389   2   9   0.1192   0.1156   0.3316  -0.0466   0.0640   0.0582   0.00    1.1
2018/03/11 12:08:11.000   78.256422415   16.214713085   426.2995   2   9   0.1182   0.1147   0.3268  -0.0462   0.0634   0.0569   0.00    1.1
2018/03/11 12:08:12.000   78.256422615   16.214713216   426.2731   2   9   0.1172   0.1138   0.3220  -0.0458   0.0627   0.0556   0.00    1.1
2018/03/11 12:08:13.000   78.256423054   16.214713332   426.2944   2   9   0.1162   0.1129   0.3173  -0.0454   0.0621   0.0544   0.00    1.1
2018/03/11 12:08:14.000   78.256423346   16.214713757   426.3223   2   9   0.1153   0.1120   0.3128  -0.0450   0.0616   0.0532   0.00    1.1
2018/03/11 12:08:15.000   78.256423640   16.214713925   426.3673   2   9   0.1143   0.1112   0.3083  -0.0447   0.0610   0.0520   0.00    1.1
2018/03/11 12:08:16.000   78.256423911   16.214713918   426.3946   2   9   0.1134   0.1103   0.3040  -0.0443   0.0604   0.0508   0.00    1.1
2018/03/11 12:08:17.000   78.256424057   16.214713575   426.4402   2   9   0.1125   0.1095   0.2997  -0.0440   0.0599   0.0497   0.00    1.1
2018/03/11 12:08:18.000   78.256424429   16.214712775   426.4545   2   9   0.1116   0.1087   0.2955  -0.0436   0.0594   0.0485   0.00    1.1
2018/03/11 12:08:19.000   78.256424533   16.214711940   426.4808   2   9   0.1107   0.1079   0.2914  -0.0433   0.0588   0.0474   0.00    1.1
2018/03/11 12:08:20.000   78.256424399   16.214711180   426.5025   2   9   0.1099   0.1071   0.2874  -0.0430   0.0583   0.0463   0.00    1.1
2018/03/11 12:08:21.000   78.256424455   16.214711040   426.5208   2   9   0.1090   0.1064   0.2835  -0.0426   0.0578   0.0453   0.00    1.1
2018/03/11 12:08:22.000   78.256424379   16.214711370   426.5100   2   9   0.1082   0.1056   0.2797  -0.0423   0.0573   0.0442   0.00    1.1
2018/03/11 12:08:23.000   78.256424261   16.214711144   426.5147   2   9   0.1074   0.1049   0.2759  -0.0420   0.0568   0.0432   0.00    1.1
2018/03/11 12:08:24.000   78.256424219   16.214711213   426.4807   2   9   0.1066   0.1042   0.2723  -0.0417   0.0563   0.0422   0.00    1.1
2018/03/11 12:08:25.000   78.256424234   16.214710946   426.4370   2   9   0.1058   0.1035   0.2687  -0.0414   0.0559   0.0412   0.00    1.1
2018/03/11 12:08:26.000   78.256424198   16.214711633   426.3952   2   9   0.1050   0.1028   0.2651  -0.0411   0.0554   0.0402   0.00    1.1
2018/03/11 12:08:27.000   78.256424175   16.214712423   426.3401   2   9   0.1043   0.1021   0.2617  -0.0408   0.0550   0.0392   0.00    1.0
2018/03/11 12:08:28.000   78.256424159   16.214712904   426.2690   2   9   0.1035   0.1014   0.2583  -0.0405   0.0545   0.0383   0.00    1.0
2018/03/11 12:08:29.000   78.256424100   16.214713067   426.2088   2   9   0.1028   0.1007   0.2550  -0.0402   0.0541   0.0373   0.00    1.0
2018/03/11 12:08:30.000   78.256424091   16.214713072   426.1693   2   9   0.1020   0.1001   0.2518  -0.0399   0.0537   0.0364   0.00    1.0
2018/03/11 12:08:31.000   78.256424016   16.214712656   426.1321   2   9   0.1013   0.0994   0.2486  -0.0396   0.0532   0.0355   0.00    1.0
2018/03/11 12:08:32.000   78.256423805   16.214712035   426.1295   2   9   0.1006   0.0988   0.2455  -0.0393   0.0528   0.0346   0.00    1.0
2018/03/11 12:08:33.000   78.256423719   16.214711820   426.1246   2   9   0.0999   0.0982   0.2424  -0.0391   0.0524   0.0337   0.00    1.0
2018/03/11 12:08:34.000   78.256423680   16.214711162   426.1131   2   9   0.0993   0.0976   0.2394  -0.0388   0.0520   0.0328   0.00    1.0
2018/03/11 12:08:35.000   78.256423507   16.214711093   426.1249   2   9   0.0986   0.0969   0.2365  -0.0385   0.0516   0.0320   0.00    1.0
2018/03/11 12:08:36.000   78.256423373   16.214711366   426.1498   2   9   0.0979   0.0964   0.2336  -0.0383   0.0512   0.0311   0.00    1.0
2018/03/11 12:08:37.000   78.256423323   16.214711391   426.1651   2   9   0.0973   0.0958   0.2308  -0.0380   0.0508   0.0302   0.00    1.1
2018/03/11 12:08:38.000   78.256423385   16.214711692   426.1739   2   9   0.0966   0.0952   0.2280  -0.0377   0.0505   0.0294   0.00    1.1
2018/03/11 12:08:39.000   78.256423430   16.214712007   426.1693   2   9   0.0960   0.0946   0.2253  -0.0375   0.0501   0.0286   0.00    1.1
2018/03/11 12:08:40.000   78.256423436   16.214712701   426.1711   2   9   0.0954   0.0940   0.2226  -0.0372   0.0497   0.0278   0.00    1.1
2018/03/11 12:08:41.000   78.256423590   16.214712960   426.1631   2   9   0.0947   0.0935   0.2200  -0.0370   0.0494   0.0270   0.00    1.1
2018/03/11 12:08:42.000   78.256423690   16.214713284   426.1479   2   9   0.0941   0.0929   0.2174  -0.0367   0.0490   0.0261   0.00    1.1
2018/03/11 12:08:43.000   78.256423690   16.214713081   426.1326   2   9   0.0935   0.0924   0.2149  -0.0365   0.0487   0.0253   0.00    1.1
2018/03/11 12:08:44.000   78.256423889   16.214712734   426.1064   2   9   0.0929   0.0919   0.2124  -0.0363   0.0483   0.0246   0.00    1.1
2018/03/11 12:08:45.000   78.256424075   16.214712635   426.0673   2   9   0.0923   0.0913   0.2100  -0.0360   0.0480   0.0238   0.00    1.1
2018/03/11 12:08:46.000   78.256424114   16.214712830   426.0388   2   9   0.0918   0.0908   0.2076  -0.0358   0.0477   0.0230   0.00    1.1
2018/03/11 12:08:47.000   78.256424182   16.214712992   426.0170   2   9   0.0912   0.0903   0.2053  -0.0356   0.0473   0.0222   0.00    1.1
2018/03/11 12:08:48.000   78.256424183   16.214712970   425.9690   2   9   0.0906   0.0898   0.2030  -0.0353   0.0470   0.0214   0.00    1.0
2018/03/11 12:08:49.000   78.256424105   16.214713459   425.9327   2   9   0.0901   0.0893   0.2007  -0.0351   0.0467   0.0207   0.00    1.0
2018/03/11 12:08:50.000   78.256423992   16.214713673   425.8996   2   9   0.0895   0.0888   0.1985  -0.0349   0.0464   0.0199   0.00    1.0
2018/03/11 12:08:51.000   78.256423958   16.214713742   425.8730   2   9   0.0890   0.0883   0.1963  -0.0347   0.0461   0.0191   0.00    1.0
2018/03/11 12:08:52.000   78.256423735   16.214713733   425.8512   2   9   0.0884   0.0878   0.1942  -0.0345   0.0458   0.0183   0.00    1.0
2018/03/11 12:08:53.000   78.256423686   16.214714263   425.8451   2   9   0.0879   0.0874   0.1921  -0.0342   0.0455   0.0175   0.00    1.0
2018/03/11 12:08:54.000   78.256423668   16.214715206   425.8392   2   9   0.0874   0.0869   0.1900  -0.0340   0.0452   0.0168   0.00    1.0
2018/03/11 12:08:55.000   78.256423527   16.214715595   425.8422   2   9   0.0869   0.0864   0.1880  -0.0338   0.0449   0.0160   0.00    1.0
2018/03/11 12:08:56.000   78.256423436   16.214715940   425.8400   2   9   0.0864   0.0860   0.1860  -0.0336   0.0446   0.0152   0.00    1.0
2018/03/11 12:08:57.000   78.256423349   16.214716057   425.8321   2   9   0.0859   0.0855   0.1840  -0.0334   0.0443   0.0144   0.00    1.0
2018/03/11 12:08:58.000   78.256423220   16.214716173   425.8380   2   9   0.0854   0.0851   0.1821  -0.0332   0.0440   0.0135   0.00    1.0
2018/03/11 12:08:59.000   78.256423135   16.214716157   425.8457   2   9   0.0849   0.0846   0.1802  -0.0330   0.0437   0.0127   0.00    1.0
2018/03/11 12:09:00.000   78.256423072   16.214716386   425.8499   2   9   0.0844   0.0842   0.1784  -0.0328   0.0435   0.0118   0.00    1.0
2018/03/11 12:09:01.000   78.256423011   16.214716167   425.8467   2   9   0.0839   0.0837   0.1765  -0.0326   0.0432   0.0109   0.00    1.0
2018/03/11 12:09:02.000   78.256422956   16.214716308   425.8518   2   9   0.0834   0.0833   0.1747  -0.0324   0.0429   0.0100   0.00    1.0
2018/03/11 12:09:03.000   78.256422955   16.214716790   425.8434   2   9   0.0830   0.0829   0.1730  -0.0322   0.0427   0.0090   0.00    1.0
2018/03/11 12:09:04.000   78.256422967   16.214716948   425.8287   2   9   0.0825   0.0825   0.1712  -0.0320   0.0424   0.0079   0.00    1.0
2018/03/11 12:09:05.000   78.256422942   16.214717281   425.8119   2   9   0.0820   0.0821   0.1695  -0.0318   0.0422   0.0067   0.00    1.0
2018/03/11 12:09:06.000   78.256422901   16.214717270   425.7983   2   9   0.0816   0.0816   0.1678  -0.0317   0.0419   0.0052   0.00    1.0
2018/03/11 12:09:07.000   78.256422736   16.214717432   425.7710   2   9   0.0811   0.0812   0.1662  -0.0315   0.0417   0.0033   0.00    1.0
2018/03/11 12:09:08.000   78.256422576   16.214717765   425.7479   2   9   0.0807   0.0808   0.1646  -0.0313   0.0414  -0.0022   0.00    1.0
2018/03/11 12:09:09.000   78.256422473   16.214718187   425.7238   2   9   0.0803   0.0804   0.1630  -0.0311   0.0412  -0.0044   0.00    1.0
2018/03/11 12:09:10.000   78.256422362   16.214718576   425.6890   2   9   0.0798   0.0800   0.1614  -0.0309   0.0409  -0.0059   0.00    1.0
2018/03/11 12:09:11.000   78.256422256   16.214719289   425.6649   2   9   0.0794   0.0797   0.1598  -0.0307   0.0407  -0.0069   0.00    1.1
2018/03/11 12:09:12.000   78.256422223   16.214719832   425.6428   2   9   0.0790   0.0793   0.1583  -0.0306   0.0404  -0.0078   0.00    1.1
2018/03/11 12:09:13.000   78.256422210   16.214720491   425.6166   2   9   0.0785   0.0789   0.1568  -0.0304   0.0402  -0.0086   0.00    1.1
2018/03/11 12:09:14.000   78.256422220   16.214721145   425.5948   2   9   0.0781   0.0785   0.1553  -0.0302   0.0400  -0.0093   0.00    1.1
2018/03/11 12:09:15.000   78.256422236   16.214721466   425.5782   2   9   0.0777   0.0781   0.1539  -0.0301   0.0398  -0.0099   0.00    1.1
2018/03/11 12:09:16.000   78.256422309   16.214721577   425.5684   2   9   0.0773   0.0778   0.1525  -0.0299   0.0395  -0.0105   0.00    1.0
2018/03/11 12:09:17.000   78.256422366   16.214721776   425.5557   2   9   0.0769   0.0774   0.1510  -0.0297   0.0393  -0.0110   0.00    1.0
2018/03/11 12:09:18.000   78.256422412   16.214721585   425.5375   2   9   0.0765   0.0770   0.1497  -0.0295   0.0391  -0.0115   0.00    1.0
2018/03/11 12:09:19.000   78.256422410   16.214721654   425.5168   2   9   0.0761   0.0767   0.1483  -0.0294   0.0389  -0.0119   0.00    1.0
2018/03/11 12:09:20.000   78.256422530   16.214721751   425.4921   2   9   0.0757   0.0763   0.1469  -0.0292   0.0387  -0.0123   0.00    1.0
2018/03/11 12:09:21.000   78.256422513   16.214721985   425.4822   2   9   0.0753   0.0760   0.1456  -0.0291   0.0384  -0.0127   0.00    1.0
2018/03/11 12:09:22.000   78.256422446   16.214722104   425.4720   2   9   0.0749   0.0756   0.1443  -0.0289   0.0382  -0.0130   0.00    1.0
2018/03/11 12:09:23.000   78.256422411   16.214722268   425.4778   2   9   0.0746   0.0753   0.1430  -0.0287   0.0380  -0.0134   0.00    1.0
2018/03/11 12:09:24.000   78.256422282   16.214722675   425.4801   2   9   0.0742   0.0749   0.1418  -0.0286   0.0378  -0.0137   0.00    1.0
2018/03/11 12:09:25.000   78.256422086   16.214723141   425.4832   2   9   0.0738   0.0746   0.1405  -0.0284   0.0376  -0.0140   0.00    1.0
2018/03/11 12:09:26.000   78.256421940   16.214723684   425.4799   2   9   0.0734   0.0743   0.1393  -0.0283   0.0374  -0.0142   0.00    1.1
2018/03/11 12:09:27.000   78.256421803   16.214724350   425.4735   2   9   0.0731   0.0739   0.1381  -0.0281   0.0372  -0.0145   0.00    1.1
2018/03/11 12:09:28.000   78.256421643   16.214724731   425.4802   2   9   0.0727   0.0736   0.1369  -0.0280   0.0370  -0.0147   0.00    1.1
2018/03/11 12:09:29.000   78.256421613   16.214725062   425.4919   2   9   0.0724   0.0733   0.1357  -0.0278   0.0368  -0.0150   0.00    1.1
2018/03/11 12:09:30.000   78.256421591   16.214725211   425.5036   2   9   0.0720   0.0730   0.1346  -0.0276   0.0366  -0.0152   0.00    1.1
2018/03/11 12:09:31.000   78.256421536   16.214725006   425.5191   2   9   0.0716   0.0726   0.1334  -0.0275   0.0364  -0.0154   0.00    1.1
2018/03/11 12:09:32.000   78.256421559   16.214725089   425.5333   2   9   0.0713   0.0723   0.1323  -0.0274   0.0363  -0.0156   0.00    1.1
2018/03/11 12:09:33.000   78.256421622   16.214725632   425.5423   2   9   0.0710   0.0720   0.1312  -0.0272   0.0361  -0.0157   0.00    1.1
2018/03/11 12:09:34.000   78.256421699   16.214725582   425.5439   2   9   0.0706   0.0717   0.1301  -0.0271   0.0359  -0.0159   0.00    1.1
2018/03/11 12:09:35.000   78.256421722   16.214725742   425.5433   2   9   0.0703   0.0714   0.1290  -0.0269   0.0357  -0.0161   0.00    1.1
2018/03/11 12:09:36.000   78.256421716   16.214725841   425.5323   2   9   0.0699   0.0711   0.1280  -0.0268   0.0355  -0.0162   0.00    1.1
2018/03/11 12:09:37.000   78.256421723   16.214726133   425.5196   2   9   0.0696   0.0708   0.1269  -0.0266   0.0353  -0.0164   0.00    1.1
2018/03/11 12:09:38.000   78.256421772   16.214726339   425.4968   2   9   0.0693   0.0705   0.1259  -0.0265   0.0352  -0.0165   0.00    1.1
2018/03/11 12:09:39.000   78.256421779   16.214726510   425.4787   2   9   0.0689   0.0702   0.1249  -0.0263   0.0350  -0.0166   0.00    1.1
2018/03/11 12:09:40.000   78.256421762   16.214726886   425.4554   2   9   0.0686   0.0699   0.1239  -0.0262   0.0348  -0.0168   0.00    1.1
2018/03/11 12:09:41.000   78.256421747   16.214726920   425.4310   2   9   0.0683   0.0696   0.1229  -0.0261   0.0346  -0.0169   0.00    1.1
2018/03/11 12:09:42.000   78.256421807   16.214727382   425.4152   2   9   0.0680   0.0693   0.1219  -0.0259   0.0345  -0.0170   0.00    1.1
2018/03/11 12:09:43.000   78.256421833   16.214727646   425.3927   2   9   0.0677   0.0690   0.1210  -0.0258   0.0343  -0.0171   0.00    1.1
2018/03/11 12:09:44.000   78.256421861   16.214727857   425.3686   2   9   0.0674   0.0687   0.1200  -0.0257   0.0341  -0.0172   0.00    1.1
2018/03/11 12:09:45.000   78.256421901   16.214728023   425.3535   2   9   0.0670   0.0684   0.1191  -0.0255   0.0340  -0.0173   0.00    1.1
2018/03/11 12:09:46.000   78.256421945   16.214728628   425.3378   2   9   0.0667   0.0682   0.1182  -0.0254   0.0338  -0.0174   0.00    1.1
2018/03/11 12:09:47.000   78.256421942   16.214729006   425.3188   2   9   0.0664   0.0679   0.1172  -0.0253   0.0336  -0.0175   0.00    1.1
2018/03/11 12:09:48.000   78.256421841   16.214729111   425.3059   2   9   0.0661   0.0676   0.1163  -0.0251   0.0335  -0.0176   0.00    1.1
2018/03/11 12:09:49.000   78.256421781   16.214729363   425.3041   2   9   0.0658   0.0673   0.1155  -0.0250   0.0333  -0.0176   0.00    1.1
2018/03/11 12:09:50.000   78.256421741   16.214729500   425.3070   2   9   0.0655   0.0671   0.1146  -0.0249   0.0332  -0.0177   0.00    1.1
2018/03/11 12:09:51.000   78.256421659   16.214729561   425.3108   2   9   0.0652   0.0668   0.1137  -0.0248   0.0330  -0.0178   0.00    1.1
2018/03/11 12:09:52.000   78.256421547   16.214729687   425.3207   2   9   0.0649   0.0665   0.1129  -0.0246   0.0328  -0.0178   0.00    1.1
2018/03/11 12:09:53.000   78.256421538   16.214729832   425.3241   2   9   0.0647   0.0662   0.1120  -0.0245   0.0327  -0.0179   0.00    1.1
2018/03/11 12:09:54.000   78.256421446   16.214729828   425.3392   2   9   0.0644   0.0660   0.1112  -0.0244   0.0325  -0.0179   0.00    1.1
2018/03/11 12:09:55.000   78.256421470   16.214729991   425.3579   2   9   0.0641   0.0657   0.1104  -0.0243   0.0324  -0.0180   0.00    1.1
2018/03/11 12:09:56.000   78.256421517   16.214730161   425.3666   2   9   0.0638   0.0655   0.1096  -0.0241   0.0322  -0.0180   0.00    1.1
2018/03/11 12:09:57.000   78.256421493   16.214730319   425.3752   2   9   0.0635   0.0652   0.1088  -0.0240   0.0321  -0.0181   0.00    1.1
2018/03/11 12:09:58.000   78.256421558   16.214730408   425.3773   2   9   0.0632   0.0649   0.1080  -0.0239   0.0319  -0.0181   0.00    1.1
2018/03/11 12:09:59.000   78.256421682   16.214730639   425.3763   2   9   0.0630   0.0647   0.1072  -0.0238   0.0318  -0.0182   0.00    1.1
2018/03/11 12:10:00.000   78.256421703   16.214730608   425.3704   2   9   0.0627   0.0644   0.1064  -0.0237   0.0316  -0.0182   0.00    1.1
2018/03/11 12:10:01.000   78.256421669   16.214730387   425.3670   2   9   0.0624   0.0642   0.1057  -0.0235   0.0315  -0.0182   0.00    1.1
2018/03/11 12:10:02.000   78.256421738   16.214730625   425.3599   2   9   0.0622   0.0639   0.1049  -0.0234   0.0314  -0.0183   0.00    1.0
2018/03/11 12:10:03.000   78.256421752   16.214730750   425.3456   2   9   0.0619   0.0637   0.1042  -0.0233   0.0312  -0.0183   0.00    1.0
2018/03/11 12:10:04.000   78.256421679   16.214730903   425.3413   2   9   0.0616   0.0635   0.1035  -0.0232   0.0311  -0.0183   0.00    1.0
2018/03/11 12:10:05.000   78.256421693   16.214730960   425.3342   2   9   0.0614   0.0632   0.1027  -0.0231   0.0309  -0.0184   0.00    1.0
2018/03/11 12:10:06.000   78.256421726   16.214730891   425.3196   2   9   0.0611   0.0630   0.1020  -0.0230   0.0308  -0.0184   0.00    1.0
2018/03/11 12:10:07.000   78.256421719   16.214731095   425.3095   2   9   0.0609   0.0627   0.1013  -0.0228   0.0307  -0.0184   0.00    1.0
2018/03/11 12:10:08.000   78.256421731   16.214731269   425.3007   2   9   0.0606   0.0625   0.1006  -0.0227   0.0305  -0.0184   0.00    1.0
2018/03/11 12:10:09.000   78.256421739   16.214731517   425.2948   2   9   0.0603   0.0623   0.0999  -0.0226   0.0304  -0.0184   0.00    1.0
2018/03/11 12:10:10.000   78.256421757   16.214731728   425.2909   2   9   0.0601   0.0620   0.0993  -0.0225   0.0303  -0.0185   0.00    1.0
2018/03/11 12:10:11.000   78.256421756   16.214731896   425.2871   2   9   0.0598   0.0618   0.0986  -0.0224   0.0301  -0.0185   0.00    1.0
2018/03/11 12:10:12.000   78.256421758   16.214732201   425.2848   2   9   0.0596   0.0616   0.0979  -0.0223   0.0300  -0.0185   0.00    1.0
2018/03/11 12:10:13.000   78.256421773   16.214732237   425.2800   2   9   0.0593   0.0613   0.0973  -0.0222   0.0299  -0.0185   0.00    1.0
2018/03/11 12:10:14.000   78.256421750   16.214732422   425.2793   2   9   0.0591   0.0611   0.0966  -0.0221   0.0297  -0.0185   0.00    1.0
2018/03/11 12:10:15.000   78.256421756   16.214732404   425.2790   2   9   0.0589   0.0609   0.0960  -0.0220   0.0296  -0.0185   0.00    1.0
2018/03/11 12:10:16.000   78.256421742   16.214732233   425.2794   2   9   0.0586   0.0607   0.0954  -0.0219   0.0295  -0.0185   0.00    1.0
2018/03/11 12:10:17.000   78.256421739   16.214732058   425.2807   2   9   0.0584   0.0604   0.0947  -0.0218   0.0294  -0.0185   0.00    1.0
2018/03/11 12:10:18.000   78.256421734   16.214731918   425.2820   2   9   0.0582   0.0602   0.0941  -0.0217   0.0292  -0.0185   0.00    1.0
2018/03/11 12:10:19.000   78.256421742   16.214731949   425.2861   2   9   0.0579   0.0600   0.0935  -0.0216   0.0291  -0.0185   0.00    1.0
2018/03/11 12:10:20.000   78.256421733   16.214731679   425.2878   2   9   0.0577   0.0598   0.0929  -0.0215   0.0290  -0.0185   0.00    1.0
2018/03/11 12:10:21.000   78.256421700   16.214731657   425.2886   2   9   0.0575   0.0596   0.0923  -0.0213   0.0289  -0.0185   0.00    1.0
2018/03/11 12:10:22.000   78.256421667   16.214731762   425.2917   2   9   0.0572   0.0594   0.0917  -0.0212   0.0287  -0.0185   0.00    1.0
2018/03/11 12:10:23.000   78.256421672   16.214731638   425.2898   2   9   0.0570   0.0591   0.0912  -0.0211   0.0286  -0.0185   0.00    1.0
2018/03/11 12:10:24.000   78.256421668   16.214731620   425.2907   2   9   0.0568   0.0589   0.0906  -0.0210   0.0285  -0.0185   0.00    1.0
2018/03/11 12:10:25.000   78.256421656   16.214731463   425.2895   2   9   0.0565   0.0587   0.0900  -0.0209   0.0284  -0.0185   0.00    1.0
2018/03/11 12:10:26.000   78.256421672   16.214731470   425.2890   2   9   0.0563   0.0585   0.0895  -0.0208   0.0283  -0.0185   0.00    1.0
2018/03/11 12:10:27.000   78.256421693   16.214731453   425.2907   2   9   0.0561   0.0583   0.0889  -0.0207   0.0282  -0.0185   0.00    1.0
2018/03/11 12:10:28.000   78.256421749   16.214731435   425.2926   2   9   0.0559   0.0581   0.0883  -0.0207   0.0280  -0.0185   0.00    1.0
2018/03/11 12:10:29.000   78.256421825   16.214731491   425.2927   2   9   0.0557   0.0579   0.0878  -0.0206   0.0279  -0.0185   0.00    1.0
2018/03/11 12:10:30.000   78.256421863   16.214731697   425.2939   2   9   0.0555   0.0577   0.0873  -0.0205   0.0278  -0.0185   0.00    1.1
2018/03/11 12:10:31.000   78.256421897   16.214731758   425.2931   2   9   0.0552   0.0575   0.0867  -0.0204   0.0277  -0.0185   0.00    1.1
2018/03/11 12:10:32.000   78.256421947   16.214731945   425.2947   2   9   0.0550   0.0573   0.0862  -0.0203   0.0276  -0.0184   0.00    1.1
2018/03/11 12:10:33.000   78.256421987   16.214731955   425.2973   2   9   0.0548   0.0571   0.0857  -0.0202   0.0275  -0.0184   0.00    1.1
2018/03/11 12:10:34.000   78.256421969   16.214731777   425.2985   2   9   0.0546   0.0569   0.0852  -0.0201   0.0274  -0.0184   0.00    1.1
2018/03/11 12:10:35.000   78.256421938   16.214731688   425.3032   2   9   0.0544   0.0567   0.0847  -0.0200   0.0273  -0.0184   0.00    1.1
2018/03/11 12:10:36.000   78.256421950   16.214731567   425.3022   2   9   0.0542   0.0565   0.0842  -0.0199   0.0271  -0.0184   0.00    1.1
2018/03/11 12:10:37.000   78.256421924   16.214731552   425.3007   2   9   0.0540   0.0563   0.0837  -0.0198   0.0270  -0.0184   0.00    1.1
2018/03/11 12:10:38.000   78.256421906   16.214731741   425.2949   2   9   0.0538   0.0561   0.0832  -0.0197   0.0269  -0.0184   0.00    1.1
2018/03/11 12:10:39.000   78.256421916   16.214731941   425.2894   2   9   0.0536   0.0559   0.0827  -0.0196   0.0268  -0.0183   0.00    1.1
2018/03/11 12:10:40.000   78.256421923   16.214731993   425.2825   2   9   0.0534   0.0557   0.0822  -0.0195   0.0267  -0.0183   0.00    1.1
2018/03/11 12:10:41.000   78.256421958   16.214732424   425.2841   2   9   0.0532   0.0556   0.0817  -0.0194   0.0266  -0.0183   0.00    1.1
2018/03/11 12:10:42.000   78.256421965   16.214732621   425.2878   2   9   0.0530   0.0554   0.0813  -0.0194   0.0265  -0.0183   0.00    1.1
2018/03/11 12:10:43.000   78.256421968   16.214732754   425.2927   2   9   0.0528   0.0552   0.0808  -0.0193   0.0264  -0.0183   0.00    1.1
2018/03/11 12:10:44.000   78.256421986   16.214732726   425.2967   2   9   0.0526   0.0550   0.0803  -0.0192   0.0263  -0.0182   0.00    1.1
2018/03/11 12:10:45.000   78.256422028   16.214732602   425.3033   2   9   0.0524   0.0548   0.0799  -0.0191   0.0262  -0.0182   0.00    1.1
2018/03/11 12:10:46.000   78.256422047   16.214732346   425.3104   2   9   0.0522   0.0546   0.0794  -0.0190   0.0261  -0.0182   0.00    1.1
2018/03/11 12:10:47.000   78.256422077   16.214732316   425.3211   2   9   0.0520   0.0545   0.0790  -0.0189   0.0260  -0.0182   0.00    1.0
2018/03/11 12:10:48.000   78.256422139   16.214732287   425.3272   2   9   0.0518   0.0543   0.0785  -0.0188   0.0259  -0.0182   0.00    1.0
2018/03/11 12:10:49.000   78.256422197   16.214732242   425.3333   2   9   0.0517   0.0541   0.0781  -0.0188   0.0258  -0.0181   0.00    1.0
2018/03/11 12:10:50.000   78.256422259   16.214732268   425.3399   2   9   0.0515   0.0539   0.0777  -0.0187   0.0257  -0.0181   0.00    1.0
2018/03/11 12:10:51.000   78.256422351   16.214732284   425.3439   2   9   0.0513   0.0537   0.0772  -0.0186   0.0256  -0.0181   0.00    1.0
2018/03/11 12:10:52.000   78.256422402   16.214732301   425.3514   2   9   0.0511   0.0536   0.0768  -0.0185   0.0255  -0.0181   0.00    1.0
2018/03/11 12:10:53.000   78.256422439   16.214731988   425.3579   2   9   0.0509   0.0534   0.0764  -0.0184   0.0254  -0.0180   0.00    1.0
2018/03/11 12:10:54.000   78.256422533   16.214731733   425.3621   2   9   0.0507   0.0532   0.0760  -0.0183   0.0253  -0.0180   0.00    1.0
2018/03/11 12:10:55.000   78.256422550   16.214731654   425.3631   2   9   0.0506   0.0531   0.0756  -0.0183   0.0252  -0.0180   0.00    1.0
2018/03/11 12:10:56.000   78.256422544   16.214731314   425.3619   2   9   0.0504   0.0529   0.0752  -0.0182   0.0251  -0.0180   0.00    1.0
2018/03/11 12:10:57.000   78.256422572   16.214731438   425.3613   2   9   0.0502   0.0527   0.0748  -0.0181   0.0250  -0.0179   0.00    1.0
2018/03/11 12:10:58.000   78.256422594   16.214731563   425.3580   2   9   0.0500   0.0525   0.0744  -0.0180   0.0249  -0.0179   0.00    1.0
2018/03/11 12:10:59.000   78.256422582   16.214731659   425.3533   2   9   0.0499   0.0524   0.0740  -0.0179   0.0249  -0.0179   0.00    1.0
2018/03/11 12:11:00.000   78.256422592   16.214731921   425.3500   2   9   0.0497   0.0522   0.0736  -0.0179   0.0248  -0.0179   0.00    1.0
2018/03/11 12:11:01.000   78.256422570   16.214732025   425.3444   2   9   0.0495   0.0520   0.0732  -0.0178   0.0247  -0.0178   0.00    1.0
2018/03/11 12:11:02.000   78.256422531   16.214732146   425.3414   2   9   0.0493   0.0519   0.0728  -0.0177   0.0246  -0.0178   0.00    1.0
2018/03/11 12:11:03.000   78.256422547   16.214732338   425.3388   2   9   0.0492   0.0517   0.0724  -0.0176   0.0245  -0.0178   0.00    1.0
2018/03/11 12:11:04.000   78.256422534   16.214732334   425.3360   2   9   0.0490   0.0516   0.0721  -0.0175   0.0244  -0.0178   0.00    1.0
2018/03/11 12:11:05.000   78.256422473   16.214732249   425.3352   2   9   0.0488   0.0514   0.0717  -0.0175   0.0243  -0.0177   0.00    1.0
2018/03/11 12:11:06.000   78.256422465   16.214732315   425.3384   2   9   0.0487   0.0512   0.0713  -0.0174   0.0242  -0.0177   0.00    1.0
2018/03/11 12:11:07.000   78.256422484   16.214732601   425.3424   2   9   0.0485   0.0511   0.0710  -0.0173   0.0241  -0.0177   0.00    1.0
2018/03/11 12:11:08.000   78.256422475   16.214732784   425.3479   2   9   0.0483   0.0509   0.0706  -0.0172   0.0241  -0.0177   0.00    1.0
2018/03/11 12:11:09.000   78.256422512   16.214732856   425.3530   2   9   0.0482   0.0508   0.0702  -0.0172   0.0240  -0.0176   0.00    1.0
2018/03/11 12:11:10.000   78.256422581   16.214733043   425.3602   2   9   0.0480   0.0506   0.0699  -0.0171   0.0239  -0.0176   0.00    1.0
2018/03/11 12:11:11.000   78.256422641   16.214733148   425.3661   2   9   0.0479   0.0504   0.0695  -0.0170   0.0238  -0.0176   0.00    1.0
2018/03/11 12:11:12.000   78.256422701   16.214733143   425.3746   2   9   0.0477   0.0503   0.0692  -0.0169   0.0237  -0.0175   0.00    1.0
2018/03/11 12:11:13.000   78.256422763   16.214733113   425.3811   2   9   0.0475   0.0501   0.0688  -0.0169   0.0236  -0.0175   0.00    1.0
2018/03/11 12:11:14.000   78.256422795   16.214733089   425.3894   2   9   0.0474   0.0500   0.0685  -0.0168   0.0235  -0.0175   0.00    1.0
2018/03/11 12:11:15.000   78.256422848   16.214733145   425.3956   2   9   0.0472   0.0498   0.0682  -0.0167   0.0235  -0.0175   0.00    1.0
2018/03/11 12:11:16.000   78.256422894   16.214733179   425.3978   2   9   0.0471   0.0497   0.0678  -0.0167   0.0234  -0.0174   0.00    1.0
2018/03/11 12:11:17.000   78.256422896   16.214733284   425.4007   2   9   0.0469   0.0495   0.0675  -0.0166   0.0233  -0.0174   0.00    1.0
2018/03/11 12:11:18.000   78.256422895   16.214733406   425.4018   2   9   0.0468   0.0494   0.0672  -0.0165   0.0232  -0.0174   0.00    1.0
2018/03/11 12:11:19.000   78.256422919   16.214733747   425.4033   2   9   0.0466   0.0492   0.0668  -0.0164   0.0231  -0.0173   0.00    1.0
2018/03/11 12:11:20.000   78.256422954   16.214733964   425.4024   2   9   0.0465   0.0491   0.0665  -0.0164   0.0231  -0.0173   0.00    1.1
2018/03/11 12:11:21.000   78.256422942   16.214734001   425.3999   2   9   0.0463   0.0489   0.0662  -0.0163   0.0230  -0.0173   0.00    1.1
2018/03/11 12:11:22.000   78.256422925   16.214734013   425.3981   2   9   0.0462   0.0488   0.0659  -0.0162   0.0229  -0.0172   0.00    1.1
2018/03/11 12:11:23.000   78.256422952   16.214734191   425.3955   2   9   0.0460   0.0487   0.0656  -0.0162   0.0228  -0.0172   0.00    1.1
2018/03/11 12:11:24.000   78.256422996   16.214734454   425.3936   2   9   0.0459   0.0485   0.0653  -0.0161   0.0227  -0.0172   0.00    1.1
2018/03/11 12:11:25.000   78.256422993   16.214734596   425.3910   2   9   0.0457   0.0484   0.0649  -0.0160   0.0227  -0.0172   0.00    1.1
2018/03/11 12:11:26.000   78.256422976   16.214734664   425.3894   2   9   0.0456   0.0482   0.0646  -0.0160   0.0226  -0.0171   0.00    1.1
2018/03/11 12:11:27.000   78.256422992   16.214734824   425.3875   2   9   0.0454   0.0481   0.0643  -0.0159   0.0225  -0.0171   0.00    1.1
2018/03/11 12:11:28.000   78.256423021   16.214734970   425.3832   2   9   0.0453   0.0479   0.0640  -0.0158   0.0224  -0.0171   0.00    1.1
2018/03/11 12:11:29.000   78.256423017   16.214735019   425.3826   2   9   0.0451   0.0478   0.0637  -0.0158   0.0224  -0.0170   0.00    1.1
2018/03/11 12:11:30.000   78.256423015   16.214735104   425.3841   2   9   0.0450   0.0477   0.0634  -0.0157   0.0223  -0.0170   0.00    1.1
2018/03/11 12:11:31.000   78.256423038   16.214735102   425.3877   2   9   0.0449   0.0475   0.0632  -0.0156   0.0222  -0.0170   0.00    1.1
2018/03/11 12:11:32.000   78.256423059   16.214735127   425.3935   2   9   0.0447   0.0474   0.0629  -0.0156   0.0221  -0.0170   0.00    1.1
2018/03/11 12:11:33.000   78.256423069   16.214735035   425.3996   2   9   0.0446   0.0473   0.0626  -0.0155   0.0221  -0.0169   0.00    1.1
2018/03/11 12:11:34.000   78.256423095   16.214735071   425.4060   2   9   0.0444   0.0471   0.0623  -0.0154   0.0220  -0.0169   0.00    1.1
2018/03/11 12:11:35.000   78.256423105   16.214735168   425.4132   2   9   0.0443   0.0470   0.0620  -0.0154   0.0219  -0.0169   0.00    1.1
2018/03/11 12:11:36.000   78.256423124   16.214735208   425.4188   2   9   0.0442   0.0469   0.0617  -0.0153   0.0218  -0.0168   0.00    1.1
2018/03/11 12:11:37.000   78.256423185   16.214735403   425.4222   2   9   0.0440   0.0467   0.0615  -0.0153   0.0218  -0.0168   0.00    1.1
2018/03/11 12:11:38.000   78.256423239   16.214735598   425.4269   2   9   0.0439   0.0466   0.0612  -0.0152   0.0217  -0.0168   0.00    1.1
2018/03/11 12:11:39.000   78.256423236   16.214735656   425.4285   2   9   0.0438   0.0465   0.0609  -0.0151   0.0216  -0.0167   0.00    1.1
2018/03/11 12:11:40.000   78.256423293   16.214735807   425.4308   2   9   0.0436   0.0463   0.0606  -0.0151   0.0216  -0.0167   0.00    1.1
2018/03/11 12:11:41.000   78.256423373   16.214735891   425.4324   2   9   0.0435   0.0462   0.0604  -0.0150   0.0215  -0.0167   0.00    1.1
2018/03/11 12:11:42.000   78.256423413   16.214735805   425.4350   2   9   0.0434   0.0461   0.0601  -0.0149   0.0214  -0.0166   0.00    1.1
2018/03/11 12:11:43.000   78.256423433   16.214735704   425.4371   2   9   0.0432   0.0459   0.0598  -0.0149   0.0214  -0.0166   0.00    1.1
2018/03/11 12:11:44.000   78.256423479   16.214735735   425.4395   2   9   0.0431   0.0458   0.0596  -0.0148   0.0213  -0.0166   0.00    1.1
2018/03/11 12:11:45.000   78.256423484   16.214735813   425.4430   2   9   0.0430   0.0457   0.0593  -0.0148   0.0212  -0.0166   0.00    1.1
2018/03/11 12:11:46.000   78.256423502   16.214735905   425.4442   2   9   0.0429   0.0456   0.0591  -0.0147   0.0212  -0.0165   0.00    1.1
2018/03/11 12:11:47.000   78.256423525   16.214735998   425.4442   2   9   0.0427   0.0454   0.0588  -0.0146   0.0211  -0.0165   0.00    1.1
2018/03/11 12:11:48.000   78.256423520   16.214735970   425.4423   2   9   0.0426   0.0453   0.0586  -0.0146   0.0210  -0.0165   0.00    1.1
2018/03/11 12:11:49.000   78.256423505   16.214735902   425.4410   2   9   0.0425   0.0452   0.0583  -0.0145   0.0210  -0.0164   0.00    1.1
2018/03/11 12:11:50.000   78.256423530   16.214736059   425.4396   2   9   0.0424   0.0451   0.0581  -0.0145   0.0209  -0.0164   0.00    1.1
2018/03/11 12:11:51.000   78.256423548   16.214736181   425.4364   2   9   0.0422   0.0449   0.0578  -0.0144   0.0208  -0.0164   0.00    1.1
2018/03/11 12:11:52.000   78.256423514   16.214736312   425.4357   2   9   0.0421   0.0448   0.0576  -0.0143   0.0208  -0.0163   0.00    1.1
2018/03/11 12:11:53.000   78.256423514   16.214736393   425.4375   2   9   0.0420   0.0447   0.0573  -0.0143   0.0207  -0.0163   0.00    1.1
2018/03/11 12:11:54.000   78.256423542   16.214736654   425.4402   2   9   0.0419   0.0446   0.0571  -0.0142   0.0206  -0.0163   0.00    1.1
2018/03/11 12:11:55.000   78.256423533   16.214736795   425.4425   2   9   0.0417   0.0445   0.0569  -0.0142   0.0206  -0.0163   0.00    1.2
2018/03/11 12:11:56.000   78.256423528   16.214736842   425.4472   2   9   0.0416   0.0443   0.0566  -0.0141   0.0205  -0.0162   0.00    1.2
2018/03/11 12:11:57.000   78.256423560   16.214736955   425.4520   2   9   0.0415   0.0442   0.0564  -0.0141   0.0204  -0.0162   0.00    1.2
2018/03/11 12:11:58.000   78.256423613   16.214737092   425.4557   2   9   0.0414   0.0441   0.0562  -0.0140   0.0204  -0.0162   0.00    1.2
2018/03/11 12:11:59.000   78.256423626   16.214737036   425.4585   2   9   0.0413   0.0440   0.0559  -0.0140   0.0203  -0.0161   0.00    1.2
2018/03/11 12:12:00.000   78.256423652   16.214737071   425.4622   2   9   0.0412   0.0439   0.0557  -0.0139   0.0202  -0.0161   0.00    1.2
2018/03/11 12:12:01.000   78.256423686   16.214737119   425.4652   2   9   0.0410   0.0437   0.0555  -0.0138   0.0202  -0.0161   0.00    1.2
2018/03/11 12:12:02.000   78.256423717   16.214737166   425.4682   2   9   0.0409   0.0436   0.0552  -0.0138   0.0201  -0.0160   0.00    1.2
2018/03/11 12:12:03.000   78.256423750   16.214737131   425.4687   2   9   0.0408   0.0435   0.0550  -0.0137   0.0201  -0.0160   0.00    1.2
2018/03/11 12:12:04.000   78.256423783   16.214737105   425.4698   2   9   0.0407   0.0434   0.0548  -0.0137   0.0200  -0.0160   0.00    1.2
2018/03/11 12:12:05.000   78.256423816   16.214737035   425.4702   2   9   0.0406   0.0433   0.0546  -0.0136   0.0199  -0.0160   0.00    1.2
2018/03/11 12:12:06.000   78.256423832   16.214737042   425.4713   2   9   0.0405   0.0432   0.0544  -0.0136   0.0199  -0.0159   0.00    1.2
2018/03/11 12:12:07.000   78.256423853   16.214737070   425.4698   2   9   0.0404   0.0431   0.0541  -0.0135   0.0198  -0.0159   0.00    1.2
2018/03/11 12:12:08.000   78.256423863   16.214737187   425.4660   2   9   0.0402   0.0429   0.0539  -0.0135   0.0198  -0.0159   0.00    1.2
2018/03/11 12:12:09.000   78.256423831   16.214737293   425.4641   2   9   0.0401   0.0428   0.0537  -0.0134   0.0197  -0.0158   0.00    1.2
2018/03/11 12:12:10.000   78.256423813   16.214737367   425.4620   2   9   0.0400   0.0427   0.0535  -0.0134   0.0196  -0.0158   0.00    1.2
2018/03/11 12:12:11.000   78.256423808   16.214737377   425.4582   2   9   0.0399   0.0426   0.0533  -0.0133   0.0196  -0.0158   0.00    1.2
2018/03/11 12:12:12.000   78.256423767   16.214737477   425.4567   2   9   0.0398   0.0425   0.0531  -0.0133   0.0195  -0.0158   0.00    1.2
2018/03/11 12:12:13.000   78.256423718   16.214737483   425.4538   2   9   0.0397   0.0424   0.0529  -0.0132   0.0195  -0.0157   0.00    1.2
2018/03/11 12:12:14.000   78.256423699   16.214737572   425.4516   2   9   0.0396   0.0423   0.0527  -0.0132   0.0194  -0.0157   0.00    1.2
2018/03/11 12:12:15.000   78.256423683   16.214737704   425.4511   2   9   0.0395   0.0422   0.0525  -0.0131   0.0194  -0.0157   0.00    1.2
2018/03/11 12:12:16.000   78.256423670   16.214737724   425.4501   2   9   0.0394   0.0421   0.0523  -0.0131   0.0193  -0.0156   0.00    1.2
2018/03/11 12:12:18.000   78.256423705   16.214737733   425.4511   2   9   0.0393   0.0420   0.0521  -0.0130   0.0192  -0.0156   0.00    1.2
2018/03/11 12:12:19.000   78.256423717   16.214737756   425.4538   2   9   0.0392   0.0419   0.0519  -0.0130   0.0192  -0.0156   0.00    1.2
2018/03/11 12:12:20.000   78.256423731   16.214737729   425.4589   2   9   0.0390   0.0418   0.0517  -0.0129   0.0191  -0.0156   0.00    1.2
2018/03/11 12:12:21.000   78.256423757   16.214737752   425.4633   2   9   0.0389   0.0416   0.0515  -0.0129   0.0191  -0.0155   0.00    1.3
2018/03/11 12:12:22.000   78.256423775   16.214737714   425.4680   2   9   0.0388   0.0415   0.0513  -0.0128   0.0190  -0.0155   0.00    1.3
2018/03/11 12:12:23.000   78.256423790   16.214737679   425.4722   2   9   0.0387   0.0414   0.0511  -0.0128   0.0190  -0.0155   0.00    1.3
2018/03/11 12:12:24.000   78.256423831   16.214737641   425.4748   2   9   0.0386   0.0413   0.0509  -0.0127   0.0189  -0.0154   0.00    1.3
2018/03/11 12:12:25.000   78.256423857   16.214737602   425.4755   2   9   0.0385   0.0412   0.0507  -0.0127   0.0188  -0.0154   0.00    1.3
2018/03/11 12:12:26.000   78.256423858   16.214737523   425.4763   2   9   0.0384   0.0411   0.0505  -0.0126   0.0188  -0.0154   0.00    1.3
2018/03/11 12:12:27.000   78.256423892   16.214737613   425.4770   2   9   0.0383   0.0410   0.0503  -0.0126   0.0187  -0.0154   0.00    1.3
2018/03/11 12:12:28.000   78.256423952   16.214737744   425.4772   2   9   0.0382   0.0409   0.0501  -0.0125   0.0187  -0.0153   0.00    1.3
2018/03/11 12:12:29.000   78.256423967   16.214737814   425.4792   2   9   0.0381   0.0408   0.0500  -0.0125   0.0186  -0.0153   0.00    1.3
2018/03/11 12:12:30.000   78.256423969   16.214737786   425.4787   2   9   0.0380   0.0407   0.0498  -0.0124   0.0186  -0.0153   0.00    1.3
2018/03/11 12:12:31.000   78.256423971   16.214737809   425.4773   2   9   0.0379   0.0406   0.0496  -0.0124   0.0185  -0.0152   0.00    1.3
2018/03/11 12:12:32.000   78.256423983   16.214737839   425.4748   2   9   0.0378   0.0405   0.0494  -0.0123   0.0185  -0.0152   0.00    1.3
2018/03/11 12:12:33.000   78.256423980   16.214737928   425.4730   2   9   0.0377   0.0404   0.0492  -0.0123   0.0184  -0.0152   0.00    1.3
2018/03/11 12:12:34.000   78.256423969   16.214738008   425.4711   2   9   0.0376   0.0403   0.0490  -0.0122   0.0184  -0.0152   0.00    1.3
2018/03/11 12:12:35.000   78.256423976   16.214738096   425.4696   2   9   0.0375   0.0402   0.0489  -0.0122   0.0183  -0.0151   0.00    1.3
2018/03/11 12:12:36.000   78.256423974   16.214738189   425.4676   2   9   0.0374   0.0401   0.0487  -0.0121   0.0183  -0.0151   0.00    1.3
2018/03/11 12:12:37.000   78.256423971   16.214738237   425.4675   2   9   0.0373   0.0400   0.0485  -0.0121   0.0182  -0.0151   0.00    1.3
2018/03/11 12:12:38.000   78.256423966   16.214738180   425.4676   2   9   0.0373   0.0399   0.0483  -0.0120   0.0182  -0.0150   0.00    1.3
2018/03/11 12:12:39.000   78.256423966   16.214738083   425.4671   2   9   0.0372   0.0398   0.0482  -0.0120   0.0181  -0.0150   0.00    1.3
2018/03/11 12:12:40.000   78.256423968   16.214737972   425.4650   2   9   0.0371   0.0397   0.0480  -0.0119   0.0181  -0.0150   0.00    1.3
2018/03/11 12:12:41.000   78.256423979   16.214737824   425.4642   2   9   0.0370   0.0396   0.0478  -0.0119   0.0180  -0.0150   0.00    1.3
2018/03/11 12:12:42.000   78.256423993   16.214737812   425.4631   2   9   0.0369   0.0395   0.0477  -0.0119   0.0180  -0.0149   0.00    1.3
2018/03/11 12:12:43.000   78.256423984   16.214737907   425.4618   2   9   0.0368   0.0395   0.0475  -0.0118   0.0179  -0.0149   0.00    1.4
2018/03/11 12:12:44.000   78.256423970   16.214737805   425.4598   2   9   0.0367   0.0394   0.0473  -0.0118   0.0179  -0.0149   0.00    1.4
2018/03/11 12:12:45.000   78.256423982   16.214737762   425.4598   2   9   0.0366   0.0393   0.0472  -0.0117   0.0178  -0.0149   0.00    1.4
2018/03/11 12:12:46.000   78.256424000   16.214737759   425.4601   2   9   0.0365   0.0392   0.0470  -0.0117   0.0178  -0.0148   0.00    1.4
2018/03/11 12:12:47.000   78.256424006   16.214737749   425.4597   2   9   0.0364   0.0391   0.0468  -0.0116   0.0177  -0.0148   0.00    1.4
2018/03/11 12:12:48.000   78.256424007   16.214737804   425.4616   2   9   0.0363   0.0390   0.0467  -0.0116   0.0177  -0.0148   0.00    1.4
2018/03/11 12:12:49.000   78.256424016   16.214737821   425.4632   2   9   0.0362   0.0389   0.0465  -0.0116   0.0176  -0.0147   0.00    1.4
2018/03/11 12:12:50.000   78.256424014   16.214737862   425.4643   2   9   0.0362   0.0388   0.0464  -0.0115   0.0176  -0.0147   0.00    1.4
2018/03/11 12:12:51.000   78.256424003   16.214737812   425.4646   2   9   0.0361   0.0387   0.0462  -0.0115   0.0175  -0.0147   0.00    1.4
2018/03/11 12:12:52.000   78.256423997   16.214737916   425.4645   2   9   0.0360   0.0386   0.0460  -0.0114   0.0175  -0.0147   0.00    1.4
2018/03/11 12:12:53.000   78.256423996   16.214738047   425.4635   2   9   0.0359   0.0385   0.0459  -0.0114   0.0174  -0.0146   0.00    1.4
2018/03/11 12:12:54.000   78.256423995   16.214738150   425.4629   2   9   0.0358   0.0384   0.0457  -0.0113   0.0174  -0.0146   0.00    1.4
2018/03/11 12:12:55.000   78.256423990   16.214738228   425.4632   2   9   0.0357   0.0384   0.0456  -0.0113   0.0173  -0.0146   0.00    1.4
2018/03/11 12:12:56.000   78.256423998   16.214738293   425.4636   2   9   0.0356   0.0383   0.0454  -0.0113   0.0173  -0.0146   0.00    1.4
2018/03/11 12:12:57.000   78.256424013   16.214738293   425.4626   2   9   0.0355   0.0382   0.0453  -0.0112   0.0172  -0.0145   0.00    1.4
2018/03/11 12:12:58.000   78.256424022   16.214738334   425.4649   2   9   0.0355   0.0381   0.0451  -0.0112   0.0172  -0.0145   0.00    1.4
2018/03/11 12:12:59.000   78.256424040   16.214738350   425.4670   2   9   0.0354   0.0380   0.0450  -0.0111   0.0172  -0.0145   0.00    1.5
2018/03/11 12:13:00.000   78.256424067   16.214738377   425.4680   2   9   0.0353   0.0379   0.0448  -0.0111   0.0171  -0.0145   0.00    1.5
2018/03/11 12:13:01.000   78.256424086   16.214738305   425.4687   2   9   0.0352   0.0378   0.0447  -0.0111   0.0171  -0.0144   0.00    1.5
2018/03/11 12:13:02.000   78.256424110   16.214738278   425.4692   2   9   0.0351   0.0377   0.0445  -0.0110   0.0170  -0.0144   0.00    1.5
2018/03/11 12:13:03.000   78.256424123   16.214738320   425.4694   2   9   0.0350   0.0377   0.0444  -0.0110   0.0170  -0.0144   0.00    1.5
2018/03/11 12:13:04.000   78.256424115   16.214738315   425.4691   2   9   0.0350   0.0376   0.0443  -0.0109   0.0169  -0.0144   0.00    1.5
2018/03/11 12:13:05.000   78.256424095   16.214738307   425.4696   2   9   0.0349   0.0375   0.0441  -0.0109   0.0169  -0.0143   0.00    1.5
2018/03/11 12:13:06.000   78.256424065   16.214738290   425.4701   2   9   0.0348   0.0374   0.0440  -0.0109   0.0168  -0.0143   0.00    1.5
2018/03/11 12:13:07.000   78.256424028   16.214738306   425.4718   2   9   0.0347   0.0373   0.0438  -0.0108   0.0168  -0.0143   0.00    1.5
2018/03/11 12:13:08.000   78.256423995   16.214738396   425.4717   2   9   0.0346   0.0372   0.0437  -0.0108   0.0168  -0.0143   0.00    1.5
2018/03/11 12:13:09.000   78.256423945   16.214738581   425.4726   2   9   0.0346   0.0372   0.0436  -0.0107   0.0167  -0.0142   0.00    1.5
2018/03/11 12:13:10.000   78.256423915   16.214738655   425.4720   2   9   0.0345   0.0371   0.0434  -0.0107   0.0167  -0.0142   0.00    1.5
2018/03/11 12:13:11.000   78.256423900   16.214738717   425.4712   2   9   0.0344   0.0370   0.0433  -0.0107   0.0166  -0.0142   0.00    1.5
2018/03/11 12:13:12.000   78.256423881   16.214738839   425.4711   2   9   0.0343   0.0369   0.0431  -0.0106   0.0166  -0.0142   0.00    1.5
2018/03/11 12:13:13.000   78.256423879   16.214738953   425.4715   2   9   0.0342   0.0368   0.0430  -0.0106   0.0165  -0.0141   0.00    1.6
2018/03/11 12:13:14.000   78.256423889   16.214739104   425.4722   2   9   0.0342   0.0368   0.0429  -0.0105   0.0165  -0.0141   0.00    1.6
2018/03/11 12:13:15.000   78.256423894   16.214739205   425.4730   2   9   0.0341   0.0367   0.0427  -0.0105   0.0165  -0.0141   0.00    1.6
2018/03/11 12:13:16.000   78.256423899   16.214739296   425.4740   2   9   0.0340   0.0366   0.0426  -0.0105   0.0164  -0.0141   0.00    1.6
2018/03/11 12:13:17.000   78.256423917   16.214739352   425.4756   2   9   0.0339   0.0365   0.0425  -0.0104   0.0164  -0.0140   0.00    1.6
2018/03/11 12:13:18.000   78.256423922   16.214739403   425.4778   2   9   0.0339   0.0364   0.0423  -0.0104   0.0163  -0.0140   0.00    1.6
2018/03/11 12:13:19.000   78.256423915   16.214739429   425.4795   2   9   0.0338   0.0364   0.0422  -0.0104   0.0163  -0.0140   0.00    1.6
2018/03/11 12:13:20.000   78.256423912   16.214739504   425.4809   2   9   0.0337   0.0363   0.0421  -0.0103   0.0163  -0.0140   0.00    1.6
2018/03/11 12:13:21.000   78.256423928   16.214739613   425.4818   2   9   0.0336   0.0362   0.0420  -0.0103   0.0162  -0.0139   0.00    1.6
2018/03/11 12:13:22.000   78.256423935   16.214739655   425.4813   2   9   0.0336   0.0361   0.0418  -0.0103   0.0162  -0.0139   0.00    1.6
2018/03/11 12:13:23.000   78.256423915   16.214739633   425.4826   2   9   0.0335   0.0360   0.0417  -0.0102   0.0161  -0.0139   0.00    1.6
2018/03/11 12:13:24.000   78.256423929   16.214739668   425.4834   2   9   0.0334   0.0360   0.0416  -0.0102   0.0161  -0.0139   0.00    1.6
2018/03/11 12:13:25.000   78.256423938   16.214739730   425.4829   2   9   0.0333   0.0359   0.0415  -0.0101   0.0161  -0.0139   0.00    1.6
2018/03/11 12:13:26.000   78.256423931   16.214739811   425.4834   2   9   0.0333   0.0358   0.0413  -0.0101   0.0160  -0.0138   0.00    1.7
2018/03/11 12:13:27.000   78.256423954   16.214739855   425.4839   2   9   0.0332   0.0357   0.0412  -0.0101   0.0160  -0.0138   0.00    1.7
2018/03/11 12:13:28.000   78.256423948   16.214739874   425.4859   2   9   0.0331   0.0357   0.0411  -0.0100   0.0159  -0.0138   0.00    1.7
2018/03/11 12:13:29.000   78.256423930   16.214739833   425.4870   2   9   0.0330   0.0356   0.0410  -0.0100   0.0159  -0.0138   0.00    1.7
2018/03/11 12:13:30.000   78.256423915   16.214739834   425.4866   2   9   0.0330   0.0355   0.0408  -0.0100   0.0159  -0.0137   0.00    1.7
2018/03/11 12:13:31.000   78.256423900   16.214739908   425.4857   2   9   0.0329   0.0354   0.0407  -0.0099   0.0158  -0.0137   0.00    1.7
2018/03/11 12:13:32.000   78.256423878   16.214739865   425.4841   2   9   0.0328   0.0354   0.0406  -0.0099   0.0158  -0.0137   0.00    1.7
2018/03/11 12:13:33.000   78.256423856   16.214739943   425.4845   2   9   0.0328   0.0353   0.0405  -0.0099   0.0157  -0.0137   0.00    1.7
2018/03/11 12:13:34.000   78.256423859   16.214740003   425.4840   2   9   0.0327   0.0352   0.0404  -0.0098   0.0157  -0.0136   0.00    1.7
2018/03/11 12:13:35.000   78.256423838   16.214739994   425.4843   2   9   0.0326   0.0352   0.0402  -0.0098   0.0157  -0.0136   0.00    1.7
2018/03/11 12:13:36.000   78.256423810   16.214739959   425.4825   2   9   0.0326   0.0351   0.0401  -0.0098   0.0156  -0.0136   0.00    1.7
2018/03/11 12:13:37.000   78.256423806   16.214739975   425.4822   2   9   0.0325   0.0350   0.0400  -0.0097   0.0156  -0.0136   0.00    1.7
2018/03/11 12:13:38.000   78.256423820   16.214740017   425.4827   2   9   0.0324   0.0349   0.0399  -0.0097   0.0156  -0.0136   0.00    1.7
2018/03/11 12:13:39.000   78.256423812   16.214740010   425.4827   2   9   0.0324   0.0349   0.0398  -0.0097   0.0155  -0.0135   0.00    1.7
2018/03/11 12:13:40.000   78.256423801   16.214739970   425.4827   2   9   0.0323   0.0348   0.0397  -0.0096   0.0155  -0.0135   0.00    1.7
2018/03/11 12:13:41.000   78.256423806   16.214740051   425.4831   2   9   0.0322   0.0347   0.0396  -0.0096   0.0155  -0.0135   0.00    1.7
2018/03/11 12:13:42.000   78.256423812   16.214740041   425.4825   2   9   0.0321   0.0346   0.0394  -0.0096   0.0154  -0.0135   0.00    1.7
2018/03/11 12:13:43.000   78.256423812   16.214740081   425.4823   2   9   0.0321   0.0346   0.0393  -0.0095   0.0154  -0.0134   0.00    1.7
2018/03/11 12:13:44.000   78.256423821   16.214740171   425.4824   2   9   0.0320   0.0345   0.0392  -0.0095   0.0153  -0.0134   0.00    1.7
2018/03/11 12:13:45.000   78.256423835   16.214740208   425.4818   2   9   0.0320   0.0344   0.0391  -0.0095   0.0153  -0.0134   0.00    1.7
2018/03/11 12:13:46.000   78.256423837   16.214740201   425.4817   2   9   0.0319   0.0344   0.0390  -0.0094   0.0153  -0.0134   0.00    1.7
2018/03/11 12:13:47.000   78.256423843   16.214740262   425.4823   2   9   0.0318   0.0343   0.0389  -0.0094   0.0152  -0.0134   0.00    1.7
2018/03/11 12:13:48.000   78.256423853   16.214740335   425.4830   2   9   0.0318   0.0342   0.0388  -0.0094   0.0152  -0.0133   0.00    1.7
2018/03/11 12:13:49.000   78.256423845   16.214740438   425.4834   2   9   0.0317   0.0342   0.0387  -0.0093   0.0152  -0.0133   0.00    1.7
2018/03/11 12:13:50.000   78.256423840   16.214740508   425.4840   2   9   0.0316   0.0341   0.0386  -0.0093   0.0151  -0.0133   0.00    1.7
2018/03/11 12:13:51.000   78.256423855   16.214740615   425.4854   2   9   0.0316   0.0340   0.0385  -0.0093   0.0151  -0.0133   0.00    1.7
2018/03/11 12:13:52.000   78.256423869   16.214740692   425.4863   2   9   0.0315   0.0340   0.0384  -0.0092   0.0151  -0.0133   0.00    1.7
2018/03/11 12:13:53.000   78.256423874   16.214740762   425.4869   2   9   0.0314   0.0339   0.0383  -0.0092   0.0150  -0.0132   0.00    1.7
2018/03/11 12:13:54.000   78.256423865   16.214740862   425.4893   2   9   0.0314   0.0338   0.0382  -0.0092   0.0150  -0.0132   0.00    1.7
2018/03/11 12:13:55.000   78.256423892   16.214740920   425.4901   2   9   0.0313   0.0338   0.0380  -0.0091   0.0150  -0.0132   0.00    1.7
2018/03/11 12:13:56.000   78.256423902   16.214740987   425.4905   2   9   0.0312   0.0337   0.0379  -0.0091   0.0149  -0.0132   0.00    1.7
2018/03/11 12:13:57.000   78.256423884   16.214740989   425.4909   2   9   0.0312   0.0336   0.0378  -0.0091   0.0149  -0.0132   0.00    1.7
2018/03/11 12:13:58.000   78.256423894   16.214740986   425.4916   2   9   0.0311   0.0336   0.0377  -0.0091   0.0149  -0.0131   0.00    1.7
