     2.11           OBSERVATION DATA    M (MIXED)           RINEX VERSION / TYPE
teqc  2018Mar15                         20180319 14:17:32UTCPGM / RUN BY / DATE
Linux 2.6.32-573.12.1.x86_64|x86_64|gcc -static|Linux 64|=+ COMMENT
END OF STATIC MODE OBSERVATION                              COMMENT
BIT 2 OF LLI FLAGS DATA COLLECTED UNDER A/S CONDITION       COMMENT
-Unknown-                                                   MARKER NAME
4625                                                        MARKER NUMBER
-Unknown-           -Unknown-                               OBSERVER / AGENCY
5127468778          TRIMBLE             4.63                REC # / TYPE / VERS
47477114                            NONE                    ANT # / TYPE
  2086182.6667 -4805304.3910  3626142.0507                  APPROX POSITION XYZ
        0.0000        0.0000        0.0000                  ANTENNA: DELTA H/E/N
     1     1                                                WAVELENGTH FACT L1/2
     7    L1    L2    C1    P1    P2    S1    S2            # / TYPES OF OBSERV
    18                                                      LEAP SECONDS
 SNR is mapped to RINEX snr flag value [0-9]                COMMENT
  L1 & L2: min(max(int(snr_dBHz/6), 0), 9)                  COMMENT
  2018     3    11    14    22   12.0000000     GPS         TIME OF FIRST OBS
                                                            END OF HEADER
 18  3 11 14 22 12.0000000  0 19R05R06G14G22R07R14R15R16R23R24R22G03
                                G12G01G17G32G19G24G25
                  96327575.802 3  23168657.836                    23168660.098
                        22.300
                  85683048.909 5  20644671.711                    20644672.113
                        34.100
 122040396.349 7  95096492.09744  23223530.617                    23223536.750
        42.100          25.600
 124012533.894 7  96633178.95744  23598808.547                    23598809.031
        44.400          26.800
                  92267152.777 6  22160931.281                    22160933.141
                        39.600
                  84905365.136 6  20478899.055                    20478901.898
                        38.300
                  81410771.563 5  19587750.203                    19587753.262
                        34.900
                                  23246385.234

                  84249503.089 5  20249431.328                    20249435.711
                        35.500
                  88141001.904 4  21192188.086                    21192188.215
                        29.600
                  97467256.459 5  23475729.109                    23475730.484
                        34.600
 126231596.709 6  98362313.94844  24021075.055                    24021080.750
        40.600          24.300
 113188096.799 7  88198526.47345  21538977.742                    21538981.094
        47.400          33.300
 122459541.725 7  95423100.25644  23303292.336                    23303298.199
        42.600          26.200
 116164768.486 8  90518010.43645  22105421.445                    22105424.715
        50.900          34.900
 116697964.143 7  90933522.03645  22206889.867                    22206895.863
        47.300          33.300
 112731908.316 7  87843050.35145  21452168.391                    21452169.496
        46.900          34.900
 114492703.207 8  89215115.56345  21787237.648                    21787242.367
        50.300          35.700
 129165692.535 6 100648662.52343  24579423.813                    24579429.328
        41.600          23.000
 18  3 11 14 22 13.0000000  0 19R05R06G14G22R07R14R15R16R23R24R22G03
                                G12G01G17G32G19G24G25
                  96331212.599 3  23169531.359                    23169534.473
                        21.100
                  85683864.174 5  20644868.656                    20644868.816
                        34.900
 122038449.276 7  95094974.90044  23223160.453                    23223166.164
        42.700          25.900
 124011494.119 7  96632368.73144  23598610.852                    23598610.949
        44.700          26.500
                  92264877.918 6  22160384.797                    22160387.262
                        39.900
                  84907827.061 6  20479493.633                    20479495.230
                        38.500
                  81410449.646 5  19587672.156                    19587675.977
                        34.600
                                  23245627.531

                  84250420.496 6  20249652.398                    20249656.191
                        36.200
                  88138812.661 4  21191660.531                    21191661.691
                        28.700
                  97470950.695 5  23476619.211                    23476620.477
                        34.300
 126229215.833 6  98360458.74544  24020621.922                    24020627.426
        41.300          25.700
 113186032.604 7  88196918.02245  21538585.242                    21538588.539
        47.900          33.500
 122462267.266 7  95425224.05144  23303811.234                    23303816.734
        42.900          25.000
 116166081.022 8  90519033.20345  22105670.797                    22105674.059
        51.200          35.500
 116697771.035 7  90933371.56245  22206852.820                    22206859.055
        47.100          33.600
 112731740.106 7  87842919.28245  21452136.859                    21452137.902
        47.500          35.100
 114495248.448 8  89217098.86845  21787721.578                    21787726.766
        50.400          35.400
 129162089.096 6 100645854.65643  24578737.992                    24578743.605
        41.400          23.400
 18  3 11 14 22 14.0000000  0 19R05R06G14G22R07R14R15R16R23R24R22G03
                                G12G01G17G32G19G24G25
                                  23170406.734

                  85684680.191 5  20645064.547                    20645065.527
                        34.200
 122036502.692 7  95093458.08944  23222789.672                    23222795.383
        42.500          25.600
 124010454.978 7  96631559.00444  23598413.383                    23598412.930
        45.100          26.800
                  92262603.558 6  22159838.938                    22159840.941
                        39.600
                  84910289.501 6  20480085.867                    20480089.766
                        38.500
                  81410128.374 5  19587595.422                    19587598.727
                        35.100
                  96576609.40915  23244868.828                    23244871.645
                        31.900
                  84251338.640 6  20249872.633                    20249877.063
                        36.000
                  88136623.993 4  21191135.180                    21191135.668
                        28.500
                  97474645.182 5  23477509.938                    23477510.418
                        35.500
 126226835.400 7  98358603.86544  24020170.055                    24020174.477
        42.800          26.200
 113183968.990 8  88195310.02845  21538192.961                    21538195.527
        49.000          33.100
 122464993.354 7  95427348.27444  23304329.664                    23304335.605
        42.900          25.100
 116167394.167 8  90520056.44546  22105920.805                    22105924.125
        51.200          36.200
 116697578.602 7  90933221.61845  22206816.789                    22206822.539
        46.900          34.100
 112731572.667 7  87842788.81345  21452104.914                    21452105.820
        47.600          35.300
 114497794.248 8  89219082.61145  21788205.953                    21788211.156
        50.300          35.000
 129158485.844 6 100643046.93144  24578052.609                    24578057.859
        41.500          24.400
 18  3 11 14 22 15.0000000  0 19R05R06G14G22R07R14R15R16R23R24R22G03
                                G12G01G17G32G19G24G25
                                  23171282.438

                  85685496.962 5  20645261.703                    20645262.512
                        34.900
 122034556.634 7  95091941.67244  23222419.852                    23222424.809
        42.200          26.200
 124009416.421 7  96630749.73544  23598215.289                    23598215.641
        44.700          27.800
                  92260329.720 6  22159292.203                    22159294.891
                        39.100
                  84912752.469 6  20480681.242                    20480684.035
                        38.400
                  81409807.783 5  19587518.680                    19587520.961
                        35.000
                  96573458.37915  23244110.469                    23244112.934
                        32.700
                  84252257.551 6  20250093.492                    20250097.695
                        36.000
                  88134435.876 4  21190609.234                    21190609.387
                        28.700
                  97478339.895 5  23478398.305                    23478400.805
                        35.700
 126224455.526 7  98356749.41044  24019717.367                    24019721.855
        43.300          25.100
 113181905.952 8  88193702.47445  21537800.813                    21537803.195
        49.100          33.100
 122467720.063 7  95429472.95144  23304848.672                    23304854.484
        43.400          26.600
 116168707.989 8  90521080.22045  22106171.164                    22106174.535
        51.400          35.800
 116697386.901 7  90933072.23845  22206780.336                    22206786.141
        47.100          34.300
 112731406.037 7  87842658.98345  21452073.227                    21452074.004
        47.800          34.700
 114500340.651 8  89221066.83245  21788690.008                    21788695.977
        50.100          35.300
 129154882.798 7 100640239.37243  24577366.820                    24577372.109
        42.000          22.900
 18  3 11 14 22 16.0000000  0 19R05R06G14G22R07R14R15R16R23R24R22G03
                                G12G01G17G32G19G24G25
                                  23172157.242

                  85686314.425 5  20645459.094                    20645459.039
                        35.000
 122032610.991 7  95090425.57744  23222049.453                    23222054.563
        42.500          26.100
 124008378.400 7  96629940.89244  23598017.859                    23598017.992
        44.600          27.400
                  92258056.330 6  22158746.195                    22158748.359
                        39.300
                  84915215.885 6  20481277.547                    20481277.711
                        38.400
                  81409487.783 5  19587441.969                    19587444.953
                        35.100
                  96570307.953 5  23243352.664                    23243354.230
                        33.100
                  84253177.109 5  20250314.703                    20250318.898
                        35.800
                  88132248.199 4  21190082.430                    21190083.672
                        27.000
                  97482034.790 6  23479288.508                    23479290.234
                        36.000
 126222075.998 7  98354895.21644  24019264.875                    24019269.043
        43.400          25.600
 113179843.427 8  88192095.30845  21537408.445                    21537410.461
        49.400          33.700
 122470447.254 7  95431598.03544  23305368.336                    23305373.473
        43.600          27.300
 116170022.337 8  90522104.40246  22106421.211                    22106424.438
        51.500          36.000
 116697195.816 7  90932923.34145  22206743.938                    22206749.699
        46.300          34.100
 112731240.080 7  87842529.66945  21452041.570                    21452042.527
        47.300          35.000
 114502887.555 8  89223051.43345  21789174.328                    21789180.375
        49.500          35.300
 129151279.840 7 100637431.87543  24576681.102                    24576686.742
        42.300          22.600
 18  3 11 14 22 17.0000000  0 19R05R06G14G22R07R14R15R16R23R24R22G03
                                G12G01G17G32G19G24G25
                                  23173030.211

                  85687132.640 5  20645655.305                    20645655.859
                        35.200
 122030665.882 7  95088909.89444  23221679.508                    23221683.609
        43.100          26.100
 124007340.983 7  96629132.51844  23597820.523                    23597820.633
        44.500          27.200
                  92255783.415 6  22158200.203                    22158202.359
                        39.100
                  84917679.852 6  20481869.195                    20481871.719
                        38.400
                  81409168.461 5  19587364.945                    19587367.574
                        34.800
                  96567157.732 5  23242594.516                    23242596.105
                        33.900
                  84254097.443 5  20250535.430                    20250539.441
                        35.800
                  88130061.117 4  21189557.734                    21189557.488
                        28.400
                  97485729.917 6  23480178.891                    23480180.766
                        36.600
 126219696.958 7  98353041.39744  24018811.445                    24018816.219
        43.100          27.000
 113177781.497 8  88190488.60145  21537015.844                    21537018.082
        49.800          33.900
 122473175.056 7  95433723.59944  23305886.898                    23305892.621
        43.800          27.200
 116171337.349 8  90523129.09946  22106670.914                    22106674.465
        51.300          36.000
 116697005.466 7  90932775.01445  22206707.820                    22206713.379
        46.300          34.500
 112731074.956 7  87842401.00945  21452009.867                    21452010.949
        47.900          34.900
 114505435.016 8  89225036.45845  21789658.906                    21789665.516
        49.100          35.400
 129147677.085 6 100634624.53444  24575995.719                    24576001.348
        41.400          24.700
 18  3 11 14 22 18.0000000  0 19R05R06G14G22R07R14R15R16R23R24R22G03
                                G12G01G17G32G19G24G25
                                  23173905.953

                  85687951.607 5  20645853.117                    20645854.203
                        34.800
 122028721.286 7  95087394.60744  23221309.695                    23221313.188
        42.900          26.500
 124006304.186 7  96628324.62444  23597622.844                    23597623.473
        44.300          27.000
                  92253510.980 6  22157654.859                    22157656.453
                        39.000
                  84920144.311 6  20482462.969                    20482466.375
                        38.300
                  81408849.817 5  19587287.453                    19587290.832
                        34.700
                  96564007.705 5  23241836.078                    23241837.793
                        34.400
                  84255018.529 6  20250756.930                    20250761.129
                        36.000
                  88127874.526 4  21189031.117                    21189031.906
                        28.300
                  97489425.301 6  23481068.633                    23481071.551
                        36.800
 126217318.406 7  98351187.96344  24018358.859                    24018364.262
        42.100          26.600
 113175720.172 8  88188882.36545  21536623.625                    21536625.691
        50.000          34.000
 122475903.457 7  95435849.62544  23306405.664                    23306411.891
        43.200          26.200
 116172653.006 8  90524154.30345  22106921.742                    22106925.016
        51.100          35.700
 116696815.852 7  90932627.26545  22206671.617                    22206677.211
        46.800          33.900
 112730910.593 7  87842272.93845  21451978.867                    21451979.680
        47.600          35.200
 114507983.066 8  89227021.93945  21790144.250                    21790150.199
        49.100          35.500
 129144074.539 6 100631817.35544  24575309.898                    24575315.871
        41.300          25.300
 18  3 11 14 22 19.0000000  0 19R05R06G14G22R07R14R15R16R23R24R22G03
                                G12G01G17G32G19G24G25
                                  23174780.414

                  85688771.291 5  20646049.523                    20646051.012
                        34.100
 122026777.176 7  95085879.69544  23220939.648                    23220942.453
        42.700          24.800
 124005267.956 7  96627517.17044  23597425.766                    23597425.914
        43.900          27.100
                  92251239.004 6  22157109.695                    22157110.520
                        38.400
                  84922609.246 6  20483059.758                    20483060.676
                        38.100
                  81408531.823 5  19587211.438                    19587214.559
                        34.600
                  96560857.813 5  23241078.016                    23241079.523
                        34.400
                  84255940.354 5  20250979.102                    20250982.988
                        35.700
                  88125688.451 4  21188505.797                    21188506.172
                        28.300
                  97493120.927 6  23481959.047                    23481961.320
                        36.800
 126214940.324 6  98349334.90844  24017905.320                    24017911.742
        41.600          26.000
 113173659.375 8  88187276.53945  21536231.172                    21536233.633
        49.600          33.800
 122478632.443 7  95437976.10544  23306925.141                    23306931.195
        42.100          25.800
 116173969.267 8  90525179.98345  22107171.977                    22107175.422
        51.100          35.800
 116696626.920 7  90932480.04245  22206635.961                    22206641.246
        46.900          34.400
 112730747.011 7  87842145.47845  21451947.383                    21451948.910
        47.600          34.600
 114510531.653 8  89229007.84345  21790629.320                    21790634.953
        49.100          35.500
 129140472.151 6 100629010.29644  24574624.195                    24574630.691
        41.600          24.400
 18  3 11 14 22 20.0000000  0 19R05R06G14G22R07R14R15R16R23R24R22G03
                                G12G01G17G32G19G24G25
                                  23175656.523

                  85689591.712 5  20646247.063                    20646248.840
                        34.700
 122024833.541 7  95084365.17044  23220569.477                    23220572.344
        43.500          26.300
 124004232.231 7  96626710.10544  23597228.875                    23597228.906
        43.500          27.600
                  92248967.531 6  22156563.875                    22156564.508
                        38.500
                  84925074.703 6  20483653.266                    20483655.750
                        38.200
                  81408214.468 5  19587134.914                    19587138.074
                        35.300
                  96557708.031 5  23240320.047                    23240321.844
                        35.000
                  84256862.900 6  20251200.813                    20251204.426
                        36.100
                  88123502.905 4  21187980.398                    21187981.063
                        28.400
                  97496816.739 6  23482848.930                    23482851.980
                        37.300
 126212562.663 6  98347482.18944  24017452.531                    24017459.559
        40.400          27.400
 113171599.130 8  88185671.15245  21535838.867                    21535841.703
        49.400          33.400
 122481361.978 7  95440103.01544  23307444.086                    23307451.004
        42.200          26.700
 116175286.144 8  90526206.14045  22107422.359                    22107425.734
        51.100          35.200
 116696438.668 7  90932333.35245  22206600.250                    22206605.926
        47.500          34.200
 112730584.198 7  87842018.61445  21451916.602                    21451917.582
        47.800          35.100
 114513080.769 8  89230994.15745  21791115.078                    21791120.285
        49.100          35.500
 129136869.903 6 100626203.35743  24573939.469                    24573945.332
        41.300          23.200
 18  3 11 14 22 21.0000000  0 19R05R06G14G22R07R14R15R16R23R24R22G03
                                G12G01G17G32G19G24G25
                                  23176532.961

                  85690412.893 5  20646445.203                    20646447.066
                        34.600
 122022890.414 7  95082851.03644  23220199.813                    23220202.551
        43.400          26.700
 124003197.161 7  96625903.55744  23597032.555                    23597032.488
        43.600          27.400
                  92246696.547 6  22156018.547                    22156019.672
                        39.000
                  84927540.674 6  20484247.000                    20484250.020
                        38.100
                  81407897.782 5  19587059.156                    19587061.422
                        35.200
                  96554558.457 5  23239562.086                    23239564.277
                        35.100
                  84257786.208 6  20251422.148                    20251426.121
                        36.100
                  88121317.864 4  21187453.734                    21187455.520
                        28.500
                  97500512.797 6  23483739.797                    23483742.293
                        38.100
 126210185.449 6  98345629.83944  24016999.898                    24017007.391
        40.200          26.000
 113169539.474 8  88184066.22045  21535446.461                    21535449.859
        49.100          33.600
 122484092.114 7  95442230.38844  23307963.477                    23307970.352
        42.600          26.500
 116176603.654 8  90527232.78945  22107673.586                    22107676.684
        51.000          35.500
 116696251.141 8  90932187.22845  22206564.664                    22206570.059
        48.400          33.600
 112730422.145 7  87841892.34745  21451885.414                    21451886.730
        47.900          34.400
 114515630.443 8  89232980.91145  21791600.055                    21791605.570
        49.100          35.500
 129133267.859 6 100623396.57343  24573253.180                    24573259.500
        41.600          23.400
 18  3 11 14 22 22.0000000  0 19R05R06G14G22R07R14R15R16R23R24R22G03
                                G12G01G17G32G19G24G25
                                  23177407.898

                  85691234.804 5  20646643.758                    20646644.793
                        34.400
 122020947.783 7  95081337.28344  23219830.234                    23219832.914
        43.300          27.100
 124002162.654 7  96625097.44744  23596834.844                    23596835.609
        43.900          28.100
                  92244426.054 6  22155472.719                    22155474.063
                        39.500
                  84930007.115 6  20484843.773                    20484845.813
                        37.900
                  81407581.762 5  19586982.719                    19586985.910
                        35.300
                  96551408.982 5  23238805.641                    23238805.598
                        35.600
                  84258710.290 6  20251644.313                    20251649.051
                        36.000
                  88119133.405 4  21186929.414                    21186930.047
                        28.000
                  97504209.083 6  23484629.992                    23484632.688
                        38.100
 126207808.711 6  98343777.85144  24016548.273                    24016555.301
        40.500          24.300
 113167480.375 8  88182461.72845  21535054.656                    21535057.844
        48.700          33.300
 122486822.808 7  95444358.20644  23308482.852                    23308489.859
        42.700          25.600
 116177921.793 8  90528259.93045  22107924.227                    22107927.133
        51.100          35.500
 116696064.299 8  90932041.62445  22206529.328                    22206534.133
        48.900          34.000
 112730260.894 7  87841766.69545  21451855.430                    21451856.195
        47.300          34.600
 114518180.713 8  89234968.12845  21792085.328                    21792090.543
        49.100          35.200
 129129665.964 6 100620589.90843  24572567.789                    24572574.234
        41.300          22.900
 18  3 11 14 22 23.0000000  0 19R05R06G14G22R07R14R15R16R23R24R22G03
                                G12G01G17G32G19G24G25
                  96367616.70313  23178283.219                    23178286.133
                        22.500
                  85692057.497 5  20646841.641                    20646843.266
                        34.500
 122019005.673 7  95079823.93844  23219460.555                    23219462.887
        43.500          27.600
 124001128.772 7  96624291.81844  23596638.070                    23596638.949
        43.200          26.700
                  92242156.065 6  22154927.492                    22154929.066
                        39.400
                  84932474.084 6  20485438.406                    20485439.992
                        38.000
                  81407266.425 5  19586906.828                    19586910.137
                        35.300
                  96548259.707 5  23238048.594                    23238047.883
                        35.300
                  84259635.117 5  20251866.500                    20251871.797
                        35.600
                  88116949.468 4  21186404.445                    21186404.770
                        28.500
                  97507905.599 6  23485520.633                    23485523.613
                        38.700
 126205432.487 6  98341926.26744  24016096.375                    24016103.000
        41.100          26.200
 113165421.865 8  88180857.70345  21534662.891                    21534666.410
        48.000          33.600
 122489554.108 7  95446486.49444  23309002.953                    23309009.879
        42.100          25.900
 116179240.577 8  90529287.57645  22108175.078                    22108178.277
        50.900          35.500
 116695878.206 8  90931896.60845  22206493.516                    22206498.727
        49.100          34.000
 112730100.420 7  87841641.65745  21451824.359                    21451825.453
        46.900          34.400
 114520731.571 8  89236955.81245  21792570.164                    21792576.328
        49.000          34.700
 129126064.319 7 100617783.43544  24571882.625                    24571888.559
        42.100          25.600
 18  3 11 14 22 24.0000000  0 19R05R06G14G22R07R14R15R16R23R24R22G03
                                G12G01G17G32G19G24G25
                  96371256.45013  23179159.008                    23179161.379
                        22.500
                  85692880.920 5  20647041.008                    20647041.965
                        35.000
 122017064.042 7  95078310.97044  23219091.047                    23219093.348
        43.100          26.400
 124000095.469 7  96623486.65144  23596441.523                    23596442.379
        43.200          27.300
                  92239886.544 6  22154382.359                    22154384.492
                        39.400
                  84934941.553 6  20486033.836                    20486035.000
                        38.300
                  81406951.760 5  19586831.148                    19586834.828
                        35.400
                  96545110.579 5  23237291.398                    23237290.664
                        35.500
                  84260560.695 5  20252089.438                    20252093.270
                        35.400
                  88114766.112 4  21185879.578                    21185880.301
                        28.700
                  97511602.354 6  23486410.258                    23486413.844
                        38.900
 126203056.730 6  98340075.03843  24015645.391                    24015650.691
        41.700          23.900
 113163363.915 7  88179254.12045  21534271.328                    21534274.777
        47.500          33.300
 122492286.008 6  95448615.24244  23309522.539                    23309529.328
        41.500          25.900
 116180559.967 8  90530315.69545  22108426.133                    22108429.660
        51.100          35.300
 116695692.785 8  90931752.11445  22206458.078                    22206464.020
        48.900          33.700
 112729940.729 7  87841517.22945  21451794.477                    21451795.340
        47.200          34.700
 114523282.988 8  89238943.92245  21793055.695                    21793061.902
        48.800          35.200
 129122462.766 6 100614977.02844  24571197.656                    24571203.742
        41.700          24.500
 18  3 11 14 22 25.0000000  0 19R05R06G14G22R07R14R15R16R23R24R22G03
                                G12G01G17G32G19G24G25
                  96374895.88813  23180034.977                    23180036.980
                        22.500
                  85693705.073 5  20647239.359                    20647240.496
                        34.700
 122015122.908 7  95076798.39144  23218721.680                    23218724.199
        43.000          27.900
 123999062.712 7  96622681.90544  23596245.102                    23596245.723
        43.200          26.300
                  92237617.531 6  22153837.844                    22153839.426
                        39.500
                  84937409.528 6  20486628.094                    20486630.832
                        38.000
                  81406637.729 5  19586755.930                    19586758.746
                        34.900
                  96541961.658 5  23236532.211                    23236531.938
                        35.900
                  84261487.005 5  20252312.141                    20252316.281
                        35.500
                  88112583.277 4  21185354.484                    21185355.332
                        28.000
                  97515299.354 6  23487301.656                    23487304.441
                        38.900
 126200681.487 7  98338224.19744  24015192.844                    24015198.945
        42.200          26.500
 113161306.516 7  88177650.96145  21533879.938                    21533883.082
        47.200          33.600
 122495018.439 6  95450744.40644  23310043.313                    23310049.258
        41.600          26.000
 116181879.987 8  90531344.30145  22108677.555                    22108680.699
        50.700          35.300
 116695508.078 8  90931608.17945  22206422.688                    22206428.301
        48.500          33.800
 112729781.781 7  87841393.38245  21451764.102                    21451764.992
        47.200          34.600
 114525834.941 8  89240932.44745  21793541.508                    21793547.230
        48.600          35.100
 129118861.447 7 100612170.80544  24570511.836                    24570518.406
        42.200          25.500
 18  3 11 14 22 26.0000000  0 19R05R06G14G22R07R14R15R16R23R24R22G03
                                G12G01G17G32G19G24G25
                  96378536.125 3  23180908.961                    23180912.449
                        22.700
                  85694529.965 5  20647438.227                    20647439.004
                        34.000
 122013182.259 7  95075286.18644  23218352.234                    23218355.031
        43.000          28.000
 123998030.566 7  96621877.63744  23596048.656                    23596049.598
        43.100          27.400
                  92235348.979 6  22153293.344                    22153295.063
                        39.100
                  84939877.988 6  20487222.250                    20487226.469
                        38.100
                  81406324.353 5  19586679.438                    19586684.273
                        34.600
                  96538812.955 5  23235777.453                    23235774.188
                        35.300
                  84262414.029 5  20252533.945                    20252538.883
                        35.300
                  88110400.934 4  21184829.305                    21184830.465
                        29.100
                  97518996.549 6  23488191.984                    23488194.332
                        38.900
 126198306.630 7  98336373.64244  24014740.563                    24014746.598
        42.600          26.800
 113159249.682 7  88176048.24045  21533488.867                    21533491.410
        47.800          32.700
 122497751.435 6  95452874.00144  23310563.383                    23310569.582
        41.400          25.400
 116183200.599 8  90532373.36645  22108928.938                    22108931.676
        51.000          35.500
 116695324.035 8  90931464.75745  22206387.680                    22206393.531
        48.600          33.900
 112729623.608 7  87841270.13345  21451733.672                    21451735.129
        47.400          34.700
 114528387.417 8  89242921.38345  21794027.422                    21794033.273
        48.400          34.600
 129115260.278 7 100609364.69144  24569826.820                    24569833.371
        42.200          25.600
 18  3 11 14 22 27.0000000  0 18R05R06G14G22R07R14R15R23R24R22G03G12
                                G01G17G32G19G24G25
                  96382176.607 3  23181785.406                    23181787.434
                        21.900
                  85695355.601 5  20647636.836                    20647637.797
                        34.600
 122011242.096 7  95073774.37244  23217982.930                    23217986.086
        42.700          27.100
 123996998.987 7  96621073.81144  23595852.414                    23595852.871
        42.800          27.900
                  92233080.906 6  22152748.336                    22152749.219
                        38.600
                  84942346.954 6  20487820.813                    20487821.695
                        38.100
                  81406011.638 5  19586604.875                    19586608.406
                        34.600
                  84263341.777 6  20252758.039                    20252762.164
                        36.000
                  88108219.173 4  21184305.883                    21184305.805
                        27.800
                  97522694.000 6  23489083.125                    23489085.566
                        38.400
 126195932.262 6  98334523.45944  24014288.805                    24014294.805
        41.100          26.200
 113157193.416 8  88174445.96245  21533097.766                    21533100.168
        48.900          32.800
 122500485.037 6  95455004.08044  23311083.406                    23311089.754
        41.700          26.500
 116184521.864 8  90533402.94145  22109180.102                    22109183.340
        50.900          34.400
 116695140.695 8  90931321.88945  22206352.656                    22206358.590
        48.300          34.300
 112729466.197 7  87841147.47945  21451703.906                    21451704.523
        47.800          34.600
 114530940.461 8  89244910.75445  21794513.148                    21794518.828
        48.100          34.800
 129111659.268 7 100606558.72244  24569141.680                    24569148.352
        42.100          25.100
 18  3 11 14 22 28.0000000  0 18R05R06G14G22R07R14R15R23R24R22G03G12
                                G01G17G32G19G24G25
                  96385817.354 3  23182661.750                    23182663.676
                        21.600
                  85696182.020 5  20647836.195                    20647836.770
                        34.300
 122009302.438 7  95072262.95144  23217613.672                    23217616.895
        42.100          27.200
 123995968.020 7  96620270.46244  23595655.805                    23595656.742
        43.100          29.100
                  92230813.335 6  22152203.828                    22152204.453
                        38.500
                  84944816.494 6  20488415.336                    20488417.012
                        38.100
                  81405699.617 5  19586529.813                    19586533.480
                        34.600
                  84264270.292 5  20252980.625                    20252985.000
                        35.700
                  88106037.902 4  21183780.656                    21183781.395
                        27.800
                  97526391.686 6  23489973.930                    23489976.137
                        38.600
 126193558.400 6  98332673.68043  24013836.711                    24013843.172
        39.800          22.600
 113155137.738 8  88172844.14445  21532706.734                    21532709.348
        49.200          33.300
 122503219.182 6  95457134.58244  23311603.781                    23311609.695
        41.600          26.800
 116185843.758 8  90534433.00445  22109431.336                    22109434.945
        51.400          34.500
 116694958.083 8  90931179.59445  22206317.977                    22206323.551
        48.600          34.300
 112729309.574 7  87841025.44945  21451673.945                    21451675.012
        47.800          34.300
 114533494.097 8  89246900.58445  21794999.328                    21795004.875
        48.700          34.900
 129108058.455 7 100603752.88643  24568455.945                    24568462.805
        42.200          23.200
 18  3 11 14 22 29.0000000  0 18R05R06G14G22R07R14R15R23R24R22G03G12
                                G01G17G32G19G24G25
                                  23183536.211

                  85697009.168 5  20648035.984                    20648035.836
                        34.600
 122007363.317 7  95070751.95344  23217245.063                    23217248.297
        42.000          27.000
 123994937.636 7  96619467.57044  23595460.563                    23595460.902
        43.000          27.700
                  92228546.256 6  22151658.758                    22151660.023
                        38.400
                  84947286.541 6  20489010.344                    20489012.293
                        38.100
                  81405388.275 5  19586455.273                    19586458.500
                        34.900
                  84265199.552 5  20253204.016                    20253208.621
                        35.800
                  88103857.221 4  21183257.383                    21183257.121
                        28.500
                  97530089.618 6  23490864.063                    23490867.055
                        38.900
 126191184.971 6  98330824.25744  24013384.531                    24013391.590
        39.000          24.100
 113153082.671 8  88171242.78745  21532315.711                    21532318.043
        49.900          33.200
 122505953.978 6  95459265.59844  23312123.781                    23312130.773
        41.100          25.200
 116187166.298 8  90535463.57245  22109683.320                    22109686.477
        51.400          35.000
 116694776.187 8  90931037.85645  22206283.500                    22206289.516
        48.400          34.300
 112729153.763 7  87840904.03045  21451644.555                    21451645.480
        47.800          34.600
 114536048.303 8  89248890.85545  21795485.805                    21795490.941
        49.200          34.900
 129104457.846 7 100600947.21043  24567770.789                    24567777.625
        42.300          22.500
 18  3 11 14 22 30.0000000  0 18R05R06G14G22R07R14R15R23R24R22G03G12
                                G01G17G32G19G24G25
                                  23184413.039

                  85697837.039 5  20648235.844                    20648236.109
                        34.800
 122005424.642 6  95069241.30644  23216875.695                    23216879.746
        41.800          29.200
 123993907.841 7  96618665.14244  23595264.359                    23595264.715
        42.700          28.900
                  92226279.623 6  22151114.195                    22151114.758
                        38.900
                  84949757.034 6  20489606.992                    20489608.879
                        37.900
                  81405077.552 5  19586380.273                    19586383.555
                        34.700
                  84266129.534 6  20253427.594                    20253432.117
                        36.500
                  88101677.001 4  21182732.430                    21182733.156
                        28.800
                  97533787.751 6  23491754.727                    23491757.625
                        39.300
 126188811.981 6  98328975.19244  24012932.594                    24012939.906
        38.400          25.300
 113151028.118 8  88169641.82645  21531924.266                    21531926.926
        50.100          32.900
 122508689.304 6  95461397.02544  23312644.719                    23312650.719
        40.600          25.300
 116188489.419 8  90536494.59445  22109935.133                    22109938.152
        51.500          34.700
 116694594.968 7  90930896.64345  22206248.648                    22206254.551
        47.800          34.100
 112728998.676 8  87840783.18145  21451614.969                    21451615.844
        48.000          34.700
 114538603.044 8  89250881.55945  21795971.531                    21795976.770
        49.200          34.900
 129100857.400 7 100598141.68343  24567085.906                    24567092.188
        42.400          23.400
 18  3 11 14 22 31.0000000  0 18R05R06G14G22R07R14R15R23R24R22G03G12
                                G01G17G32G19G24G25
                                  23185288.445

                  85698665.634 5  20648434.773                    20648435.531
                        34.400
 122003486.481 6  95067731.05544  23216506.555                    23216511.078
        41.300          27.200
 123992878.609 7  96617863.14644  23595068.680                    23595069.344
        42.000          26.900
                  92224013.479 6  22150569.320                    22150571.410
                        38.700
                  84952228.035 6  20490202.734                    20490204.520
                        37.900
                  81404767.512 5  19586305.875                    19586308.898
                        34.800
                  84267060.232 6  20253651.406                    20253655.785
                        36.300
                  88099497.333 4  21182208.688                    21182208.957
                        28.400
                  97537486.089 6  23492645.734                    23492648.629
                        38.900
 126186439.446 6  98327126.50543  24012480.414                    24012488.590
        38.500          22.900
 113148974.146 8  88168041.32045  21531533.672                    21531536.164
        50.200          32.600
 122511425.219 6  95463528.89644  23313164.805                    23313171.074
        40.500          25.800
 116189813.167 8  90537526.10345  22110186.922                    22110190.090
        51.500          35.200
 116694414.442 7  90930755.97045  22206214.414                    22206220.430
        47.900          33.700
 112728844.354 8  87840662.93245  21451585.578                    21451586.664
        48.300          34.900
 114541158.351 8  89252872.69945  21796457.852                    21796462.875
        49.700          35.100
 129097257.119 6 100595336.27943  24566400.883                    24566407.566
        41.500          22.600
 18  3 11 14 22 32.0000000  0 19R05R06G14G22R07R14R15R16R23R24R22G03
                                G12G01G17G32G19G24G25
                                  23186164.414

                  85699494.936 5  20648634.594                    20648634.961
                        34.400
 122001548.770 6  95066221.16344  23216137.773                    23216142.152
        41.200          26.200
 123991849.954 7  96617061.60644  23594872.680                    23594873.566
        42.400          27.900
                  92221747.810 6  22150026.000                    22150027.156
                        39.400
                  84954699.557 6  20490798.695                    20490800.336
                        38.200
                  81404458.128 5  19586231.094                    19586234.582
                        35.200
                  96519924.89515  23231229.000                    23231227.984
                        30.600
                  84267991.660 6  20253875.008                    20253879.477
                        36.500
                  88097318.223 4  21181685.172                    21181685.023
                        28.000
                  97541184.650 6  23493535.984                    23493539.586
                        38.700
 126184067.387 6  98325278.17443  24012030.313                    24012037.137
        39.600          23.000
 113146920.725 8  88166441.24445  21531142.344                    21531145.688
        49.900          32.400
 122514161.700 6  95465661.21044  23313686.688                    23313692.090
        41.300          26.000
 116191137.524 8  90538558.08545  22110438.891                    22110442.176
        51.800          34.900
 116694234.604 7  90930615.83645  22206180.148                    22206186.008
        47.600          34.700
 112728690.818 8  87840543.28745  21451556.164                    21451557.332
        48.400          35.100
 114543714.223 8  89254864.28145  21796944.469                    21796949.758
        50.200          34.600
 129093657.007 6 100592530.98043  24565715.969                    24565722.270
        41.400          22.600
 18  3 11 14 22 33.0000000  0 19R05R06G14G22R07R14R15R16R23R24R22G03
                                G12G01G17G32G19G24G25
                                  23187040.117

                  85700325.020 5  20648834.203                    20648834.824
                        35.000
 121999611.632 6  95064711.72244  23215769.203                    23215773.813
        41.100          26.800
 123990821.933 7  96616260.55644  23594677.273                    23594677.902
        42.500          27.500
                  92219482.665 6  22149481.563                    22149483.215
                        38.900
                  84957171.600 6  20491395.109                    20491396.898
                        38.300
                  81404149.434 5  19586157.023                    19586160.301
                        34.800
                  96516777.24114  23230469.516                    23230470.480
                        29.900
                  84268923.870 6  20254099.367                    20254103.129
                        36.600
                  88095139.636 4  21181159.945                    21181161.367
                        27.900
                  97544883.514 6  23494428.922                    23494430.430
                        38.400
 126181695.857 6  98323430.24944  24011579.172                    24011585.820
        40.500          24.400
 113144867.923 8  88164841.65445  21530751.594                    21530755.094
        49.300          33.000
 122516898.793 7  95467794.00144  23314207.586                    23314213.098
        42.200          25.800
 116192462.561 8  90539590.59845  22110690.992                    22110694.004
        51.300          35.400
 116694055.531 7  90930476.29945  22206146.203                    22206152.313
        47.300          34.200
 112728538.100 8  87840424.28345  21451527.445                    21451528.355
        48.400          35.200
 114546270.685 8  89256856.32545  21797431.234                    21797436.164
        50.500          34.800
 129090057.116 7 100589725.86543  24565031.141                    24565037.301
        42.100          23.000
 18  3 11 14 22 34.0000000  0 19R05R06G14G22R07R14R15R16R23R24R22G03
                                G12G01G17G32G19G24G25
                                  23187916.398

                  85701155.863 5  20649035.742                    20649034.813
                        34.700
 121997674.969 6  95063202.65544  23215400.695                    23215405.316
        41.200          27.000
 123989794.496 7  96615459.96044  23594481.297                    23594482.633
        42.300          27.600
                  92217218.009 6  22148937.508                    22148939.648
                        39.400
                  84959644.150 6  20491991.477                    20491993.297
                        38.100
                  81403841.410 5  19586083.313                    19586086.328
                        35.100
                  96513629.79614  23229710.469                    23229712.465
                        28.100
                  84269856.803 5  20254323.531                    20254328.008
                        35.800
                  88092961.644 4  21180637.688                    21180637.680
                        27.900
                  97548582.593 6  23495318.766                    23495321.527
                        38.900
 126179324.830 6  98321582.69644  24011128.672                    24011134.805
        41.300          25.900
 113142815.671 8  88163242.49745  21530361.063                    21530364.207
        48.900          33.600
 122519636.440 7  95469927.22944  23314728.859                    23314734.398
        42.200          26.100
 116193788.209 8  90540623.58845  22110943.180                    22110946.313
        51.300          35.500
 116693877.129 7  90930337.29545  22206112.609                    22206118.227
        47.500          34.500
 112728386.142 8  87840305.87645  21451498.195                    21451499.176
        48.700          35.000
 114548827.706 8  89258848.81045  21797917.570                    21797923.055
        50.700          35.000
 129086457.394 7 100586920.88444  24564345.789                    24564351.859
        42.000          25.000
 18  3 11 14 22 35.0000000  0 19R05R06G14G22R07R14R15R16R23R24R22G03
                                G12G01G17G32G19G24G25
                  96411305.69413  23188791.039                    23188794.324
                        23.300
                  85701987.453 5  20649236.289                    20649235.172
                        35.000
 121995738.800 7  95061693.96444  23215033.078                    23215037.094
        42.100          26.700
 123988767.651 7  96614659.82644  23594286.305                    23594287.359
        42.800          27.000
                  92214953.856 6  22148394.781                    22148396.355
                        39.600
                  84962117.191 6  20492587.906                    20492589.418
                        38.100
                  81403534.042 5  19586008.313                    19586012.574
                        34.600
                  96510482.03014  23228953.258                    23228954.895
                        25.800
                  84270790.459 5  20254547.789                    20254552.168
                        35.900
                  88090784.129 4  21180113.898                    21180113.633
                        28.200
                  97552281.893 6  23496209.125                    23496212.164
                        38.100
 126176954.252 6  98319735.48344  24010677.336                    24010683.727
        41.500          24.800
 113140764.009 8  88161643.80745  21529970.695                    21529973.922
        48.700          33.200
 122522374.674 7  95472060.92544  23315249.242                    23315255.551
        42.400          26.000
 116195114.496 8  90541657.07545  22111195.508                    22111198.816
        51.000          35.300
 116693699.447 7  90930198.84345  22206079.109                    22206084.168
        47.700          34.500
 112728234.965 8  87840188.07145  21451469.563                    21451470.637
        48.800          34.900
 114551385.285 8  89260841.73245  21798404.391                    21798409.484
        50.300          34.800
 129082857.840 7 100584116.04743  24563661.406                    24563667.023
        42.200          22.800
 18  3 11 14 22 36.0000000  0 19R05R06G14G22R07R14R15R16R23R24R22G03
                                G12G01G17G32G19G24G25
                  96414948.60013  23189666.422                    23189670.594
                        23.600
                  85702819.765 5  20649435.945                    20649435.801
                        35.000
 121993803.128 7  95060185.65344  23214664.445                    23214669.000
        42.500          26.700
 123987741.389 7  96613860.14944  23594091.367                    23594091.836
        42.500          27.700
                  92212690.184 6  22147850.547                    22147853.070
                        39.800
                  84964590.739 6  20493184.539                    20493186.668
                        38.100
                  81403227.333 5  19585935.258                    19585938.094
                        35.000
                  96507334.894 4  23228196.742                    23228197.078
                        25.000
                  84271724.837 6  20254772.289                    20254776.164
                        36.000
                  88088607.165 4  21179589.711                    21179590.957
                        28.200
                  97555981.434 6  23497100.219                    23497103.953
                        38.100
 126174584.104 6  98317888.59543  24010225.484                    24010232.750
        40.500          22.600
 113138712.891 8  88160045.54345  21529580.508                    21529583.398
        49.300          33.400
 122525113.465 7  95474195.04544  23315770.945                    23315776.586
        42.500          25.500
 116196441.380 8  90542691.02445  22111448.188                    22111450.953
        50.800          35.300
 116693522.428 8  90930060.90945  22206045.258                    22206050.871
        48.400          34.400
 112728084.550 8  87840070.86445  21451441.156                    21451442.023
        49.100          35.000
 114553943.431 8  89262835.10345  21798890.734                    21798896.469
        50.300          34.600
 129079258.468 7 100581311.34443  24562976.297                    24562982.336
        42.300          23.200
 18  3 11 14 22 37.0000000  0 19R05R06G14G22R07R14R15R16R23R24R22G03
                                G12G01G17G32G19G24G25
                  96418591.24813  23190542.703                    23190546.777
                        22.800
                  85703652.829 5  20649637.266                    20649636.762
                        34.300
 121991867.964 7  95058677.74044  23214296.359                    23214300.531
        43.000          27.000
 123986715.710 7  96613060.91744  23593895.656                    23593896.523
        42.800          28.400
                  92210427.012 6  22147306.906                    22147309.125
                        39.400
                  84967064.810 6  20493780.344                    20493782.992
                        38.000
                  81402921.282 5  19585861.820                    19585865.031
                        35.200
                  96504187.922 4  23227438.219                    23227439.648
                        24.300
                  84272659.960 6  20254997.031                    20255001.000
                        36.100
                  88086430.751 4  21179067.820                    21179067.559
                        28.600
                  97559681.194 6  23497991.867                    23497994.629
                        37.500
 126172214.475 6  98316042.11543  24009774.328                    24009781.668
        39.400          23.800
 113136662.347 8  88158447.72745  21529190.477                    21529193.355
        49.300          33.200
 122527852.849 7  95476329.64444  23316291.859                    23316297.895
        42.700          26.400
 116197768.898 8  90543725.46745  22111700.719                    22111703.813
        50.700          35.500
 116693346.169 8  90929923.56745  22206011.797                    22206017.109
        48.700          34.200
 112727934.900 8  87839954.24445  21451412.453                    21451413.496
        49.100          34.900
 114556502.135 8  89264828.90345  21799377.625                    21799383.352
        50.100          34.600
 129075659.262 7 100578506.76544  24562291.492                    24562296.625
        42.200          24.700
 18  3 11 14 22 38.0000000  0 19R05R06G14G22R07R14R15R16R23R24R22G03
                                G12G01G17G32G19G24G25
                  96422234.676 3  23191419.813                    23191423.152
                        23.000
                  85704486.646 5  20649837.758                    20649837.477
                        34.400
 121989933.294 7  95057170.21144  23213928.477                    23213932.227
        42.800          25.400
 123985690.620 7  96612262.14344  23593700.898                    23593701.492
        42.800          27.200
                  92208164.328 6  22146763.070                    22146765.395
                        39.400
                  84969539.349 6  20494379.023                    20494380.285
                        38.000
                  81402615.906 5  19585787.961                    19585791.754
                        34.800
                  96501041.043 3  23226680.211                    23226681.852
                        21.400
                  84273595.822 6  20255221.844                    20255226.547
                        36.500
                  88084254.824 4  21178543.297                    21178544.543
                        29.000
                  97563381.172 6  23498883.234                    23498884.594
                        37.100
 126169845.303 6  98314196.01743  24009323.484                    24009330.410
        38.400          21.800
 113134612.375 8  88156850.35045  21528800.672                    21528803.297
        49.300          33.000
 122530592.825 7  95478464.69944  23316812.820                    23316818.957
        43.200          26.700
 116199097.041 8  90544760.39545  22111953.367                    22111956.461
        50.700          35.400
 116693170.591 8  90929786.74745  22205978.445                    22205983.492
        49.100          34.700
 112727786.033 8  87839838.24345  21451383.719                    21451385.086
        48.500          35.000
 114559061.397 8  89266823.13045  21799864.359                    21799870.117
        50.000          35.300
 129072060.276 7 100575702.36244  24561606.328                    24561612.477
        42.400          24.700
 18  3 11 14 22 39.0000000  0 19R05R06G14G22R07R14R15R16R23R24R22G03
                                G12G01G17G32G19G24G25
                  96425878.291 3  23192297.758                    23192300.031
                        22.500
                  85705321.156 5  20650038.070                    20650038.574
                        34.300
 121987999.078 7  95055663.02544  23213560.039                    23213563.645
