% program   : RTKPOST ver.2.4.2
% inp file  : Z:\home\linda\Documents\Spring18\GitHub_Unis\data\processed_data\46250728.obs
% inp file  : Z:\home\linda\Documents\Spring18\GitHub_Unis\data\base_station_data\lyrs0720.18o
% inp file  : Z:\home\linda\Documents\Spring18\GitHub_Unis\data\processed_data\46250728.nav
% obs start : 2018/03/13 15:07:39.0 GPST (week1992 227259.0s)
% obs end   : 2018/03/13 15:14:54.0 GPST (week1992 227694.0s)
% pos mode  : static
% freqs     : L1+L2
% solution  : forward
% elev mask : 15.0 deg
% dynamics  : on
% tidecorr  : off
% ionos opt : broadcast
% tropo opt : saastamoinen
% ephemeris : broadcast
% navi sys  : gps glonass galileo qzss sbas
% amb res   : fix and hold
% amb glo   : on
% val thres : 3.0
% antenna1  :                       ( 0.0000  0.0000  0.0000)
% antenna2  :                       ( 0.0000  0.0000  0.0000)
% ref pos   : 78.228825638   15.397310064   495.6816
%
% (lat/lon/height=WGS84/ellipsoidal,Q=1:fix,2:float,3:sbas,4:dgps,5:single,6:ppp,ns=# of satellites)
%  GPST                  latitude(deg) longitude(deg)  height(m)   Q  ns   sdn(m)   sde(m)   sdu(m)  sdne(m)  sdeu(m)  sdun(m) age(s)  ratio
2018/03/13 15:07:39.000   78.255295613   16.193786208   488.9350   2  11   0.3996   0.3189   1.3851  -0.0870   0.1554   0.4512   0.00    1.0
2018/03/13 15:07:40.000   78.255296668   16.193788560   488.7474   2  11   0.2843   0.2266   0.9845  -0.0622   0.1105   0.3215   0.00    1.0
2018/03/13 15:07:41.000   78.255297457   16.193785697   489.0922   2  11   0.2326   0.1853   0.8049  -0.0510   0.0903   0.2631   0.00    1.1
2018/03/13 15:07:42.000   78.255297004   16.193784872   488.8206   2  11   0.2016   0.1606   0.6973  -0.0443   0.0782   0.2280   0.00    1.0
2018/03/13 15:07:43.000   78.255297250   16.193785969   488.6992   2  11   0.1804   0.1437   0.6234  -0.0397   0.0698   0.2039   0.00    1.1
2018/03/13 15:07:44.000   78.255297256   16.193787287   488.7026   2  11   0.1647   0.1312   0.5687  -0.0363   0.0637   0.1860   0.00    1.1
2018/03/13 15:07:45.000   78.255297157   16.193788059   488.8300   2  11   0.1525   0.1215   0.5260  -0.0336   0.0588   0.1720   0.00    1.1
2018/03/13 15:07:46.000   78.255296892   16.193787441   488.8163   2  11   0.1426   0.1137   0.4914  -0.0315   0.0549   0.1607   0.00    1.0
2018/03/13 15:07:47.000   78.255296759   16.193787227   488.7755   2  11   0.1345   0.1072   0.4626  -0.0298   0.0516   0.1513   0.00    1.0
2018/03/13 15:07:48.000   78.255296738   16.193786513   488.6157   2  11   0.1275   0.1017   0.4380  -0.0283   0.0488   0.1433   0.00    1.0
2018/03/13 15:07:49.000   78.255296757   16.193785794   488.6190   2  11   0.1215   0.0969   0.4168  -0.0270   0.0464   0.1363   0.00    1.0
2018/03/13 15:07:50.000   78.255296716   16.193785771   488.6896   2  11   0.1163   0.0928   0.3982  -0.0259   0.0442   0.1302   0.00    1.0
2018/03/13 15:07:51.000   78.255296778   16.193785872   488.7136   2  11   0.1117   0.0891   0.3817  -0.0249   0.0423   0.1248   0.00    1.1
2018/03/13 15:07:52.000   78.255296861   16.193785596   488.7820   2  11   0.1076   0.0859   0.3669  -0.0241   0.0406   0.1199   0.00    1.1
2018/03/13 15:07:53.000   78.255297072   16.193784707   488.8375   2  11   0.1039   0.0830   0.3535  -0.0233   0.0390   0.1155   0.00    1.1
2018/03/13 15:07:54.000   78.255297284   16.193783638   488.9013   2  11   0.1005   0.0803   0.3412  -0.0226   0.0376   0.1115   0.00    1.2
2018/03/13 15:07:55.000   78.255297487   16.193783834   488.9639   2  11   0.0974   0.0779   0.3300  -0.0220   0.0363   0.1078   0.00    1.2
2018/03/13 15:07:56.000   78.255297634   16.193783925   489.0539   2  11   0.0946   0.0757   0.3197  -0.0214   0.0350   0.1044   0.00    1.3
2018/03/13 15:07:57.000   78.255297807   16.193783943   489.2003   2  11   0.0920   0.0736   0.3101  -0.0209   0.0339   0.1013   0.00    1.3
2018/03/13 15:07:58.000   78.255298034   16.193783455   489.3642   2  11   0.0896   0.0718   0.3011  -0.0204   0.0328   0.0983   0.00    1.2
2018/03/13 15:07:59.000   78.255298361   16.193783426   489.6138   2  11   0.0874   0.0700   0.2928  -0.0200   0.0318   0.0955   0.00    1.2
2018/03/13 15:08:00.000   78.255298699   16.193783300   489.8426   2  11   0.0853   0.0684   0.2849  -0.0196   0.0308   0.0930   0.00    1.2
2018/03/13 15:08:01.000   78.255298967   16.193783333   490.0338   2  11   0.0834   0.0668   0.2775  -0.0192   0.0299   0.0905   0.00    1.1
2018/03/13 15:08:02.000   78.255299316   16.193783792   490.2478   2  11   0.0815   0.0654   0.2705  -0.0189   0.0291   0.0882   0.00    1.1
2018/03/13 15:08:03.000   78.255299773   16.193783703   490.4867   2  11   0.0798   0.0641   0.2639  -0.0185   0.0283   0.0860   0.00    1.0
2018/03/13 15:08:04.000   78.255300170   16.193783766   490.7646   2  11   0.0782   0.0628   0.2576  -0.0182   0.0275   0.0839   0.00    1.0
2018/03/13 15:08:05.000   78.255300645   16.193783890   491.1499   2  11   0.0766   0.0616   0.2516  -0.0179   0.0267   0.0819   0.00    1.1
2018/03/13 15:08:06.000   78.255301019   16.193784712   491.5038   2  11   0.0752   0.0605   0.2459  -0.0177   0.0260   0.0800   0.00    1.1
2018/03/13 15:08:07.000   78.255300983   16.193785176   491.5183   2  10   0.0739   0.0596   0.2411  -0.0179   0.0241   0.0787   0.00    1.1
2018/03/13 15:08:08.000   78.255300986   16.193785972   491.4737   2  11   0.0726   0.0585   0.2361  -0.0177   0.0234   0.0771   0.00    1.0
2018/03/13 15:08:09.000   78.255301009   16.193786106   491.4451   2  11   0.0714   0.0576   0.2314  -0.0174   0.0228   0.0756   0.00    1.0
2018/03/13 15:08:10.000   78.255300970   16.193786405   491.3966   2  11   0.0702   0.0566   0.2268  -0.0172   0.0221   0.0741   0.00    1.0
2018/03/13 15:08:11.000   78.255300876   16.193786814   491.3527   2  11   0.0691   0.0557   0.2224  -0.0170   0.0215   0.0727   0.00    1.0
2018/03/13 15:08:12.000   78.255300655   16.193786772   491.3518   2  11   0.0680   0.0549   0.2184  -0.0170   0.0204   0.0715   0.00    1.0
2018/03/13 15:08:13.000   78.255300412   16.193786941   491.2719   2  11   0.0670   0.0542   0.2146  -0.0169   0.0194   0.0703   0.00    1.0
2018/03/13 15:08:14.000   78.255300287   16.193787080   491.2583   2  11   0.0660   0.0535   0.2108  -0.0169   0.0183   0.0691   0.00    1.0
2018/03/13 15:08:15.000   78.255300109   16.193787127   491.2098   2  11   0.0651   0.0528   0.2072  -0.0169   0.0173   0.0680   0.00    1.0
2018/03/13 15:08:16.000   78.255299949   16.193787484   491.1654   2  11   0.0642   0.0521   0.2036  -0.0168   0.0163   0.0669   0.00    1.0
2018/03/13 15:08:17.000   78.255299773   16.193787638   491.0823   2  11   0.0634   0.0514   0.2002  -0.0168   0.0154   0.0659   0.00    1.0
2018/03/13 15:08:18.000   78.255299676   16.193787596   491.0267   2  11   0.0625   0.0507   0.1968  -0.0166   0.0149   0.0647   0.00    1.0
2018/03/13 15:08:19.000   78.255299568   16.193787664   490.9681   2  11   0.0617   0.0501   0.1935  -0.0164   0.0145   0.0637   0.00    1.1
2018/03/13 15:08:20.000   78.255299472   16.193787704   490.9057   2  11   0.0609   0.0494   0.1903  -0.0162   0.0140   0.0626   0.00    1.1
2018/03/13 15:08:21.000   78.255299465   16.193787831   490.8189   2  11   0.0601   0.0488   0.1871  -0.0161   0.0136   0.0616   0.00    1.1
2018/03/13 15:08:22.000   78.255299443   16.193787932   490.7526   2  11   0.0593   0.0482   0.1841  -0.0159   0.0132   0.0606   0.00    1.1
2018/03/13 15:08:23.000   78.255299366   16.193788311   490.6676   2  11   0.0586   0.0477   0.1811  -0.0158   0.0127   0.0596   0.00    1.1
2018/03/13 15:08:24.000   78.255299308   16.193788380   490.5971   2  11   0.0579   0.0471   0.1782  -0.0157   0.0123   0.0587   0.00    1.1
2018/03/13 15:08:25.000   78.255299250   16.193788660   490.5670   2  11   0.0572   0.0465   0.1754  -0.0155   0.0118   0.0578   0.00    1.0
2018/03/13 15:08:26.000   78.255299275   16.193789023   490.5665   2  11   0.0565   0.0460   0.1727  -0.0154   0.0114   0.0569   0.00    1.0
2018/03/13 15:08:27.000   78.255299331   16.193789293   490.5573   2  11   0.0559   0.0455   0.1700  -0.0153   0.0110   0.0560   0.00    1.0
2018/03/13 15:08:28.000   78.255299467   16.193789687   490.5622   2  11   0.0553   0.0450   0.1674  -0.0152   0.0105   0.0551   0.00    1.0
2018/03/13 15:08:29.000   78.255299569   16.193789838   490.5359   2  11   0.0547   0.0445   0.1649  -0.0150   0.0101   0.0543   0.00    1.0
2018/03/13 15:08:30.000   78.255299695   16.193790243   490.4990   2  11   0.0541   0.0441   0.1624  -0.0149   0.0096   0.0535   0.00    1.0
2018/03/13 15:08:31.000   78.255299795   16.193790336   490.4797   2  11   0.0535   0.0436   0.1600  -0.0148   0.0092   0.0527   0.00    1.0
2018/03/13 15:08:32.000   78.255299902   16.193790353   490.4565   2  11   0.0529   0.0432   0.1576  -0.0147   0.0087   0.0519   0.00    1.0
2018/03/13 15:08:33.000   78.255300049   16.193790398   490.4494   2  11   0.0524   0.0427   0.1553  -0.0146   0.0083   0.0511   0.00    1.0
2018/03/13 15:08:34.000   78.255300227   16.193790440   490.4442   2  11   0.0518   0.0423   0.1530  -0.0145   0.0078   0.0504   0.00    1.1
2018/03/13 15:08:35.000   78.255300411   16.193790398   490.4266   2  11   0.0513   0.0419   0.1508  -0.0144   0.0073   0.0497   0.00    1.1
2018/03/13 15:08:36.000   78.255300581   16.193790358   490.3907   2  11   0.0508   0.0415   0.1486  -0.0144   0.0068   0.0489   0.00    1.1
2018/03/13 15:08:37.000   78.255300709   16.193790409   490.3304   2  11   0.0503   0.0411   0.1465  -0.0143   0.0063   0.0482   0.00    1.1
2018/03/13 15:08:38.000   78.255300826   16.193790240   490.2502   2  11   0.0498   0.0407   0.1444  -0.0142   0.0058   0.0476   0.00    1.1
2018/03/13 15:08:39.000   78.255300940   16.193790203   490.1589   2  11   0.0493   0.0404   0.1423  -0.0141   0.0053   0.0469   0.00    1.1
2018/03/13 15:08:40.000   78.255301050   16.193790188   490.0519   2  11   0.0489   0.0400   0.1403  -0.0140   0.0047   0.0462   0.00    1.2
2018/03/13 15:08:41.000   78.255301104   16.193790229   489.9184   2  11   0.0484   0.0396   0.1384  -0.0139   0.0041   0.0456   0.00    1.2
2018/03/13 15:08:42.000   78.255301106   16.193790309   489.7655   2  11   0.0479   0.0393   0.1365  -0.0139   0.0033   0.0449   0.00    1.2
2018/03/13 15:08:43.000   78.255301096   16.193790450   489.6208   2  11   0.0475   0.0389   0.1346  -0.0138   0.0024   0.0443   0.00    1.1
2018/03/13 15:08:44.000   78.255301104   16.193790607   489.4920   2  11   0.0471   0.0386   0.1327  -0.0137   0.0010   0.0437   0.00    1.1
2018/03/13 15:08:45.000   78.255301135   16.193790788   489.3763   2  11   0.0467   0.0383   0.1309  -0.0137  -0.0019   0.0431   0.00    1.1
2018/03/13 15:08:46.000   78.255301175   16.193790847   489.2744   2  11   0.0462   0.0380   0.1291  -0.0136  -0.0028   0.0425   0.00    1.1
2018/03/13 15:08:47.000   78.255301210   16.193790982   489.1797   2  11   0.0458   0.0377   0.1274  -0.0135  -0.0035   0.0419   0.00    1.1
2018/03/13 15:08:48.000   78.255301263   16.193791081   489.1070   2  11   0.0454   0.0373   0.1257  -0.0135  -0.0041   0.0413   0.00    1.1
2018/03/13 15:08:49.000   78.255301285   16.193791138   489.0474   2  11   0.0451   0.0370   0.1240  -0.0134  -0.0045   0.0408   0.00    1.0
2018/03/13 15:08:50.000   78.255301286   16.193791209   488.9906   2  11   0.0447   0.0368   0.1224  -0.0133  -0.0049   0.0402   0.00    1.0
2018/03/13 15:08:51.000   78.255301285   16.193791342   488.9469   2  11   0.0443   0.0365   0.1207  -0.0133  -0.0053   0.0397   0.00    1.0
2018/03/13 15:08:52.000   78.255301285   16.193791579   488.9266   2  11   0.0439   0.0362   0.1192  -0.0132  -0.0056   0.0392   0.00    1.1
2018/03/13 15:08:53.000   78.255301289   16.193791671   488.9018   2  11   0.0436   0.0359   0.1176  -0.0131  -0.0059   0.0386   0.00    1.1
2018/03/13 15:08:54.000   78.255301280   16.193791825   488.8674   2  11   0.0432   0.0356   0.1161  -0.0131  -0.0061   0.0381   0.00    1.1
2018/03/13 15:08:55.000   78.255301257   16.193792066   488.8340   2  11   0.0429   0.0354   0.1146  -0.0130  -0.0064   0.0376   0.00    1.2
2018/03/13 15:08:56.000   78.255301287   16.193792276   488.8081   2  11   0.0425   0.0351   0.1131  -0.0130  -0.0066   0.0371   0.00    1.2
2018/03/13 15:08:57.000   78.255301328   16.193792412   488.7865   2  11   0.0422   0.0348   0.1117  -0.0129  -0.0068   0.0367   0.00    1.2
2018/03/13 15:08:58.000   78.255301380   16.193792516   488.7553   2  11   0.0418   0.0346   0.1102  -0.0129  -0.0070   0.0362   0.00    1.2
2018/03/13 15:08:59.000   78.255301409   16.193792613   488.7126   2  11   0.0415   0.0343   0.1089  -0.0128  -0.0071   0.0357   0.00    1.2
2018/03/13 15:09:00.000   78.255301393   16.193792684   488.6577   2  11   0.0412   0.0341   0.1075  -0.0128  -0.0073   0.0353   0.00    1.2
2018/03/13 15:09:01.000   78.255301366   16.193792668   488.5922   2  11   0.0409   0.0338   0.1061  -0.0127  -0.0074   0.0348   0.00    1.3
2018/03/13 15:09:02.000   78.255301360   16.193792664   488.5328   2  11   0.0406   0.0336   0.1048  -0.0127  -0.0076   0.0344   0.00    1.3
2018/03/13 15:09:03.000   78.255301289   16.193792586   488.4591   2  11   0.0403   0.0334   0.1035  -0.0126  -0.0077   0.0339   0.00    1.3
2018/03/13 15:09:04.000   78.255301216   16.193792443   488.3935   2  11   0.0400   0.0331   0.1023  -0.0126  -0.0078   0.0335   0.00    1.3
2018/03/13 15:09:05.000   78.255301146   16.193792301   488.3243   2  11   0.0397   0.0329   0.1010  -0.0125  -0.0079   0.0331   0.00    1.3
2018/03/13 15:09:06.000   78.255301102   16.193792081   488.2512   2  11   0.0394   0.0327   0.0998  -0.0125  -0.0080   0.0326   0.00    1.3
2018/03/13 15:09:07.000   78.255301013   16.193791995   488.1760   2  11   0.0391   0.0324   0.0986  -0.0124  -0.0081   0.0322   0.00    1.3
2018/03/13 15:09:08.000   78.255300922   16.193791844   488.0902   2  11   0.0388   0.0322   0.0974  -0.0124  -0.0082   0.0318   0.00    1.3
2018/03/13 15:09:09.000   78.255300813   16.193791757   488.0210   2  11   0.0385   0.0320   0.0962  -0.0123  -0.0083   0.0314   0.00    1.3
2018/03/13 15:09:10.000   78.255300725   16.193791615   487.9484   2  11   0.0383   0.0318   0.0951  -0.0123  -0.0084   0.0311   0.00    1.3
2018/03/13 15:09:11.000   78.255300626   16.193791309   487.8667   2  11   0.0380   0.0316   0.0939  -0.0122  -0.0084   0.0307   0.00    1.3
2018/03/13 15:09:12.000   78.255300534   16.193791086   487.7929   2  11   0.0377   0.0314   0.0928  -0.0122  -0.0085   0.0303   0.00    1.3
2018/03/13 15:09:13.000   78.255300413   16.193790972   487.7195   2  11   0.0374   0.0312   0.0917  -0.0121  -0.0086   0.0299   0.00    1.3
2018/03/13 15:09:14.000   78.255300313   16.193790965   487.6516   2  11   0.0372   0.0310   0.0907  -0.0121  -0.0086   0.0296   0.00    1.3
2018/03/13 15:09:15.000   78.255300171   16.193790788   487.5852   2  11   0.0369   0.0308   0.0896  -0.0120  -0.0087   0.0292   0.00    1.3
2018/03/13 15:09:16.000   78.255300003   16.193790605   487.5160   2  11   0.0367   0.0306   0.0886  -0.0120  -0.0087   0.0289   0.00    1.3
2018/03/13 15:09:17.000   78.255299841   16.193790383   487.4393   2  11   0.0364   0.0304   0.0876  -0.0119  -0.0088   0.0285   0.00    1.2
2018/03/13 15:09:18.000   78.255299660   16.193790183   487.3615   2  11   0.0362   0.0302   0.0866  -0.0119  -0.0088   0.0282   0.00    1.2
2018/03/13 15:09:19.000   78.255299470   16.193790211   487.2768   2  11   0.0359   0.0300   0.0856  -0.0119  -0.0089   0.0278   0.00    1.2
2018/03/13 15:09:20.000   78.255299315   16.193790298   487.1879   2  11   0.0357   0.0298   0.0846  -0.0118  -0.0089   0.0275   0.00    1.2
2018/03/13 15:09:21.000   78.255299158   16.193790460   487.1017   2  11   0.0355   0.0297   0.0837  -0.0118  -0.0089   0.0272   0.00    1.2
2018/03/13 15:09:22.000   78.255299031   16.193790784   487.0209   2  11   0.0352   0.0295   0.0827  -0.0117  -0.0090   0.0269   0.00    1.2
2018/03/13 15:09:23.000   78.255298905   16.193791143   486.9445   2  11   0.0350   0.0293   0.0818  -0.0117  -0.0090   0.0265   0.00    1.1
2018/03/13 15:09:24.000   78.255298810   16.193791348   486.8804   2  11   0.0348   0.0291   0.0809  -0.0117  -0.0090   0.0262   0.00    1.1
2018/03/13 15:09:25.000   78.255298729   16.193791653   486.8250   2  11   0.0345   0.0289   0.0800  -0.0116  -0.0090   0.0259   0.00    1.1
2018/03/13 15:09:26.000   78.255298667   16.193791828   486.7674   2  11   0.0343   0.0288   0.0791  -0.0116  -0.0090   0.0256   0.00    1.1
2018/03/13 15:09:27.000   78.255298621   16.193791938   486.7226   2  11   0.0341   0.0286   0.0783  -0.0115  -0.0091   0.0253   0.00    1.1
2018/03/13 15:09:28.000   78.255298589   16.193792072   486.6837   2  11   0.0339   0.0284   0.0774  -0.0115  -0.0091   0.0250   0.00    1.1
2018/03/13 15:09:29.000   78.255298535   16.193792126   486.6562   2  11   0.0337   0.0283   0.0766  -0.0115  -0.0091   0.0248   0.00    1.1
2018/03/13 15:09:30.000   78.255298457   16.193792106   486.6226   2  11   0.0335   0.0281   0.0758  -0.0114  -0.0091   0.0245   0.00    1.1
2018/03/13 15:09:31.000   78.255298384   16.193791992   486.5979   2  11   0.0333   0.0279   0.0750  -0.0114  -0.0091   0.0242   0.00    1.1
2018/03/13 15:09:32.000   78.255298301   16.193792001   486.5767   2  11   0.0331   0.0278   0.0742  -0.0113  -0.0091   0.0239   0.00    1.0
2018/03/13 15:09:33.000   78.255298224   16.193791914   486.5535   2  11   0.0328   0.0276   0.0734  -0.0113  -0.0091   0.0237   0.00    1.0
2018/03/13 15:09:34.000   78.255298145   16.193791934   486.5215   2  11   0.0326   0.0275   0.0726  -0.0113  -0.0091   0.0234   0.00    1.0
2018/03/13 15:09:35.000   78.255298067   16.193791924   486.4852   2  11   0.0324   0.0273   0.0719  -0.0112  -0.0091   0.0231   0.00    1.0
2018/03/13 15:09:36.000   78.255298017   16.193791964   486.4497   2  11   0.0322   0.0272   0.0711  -0.0112  -0.0091   0.0229   0.00    1.0
2018/03/13 15:09:37.000   78.255297945   16.193791972   486.4070   2  11   0.0321   0.0270   0.0704  -0.0111  -0.0091   0.0226   0.00    1.0
2018/03/13 15:09:38.000   78.255297887   16.193791911   486.3621   2  11   0.0319   0.0269   0.0697  -0.0111  -0.0091   0.0224   0.00    1.0
2018/03/13 15:09:39.000   78.255297814   16.193791989   486.3141   2  11   0.0317   0.0267   0.0689  -0.0111  -0.0091   0.0221   0.00    1.0
2018/03/13 15:09:40.000   78.255297750   16.193792082   486.2706   2  11   0.0315   0.0266   0.0682  -0.0110  -0.0091   0.0219   0.00    1.0
2018/03/13 15:09:41.000   78.255297703   16.193792111   486.2165   2  11   0.0313   0.0264   0.0676  -0.0110  -0.0091   0.0216   0.00    1.0
2018/03/13 15:09:42.000   78.255297654   16.193792021   486.1627   2  11   0.0311   0.0263   0.0669  -0.0110  -0.0091   0.0214   0.00    1.0
2018/03/13 15:09:43.000   78.255297593   16.193791848   486.0978   2  11   0.0309   0.0261   0.0662  -0.0109  -0.0091   0.0212   0.00    1.0
2018/03/13 15:09:44.000   78.255297510   16.193791633   486.0377   2  11   0.0307   0.0260   0.0656  -0.0109  -0.0091   0.0210   0.00    1.0
2018/03/13 15:09:45.000   78.255297433   16.193791458   485.9853   2  11   0.0306   0.0259   0.0649  -0.0108  -0.0091   0.0207   0.00    1.0
2018/03/13 15:09:46.000   78.255297390   16.193791170   485.9460   2  11   0.0304   0.0257   0.0643  -0.0108  -0.0090   0.0205   0.00    1.1
2018/03/13 15:09:47.000   78.255297378   16.193790862   485.9143   2  11   0.0302   0.0256   0.0636  -0.0108  -0.0090   0.0203   0.00    1.1
2018/03/13 15:09:48.000   78.255297386   16.193790546   485.8897   2  11   0.0300   0.0254   0.0630  -0.0107  -0.0090   0.0201   0.00    1.1
2018/03/13 15:09:49.000   78.255297398   16.193790181   485.8690   2  11   0.0299   0.0253   0.0624  -0.0107  -0.0090   0.0199   0.00    1.1
2018/03/13 15:09:50.000   78.255297432   16.193789842   485.8476   2  11   0.0297   0.0252   0.0618  -0.0107  -0.0090   0.0197   0.00    1.1
2018/03/13 15:09:51.000   78.255297480   16.193789475   485.8278   2  11   0.0295   0.0250   0.0612  -0.0106  -0.0090   0.0195   0.00    1.1
2018/03/13 15:09:52.000   78.255297540   16.193789186   485.8094   2  11   0.0294   0.0249   0.0606  -0.0106  -0.0090   0.0192   0.00    1.1
2018/03/13 15:09:53.000   78.255297609   16.193788923   485.7997   2  11   0.0292   0.0248   0.0600  -0.0106  -0.0089   0.0190   0.00    1.1
2018/03/13 15:09:54.000   78.255297688   16.193788678   485.7966   2  11   0.0290   0.0247   0.0595  -0.0105  -0.0089   0.0189   0.00    1.1
2018/03/13 15:09:55.000   78.255297768   16.193788413   485.7941   2  11   0.0289   0.0245   0.0589  -0.0105  -0.0089   0.0187   0.00    1.1
2018/03/13 15:09:56.000   78.255297838   16.193788210   485.7926   2  11   0.0287   0.0244   0.0584  -0.0105  -0.0089   0.0185   0.00    1.1
2018/03/13 15:09:57.000   78.255297921   16.193788090   485.7912   2  11   0.0286   0.0243   0.0578  -0.0104  -0.0089   0.0183   0.00    1.1
2018/03/13 15:09:58.000   78.255297997   16.193788074   485.7911   2  11   0.0284   0.0242   0.0573  -0.0104  -0.0089   0.0181   0.00    1.1
2018/03/13 15:09:59.000   78.255298072   16.193788056   485.7877   2  11   0.0283   0.0240   0.0568  -0.0104  -0.0088   0.0179   0.00    1.1
2018/03/13 15:10:00.000   78.255298123   16.193788076   485.7842   2  11   0.0281   0.0239   0.0562  -0.0103  -0.0088   0.0177   0.00    1.1
2018/03/13 15:10:01.000   78.255298133   16.193788018   485.7866   2  11   0.0279   0.0238   0.0557  -0.0103  -0.0088   0.0176   0.00    1.1
2018/03/13 15:10:02.000   78.255298125   16.193788109   485.7873   2  11   0.0278   0.0237   0.0552  -0.0103  -0.0088   0.0174   0.00    1.1
2018/03/13 15:10:03.000   78.255298102   16.193788138   485.7858   2  11   0.0276   0.0236   0.0547  -0.0102  -0.0087   0.0172   0.00    1.1
2018/03/13 15:10:04.000   78.255298081   16.193788053   485.7782   2  11   0.0275   0.0234   0.0542  -0.0102  -0.0087   0.0170   0.00    1.1
2018/03/13 15:10:05.000   78.255298074   16.193788035   485.7636   2  11   0.0274   0.0233   0.0538  -0.0102  -0.0087   0.0169   0.00    1.1
2018/03/13 15:10:06.000   78.255298054   16.193787958   485.7284   2  11   0.0272   0.0232   0.0533  -0.0101  -0.0087   0.0167   0.00    1.1
2018/03/13 15:10:07.000   78.255298018   16.193787834   485.6835   2  11   0.0271   0.0231   0.0528  -0.0101  -0.0087   0.0165   0.00    1.1
2018/03/13 15:10:08.000   78.255298003   16.193787652   485.6351   2  11   0.0269   0.0230   0.0523  -0.0101  -0.0086   0.0164   0.00    1.1
2018/03/13 15:10:09.000   78.255297964   16.193787495   485.5802   2  11   0.0268   0.0229   0.0519  -0.0100  -0.0086   0.0162   0.00    1.1
2018/03/13 15:10:10.000   78.255297912   16.193787329   485.5186   2  11   0.0266   0.0228   0.0514  -0.0100  -0.0086   0.0161   0.00    1.1
2018/03/13 15:10:11.000   78.255297873   16.193787140   485.4601   2  11   0.0265   0.0226   0.0510  -0.0100  -0.0086   0.0159   0.00    1.1
2018/03/13 15:10:12.000   78.255297846   16.193786972   485.4081   2  11   0.0264   0.0225   0.0506  -0.0099  -0.0085   0.0157   0.00    1.1
2018/03/13 15:10:13.000   78.255297807   16.193786834   485.3590   2  11   0.0262   0.0224   0.0501  -0.0099  -0.0085   0.0156   0.00    1.1
2018/03/13 15:10:14.000   78.255297776   16.193786582   485.3111   2  11   0.0261   0.0223   0.0497  -0.0099  -0.0085   0.0154   0.00    1.1
2018/03/13 15:10:15.000   78.255297754   16.193786371   485.2626   2  11   0.0260   0.0222   0.0493  -0.0098  -0.0085   0.0153   0.00    1.1
2018/03/13 15:10:16.000   78.255297706   16.193786189   485.2141   2  11   0.0258   0.0221   0.0489  -0.0098  -0.0084   0.0152   0.00    1.1
2018/03/13 15:10:17.000   78.255297620   16.193785902   485.1683   2  11   0.0257   0.0220   0.0484  -0.0098  -0.0084   0.0150   0.00    1.1
2018/03/13 15:10:18.000   78.255297549   16.193785701   485.1341   2  11   0.0256   0.0219   0.0480  -0.0098  -0.0084   0.0149   0.00    1.1
2018/03/13 15:10:19.000   78.255297474   16.193785522   485.1046   2  11   0.0254   0.0218   0.0476  -0.0097  -0.0083   0.0147   0.00    1.1
2018/03/13 15:10:20.000   78.255297368   16.193785132   485.0769   2  11   0.0253   0.0217   0.0472  -0.0097  -0.0083   0.0146   0.00    1.2
2018/03/13 15:10:21.000   78.255297284   16.193784719   485.0534   2  11   0.0252   0.0216   0.0469  -0.0097  -0.0083   0.0145   0.00    1.2
2018/03/13 15:10:22.000   78.255297197   16.193784278   485.0310   2  11   0.0251   0.0215   0.0465  -0.0096  -0.0083   0.0143   0.00    1.2
2018/03/13 15:10:23.000   78.255297150   16.193783777   485.0022   2  11   0.0249   0.0214   0.0461  -0.0096  -0.0082   0.0142   0.00    1.2
2018/03/13 15:10:24.000   78.255297116   16.193783193   484.9788   2  11   0.0248   0.0213   0.0457  -0.0096  -0.0082   0.0141   0.00    1.2
2018/03/13 15:10:25.000   78.255297042   16.193782724   484.9535   2  11   0.0247   0.0212   0.0453  -0.0095  -0.0082   0.0139   0.00    1.2
2018/03/13 15:10:26.000   78.255296986   16.193782244   484.9278   2  11   0.0246   0.0211   0.0450  -0.0095  -0.0082   0.0138   0.00    1.2
2018/03/13 15:10:27.000   78.255296953   16.193781722   484.9068   2  11   0.0244   0.0210   0.0446  -0.0095  -0.0081   0.0137   0.00    1.0
2018/03/13 15:10:28.000   78.255296837   16.193781007   484.8999   2  11   0.0243   0.0209   0.0443  -0.0094  -0.0081   0.0136   0.00    1.0
2018/03/13 15:10:29.000   78.255296820   16.193780473   484.8929   2  10   0.0242   0.0208   0.0440  -0.0094  -0.0081   0.0135   0.00    1.0
2018/03/13 15:10:30.000   78.255296774   16.193779874   484.8821   2  11   0.0241   0.0207   0.0437  -0.0094  -0.0082   0.0134   0.00    1.0
2018/03/13 15:10:31.000   78.255296730   16.193779135   484.8704   2  11   0.0240   0.0206   0.0434  -0.0094  -0.0082   0.0134   0.00    1.0
2018/03/13 15:10:32.000   78.255296704   16.193778567   484.8642   2  11   0.0239   0.0206   0.0431  -0.0094  -0.0082   0.0133   0.00    1.0
2018/03/13 15:10:33.000   78.255296675   16.193777955   484.8555   2  11   0.0238   0.0205   0.0428  -0.0094  -0.0082   0.0132   0.00    1.0
2018/03/13 15:10:34.000   78.255296643   16.193777336   484.8446   2  11   0.0237   0.0204   0.0426  -0.0094  -0.0082   0.0132   0.00    1.0
2018/03/13 15:10:35.000   78.255296596   16.193776767   484.8338   2  11   0.0236   0.0203   0.0423  -0.0093  -0.0082   0.0131   0.00    1.0
2018/03/13 15:10:36.000   78.255296543   16.193776275   484.8222   2  11   0.0235   0.0202   0.0420  -0.0093  -0.0082   0.0130   0.00    1.0
2018/03/13 15:10:37.000   78.255296465   16.193775816   484.8110   2  11   0.0234   0.0201   0.0417  -0.0093  -0.0082   0.0130   0.00    1.0
2018/03/13 15:10:38.000   78.255296346   16.193775369   484.8041   2  11   0.0233   0.0200   0.0415  -0.0093  -0.0082   0.0129   0.00    1.0
2018/03/13 15:10:39.000   78.255296218   16.193774976   484.7959   2  11   0.0232   0.0199   0.0412  -0.0093  -0.0082   0.0128   0.00    1.0
2018/03/13 15:10:40.000   78.255296083   16.193774535   484.7910   2  11   0.0231   0.0198   0.0409  -0.0093  -0.0082   0.0128   0.00    1.0
2018/03/13 15:10:41.000   78.255295964   16.193774172   484.7872   2  11   0.0230   0.0198   0.0407  -0.0092  -0.0082   0.0127   0.00    1.0
2018/03/13 15:10:42.000   78.255295830   16.193773785   484.7898   2  11   0.0229   0.0197   0.0404  -0.0092  -0.0082   0.0126   0.00    1.0
2018/03/13 15:10:43.000   78.255295649   16.193773422   484.7980   2  11   0.0228   0.0196   0.0401  -0.0092  -0.0082   0.0126   0.00    1.0
2018/03/13 15:10:44.000   78.255295451   16.193773087   484.8070   2  11   0.0227   0.0195   0.0399  -0.0092  -0.0082   0.0125   0.00    1.0
2018/03/13 15:10:45.000   78.255295253   16.193772750   484.8179   2  11   0.0226   0.0194   0.0396  -0.0092  -0.0082   0.0125   0.00    1.1
2018/03/13 15:10:46.000   78.255295057   16.193772401   484.8300   2  11   0.0225   0.0193   0.0394  -0.0091  -0.0082   0.0124   0.00    1.1
2018/03/13 15:10:47.000   78.255294862   16.193772115   484.8449   2  11   0.0224   0.0193   0.0391  -0.0091  -0.0082   0.0123   0.00    1.1
2018/03/13 15:10:48.000   78.255294662   16.193771810   484.8554   2  11   0.0223   0.0192   0.0389  -0.0091  -0.0082   0.0123   0.00    1.1
2018/03/13 15:10:49.000   78.255294467   16.193771560   484.8703   2  11   0.0222   0.0191   0.0386  -0.0091  -0.0082   0.0122   0.00    1.1
2018/03/13 15:10:50.000   78.255294252   16.193771410   484.8815   2  10   0.0221   0.0190   0.0384  -0.0091  -0.0082   0.0122   0.00    1.1
2018/03/13 15:10:51.000   78.255294000   16.193771374   484.8945   2  11   0.0220   0.0190   0.0382  -0.0091  -0.0082   0.0122   0.00    1.0
2018/03/13 15:10:52.000   78.255293771   16.193771174   484.9067   2  11   0.0220   0.0189   0.0380  -0.0091  -0.0083   0.0122   0.00    1.0
2018/03/13 15:10:53.000   78.255293469   16.193770989   484.9335   2  11   0.0219   0.0188   0.0379  -0.0091  -0.0083   0.0121   0.00    1.0
2018/03/13 15:10:54.000   78.255293236   16.193770810   484.9572   2  11   0.0218   0.0187   0.0377  -0.0090  -0.0083   0.0121   0.00    1.0
2018/03/13 15:10:55.000   78.255293007   16.193770614   484.9714   2  11   0.0217   0.0187   0.0375  -0.0090  -0.0083   0.0121   0.00    1.0
2018/03/13 15:10:56.000   78.255292777   16.193770452   484.9874   2  11   0.0216   0.0186   0.0373  -0.0090  -0.0083   0.0120   0.00    1.0
2018/03/13 15:10:57.000   78.255292551   16.193770347   485.0037   2  11   0.0215   0.0185   0.0371  -0.0090  -0.0083   0.0120   0.00    1.0
2018/03/13 15:10:58.000   78.255292343   16.193770288   485.0233   2  11   0.0214   0.0184   0.0369  -0.0090  -0.0083   0.0120   0.00    1.0
2018/03/13 15:10:59.000   78.255292136   16.193770327   485.0401   2  11   0.0214   0.0184   0.0367  -0.0090  -0.0084   0.0119   0.00    1.0
2018/03/13 15:11:00.000   78.255291922   16.193770475   485.0592   2  11   0.0213   0.0183   0.0365  -0.0090  -0.0084   0.0119   0.00    1.0
2018/03/13 15:11:01.000   78.255291697   16.193770592   485.0806   2  11   0.0212   0.0182   0.0363  -0.0089  -0.0084   0.0119   0.00    1.0
2018/03/13 15:11:02.000   78.255291485   16.193770728   485.1045   2  11   0.0211   0.0181   0.0361  -0.0089  -0.0084   0.0118   0.00    1.0
2018/03/13 15:11:03.000   78.255291274   16.193770860   485.1286   2  11   0.0210   0.0181   0.0360  -0.0089  -0.0084   0.0118   0.00    1.0
2018/03/13 15:11:04.000   78.255291069   16.193771120   485.1557   2  11   0.0210   0.0180   0.0358  -0.0089  -0.0084   0.0118   0.00    1.0
2018/03/13 15:11:05.000   78.255290873   16.193771365   485.1824   2  11   0.0209   0.0179   0.0356  -0.0089  -0.0084   0.0117   0.00    1.0
2018/03/13 15:11:06.000   78.255290681   16.193771694   485.2112   2  11   0.0208   0.0179   0.0354  -0.0089  -0.0084   0.0117   0.00    1.0
2018/03/13 15:11:07.000   78.255290511   16.193772045   485.2392   2  11   0.0207   0.0178   0.0352  -0.0088  -0.0084   0.0117   0.00    1.0
2018/03/13 15:11:08.000   78.255290368   16.193772543   485.2663   2  11   0.0206   0.0177   0.0351  -0.0088  -0.0084   0.0116   0.00    1.0
2018/03/13 15:11:09.000   78.255290261   16.193773078   485.2933   2  11   0.0206   0.0176   0.0349  -0.0088  -0.0084   0.0116   0.00    1.0
2018/03/13 15:11:10.000   78.255290155   16.193773532   485.3223   2  11   0.0205   0.0176   0.0347  -0.0088  -0.0084   0.0116   0.00    1.0
2018/03/13 15:11:11.000   78.255290056   16.193773966   485.3526   2  11   0.0204   0.0175   0.0345  -0.0088  -0.0084   0.0115   0.00    1.0
2018/03/13 15:11:12.000   78.255289961   16.193774304   485.3856   2  11   0.0203   0.0174   0.0344  -0.0088  -0.0084   0.0115   0.00    1.0
2018/03/13 15:11:13.000   78.255289874   16.193774664   485.4190   2  11   0.0202   0.0174   0.0342  -0.0088  -0.0084   0.0115   0.00    1.0
2018/03/13 15:11:14.000   78.255289795   16.193774995   485.4516   2  11   0.0202   0.0173   0.0340  -0.0087  -0.0084   0.0114   0.00    1.1
2018/03/13 15:11:15.000   78.255289705   16.193775322   485.4875   2  11   0.0201   0.0172   0.0339  -0.0087  -0.0084   0.0114   0.00    1.1
2018/03/13 15:11:16.000   78.255289620   16.193775575   485.5222   2  11   0.0200   0.0172   0.0337  -0.0087  -0.0084   0.0114   0.00    1.1
2018/03/13 15:11:17.000   78.255289533   16.193775775   485.5543   2  11   0.0199   0.0171   0.0335  -0.0087  -0.0084   0.0113   0.00    1.1
2018/03/13 15:11:18.000   78.255289443   16.193775921   485.5867   2  11   0.0199   0.0170   0.0334  -0.0087  -0.0084   0.0113   0.00    1.1
2018/03/13 15:11:19.000   78.255289360   16.193775982   485.6196   2  11   0.0198   0.0170   0.0332  -0.0087  -0.0084   0.0113   0.00    1.1
2018/03/13 15:11:20.000   78.255289275   16.193776052   485.6514   2  11   0.0197   0.0169   0.0330  -0.0086  -0.0084   0.0112   0.00    1.2
2018/03/13 15:11:21.000   78.255289219   16.193776158   485.6851   2  11   0.0196   0.0168   0.0329  -0.0086  -0.0084   0.0112   0.00    1.2
2018/03/13 15:11:22.000   78.255289164   16.193776210   485.7200   2  11   0.0196   0.0168   0.0327  -0.0086  -0.0084   0.0112   0.00    1.2
2018/03/13 15:11:23.000   78.255289097   16.193776177   485.7556   2  11   0.0195   0.0167   0.0325  -0.0086  -0.0084   0.0111   0.00    1.2
2018/03/13 15:11:24.000   78.255289006   16.193776096   485.7932   2  11   0.0194   0.0167   0.0324  -0.0086  -0.0084   0.0111   0.00    1.2
2018/03/13 15:11:25.000   78.255288892   16.193775939   485.8327   2  11   0.0193   0.0166   0.0322  -0.0086  -0.0084   0.0111   0.00    1.2
2018/03/13 15:11:26.000   78.255288772   16.193775746   485.8717   2  11   0.0193   0.0165   0.0321  -0.0086  -0.0084   0.0110   0.00    1.2
2018/03/13 15:11:27.000   78.255288642   16.193775552   485.9109   2  11   0.0192   0.0165   0.0319  -0.0085  -0.0084   0.0110   0.00    1.2
2018/03/13 15:11:28.000   78.255288519   16.193775383   485.9497   2  11   0.0191   0.0164   0.0318  -0.0085  -0.0084   0.0110   0.00    1.2
2018/03/13 15:11:29.000   78.255288393   16.193775168   485.9860   2  11   0.0191   0.0163   0.0316  -0.0085  -0.0084   0.0109   0.00    1.2
2018/03/13 15:11:30.000   78.255288282   16.193774954   486.0240   2  11   0.0190   0.0163   0.0314  -0.0085  -0.0084   0.0109   0.00    1.2
2018/03/13 15:11:31.000   78.255288173   16.193774797   486.0603   2  11   0.0189   0.0162   0.0313  -0.0085  -0.0084   0.0109   0.00    1.2
2018/03/13 15:11:32.000   78.255288079   16.193774617   486.0955   2  11   0.0188   0.0162   0.0311  -0.0085  -0.0083   0.0108   0.00    1.2
2018/03/13 15:11:33.000   78.255288017   16.193774485   486.1345   2  11   0.0188   0.0161   0.0310  -0.0084  -0.0083   0.0108   0.00    1.2
2018/03/13 15:11:34.000   78.255287973   16.193774353   486.1721   2  11   0.0187   0.0161   0.0308  -0.0084  -0.0083   0.0108   0.00    1.2
2018/03/13 15:11:35.000   78.255287956   16.193774360   486.2102   2  11   0.0186   0.0160   0.0307  -0.0084  -0.0083   0.0107   0.00    1.2
2018/03/13 15:11:36.000   78.255287968   16.193774342   486.2522   2  11   0.0186   0.0159   0.0305  -0.0084  -0.0083   0.0107   0.00    1.2
2018/03/13 15:11:37.000   78.255287984   16.193774418   486.2936   2  11   0.0185   0.0159   0.0304  -0.0084  -0.0083   0.0107   0.00    1.2
2018/03/13 15:11:38.000   78.255288011   16.193774478   486.3363   2  11   0.0184   0.0158   0.0303  -0.0084  -0.0083   0.0106   0.00    1.2
2018/03/13 15:11:39.000   78.255288040   16.193774601   486.3783   2  11   0.0184   0.0158   0.0301  -0.0083  -0.0083   0.0106   0.00    1.2
2018/03/13 15:11:40.000   78.255288098   16.193774703   486.4222   2  11   0.0183   0.0157   0.0300  -0.0083  -0.0083   0.0106   0.00    1.2
2018/03/13 15:11:41.000   78.255288157   16.193774753   486.4681   2  11   0.0182   0.0156   0.0298  -0.0083  -0.0083   0.0105   0.00    1.2
2018/03/13 15:11:42.000   78.255288195   16.193774843   486.5158   2  11   0.0182   0.0156   0.0297  -0.0083  -0.0082   0.0105   0.00    1.2
2018/03/13 15:11:43.000   78.255288239   16.193774924   486.5660   2  11   0.0181   0.0155   0.0295  -0.0083  -0.0082   0.0105   0.00    1.2
2018/03/13 15:11:44.000   78.255288277   16.193775063   486.6160   2  11   0.0180   0.0155   0.0294  -0.0083  -0.0082   0.0104   0.00    1.2
2018/03/13 15:11:45.000   78.255288314   16.193775218   486.6637   2  11   0.0180   0.0154   0.0293  -0.0082  -0.0082   0.0104   0.00    1.2
2018/03/13 15:11:46.000   78.255288361   16.193775416   486.7120   2  11   0.0179   0.0154   0.0291  -0.0082  -0.0082   0.0104   0.00    1.2
2018/03/13 15:11:47.000   78.255288433   16.193775652   486.7603   2  11   0.0179   0.0153   0.0290  -0.0082  -0.0082   0.0103   0.00    1.2
2018/03/13 15:11:48.000   78.255288505   16.193775929   486.8074   2  11   0.0178   0.0153   0.0288  -0.0082  -0.0082   0.0103   0.00    1.2
2018/03/13 15:11:49.000   78.255288592   16.193776190   486.8528   2  11   0.0177   0.0152   0.0287  -0.0082  -0.0082   0.0102   0.00    1.2
2018/03/13 15:11:50.000   78.255288688   16.193776384   486.8974   2  11   0.0177   0.0152   0.0286  -0.0081  -0.0082   0.0102   0.00    1.3
2018/03/13 15:11:51.000   78.255288792   16.193776584   486.9435   2  11   0.0176   0.0151   0.0284  -0.0081  -0.0081   0.0102   0.00    1.3
2018/03/13 15:11:52.000   78.255288900   16.193776761   486.9891   2  11   0.0175   0.0150   0.0283  -0.0081  -0.0081   0.0101   0.00    1.3
2018/03/13 15:11:53.000   78.255289009   16.193776855   487.0354   2  11   0.0175   0.0150   0.0282  -0.0081  -0.0081   0.0101   0.00    1.3
2018/03/13 15:11:54.000   78.255289119   16.193776891   487.0814   2  11   0.0174   0.0149   0.0280  -0.0081  -0.0081   0.0101   0.00    1.3
2018/03/13 15:11:55.000   78.255289233   16.193776901   487.1245   2  11   0.0174   0.0149   0.0279  -0.0081  -0.0081   0.0100   0.00    1.3
2018/03/13 15:11:56.000   78.255289324   16.193776940   487.1620   2  11   0.0173   0.0148   0.0278  -0.0080  -0.0081   0.0100   0.00    1.3
2018/03/13 15:11:57.000   78.255289419   16.193776944   487.1963   2  11   0.0172   0.0148   0.0276  -0.0080  -0.0081   0.0100   0.00    1.3
2018/03/13 15:11:58.000   78.255289510   16.193776987   487.2297   2  11   0.0172   0.0147   0.0275  -0.0080  -0.0080   0.0099   0.00    1.3
2018/03/13 15:11:59.000   78.255289599   16.193777061   487.2621   2  11   0.0171   0.0147   0.0274  -0.0080  -0.0080   0.0099   0.00    1.3
2018/03/13 15:12:00.000   78.255289708   16.193777133   487.2924   2  11   0.0171   0.0146   0.0273  -0.0080  -0.0080   0.0099   0.00    1.3
2018/03/13 15:12:01.000   78.255289817   16.193777201   487.3192   2  11   0.0170   0.0146   0.0271  -0.0080  -0.0080   0.0098   0.00    1.4
2018/03/13 15:12:02.000   78.255289928   16.193777326   487.3461   2  11   0.0169   0.0145   0.0270  -0.0079  -0.0080   0.0098   0.00    1.4
2018/03/13 15:12:03.000   78.255290043   16.193777426   487.3710   2  11   0.0169   0.0145   0.0269  -0.0079  -0.0080   0.0098   0.00    1.4
2018/03/13 15:12:04.000   78.255290152   16.193777527   487.3954   2  11   0.0168   0.0144   0.0268  -0.0079  -0.0079   0.0097   0.00    1.4
2018/03/13 15:12:05.000   78.255290262   16.193777626   487.4177   2  11   0.0168   0.0144   0.0266  -0.0079  -0.0079   0.0097   0.00    1.4
2018/03/13 15:12:06.000   78.255290369   16.193777751   487.4386   2  11   0.0167   0.0143   0.0265  -0.0079  -0.0079   0.0097   0.00    1.4
2018/03/13 15:12:07.000   78.255290455   16.193777892   487.4596   2  11   0.0166   0.0143   0.0264  -0.0079  -0.0079   0.0096   0.00    1.4
2018/03/13 15:12:08.000   78.255290553   16.193778008   487.4810   2  11   0.0166   0.0142   0.0263  -0.0078  -0.0079   0.0096   0.00    1.4
2018/03/13 15:12:09.000   78.255290650   16.193778057   487.4997   2  11   0.0165   0.0142   0.0262  -0.0078  -0.0079   0.0096   0.00    1.4
2018/03/13 15:12:10.000   78.255290739   16.193778156   487.5167   2  11   0.0165   0.0141   0.0260  -0.0078  -0.0079   0.0095   0.00    1.4
2018/03/13 15:12:11.000   78.255290836   16.193778225   487.5323   2  11   0.0164   0.0141   0.0259  -0.0078  -0.0078   0.0095   0.00    1.4
2018/03/13 15:12:12.000   78.255290932   16.193778253   487.5482   2  11   0.0164   0.0140   0.0258  -0.0078  -0.0078   0.0095   0.00    1.4
2018/03/13 15:12:13.000   78.255291021   16.193778296   487.5636   2  11   0.0163   0.0140   0.0257  -0.0077  -0.0078   0.0094   0.00    1.5
2018/03/13 15:12:14.000   78.255291108   16.193778302   487.5768   2  11   0.0162   0.0139   0.0256  -0.0077  -0.0078   0.0094   0.00    1.5
2018/03/13 15:12:15.000   78.255291184   16.193778310   487.5911   2  11   0.0162   0.0139   0.0255  -0.0077  -0.0078   0.0094   0.00    1.5
2018/03/13 15:12:16.000   78.255291251   16.193778296   487.6034   2  11   0.0161   0.0139   0.0253  -0.0077  -0.0078   0.0093   0.00    1.5
2018/03/13 15:12:17.000   78.255291299   16.193778284   487.6162   2  11   0.0161   0.0138   0.0252  -0.0077  -0.0077   0.0093   0.00    1.5
2018/03/13 15:12:18.000   78.255291322   16.193778217   487.6293   2  11   0.0160   0.0138   0.0251  -0.0077  -0.0077   0.0093   0.00    1.5
2018/03/13 15:12:19.000   78.255291344   16.193778097   487.6418   2  11   0.0160   0.0137   0.0250  -0.0076  -0.0077   0.0092   0.00    1.5
2018/03/13 15:12:20.000   78.255291354   16.193777984   487.6544   2  11   0.0159   0.0137   0.0249  -0.0076  -0.0077   0.0092   0.00    1.5
2018/03/13 15:12:21.000   78.255291364   16.193777840   487.6673   2  11   0.0159   0.0136   0.0248  -0.0076  -0.0077   0.0092   0.00    1.5
2018/03/13 15:12:22.000   78.255291364   16.193777754   487.6811   2  11   0.0158   0.0136   0.0247  -0.0076  -0.0076   0.0091   0.00    1.5
2018/03/13 15:12:23.000   78.255291352   16.193777619   487.6935   2  11   0.0158   0.0135   0.0246  -0.0076  -0.0076   0.0091   0.00    1.5
2018/03/13 15:12:24.000   78.255291335   16.193777502   487.7060   2  11   0.0157   0.0135   0.0244  -0.0076  -0.0076   0.0091   0.00    1.5
2018/03/13 15:12:25.000   78.255291313   16.193777362   487.7201   2  11   0.0157   0.0134   0.0243  -0.0075  -0.0076   0.0090   0.00    1.5
2018/03/13 15:12:26.000   78.255291280   16.193777227   487.7327   2  11   0.0156   0.0134   0.0242  -0.0075  -0.0076   0.0090   0.00    1.5
2018/03/13 15:12:27.000   78.255291239   16.193777091   487.7437   2  11   0.0155   0.0134   0.0241  -0.0075  -0.0076   0.0090   0.00    1.5
2018/03/13 15:12:28.000   78.255291199   16.193776909   487.7551   2  11   0.0155   0.0133   0.0240  -0.0075  -0.0075   0.0089   0.00    1.5
2018/03/13 15:12:29.000   78.255291162   16.193776724   487.7690   2  11   0.0154   0.0133   0.0239  -0.0075  -0.0075   0.0089   0.00    1.5
2018/03/13 15:12:30.000   78.255291121   16.193776547   487.7837   2  11   0.0154   0.0132   0.0238  -0.0075  -0.0075   0.0089   0.00    1.5
2018/03/13 15:12:31.000   78.255291076   16.193776381   487.7981   2  11   0.0153   0.0132   0.0237  -0.0074  -0.0075   0.0088   0.00    1.5
2018/03/13 15:12:32.000   78.255291030   16.193776215   487.8115   2  11   0.0153   0.0131   0.0236  -0.0074  -0.0075   0.0088   0.00    1.5
2018/03/13 15:12:33.000   78.255290978   16.193776018   487.8241   2  11   0.0152   0.0131   0.0235  -0.0074  -0.0074   0.0088   0.00    1.5
2018/03/13 15:12:34.000   78.255290925   16.193775805   487.8367   2  11   0.0152   0.0131   0.0234  -0.0074  -0.0074   0.0087   0.00    1.5
2018/03/13 15:12:35.000   78.255290884   16.193775543   487.8508   2  11   0.0151   0.0130   0.0233  -0.0074  -0.0074   0.0087   0.00    1.5
2018/03/13 15:12:36.000   78.255290847   16.193775273   487.8658   2  11   0.0151   0.0130   0.0232  -0.0073  -0.0074   0.0087   0.00    1.5
2018/03/13 15:12:37.000   78.255290808   16.193775007   487.8786   2  11   0.0150   0.0129   0.0231  -0.0073  -0.0074   0.0087   0.00    1.5
2018/03/13 15:12:38.000   78.255290769   16.193774702   487.8918   2  11   0.0150   0.0129   0.0230  -0.0073  -0.0074   0.0086   0.00    1.5
2018/03/13 15:12:39.000   78.255290735   16.193774420   487.9049   2  11   0.0149   0.0128   0.0229  -0.0073  -0.0073   0.0086   0.00    1.5
2018/03/13 15:12:40.000   78.255290706   16.193774103   487.9186   2  11   0.0149   0.0128   0.0228  -0.0073  -0.0073   0.0086   0.00    1.5
2018/03/13 15:12:41.000   78.255290681   16.193773797   487.9318   2  11   0.0148   0.0128   0.0227  -0.0073  -0.0073   0.0085   0.00    1.5
2018/03/13 15:12:42.000   78.255290662   16.193773478   487.9451   2  11   0.0148   0.0127   0.0226  -0.0072  -0.0073   0.0085   0.00    1.5
2018/03/13 15:12:43.000   78.255290634   16.193773159   487.9582   2  11   0.0147   0.0127   0.0225  -0.0072  -0.0073   0.0085   0.00    1.5
2018/03/13 15:12:44.000   78.255290608   16.193772876   487.9706   2  11   0.0147   0.0126   0.0224  -0.0072  -0.0072   0.0084   0.00    1.5
2018/03/13 15:12:45.000   78.255290571   16.193772610   487.9817   2  11   0.0147   0.0126   0.0223  -0.0072  -0.0072   0.0084   0.00    1.5
2018/03/13 15:12:46.000   78.255290528   16.193772327   487.9941   2  11   0.0146   0.0126   0.0222  -0.0072  -0.0072   0.0084   0.00    1.5
2018/03/13 15:12:47.000   78.255290484   16.193772058   488.0067   2  11   0.0146   0.0125   0.0221  -0.0072  -0.0072   0.0083   0.00    1.5
2018/03/13 15:12:48.000   78.255290442   16.193771796   488.0187   2  11   0.0145   0.0125   0.0220  -0.0071  -0.0072   0.0083   0.00    1.5
2018/03/13 15:12:49.000   78.255290407   16.193771528   488.0317   2  11   0.0145   0.0124   0.0219  -0.0071  -0.0071   0.0083   0.00    1.5
2018/03/13 15:12:50.000   78.255290378   16.193771205   488.0462   2  11   0.0144   0.0124   0.0218  -0.0071  -0.0071   0.0082   0.00    1.5
2018/03/13 15:12:51.000   78.255290366   16.193770845   488.0629   2  11   0.0144   0.0124   0.0217  -0.0071  -0.0071   0.0082   0.00    1.5
2018/03/13 15:12:52.000   78.255290359   16.193770457   488.0804   2  11   0.0143   0.0123   0.0216  -0.0071  -0.0071   0.0082   0.00    1.5
2018/03/13 15:12:53.000   78.255290342   16.193770053   488.0966   2  11   0.0143   0.0123   0.0216  -0.0071  -0.0071   0.0082   0.00    1.5
2018/03/13 15:12:54.000   78.255290334   16.193769640   488.1127   2  11   0.0142   0.0122   0.0215  -0.0070  -0.0071   0.0081   0.00    1.5
2018/03/13 15:12:55.000   78.255290339   16.193769221   488.1292   2  11   0.0142   0.0122   0.0214  -0.0070  -0.0070   0.0081   0.00    1.5
2018/03/13 15:12:56.000   78.255290351   16.193768815   488.1449   2  11   0.0141   0.0122   0.0213  -0.0070  -0.0070   0.0081   0.00    1.5
2018/03/13 15:12:57.000   78.255290366   16.193768410   488.1604   2  11   0.0141   0.0121   0.0212  -0.0070  -0.0070   0.0080   0.00    1.5
2018/03/13 15:12:58.000   78.255290382   16.193768000   488.1765   2  11   0.0141   0.0121   0.0211  -0.0070  -0.0070   0.0080   0.00    1.5
2018/03/13 15:12:59.000   78.255290408   16.193767579   488.1913   2  11   0.0140   0.0121   0.0210  -0.0069  -0.0070   0.0080   0.00    1.5
2018/03/13 15:13:00.000   78.255290431   16.193767184   488.2052   2  11   0.0140   0.0120   0.0209  -0.0069  -0.0069   0.0079   0.00    1.5
2018/03/13 15:13:01.000   78.255290440   16.193766861   488.2190   2  11   0.0139   0.0120   0.0208  -0.0069  -0.0069   0.0079   0.00    1.5
2018/03/13 15:13:02.000   78.255290445   16.193766606   488.2335   2  11   0.0139   0.0119   0.0208  -0.0069  -0.0069   0.0079   0.00    1.5
2018/03/13 15:13:03.000   78.255290439   16.193766363   488.2465   2  11   0.0138   0.0119   0.0207  -0.0069  -0.0069   0.0079   0.00    1.5
2018/03/13 15:13:04.000   78.255290417   16.193766201   488.2593   2  11   0.0138   0.0119   0.0206  -0.0069  -0.0069   0.0078   0.00    1.5
2018/03/13 15:13:05.000   78.255290392   16.193766052   488.2724   2  11   0.0137   0.0118   0.0205  -0.0068  -0.0068   0.0078   0.00    1.5
2018/03/13 15:13:06.000   78.255290359   16.193765930   488.2871   2  11   0.0137   0.0118   0.0204  -0.0068  -0.0068   0.0078   0.00    1.5
2018/03/13 15:13:07.000   78.255290312   16.193765851   488.3007   2  11   0.0137   0.0118   0.0203  -0.0068  -0.0068   0.0077   0.00    1.5
2018/03/13 15:13:08.000   78.255290256   16.193765798   488.3154   2  11   0.0136   0.0117   0.0203  -0.0068  -0.0068   0.0077   0.00    1.4
2018/03/13 15:13:09.000   78.255290180   16.193765822   488.3298   2  11   0.0136   0.0117   0.0202  -0.0068  -0.0068   0.0077   0.00    1.4
2018/03/13 15:13:10.000   78.255290090   16.193765892   488.3427   2  11   0.0135   0.0117   0.0201  -0.0068  -0.0068   0.0077   0.00    1.4
2018/03/13 15:13:11.000   78.255289990   16.193765981   488.3554   2  11   0.0135   0.0116   0.0200  -0.0067  -0.0067   0.0076   0.00    1.4
2018/03/13 15:13:12.000   78.255289889   16.193766061   488.3668   2  11   0.0134   0.0116   0.0199  -0.0067  -0.0067   0.0076   0.00    1.4
2018/03/13 15:13:13.000   78.255289789   16.193766194   488.3780   2  11   0.0134   0.0115   0.0198  -0.0067  -0.0067   0.0076   0.00    1.4
2018/03/13 15:13:14.000   78.255289683   16.193766395   488.3882   2  11   0.0134   0.0115   0.0198  -0.0067  -0.0067   0.0075   0.00    1.4
2018/03/13 15:13:15.000   78.255289574   16.193766605   488.3968   2  11   0.0133   0.0115   0.0197  -0.0067  -0.0067   0.0075   0.00    1.4
2018/03/13 15:13:16.000   78.255289470   16.193766870   488.4061   2  11   0.0133   0.0114   0.0196  -0.0067  -0.0066   0.0075   0.00    1.4
2018/03/13 15:13:17.000   78.255289371   16.193767172   488.4140   2  11   0.0132   0.0114   0.0195  -0.0066  -0.0066   0.0075   0.00    1.4
2018/03/13 15:13:18.000   78.255289270   16.193767474   488.4214   2  11   0.0132   0.0114   0.0194  -0.0066  -0.0066   0.0074   0.00    1.4
2018/03/13 15:13:19.000   78.255289176   16.193767768   488.4285   2  11   0.0132   0.0113   0.0194  -0.0066  -0.0066   0.0074   0.00    1.4
2018/03/13 15:13:20.000   78.255289083   16.193768084   488.4342   2  11   0.0131   0.0113   0.0193  -0.0066  -0.0066   0.0074   0.00    1.4
2018/03/13 15:13:21.000   78.255288992   16.193768377   488.4396   2  11   0.0131   0.0113   0.0192  -0.0066  -0.0065   0.0074   0.00    1.4
2018/03/13 15:13:22.000   78.255288905   16.193768667   488.4434   2  11   0.0130   0.0112   0.0191  -0.0066  -0.0065   0.0073   0.00    1.4
2018/03/13 15:13:23.000   78.255288816   16.193768983   488.4459   2  11   0.0130   0.0112   0.0191  -0.0065  -0.0065   0.0073   0.00    1.4
2018/03/13 15:13:24.000   78.255288727   16.193769323   488.4466   2  11   0.0130   0.0112   0.0190  -0.0065  -0.0065   0.0073   0.00    1.4
2018/03/13 15:13:25.000   78.255288645   16.193769685   488.4457   2  11   0.0129   0.0111   0.0189  -0.0065  -0.0065   0.0072   0.00    1.4
2018/03/13 15:13:26.000   78.255288575   16.193770077   488.4443   2  11   0.0129   0.0111   0.0188  -0.0065  -0.0065   0.0072   0.00    1.4
2018/03/13 15:13:27.000   78.255288528   16.193770499   488.4426   2  11   0.0128   0.0111   0.0188  -0.0065  -0.0064   0.0072   0.00    1.4
2018/03/13 15:13:28.000   78.255288490   16.193770937   488.4395   2  11   0.0128   0.0110   0.0187  -0.0065  -0.0064   0.0072   0.00    1.4
2018/03/13 15:13:29.000   78.255288458   16.193771376   488.4363   2  11   0.0128   0.0110   0.0186  -0.0065  -0.0064   0.0071   0.00    1.4
2018/03/13 15:13:30.000   78.255288442   16.193771800   488.4343   2  11   0.0127   0.0110   0.0185  -0.0064  -0.0064   0.0071   0.00    1.4
2018/03/13 15:13:31.000   78.255288453   16.193772221   488.4328   2  11   0.0127   0.0109   0.0185  -0.0064  -0.0064   0.0071   0.00    1.4
2018/03/13 15:13:32.000   78.255288487   16.193772628   488.4321   2  11   0.0127   0.0109   0.0184  -0.0064  -0.0063   0.0071   0.00    1.4
2018/03/13 15:13:33.000   78.255288538   16.193773013   488.4320   2  11   0.0126   0.0109   0.0183  -0.0064  -0.0063   0.0070   0.00    1.4
2018/03/13 15:13:34.000   78.255288589   16.193773377   488.4327   2  11   0.0126   0.0108   0.0183  -0.0064  -0.0063   0.0070   0.00    1.4
2018/03/13 15:13:35.000   78.255288646   16.193773724   488.4328   2  11   0.0125   0.0108   0.0182  -0.0064  -0.0063   0.0070   0.00    1.4
2018/03/13 15:13:36.000   78.255288717   16.193774073   488.4331   2  11   0.0125   0.0108   0.0181  -0.0063  -0.0063   0.0070   0.00    1.4
2018/03/13 15:13:37.000   78.255288790   16.193774420   488.4335   2  11   0.0125   0.0108   0.0180  -0.0063  -0.0062   0.0069   0.00    1.4
2018/03/13 15:13:38.000   78.255288870   16.193774734   488.4350   2  11   0.0124   0.0107   0.0180  -0.0063  -0.0062   0.0069   0.00    1.4
2018/03/13 15:13:39.000   78.255288962   16.193775060   488.4373   2  11   0.0124   0.0107   0.0179  -0.0063  -0.0062   0.0069   0.00    1.4
2018/03/13 15:13:40.000   78.255289053   16.193775440   488.4401   2  11   0.0124   0.0107   0.0178  -0.0063  -0.0062   0.0068   0.00    1.4
2018/03/13 15:13:41.000   78.255289149   16.193775878   488.4426   2  11   0.0123   0.0106   0.0178  -0.0063  -0.0062   0.0068   0.00    1.3
2018/03/13 15:13:42.000   78.255289244   16.193776365   488.4450   2  11   0.0123   0.0106   0.0177  -0.0062  -0.0062   0.0068   0.00    1.3
2018/03/13 15:13:43.000   78.255289343   16.193776857   488.4495   2  11   0.0122   0.0106   0.0176  -0.0062  -0.0061   0.0068   0.00    1.3
2018/03/13 15:13:44.000   78.255289442   16.193777321   488.4540   2  11   0.0122   0.0105   0.0176  -0.0062  -0.0061   0.0067   0.00    1.3
2018/03/13 15:13:45.000   78.255289547   16.193777787   488.4598   2  11   0.0122   0.0105   0.0175  -0.0062  -0.0061   0.0067   0.00    1.3
2018/03/13 15:13:46.000   78.255289648   16.193778243   488.4651   2  11   0.0121   0.0105   0.0174  -0.0062  -0.0061   0.0067   0.00    1.3
2018/03/13 15:13:47.000   78.255289748   16.193778700   488.4711   2  11   0.0121   0.0104   0.0174  -0.0062  -0.0061   0.0067   0.00    1.3
2018/03/13 15:13:48.000   78.255289852   16.193779152   488.4775   2  11   0.0121   0.0104   0.0173  -0.0062  -0.0061   0.0066   0.00    1.4
2018/03/13 15:13:49.000   78.255289957   16.193779548   488.4839   2  11   0.0120   0.0104   0.0172  -0.0061  -0.0060   0.0066   0.00    1.4
2018/03/13 15:13:50.000   78.255290059   16.193779932   488.4907   2  11   0.0120   0.0104   0.0172  -0.0061  -0.0060   0.0066   0.00    1.4
2018/03/13 15:13:51.000   78.255290157   16.193780260   488.4985   2  11   0.0120   0.0103   0.0171  -0.0061  -0.0060   0.0066   0.00    1.4
2018/03/13 15:13:52.000   78.255290267   16.193780526   488.5075   2  11   0.0119   0.0103   0.0170  -0.0061  -0.0060   0.0066   0.00    1.4
2018/03/13 15:13:53.000   78.255290375   16.193780810   488.5166   2  11   0.0119   0.0103   0.0170  -0.0061  -0.0060   0.0065   0.00    1.4
2018/03/13 15:13:54.000   78.255290486   16.193781088   488.5257   2  11   0.0119   0.0102   0.0169  -0.0061  -0.0059   0.0065   0.00    1.4
2018/03/13 15:13:55.000   78.255290594   16.193781350   488.5341   2  11   0.0118   0.0102   0.0169  -0.0060  -0.0059   0.0065   0.00    1.4
2018/03/13 15:13:56.000   78.255290692   16.193781611   488.5424   2  11   0.0118   0.0102   0.0168  -0.0060  -0.0059   0.0065   0.00    1.4
2018/03/13 15:13:57.000   78.255290787   16.193781867   488.5505   2  11   0.0118   0.0102   0.0167  -0.0060  -0.0059   0.0064   0.00    1.4
2018/03/13 15:13:58.000   78.255290882   16.193782108   488.5595   2  11   0.0117   0.0101   0.0167  -0.0060  -0.0059   0.0064   0.00    1.4
2018/03/13 15:13:59.000   78.255290970   16.193782324   488.5672   2  11   0.0117   0.0101   0.0166  -0.0060  -0.0059   0.0064   0.00    1.4
2018/03/13 15:14:00.000   78.255291053   16.193782524   488.5740   2  11   0.0116   0.0101   0.0165  -0.0060  -0.0058   0.0064   0.00    1.4
2018/03/13 15:14:01.000   78.255291138   16.193782688   488.5804   2  11   0.0116   0.0100   0.0165  -0.0060  -0.0058   0.0063   0.00    1.4
2018/03/13 15:14:02.000   78.255291222   16.193782811   488.5858   2  11   0.0116   0.0100   0.0164  -0.0059  -0.0058   0.0063   0.00    1.4
2018/03/13 15:14:03.000   78.255291299   16.193782828   488.5906   2  11   0.0115   0.0100   0.0164  -0.0059  -0.0058   0.0063   0.00    1.4
2018/03/13 15:14:04.000   78.255291373   16.193782710   488.5959   2  11   0.0115   0.0100   0.0163  -0.0059  -0.0058   0.0063   0.00    1.4
2018/03/13 15:14:05.000   78.255291455   16.193782514   488.6008   2  11   0.0115   0.0099   0.0162  -0.0059  -0.0058   0.0062   0.00    1.4
2018/03/13 15:14:06.000   78.255291530   16.193782316   488.6046   2  11   0.0115   0.0099   0.0162  -0.0059  -0.0057   0.0062   0.00    1.4
2018/03/13 15:14:07.000   78.255291588   16.193782095   488.6076   2  11   0.0114   0.0099   0.0161  -0.0059  -0.0057   0.0062   0.00    1.4
2018/03/13 15:14:08.000   78.255291646   16.193781872   488.6098   2  11   0.0114   0.0098   0.0161  -0.0058  -0.0057   0.0062   0.00    1.3
2018/03/13 15:14:09.000   78.255291692   16.193781647   488.6109   2  11   0.0114   0.0098   0.0160  -0.0058  -0.0057   0.0062   0.00    1.3
2018/03/13 15:14:10.000   78.255291737   16.193781438   488.6118   2  11   0.0113   0.0098   0.0160  -0.0058  -0.0057   0.0061   0.00    1.3
2018/03/13 15:14:11.000   78.255291774   16.193781259   488.6106   2  11   0.0113   0.0098   0.0159  -0.0058  -0.0057   0.0061   0.00    1.3
2018/03/13 15:14:12.000   78.255291809   16.193781122   488.6070   2  11   0.0113   0.0097   0.0158  -0.0058  -0.0056   0.0061   0.00    1.3
2018/03/13 15:14:13.000   78.255291847   16.193781024   488.6032   2  11   0.0112   0.0097   0.0158  -0.0058  -0.0056   0.0061   0.00    1.3
2018/03/13 15:14:14.000   78.255291892   16.193780962   488.5976   2  11   0.0112   0.0097   0.0157  -0.0058  -0.0056   0.0060   0.00    1.3
2018/03/13 15:14:15.000   78.255291950   16.193780902   488.5907   2  11   0.0112   0.0097   0.0157  -0.0057  -0.0056   0.0060   0.00    1.3
2018/03/13 15:14:16.000   78.255292004   16.193780918   488.5832   2  11   0.0111   0.0096   0.0156  -0.0057  -0.0056   0.0060   0.00    1.3
2018/03/13 15:14:17.000   78.255292068   16.193780948   488.5756   2  11   0.0111   0.0096   0.0156  -0.0057  -0.0056   0.0060   0.00    1.3
2018/03/13 15:14:18.000   78.255292137   16.193781001   488.5693   2  11   0.0111   0.0096   0.0155  -0.0057  -0.0055   0.0060   0.00    1.3
2018/03/13 15:14:19.000   78.255292197   16.193781095   488.5645   2  11   0.0110   0.0096   0.0154  -0.0057  -0.0055   0.0059   0.00    1.3
2018/03/13 15:14:20.000   78.255292265   16.193781206   488.5600   2  11   0.0110   0.0095   0.0154  -0.0057  -0.0055   0.0059   0.00    1.3
2018/03/13 15:14:21.000   78.255292328   16.193781339   488.5554   2  11   0.0110   0.0095   0.0153  -0.0057  -0.0055   0.0059   0.00    1.3
2018/03/13 15:14:22.000   78.255292389   16.193781486   488.5501   2  11   0.0109   0.0095   0.0153  -0.0056  -0.0055   0.0059   0.00    1.3
2018/03/13 15:14:23.000   78.255292452   16.193781689   488.5454   2  11   0.0109   0.0095   0.0152  -0.0056  -0.0055   0.0058   0.00    1.2
2018/03/13 15:14:24.000   78.255292515   16.193781848   488.5415   2  11   0.0109   0.0094   0.0152  -0.0056  -0.0054   0.0058   0.00    1.2
2018/03/13 15:14:25.000   78.255292579   16.193781945   488.5374   2  11   0.0109   0.0094   0.0151  -0.0056  -0.0054   0.0058   0.00    1.2
2018/03/13 15:14:26.000   78.255292649   16.193781978   488.5336   2  11   0.0108   0.0094   0.0151  -0.0056  -0.0054   0.0058   0.00    1.2
2018/03/13 15:14:27.000   78.255292718   16.193781990   488.5302   2  11   0.0108   0.0093   0.0150  -0.0056  -0.0054   0.0058   0.00    1.2
2018/03/13 15:14:28.000   78.255292788   16.193781984   488.5264   2  11   0.0108   0.0093   0.0150  -0.0056  -0.0054   0.0057   0.00    1.2
2018/03/13 15:14:29.000   78.255292863   16.193781954   488.5242   2  11   0.0107   0.0093   0.0149  -0.0056  -0.0054   0.0057   0.00    1.0
2018/03/13 15:14:30.000   78.255292936   16.193781915   488.5211   2  11   0.0107   0.0093   0.0149  -0.0055  -0.0053   0.0057   0.00    1.0
2018/03/13 15:14:31.000   78.255293016   16.193781878   488.5171   2  11   0.0107   0.0093   0.0148  -0.0055  -0.0053   0.0057   0.00    1.0
2018/03/13 15:14:32.000   78.255293099   16.193781850   488.5136   2  11   0.0107   0.0092   0.0148  -0.0055  -0.0053   0.0057   0.00    1.0
