% program   : RTKPOST ver.2.4.2
% inp file  : Z:\home\linda\Documents\Spring18\GitHub_Unis\data\processed_data\46250748.obs
% inp file  : Z:\home\linda\Documents\Spring18\GitHub_Unis\data\base_station_data\lyrs0740.18o
% inp file  : Z:\home\linda\Documents\Spring18\GitHub_Unis\data\processed_data\46250748.nav
% obs start : 2018/03/15 09:50:11.0 GPST (week1992 381011.0s)
% obs end   : 2018/03/15 10:05:16.0 GPST (week1992 381916.0s)
% pos mode  : static
% freqs     : L1+L2
% solution  : forward
% elev mask : 15.0 deg
% dynamics  : on
% tidecorr  : off
% ionos opt : broadcast
% tropo opt : saastamoinen
% ephemeris : broadcast
% navi sys  : gps glonass galileo qzss sbas
% amb res   : fix and hold
% amb glo   : on
% val thres : 3.0
% antenna1  :                       ( 0.0000  0.0000  0.0000)
% antenna2  :                       ( 0.0000  0.0000  0.0000)
% ref pos   : 78.228825638   15.397310064   495.6816
%
% (lat/lon/height=WGS84/ellipsoidal,Q=1:fix,2:float,3:sbas,4:dgps,5:single,6:ppp,ns=# of satellites)
%  GPST                  latitude(deg) longitude(deg)  height(m)   Q  ns   sdn(m)   sde(m)   sdu(m)  sdne(m)  sdeu(m)  sdun(m) age(s)  ratio
2018/03/15 09:50:11.000   78.247148932   16.013705167   442.3709   2   9   0.5243   0.3131   1.7770   0.1761   0.3164   0.6902   0.00    1.0
2018/03/15 09:50:12.000   78.247147941   16.013704532   441.9447   2   9   0.3728   0.2223   1.2623   0.1251   0.2249   0.4910   0.00    1.0
2018/03/15 09:50:13.000   78.247148023   16.013706536   441.4917   2   9   0.3049   0.1818   1.0318   0.1023   0.1839   0.4015   0.00    1.0
2018/03/15 09:50:14.000   78.247147611   16.013709372   441.4410   2   9   0.2642   0.1575   0.8935   0.0886   0.1593   0.3478   0.00    1.1
2018/03/15 09:50:15.000   78.247146376   16.013710561   441.0323   2   9   0.2363   0.1409   0.7986   0.0793   0.1424   0.3109   0.00    1.0
2018/03/15 09:50:16.000   78.247145586   16.013708785   441.0541   2   9   0.2157   0.1287   0.7282   0.0723   0.1298   0.2835   0.00    1.0
2018/03/15 09:50:17.000   78.247144786   16.013707574   440.9209   2   9   0.1996   0.1191   0.6732   0.0669   0.1200   0.2621   0.00    1.1
2018/03/15 09:50:18.000   78.247144480   16.013708291   440.9199   2   9   0.1867   0.1114   0.6285   0.0625   0.1120   0.2447   0.00    1.2
2018/03/15 09:50:19.000   78.247144254   16.013709080   440.9765   2   9   0.1759   0.1051   0.5913   0.0589   0.1054   0.2302   0.00    1.3
2018/03/15 09:50:20.000   78.247144132   16.013710235   441.0486   2   9   0.1667   0.0997   0.5596   0.0558   0.0997   0.2179   0.00    1.4
2018/03/15 09:50:21.000   78.247143950   16.013710678   441.0461   2   9   0.1588   0.0950   0.5321   0.0531   0.0948   0.2072   0.00    1.4
2018/03/15 09:50:22.000   78.247144015   16.013710678   441.0227   2   9   0.1519   0.0909   0.5080   0.0507   0.0905   0.1977   0.00    1.4
2018/03/15 09:50:23.000   78.247144245   16.013711205   441.0426   2   9   0.1458   0.0873   0.4864   0.0487   0.0866   0.1893   0.00    1.4
2018/03/15 09:50:24.000   78.247144566   16.013710766   441.1378   2   9   0.1403   0.0842   0.4671   0.0468   0.0832   0.1818   0.00    1.4
2018/03/15 09:50:25.000   78.247144926   16.013710434   441.2217   2   9   0.1354   0.0813   0.4496   0.0451   0.0800   0.1750   0.00    1.5
2018/03/15 09:50:26.000   78.247145200   16.013710830   441.2998   2   9   0.1309   0.0787   0.4336   0.0436   0.0772   0.1687   0.00    1.5
2018/03/15 09:50:27.000   78.247145628   16.013710927   441.3481   2   9   0.1269   0.0763   0.4188   0.0422   0.0745   0.1630   0.00    1.5
2018/03/15 09:50:28.000   78.247145891   16.013710710   441.3866   2   9   0.1231   0.0741   0.4052   0.0409   0.0721   0.1576   0.00    1.5
2018/03/15 09:50:29.000   78.247145876   16.013710072   441.2995   2   9   0.1196   0.0721   0.3926   0.0397   0.0698   0.1527   0.00    1.6
2018/03/15 09:50:30.000   78.247146097   16.013709220   441.3146   2   9   0.1164   0.0703   0.3808   0.0386   0.0677   0.1481   0.00    1.6
2018/03/15 09:50:31.000   78.247146314   16.013708828   441.3384   2   9   0.1134   0.0685   0.3697   0.0375   0.0657   0.1437   0.00    1.5
2018/03/15 09:50:32.000   78.247146516   16.013708090   441.3863   2   9   0.1106   0.0669   0.3593   0.0365   0.0638   0.1397   0.00    1.4
2018/03/15 09:50:33.000   78.247146573   16.013708019   441.4117   2   9   0.1080   0.0654   0.3495   0.0356   0.0620   0.1358   0.00    1.3
2018/03/15 09:50:34.000   78.247146624   16.013707732   441.3955   2   9   0.1055   0.0640   0.3402   0.0348   0.0604   0.1322   0.00    1.2
2018/03/15 09:50:35.000   78.247146496   16.013707718   441.3559   2   9   0.1032   0.0627   0.3314   0.0339   0.0588   0.1287   0.00    1.2
2018/03/15 09:50:36.000   78.247146384   16.013707558   441.2482   2   9   0.1010   0.0615   0.3230   0.0332   0.0573   0.1254   0.00    1.1
2018/03/15 09:50:37.000   78.247146210   16.013707372   441.1298   2   9   0.0989   0.0603   0.3150   0.0324   0.0558   0.1223   0.00    1.2
2018/03/15 09:50:38.000   78.247146055   16.013706956   440.9697   2   9   0.0969   0.0592   0.3073   0.0317   0.0544   0.1193   0.00    1.2
2018/03/15 09:50:39.000   78.247145812   16.013707135   440.8312   2   9   0.0950   0.0581   0.3000   0.0311   0.0531   0.1164   0.00    1.2
2018/03/15 09:50:40.000   78.247145531   16.013707243   440.7067   2   9   0.0932   0.0571   0.2931   0.0304   0.0518   0.1137   0.00    1.2
2018/03/15 09:50:41.000   78.247145334   16.013707384   440.6060   2   9   0.0915   0.0561   0.2863   0.0298   0.0506   0.1111   0.00    1.3
2018/03/15 09:50:42.000   78.247145149   16.013707546   440.5014   2   9   0.0898   0.0552   0.2799   0.0292   0.0494   0.1085   0.00    1.3
2018/03/15 09:50:43.000   78.247144967   16.013707639   440.3909   2   9   0.0883   0.0543   0.2737   0.0287   0.0483   0.1061   0.00    1.3
2018/03/15 09:50:44.000   78.247144693   16.013707336   440.2829   2   9   0.0868   0.0535   0.2677   0.0281   0.0472   0.1037   0.00    1.3
2018/03/15 09:50:45.000   78.247144461   16.013707103   440.1333   2   9   0.0853   0.0527   0.2619   0.0276   0.0462   0.1015   0.00    1.3
2018/03/15 09:50:46.000   78.247144202   16.013706507   439.9958   2   9   0.0839   0.0519   0.2564   0.0271   0.0452   0.0993   0.00    1.3
2018/03/15 09:50:47.000   78.247143931   16.013706061   439.8466   2   9   0.0826   0.0512   0.2510   0.0267   0.0442   0.0972   0.00    1.3
2018/03/15 09:50:48.000   78.247143653   16.013705339   439.6725   2   9   0.0813   0.0505   0.2458   0.0262   0.0432   0.0951   0.00    1.3
2018/03/15 09:50:49.000   78.247143416   16.013704291   439.5153   2   9   0.0800   0.0498   0.2408   0.0257   0.0423   0.0931   0.00    1.3
2018/03/15 09:50:50.000   78.247143086   16.013703633   439.3604   2   9   0.0788   0.0491   0.2360   0.0253   0.0414   0.0912   0.00    1.3
2018/03/15 09:50:51.000   78.247142826   16.013702850   439.2151   2   9   0.0777   0.0485   0.2313   0.0249   0.0406   0.0894   0.00    1.2
2018/03/15 09:50:52.000   78.247142634   16.013701948   439.1125   2   9   0.0766   0.0479   0.2267   0.0245   0.0397   0.0876   0.00    1.2
2018/03/15 09:50:53.000   78.247142507   16.013701086   439.0235   2   9   0.0755   0.0473   0.2223   0.0241   0.0389   0.0858   0.00    1.2
2018/03/15 09:50:54.000   78.247142471   16.013700613   438.9549   2   9   0.0744   0.0467   0.2180   0.0237   0.0381   0.0841   0.00    1.2
2018/03/15 09:50:55.000   78.247142489   16.013700275   438.9451   2   9   0.0734   0.0461   0.2138   0.0234   0.0374   0.0825   0.00    1.2
2018/03/15 09:50:56.000   78.247142596   16.013699929   438.9818   2   9   0.0724   0.0456   0.2098   0.0230   0.0366   0.0809   0.00    1.2
2018/03/15 09:50:57.000   78.247142823   16.013699622   439.0474   2   9   0.0715   0.0451   0.2059   0.0227   0.0359   0.0793   0.00    1.2
2018/03/15 09:50:58.000   78.247143060   16.013699631   439.1649   2   9   0.0705   0.0446   0.2020   0.0223   0.0352   0.0778   0.00    1.2
2018/03/15 09:50:59.000   78.247143312   16.013699602   439.3233   2   9   0.0696   0.0441   0.1983   0.0220   0.0345   0.0764   0.00    1.2
2018/03/15 09:51:00.000   78.247143637   16.013699972   439.5129   2   9   0.0687   0.0436   0.1947   0.0217   0.0339   0.0749   0.00    1.2
2018/03/15 09:51:01.000   78.247143983   16.013700323   439.7086   2   9   0.0679   0.0431   0.1912   0.0214   0.0332   0.0735   0.00    1.2
2018/03/15 09:51:02.000   78.247144285   16.013700572   439.8675   2   9   0.0671   0.0427   0.1878   0.0211   0.0326   0.0722   0.00    1.2
2018/03/15 09:51:03.000   78.247144578   16.013700748   440.0323   2   9   0.0663   0.0422   0.1845   0.0208   0.0320   0.0709   0.00    1.2
2018/03/15 09:51:04.000   78.247144906   16.013700941   440.1931   2   9   0.0655   0.0418   0.1813   0.0205   0.0314   0.0696   0.00    1.2
2018/03/15 09:51:05.000   78.247145201   16.013701035   440.3475   2   9   0.0647   0.0414   0.1781   0.0202   0.0308   0.0683   0.00    1.2
2018/03/15 09:51:06.000   78.247145544   16.013701170   440.4940   2   9   0.0640   0.0410   0.1750   0.0200   0.0302   0.0671   0.00    1.2
2018/03/15 09:51:07.000   78.247145834   16.013701464   440.6409   2   9   0.0632   0.0406   0.1720   0.0197   0.0297   0.0659   0.00    1.2
2018/03/15 09:51:08.000   78.247146175   16.013701765   440.7834   2   9   0.0625   0.0402   0.1691   0.0195   0.0291   0.0648   0.00    1.2
2018/03/15 09:51:09.000   78.247146469   16.013702045   440.9350   2   9   0.0618   0.0398   0.1663   0.0192   0.0286   0.0637   0.00    1.2
2018/03/15 09:51:10.000   78.247146807   16.013702459   441.0991   2   9   0.0611   0.0394   0.1635   0.0190   0.0281   0.0626   0.00    1.3
2018/03/15 09:51:11.000   78.247147149   16.013703011   441.2907   2   9   0.0605   0.0391   0.1608   0.0187   0.0276   0.0615   0.00    1.3
2018/03/15 09:51:12.000   78.247147437   16.013703645   441.4320   2   9   0.0598   0.0387   0.1582   0.0185   0.0271   0.0604   0.00    1.3
2018/03/15 09:51:13.000   78.247147750   16.013704142   441.5595   2   9   0.0592   0.0384   0.1556   0.0183   0.0266   0.0594   0.00    1.3
2018/03/15 09:51:14.000   78.247148025   16.013704652   441.6781   2   9   0.0586   0.0381   0.1531   0.0181   0.0262   0.0584   0.00    1.3
2018/03/15 09:51:15.000   78.247148261   16.013705253   441.7736   2   9   0.0580   0.0377   0.1507   0.0179   0.0257   0.0575   0.00    1.3
2018/03/15 09:51:16.000   78.247148511   16.013705885   441.8663   2   9   0.0574   0.0374   0.1483   0.0177   0.0253   0.0565   0.00    1.3
2018/03/15 09:51:17.000   78.247148789   16.013706434   441.9671   2   9   0.0568   0.0371   0.1459   0.0174   0.0248   0.0556   0.00    1.3
2018/03/15 09:51:18.000   78.247148978   16.013706829   442.0633   2   9   0.0562   0.0368   0.1437   0.0172   0.0244   0.0547   0.00    1.4
2018/03/15 09:51:19.000   78.247149175   16.013707379   442.1356   2   9   0.0557   0.0365   0.1414   0.0171   0.0240   0.0538   0.00    1.4
2018/03/15 09:51:20.000   78.247149380   16.013708069   442.2096   2   9   0.0551   0.0362   0.1393   0.0169   0.0236   0.0529   0.00    1.4
2018/03/15 09:51:21.000   78.247149491   16.013708715   442.2736   2   9   0.0546   0.0359   0.1371   0.0167   0.0232   0.0521   0.00    1.4
2018/03/15 09:51:22.000   78.247149478   16.013709222   442.3044   2   9   0.0541   0.0356   0.1351   0.0165   0.0228   0.0513   0.00    1.5
2018/03/15 09:51:23.000   78.247149444   16.013709797   442.3317   2   9   0.0536   0.0353   0.1330   0.0163   0.0224   0.0505   0.00    1.5
2018/03/15 09:51:24.000   78.247149500   16.013710507   442.3776   2   9   0.0531   0.0350   0.1311   0.0161   0.0221   0.0497   0.00    1.5
2018/03/15 09:51:25.000   78.247149503   16.013711251   442.4283   2   9   0.0526   0.0348   0.1291   0.0160   0.0217   0.0489   0.00    1.6
2018/03/15 09:51:26.000   78.247149451   16.013712035   442.4654   2   9   0.0521   0.0345   0.1272   0.0158   0.0213   0.0481   0.00    1.6
2018/03/15 09:51:27.000   78.247149373   16.013713013   442.4930   2   9   0.0516   0.0342   0.1254   0.0156   0.0210   0.0474   0.00    1.7
2018/03/15 09:51:28.000   78.247149291   16.013713859   442.5276   2   9   0.0512   0.0340   0.1236   0.0155   0.0207   0.0467   0.00    1.7
2018/03/15 09:51:29.000   78.247149133   16.013714768   442.5338   2   9   0.0507   0.0337   0.1218   0.0153   0.0203   0.0460   0.00    1.7
2018/03/15 09:51:30.000   78.247149003   16.013715763   442.5629   2   9   0.0502   0.0335   0.1201   0.0152   0.0200   0.0453   0.00    1.8
2018/03/15 09:51:31.000   78.247148886   16.013716725   442.6095   2   9   0.0498   0.0332   0.1184   0.0150   0.0197   0.0446   0.00    1.8
2018/03/15 09:51:32.000   78.247148677   16.013717485   442.6445   2   9   0.0494   0.0330   0.1167   0.0149   0.0194   0.0440   0.00    1.9
2018/03/15 09:51:33.000   78.247148424   16.013718197   442.6654   2   9   0.0489   0.0328   0.1151   0.0147   0.0191   0.0433   0.00    2.0
2018/03/15 09:51:34.000   78.247148201   16.013718729   442.6716   2   9   0.0485   0.0325   0.1135   0.0146   0.0188   0.0427   0.00    2.1
2018/03/15 09:51:35.000   78.247147939   16.013719246   442.6914   2   9   0.0481   0.0323   0.1119   0.0144   0.0185   0.0421   0.00    2.2
2018/03/15 09:51:36.000   78.247147669   16.013719702   442.7018   2   9   0.0477   0.0321   0.1104   0.0143   0.0182   0.0415   0.00    2.3
2018/03/15 09:51:37.000   78.247147352   16.013719993   442.7052   2   9   0.0473   0.0319   0.1089   0.0142   0.0179   0.0409   0.00    2.4
2018/03/15 09:51:38.000   78.247147046   16.013720140   442.7102   2   9   0.0469   0.0317   0.1075   0.0140   0.0176   0.0403   0.00    2.5
2018/03/15 09:51:39.000   78.247146759   16.013720351   442.7212   2   9   0.0465   0.0314   0.1060   0.0139   0.0174   0.0397   0.00    2.6
2018/03/15 09:51:40.000   78.247146437   16.013720514   442.7247   2   9   0.0462   0.0312   0.1046   0.0138   0.0171   0.0392   0.00    2.7
2018/03/15 09:51:41.000   78.247146123   16.013720745   442.7354   2   9   0.0458   0.0310   0.1033   0.0137   0.0168   0.0386   0.00    2.8
2018/03/15 09:51:42.000   78.247145829   16.013720925   442.7208   2   9   0.0454   0.0308   0.1019   0.0135   0.0166   0.0381   0.00    2.9
2018/03/15 09:51:43.000   78.247145533   16.013721096   442.7115   2   9   0.0451   0.0306   0.1006   0.0134   0.0163   0.0375   0.00    3.0
2018/03/15 09:51:44.000   78.247143398   16.013706395   440.1759   1   9   0.0006   0.0003   0.0019   0.0002   0.0003   0.0007   0.00    3.0
2018/03/15 09:51:45.000   78.247143394   16.013706380   440.1756   1   9   0.0006   0.0003   0.0019   0.0002   0.0003   0.0007   0.00    3.1
2018/03/15 09:51:46.000   78.247143390   16.013706366   440.1754   1   9   0.0005   0.0003   0.0019   0.0002   0.0003   0.0007   0.00    3.2
2018/03/15 09:51:47.000   78.247143387   16.013706350   440.1752   1   9   0.0005   0.0003   0.0019   0.0002   0.0003   0.0007   0.00    3.3
2018/03/15 09:51:48.000   78.247143383   16.013706335   440.1750   1   9   0.0005   0.0003   0.0018   0.0002   0.0003   0.0007   0.00    3.4
2018/03/15 09:51:49.000   78.247143380   16.013706324   440.1748   1   9   0.0005   0.0003   0.0018   0.0002   0.0003   0.0007   0.00    3.5
2018/03/15 09:51:50.000   78.247143377   16.013706312   440.1746   1   9   0.0005   0.0003   0.0018   0.0002   0.0003   0.0007   0.00    3.6
2018/03/15 09:51:51.000   78.247143374   16.013706299   440.1743   1   9   0.0005   0.0003   0.0018   0.0002   0.0003   0.0007   0.00    3.7
2018/03/15 09:51:52.000   78.247143371   16.013706289   440.1741   1   9   0.0005   0.0003   0.0018   0.0002   0.0003   0.0007   0.00    3.8
2018/03/15 09:51:53.000   78.247143369   16.013706278   440.1739   1   9   0.0005   0.0003   0.0018   0.0002   0.0003   0.0007   0.00    3.9
2018/03/15 09:51:54.000   78.247143367   16.013706268   440.1738   1   9   0.0005   0.0003   0.0018   0.0002   0.0003   0.0007   0.00   14.0
2018/03/15 09:51:55.000   78.247143365   16.013706258   440.1736   1   9   0.0005   0.0003   0.0018   0.0002   0.0003   0.0007   0.00   16.3
2018/03/15 09:51:56.000   78.247143364   16.013706248   440.1736   1   9   0.0005   0.0003   0.0018   0.0002   0.0003   0.0007   0.00   18.6
2018/03/15 09:51:57.000   78.247143363   16.013706239   440.1735   1   9   0.0005   0.0003   0.0018   0.0002   0.0003   0.0007   0.00   20.2
2018/03/15 09:51:58.000   78.247143362   16.013706230   440.1734   1   9   0.0005   0.0003   0.0018   0.0002   0.0003   0.0007   0.00   21.3
2018/03/15 09:51:59.000   78.247143362   16.013706222   440.1736   1   9   0.0005   0.0003   0.0018   0.0002   0.0003   0.0007   0.00   22.1
2018/03/15 09:52:00.000   78.247143361   16.013706214   440.1737   1   9   0.0005   0.0003   0.0018   0.0002   0.0003   0.0007   0.00   23.0
2018/03/15 09:52:01.000   78.247143361   16.013706208   440.1737   1   9   0.0005   0.0003   0.0017   0.0002   0.0003   0.0007   0.00   23.9
2018/03/15 09:52:02.000   78.247143360   16.013706203   440.1738   1   9   0.0005   0.0003   0.0017   0.0002   0.0003   0.0007   0.00   24.9
2018/03/15 09:52:03.000   78.247143360   16.013706199   440.1737   1   9   0.0005   0.0003   0.0017   0.0002   0.0003   0.0007   0.00   26.1
2018/03/15 09:52:04.000   78.247143359   16.013706195   440.1737   1   9   0.0005   0.0003   0.0017   0.0002   0.0003   0.0007   0.00   27.7
2018/03/15 09:52:05.000   78.247143358   16.013706196   440.1736   1   9   0.0005   0.0003   0.0017   0.0002   0.0003   0.0007   0.00   29.4
2018/03/15 09:52:06.000   78.247143358   16.013706198   440.1735   1   9   0.0005   0.0003   0.0017   0.0002   0.0003   0.0007   0.00   31.2
2018/03/15 09:52:07.000   78.247143358   16.013706201   440.1736   1   9   0.0005   0.0003   0.0017   0.0002   0.0003   0.0007   0.00   33.1
2018/03/15 09:52:08.000   78.247143358   16.013706207   440.1736   1   9   0.0005   0.0003   0.0017   0.0002   0.0003   0.0007   0.00   35.2
2018/03/15 09:52:09.000   78.247143357   16.013706215   440.1734   1   9   0.0005   0.0003   0.0017   0.0002   0.0003   0.0007   0.00   37.7
2018/03/15 09:52:10.000   78.247143356   16.013706220   440.1732   1   9   0.0005   0.0003   0.0017   0.0002   0.0003   0.0007   0.00   40.9
2018/03/15 09:52:11.000   78.247143355   16.013706225   440.1729   1   9   0.0005   0.0003   0.0017   0.0002   0.0003   0.0007   0.00   44.3
2018/03/15 09:52:12.000   78.247143354   16.013706228   440.1728   1   9   0.0005   0.0003   0.0017   0.0002   0.0003   0.0007   0.00   47.7
2018/03/15 09:52:13.000   78.247143353   16.013706230   440.1726   1   9   0.0005   0.0003   0.0017   0.0002   0.0003   0.0006   0.00   51.3
2018/03/15 09:52:14.000   78.247143353   16.013706228   440.1725   1   9   0.0005   0.0003   0.0017   0.0002   0.0003   0.0006   0.00   54.7
2018/03/15 09:52:15.000   78.247143352   16.013706222   440.1724   1   9   0.0005   0.0003   0.0017   0.0002   0.0003   0.0006   0.00   58.3
2018/03/15 09:52:16.000   78.247143352   16.013706216   440.1724   1   9   0.0005   0.0003   0.0016   0.0002   0.0003   0.0006   0.00   61.9
2018/03/15 09:52:17.000   78.247143352   16.013706209   440.1724   1   9   0.0005   0.0003   0.0016   0.0002   0.0003   0.0006   0.00   65.0
2018/03/15 09:52:18.000   78.247143353   16.013706205   440.1725   1   9   0.0005   0.0003   0.0016   0.0002   0.0003   0.0006   0.00   67.5
2018/03/15 09:52:19.000   78.247143355   16.013706204   440.1727   1   9   0.0005   0.0003   0.0016   0.0002   0.0003   0.0006   0.00   69.1
2018/03/15 09:52:20.000   78.247143357   16.013706205   440.1729   1   9   0.0005   0.0003   0.0016   0.0002   0.0003   0.0006   0.00   70.7
2018/03/15 09:52:21.000   78.247143360   16.013706208   440.1732   1   9   0.0005   0.0003   0.0016   0.0002   0.0003   0.0006   0.00   72.2
2018/03/15 09:52:22.000   78.247143362   16.013706212   440.1734   1   9   0.0005   0.0003   0.0016   0.0002   0.0003   0.0006   0.00   74.3
2018/03/15 09:52:23.000   78.247143364   16.013706215   440.1735   1   9   0.0005   0.0003   0.0016   0.0002   0.0003   0.0006   0.00   77.1
2018/03/15 09:52:24.000   78.247143367   16.013706217   440.1736   1   9   0.0005   0.0003   0.0016   0.0002   0.0003   0.0006   0.00   80.7
2018/03/15 09:52:25.000   78.247143369   16.013706217   440.1736   1   9   0.0005   0.0003   0.0016   0.0002   0.0003   0.0006   0.00   84.6
2018/03/15 09:52:26.000   78.247143371   16.013706214   440.1736   1   9   0.0005   0.0003   0.0016   0.0002   0.0003   0.0006   0.00   88.8
2018/03/15 09:52:27.000   78.247143373   16.013706210   440.1733   1   9   0.0005   0.0003   0.0016   0.0002   0.0003   0.0006   0.00   93.2
2018/03/15 09:52:28.000   78.247143375   16.013706204   440.1731   1   9   0.0005   0.0003   0.0016   0.0002   0.0003   0.0006   0.00   97.8
2018/03/15 09:52:29.000   78.247143378   16.013706199   440.1730   1   9   0.0005   0.0003   0.0016   0.0002   0.0003   0.0006   0.00  102.3
2018/03/15 09:52:30.000   78.247143380   16.013706192   440.1730   1   9   0.0005   0.0003   0.0016   0.0002   0.0003   0.0006   0.00  105.2
2018/03/15 09:52:31.000   78.247143383   16.013706187   440.1731   1   9   0.0005   0.0003   0.0016   0.0002   0.0003   0.0006   0.00  107.4
2018/03/15 09:52:32.000   78.247143386   16.013706182   440.1731   1   9   0.0005   0.0003   0.0016   0.0002   0.0003   0.0006   0.00  110.4
2018/03/15 09:52:33.000   78.247143388   16.013706177   440.1732   1   9   0.0005   0.0003   0.0016   0.0002   0.0003   0.0006   0.00  114.5
2018/03/15 09:52:34.000   78.247143391   16.013706170   440.1731   1   9   0.0005   0.0003   0.0015   0.0002   0.0003   0.0006   0.00  118.6
2018/03/15 09:52:35.000   78.247143393   16.013706166   440.1730   1   9   0.0005   0.0003   0.0015   0.0002   0.0003   0.0006   0.00  123.3
2018/03/15 09:52:36.000   78.247143395   16.013706164   440.1729   1   9   0.0004   0.0003   0.0015   0.0002   0.0003   0.0006   0.00  127.4
2018/03/15 09:52:37.000   78.247143397   16.013706162   440.1728   1   9   0.0004   0.0003   0.0015   0.0002   0.0003   0.0006   0.00  131.9
2018/03/15 09:52:38.000   78.247143399   16.013706160   440.1726   1   9   0.0004   0.0003   0.0015   0.0002   0.0003   0.0006   0.00  136.7
2018/03/15 09:52:39.000   78.247143400   16.013706157   440.1723   1   9   0.0004   0.0003   0.0015   0.0001   0.0003   0.0006   0.00  143.0
2018/03/15 09:52:40.000   78.247143401   16.013706149   440.1720   1   9   0.0004   0.0003   0.0015   0.0001   0.0003   0.0006   0.00  150.3
2018/03/15 09:52:41.000   78.247143401   16.013706137   440.1716   1   9   0.0004   0.0003   0.0015   0.0001   0.0003   0.0006   0.00  158.5
2018/03/15 09:52:42.000   78.247143402   16.013706121   440.1712   1   9   0.0004   0.0003   0.0015   0.0001   0.0003   0.0006   0.00  163.9
2018/03/15 09:52:43.000   78.247143402   16.013706100   440.1709   1   9   0.0004   0.0003   0.0015   0.0001   0.0003   0.0006   0.00  165.5
2018/03/15 09:52:44.000   78.247143403   16.013706078   440.1708   1   9   0.0004   0.0003   0.0015   0.0001   0.0003   0.0006   0.00  161.8
2018/03/15 09:52:45.000   78.247143404   16.013706055   440.1707   1   9   0.0004   0.0003   0.0015   0.0001   0.0003   0.0006   0.00  154.5
2018/03/15 09:52:46.000   78.247143405   16.013706036   440.1708   1   9   0.0004   0.0003   0.0015   0.0001   0.0003   0.0006   0.00  146.0
2018/03/15 09:52:47.000   78.247143406   16.013706022   440.1710   1   9   0.0004   0.0003   0.0015   0.0001   0.0003   0.0006   0.00  138.5
2018/03/15 09:52:48.000   78.247143407   16.013706011   440.1711   1   9   0.0004   0.0003   0.0015   0.0001   0.0003   0.0006   0.00  132.3
2018/03/15 09:52:49.000   78.247143407   16.013706001   440.1714   1   9   0.0004   0.0003   0.0015   0.0001   0.0003   0.0006   0.00  127.6
2018/03/15 09:52:50.000   78.247143408   16.013705993   440.1716   1   9   0.0004   0.0003   0.0015   0.0001   0.0003   0.0006   0.00  124.6
2018/03/15 09:52:51.000   78.247143408   16.013705988   440.1720   1   9   0.0004   0.0003   0.0015   0.0001   0.0003   0.0006   0.00  122.7
2018/03/15 09:52:52.000   78.247143408   16.013705984   440.1723   1   9   0.0004   0.0003   0.0015   0.0001   0.0003   0.0006   0.00  122.8
2018/03/15 09:52:53.000   78.247143409   16.013705983   440.1725   1   9   0.0004   0.0003   0.0015   0.0001   0.0003   0.0006   0.00  125.0
2018/03/15 09:52:54.000   78.247143409   16.013705980   440.1727   1   9   0.0004   0.0003   0.0015   0.0001   0.0003   0.0006   0.00  127.3
2018/03/15 09:52:55.000   78.247143409   16.013705979   440.1728   1   9   0.0004   0.0003   0.0015   0.0001   0.0003   0.0006   0.00  129.3
2018/03/15 09:52:56.000   78.247143410   16.013705978   440.1729   1   9   0.0004   0.0003   0.0015   0.0001   0.0003   0.0006   0.00  131.5
2018/03/15 09:52:57.000   78.247143410   16.013705978   440.1728   1   9   0.0004   0.0003   0.0015   0.0001   0.0003   0.0006   0.00  133.2
2018/03/15 09:52:58.000   78.247143411   16.013705978   440.1727   1   9   0.0004   0.0003   0.0014   0.0001   0.0003   0.0006   0.00  135.5
2018/03/15 09:52:59.000   78.247143412   16.013705978   440.1725   1   9   0.0004   0.0003   0.0014   0.0001   0.0003   0.0006   0.00  137.9
2018/03/15 09:53:00.000   78.247143413   16.013705977   440.1724   1   9   0.0004   0.0003   0.0014   0.0001   0.0003   0.0006   0.00  141.2
2018/03/15 09:53:01.000   78.247143414   16.013705976   440.1724   1   9   0.0004   0.0002   0.0014   0.0001   0.0003   0.0006   0.00  143.9
2018/03/15 09:53:02.000   78.247143416   16.013705975   440.1723   1   9   0.0004   0.0002   0.0014   0.0001   0.0003   0.0006   0.00  146.2
2018/03/15 09:53:03.000   78.247143417   16.013705973   440.1723   1   9   0.0004   0.0002   0.0014   0.0001   0.0003   0.0006   0.00  147.7
2018/03/15 09:53:04.000   78.247143418   16.013705972   440.1723   1   9   0.0004   0.0002   0.0014   0.0001   0.0003   0.0006   0.00  148.7
2018/03/15 09:53:05.000   78.247143420   16.013705971   440.1724   1   9   0.0004   0.0002   0.0014   0.0001   0.0003   0.0006   0.00  148.8
2018/03/15 09:53:06.000   78.247143421   16.013705971   440.1725   1   9   0.0004   0.0002   0.0014   0.0001   0.0003   0.0006   0.00  148.4
2018/03/15 09:53:07.000   78.247143422   16.013705973   440.1728   1   9   0.0004   0.0002   0.0014   0.0001   0.0003   0.0006   0.00  147.8
2018/03/15 09:53:08.000   78.247143423   16.013705976   440.1730   1   9   0.0004   0.0002   0.0014   0.0001   0.0003   0.0006   0.00  147.5
2018/03/15 09:53:09.000   78.247143423   16.013705979   440.1731   1   9   0.0004   0.0002   0.0014   0.0001   0.0003   0.0005   0.00  147.4
2018/03/15 09:53:10.000   78.247143423   16.013705982   440.1732   1   9   0.0004   0.0002   0.0014   0.0001   0.0003   0.0005   0.00  147.3
2018/03/15 09:53:11.000   78.247143423   16.013705986   440.1734   1   9   0.0004   0.0002   0.0014   0.0001   0.0003   0.0005   0.00  148.0
2018/03/15 09:53:12.000   78.247143423   16.013705990   440.1737   1   9   0.0004   0.0002   0.0014   0.0001   0.0003   0.0005   0.00  149.0
2018/03/15 09:53:13.000   78.247143423   16.013705994   440.1739   1   9   0.0004   0.0002   0.0014   0.0001   0.0003   0.0005   0.00  150.7
2018/03/15 09:53:14.000   78.247143423   16.013706000   440.1744   1   9   0.0004   0.0002   0.0014   0.0001   0.0003   0.0005   0.00  152.4
2018/03/15 09:53:15.000   78.247143423   16.013706006   440.1750   1   9   0.0004   0.0002   0.0014   0.0001   0.0003   0.0005   0.00  154.8
2018/03/15 09:53:16.000   78.247143423   16.013706014   440.1755   1   9   0.0004   0.0002   0.0014   0.0001   0.0003   0.0005   0.00  157.2
2018/03/15 09:53:17.000   78.247143423   16.013706021   440.1760   1   9   0.0004   0.0002   0.0014   0.0001   0.0003   0.0005   0.00  159.5
2018/03/15 09:53:18.000   78.247143423   16.013706029   440.1765   1   9   0.0004   0.0002   0.0014   0.0001   0.0003   0.0005   0.00  161.8
2018/03/15 09:53:19.000   78.247143423   16.013706036   440.1770   1   9   0.0004   0.0002   0.0014   0.0001   0.0002   0.0005   0.00  163.9
2018/03/15 09:53:20.000   78.247143423   16.013706041   440.1773   1   9   0.0004   0.0002   0.0014   0.0001   0.0002   0.0005   0.00  166.1
2018/03/15 09:53:21.000   78.247143423   16.013706045   440.1774   1   9   0.0004   0.0002   0.0014   0.0001   0.0002   0.0005   0.00  168.4
2018/03/15 09:53:22.000   78.247143423   16.013706050   440.1775   1   9   0.0004   0.0002   0.0014   0.0001   0.0002   0.0005   0.00  171.1
2018/03/15 09:53:23.000   78.247143423   16.013706055   440.1774   1   9   0.0004   0.0002   0.0014   0.0001   0.0002   0.0005   0.00  173.6
2018/03/15 09:53:24.000   78.247143423   16.013706062   440.1774   1   9   0.0004   0.0002   0.0014   0.0001   0.0002   0.0005   0.00  176.4
2018/03/15 09:53:25.000   78.247143423   16.013706073   440.1775   1   9   0.0004   0.0002   0.0014   0.0001   0.0002   0.0005   0.00  178.7
2018/03/15 09:53:26.000   78.247143423   16.013706086   440.1777   1   9   0.0004   0.0002   0.0014   0.0001   0.0002   0.0005   0.00  180.9
2018/03/15 09:53:27.000   78.247143423   16.013706100   440.1780   1   9   0.0004   0.0002   0.0014   0.0001   0.0002   0.0005   0.00  181.9
2018/03/15 09:53:28.000   78.247143424   16.013706114   440.1783   1   9   0.0004   0.0002   0.0014   0.0001   0.0002   0.0005   0.00  182.4
2018/03/15 09:53:29.000   78.247143425   16.013706130   440.1786   1   9   0.0004   0.0002   0.0013   0.0001   0.0002   0.0005   0.00  181.3
2018/03/15 09:53:30.000   78.247143426   16.013706144   440.1789   1   9   0.0004   0.0002   0.0013   0.0001   0.0002   0.0005   0.00  180.8
2018/03/15 09:53:31.000   78.247143427   16.013706157   440.1793   1   9   0.0004   0.0002   0.0013   0.0001   0.0002   0.0005   0.00  180.6
2018/03/15 09:53:32.000   78.247143428   16.013706170   440.1797   1   9   0.0004   0.0002   0.0013   0.0001   0.0002   0.0005   0.00  180.4
2018/03/15 09:53:33.000   78.247143428   16.013706182   440.1802   1   9   0.0004   0.0002   0.0013   0.0001   0.0002   0.0005   0.00  179.8
2018/03/15 09:53:34.000   78.247143428   16.013706194   440.1806   1   9   0.0004   0.0002   0.0013   0.0001   0.0002   0.0005   0.00  179.0
2018/03/15 09:53:35.000   78.247143429   16.013706205   440.1809   1   9   0.0004   0.0002   0.0013   0.0001   0.0002   0.0005   0.00  177.5
2018/03/15 09:53:36.000   78.247143429   16.013706214   440.1811   1   9   0.0004   0.0002   0.0013   0.0001   0.0002   0.0005   0.00  176.3
2018/03/15 09:53:37.000   78.247143430   16.013706223   440.1813   1   9   0.0004   0.0002   0.0013   0.0001   0.0002   0.0005   0.00  174.7
2018/03/15 09:53:38.000   78.247143431   16.013706230   440.1813   1   9   0.0004   0.0002   0.0013   0.0001   0.0002   0.0005   0.00  173.8
2018/03/15 09:53:39.000   78.247143432   16.013706237   440.1813   1   9   0.0004   0.0002   0.0013   0.0001   0.0002   0.0005   0.00  173.4
2018/03/15 09:53:40.000   78.247143433   16.013706242   440.1811   1   9   0.0004   0.0002   0.0013   0.0001   0.0002   0.0005   0.00  173.2
2018/03/15 09:53:41.000   78.247143433   16.013706247   440.1808   1   9   0.0004   0.0002   0.0013   0.0001   0.0002   0.0005   0.00  173.8
2018/03/15 09:53:42.000   78.247143434   16.013706251   440.1803   1   9   0.0004   0.0002   0.0013   0.0001   0.0002   0.0005   0.00  175.1
2018/03/15 09:53:43.000   78.247143434   16.013706255   440.1799   1   9   0.0004   0.0002   0.0013   0.0001   0.0002   0.0005   0.00  175.9
2018/03/15 09:53:44.000   78.247143435   16.013706260   440.1796   1   9   0.0004   0.0002   0.0013   0.0001   0.0002   0.0005   0.00  176.7
2018/03/15 09:53:45.000   78.247143435   16.013706265   440.1795   1   9   0.0004   0.0002   0.0013   0.0001   0.0002   0.0005   0.00  176.1
2018/03/15 09:53:46.000   78.247143436   16.013706270   440.1793   1   9   0.0004   0.0002   0.0013   0.0001   0.0002   0.0005   0.00  174.3
2018/03/15 09:53:47.000   78.247143437   16.013706275   440.1793   1   9   0.0004   0.0002   0.0013   0.0001   0.0002   0.0005   0.00  171.3
2018/03/15 09:53:48.000   78.247143437   16.013706279   440.1793   1   9   0.0004   0.0002   0.0013   0.0001   0.0002   0.0005   0.00  168.5
2018/03/15 09:53:49.000   78.247143438   16.013706281   440.1793   1   9   0.0004   0.0002   0.0013   0.0001   0.0002   0.0005   0.00  165.2
2018/03/15 09:53:50.000   78.247143439   16.013706282   440.1793   1   9   0.0004   0.0002   0.0013   0.0001   0.0002   0.0005   0.00  162.2
2018/03/15 09:53:51.000   78.247143439   16.013706280   440.1792   1   9   0.0004   0.0002   0.0013   0.0001   0.0002   0.0005   0.00  159.5
2018/03/15 09:53:52.000   78.247143439   16.013706275   440.1790   1   9   0.0004   0.0002   0.0013   0.0001   0.0002   0.0005   0.00  156.9
2018/03/15 09:53:53.000   78.247143439   16.013706268   440.1787   1   9   0.0004   0.0002   0.0013   0.0001   0.0002   0.0005   0.00  155.1
2018/03/15 09:53:54.000   78.247143439   16.013706257   440.1782   1   9   0.0004   0.0002   0.0013   0.0001   0.0002   0.0005   0.00  154.5
2018/03/15 09:53:55.000   78.247143438   16.013706244   440.1776   1   9   0.0004   0.0002   0.0013   0.0001   0.0002   0.0005   0.00  154.3
2018/03/15 09:53:56.000   78.247143438   16.013706229   440.1769   1   9   0.0004   0.0002   0.0013   0.0001   0.0002   0.0005   0.00  154.9
2018/03/15 09:53:57.000   78.247143437   16.013706214   440.1762   1   9   0.0004   0.0002   0.0013   0.0001   0.0002   0.0005   0.00  155.3
2018/03/15 09:53:58.000   78.247143437   16.013706200   440.1756   1   9   0.0004   0.0002   0.0013   0.0001   0.0002   0.0005   0.00  154.1
2018/03/15 09:53:59.000   78.247143437   16.013706187   440.1751   1   9   0.0004   0.0002   0.0013   0.0001   0.0002   0.0005   0.00  152.8
2018/03/15 09:54:00.000   78.247143436   16.013706174   440.1745   1   9   0.0004   0.0002   0.0013   0.0001   0.0002   0.0005   0.00  152.1
2018/03/15 09:54:01.000   78.247143435   16.013706160   440.1740   1   9   0.0004   0.0002   0.0013   0.0001   0.0002   0.0005   0.00  151.8
2018/03/15 09:54:02.000   78.247143434   16.013706146   440.1735   1   9   0.0004   0.0002   0.0013   0.0001   0.0002   0.0005   0.00  151.8
2018/03/15 09:54:03.000   78.247143433   16.013706131   440.1730   1   9   0.0004   0.0002   0.0013   0.0001   0.0002   0.0005   0.00  152.4
2018/03/15 09:54:04.000   78.247143432   16.013706115   440.1725   1   9   0.0004   0.0002   0.0013   0.0001   0.0002   0.0005   0.00  153.5
2018/03/15 09:54:05.000   78.247143430   16.013706100   440.1721   1   9   0.0004   0.0002   0.0013   0.0001   0.0002   0.0005   0.00  154.8
2018/03/15 09:54:06.000   78.247143429   16.013706085   440.1717   1   9   0.0004   0.0002   0.0013   0.0001   0.0002   0.0005   0.00  156.4
2018/03/15 09:54:07.000   78.247143427   16.013706071   440.1712   1   9   0.0004   0.0002   0.0013   0.0001   0.0002   0.0005   0.00  157.5
2018/03/15 09:54:08.000   78.247143426   16.013706057   440.1708   1   9   0.0004   0.0002   0.0013   0.0001   0.0002   0.0005   0.00  158.0
2018/03/15 09:54:09.000   78.247143425   16.013706045   440.1706   1   9   0.0004   0.0002   0.0013   0.0001   0.0002   0.0005   0.00  157.8
2018/03/15 09:54:10.000   78.247143425   16.013706034   440.1702   1   9   0.0004   0.0002   0.0013   0.0001   0.0002   0.0005   0.00  157.3
2018/03/15 09:54:11.000   78.247143425   16.013706025   440.1699   1   9   0.0004   0.0002   0.0013   0.0001   0.0002   0.0005   0.00  155.8
2018/03/15 09:54:12.000   78.247143425   16.013706017   440.1694   1   9   0.0004   0.0002   0.0012   0.0001   0.0002   0.0005   0.00  154.0
2018/03/15 09:54:13.000   78.247143425   16.013706010   440.1690   1   9   0.0004   0.0002   0.0012   0.0001   0.0002   0.0005   0.00  151.9
2018/03/15 09:54:14.000   78.247143425   16.013706004   440.1684   1   9   0.0004   0.0002   0.0012   0.0001   0.0002   0.0005   0.00  149.9
2018/03/15 09:54:15.000   78.247143424   16.013705997   440.1679   1   9   0.0004   0.0002   0.0012   0.0001   0.0002   0.0005   0.00  147.8
2018/03/15 09:54:16.000   78.247143423   16.013705991   440.1674   1   9   0.0004   0.0002   0.0012   0.0001   0.0002   0.0005   0.00  145.8
2018/03/15 09:54:17.000   78.247143423   16.013705985   440.1670   1   9   0.0004   0.0002   0.0012   0.0001   0.0002   0.0005   0.00  144.0
2018/03/15 09:54:18.000   78.247143422   16.013705978   440.1667   1   9   0.0004   0.0002   0.0012   0.0001   0.0002   0.0005   0.00  142.2
2018/03/15 09:54:19.000   78.247143421   16.013705972   440.1664   1   9   0.0004   0.0002   0.0012   0.0001   0.0002   0.0005   0.00  141.0
2018/03/15 09:54:20.000   78.247143420   16.013705966   440.1662   1   9   0.0004   0.0002   0.0012   0.0001   0.0002   0.0005   0.00  139.9
2018/03/15 09:54:21.000   78.247143420   16.013705959   440.1659   1   9   0.0004   0.0002   0.0012   0.0001   0.0002   0.0005   0.00  138.8
2018/03/15 09:54:22.000   78.247143419   16.013705953   440.1658   1   9   0.0004   0.0002   0.0012   0.0001   0.0002   0.0005   0.00  137.6
2018/03/15 09:54:23.000   78.247143419   16.013705948   440.1657   1   9   0.0004   0.0002   0.0012   0.0001   0.0002   0.0005   0.00  136.4
2018/03/15 09:54:24.000   78.247143419   16.013705944   440.1657   1   9   0.0004   0.0002   0.0012   0.0001   0.0002   0.0005   0.00  135.3
2018/03/15 09:54:25.000   78.247143419   16.013705940   440.1656   1   9   0.0004   0.0002   0.0012   0.0001   0.0002   0.0005   0.00  134.3
2018/03/15 09:54:26.000   78.247143418   16.013705937   440.1653   1   9   0.0004   0.0002   0.0012   0.0001   0.0002   0.0005   0.00  133.3
2018/03/15 09:54:27.000   78.247143418   16.013705935   440.1650   1   9   0.0004   0.0002   0.0012   0.0001   0.0002   0.0005   0.00  132.3
2018/03/15 09:54:28.000   78.247143417   16.013705933   440.1647   1   9   0.0004   0.0002   0.0012   0.0001   0.0002   0.0005   0.00  131.3
2018/03/15 09:54:29.000   78.247143417   16.013705931   440.1643   1   9   0.0004   0.0002   0.0012   0.0001   0.0002   0.0005   0.00  130.0
2018/03/15 09:54:30.000   78.247143416   16.013705930   440.1640   1   9   0.0004   0.0002   0.0012   0.0001   0.0002   0.0005   0.00  128.7
2018/03/15 09:54:31.000   78.247143416   16.013705930   440.1637   1   9   0.0004   0.0002   0.0012   0.0001   0.0002   0.0005   0.00  127.0
2018/03/15 09:54:32.000   78.247143416   16.013705928   440.1634   1   9   0.0003   0.0002   0.0012   0.0001   0.0002   0.0005   0.00  125.5
2018/03/15 09:54:33.000   78.247143416   16.013705927   440.1633   1   9   0.0003   0.0002   0.0012   0.0001   0.0002   0.0005   0.00  124.5
2018/03/15 09:54:34.000   78.247143417   16.013705927   440.1631   1   9   0.0003   0.0002   0.0012   0.0001   0.0002   0.0005   0.00  123.3
2018/03/15 09:54:35.000   78.247143417   16.013705927   440.1631   1   9   0.0003   0.0002   0.0012   0.0001   0.0002   0.0005   0.00  121.9
2018/03/15 09:54:36.000   78.247143418   16.013705929   440.1631   1   9   0.0003   0.0002   0.0012   0.0001   0.0002   0.0005   0.00  120.1
2018/03/15 09:54:37.000   78.247143419   16.013705930   440.1631   1   9   0.0003   0.0002   0.0012   0.0001   0.0002   0.0005   0.00  118.5
2018/03/15 09:54:38.000   78.247143419   16.013705931   440.1631   1   9   0.0003   0.0002   0.0012   0.0001   0.0002   0.0005   0.00  117.5
2018/03/15 09:54:39.000   78.247143420   16.013705933   440.1631   1   9   0.0003   0.0002   0.0012   0.0001   0.0002   0.0005   0.00  116.7
2018/03/15 09:54:40.000   78.247143420   16.013705935   440.1631   1   9   0.0003   0.0002   0.0012   0.0001   0.0002   0.0005   0.00  116.1
2018/03/15 09:54:41.000   78.247143420   16.013705936   440.1630   1   9   0.0003   0.0002   0.0012   0.0001   0.0002   0.0005   0.00  115.7
2018/03/15 09:54:42.000   78.247143420   16.013705938   440.1631   1   9   0.0003   0.0002   0.0012   0.0001   0.0002   0.0005   0.00  115.5
2018/03/15 09:54:43.000   78.247143420   16.013705938   440.1631   1   9   0.0003   0.0002   0.0012   0.0001   0.0002   0.0005   0.00  116.0
2018/03/15 09:54:44.000   78.247143419   16.013705938   440.1632   1   9   0.0003   0.0002   0.0012   0.0001   0.0002   0.0005   0.00  117.1
2018/03/15 09:54:45.000   78.247143418   16.013705937   440.1633   1   9   0.0003   0.0002   0.0012   0.0001   0.0002   0.0005   0.00  118.4
2018/03/15 09:54:46.000   78.247143417   16.013705935   440.1634   1   9   0.0003   0.0002   0.0012   0.0001   0.0002   0.0005   0.00  120.0
2018/03/15 09:54:47.000   78.247143416   16.013705934   440.1636   1   9   0.0003   0.0002   0.0012   0.0001   0.0002   0.0005   0.00  121.8
2018/03/15 09:54:48.000   78.247143415   16.013705933   440.1639   1   9   0.0003   0.0002   0.0012   0.0001   0.0002   0.0005   0.00  123.7
2018/03/15 09:54:49.000   78.247143415   16.013705932   440.1641   1   9   0.0003   0.0002   0.0012   0.0001   0.0002   0.0005   0.00  125.9
2018/03/15 09:54:50.000   78.247143414   16.013705931   440.1645   1   9   0.0003   0.0002   0.0012   0.0001   0.0002   0.0005   0.00  128.6
2018/03/15 09:54:51.000   78.247143413   16.013705931   440.1648   1   9   0.0003   0.0002   0.0012   0.0001   0.0002   0.0005   0.00  131.3
2018/03/15 09:54:52.000   78.247143413   16.013705931   440.1651   1   9   0.0003   0.0002   0.0012   0.0001   0.0002   0.0005   0.00  133.9
2018/03/15 09:54:53.000   78.247143412   16.013705931   440.1655   1   9   0.0003   0.0002   0.0012   0.0001   0.0002   0.0005   0.00  136.4
2018/03/15 09:54:54.000   78.247143412   16.013705931   440.1658   1   9   0.0003   0.0002   0.0012   0.0001   0.0002   0.0005   0.00  138.9
2018/03/15 09:54:55.000   78.247143412   16.013705932   440.1661   1   9   0.0003   0.0002   0.0012   0.0001   0.0002   0.0005   0.00  141.0
2018/03/15 09:54:56.000   78.247143411   16.013705932   440.1664   1   9   0.0003   0.0002   0.0012   0.0001   0.0002   0.0005   0.00  143.3
2018/03/15 09:54:57.000   78.247143411   16.013705933   440.1667   1   9   0.0003   0.0002   0.0012   0.0001   0.0002   0.0005   0.00  145.7
2018/03/15 09:54:58.000   78.247143411   16.013705932   440.1670   1   9   0.0003   0.0002   0.0012   0.0001   0.0002   0.0005   0.00  148.2
2018/03/15 09:54:59.000   78.247143411   16.013705932   440.1672   1   9   0.0003   0.0002   0.0012   0.0001   0.0002   0.0005   0.00  150.1
2018/03/15 09:55:00.000   78.247143411   16.013705931   440.1674   1   9   0.0003   0.0002   0.0012   0.0001   0.0002   0.0005   0.00  151.7
2018/03/15 09:55:01.000   78.247143410   16.013705929   440.1675   1   9   0.0003   0.0002   0.0012   0.0001   0.0002   0.0005   0.00  152.7
2018/03/15 09:55:02.000   78.247143410   16.013705927   440.1676   1   9   0.0003   0.0002   0.0012   0.0001   0.0002   0.0005   0.00  153.4
2018/03/15 09:55:03.000   78.247143410   16.013705926   440.1676   1   9   0.0003   0.0002   0.0012   0.0001   0.0002   0.0005   0.00  154.6
2018/03/15 09:55:04.000   78.247143410   16.013705924   440.1677   1   9   0.0003   0.0002   0.0012   0.0001   0.0002   0.0005   0.00  155.8
2018/03/15 09:55:05.000   78.247143409   16.013705923   440.1676   1   9   0.0003   0.0002   0.0012   0.0001   0.0002   0.0005   0.00  157.1
2018/03/15 09:55:06.000   78.247143409   16.013705922   440.1676   1   9   0.0003   0.0002   0.0012   0.0001   0.0002   0.0004   0.00  158.4
2018/03/15 09:55:07.000   78.247143408   16.013705921   440.1676   1   9   0.0003   0.0002   0.0012   0.0001   0.0002   0.0004   0.00  159.3
2018/03/15 09:55:08.000   78.247143408   16.013705920   440.1676   1   9   0.0003   0.0002   0.0012   0.0001   0.0002   0.0004   0.00  160.3
2018/03/15 09:55:09.000   78.247143407   16.013705919   440.1677   1   9   0.0003   0.0002   0.0012   0.0001   0.0002   0.0004   0.00  161.1
2018/03/15 09:55:10.000   78.247143407   16.013705917   440.1677   1   9   0.0003   0.0002   0.0012   0.0001   0.0002   0.0004   0.00  162.1
2018/03/15 09:55:11.000   78.247143407   16.013705916   440.1678   1   9   0.0003   0.0002   0.0012   0.0001   0.0002   0.0004   0.00  163.6
2018/03/15 09:55:12.000   78.247143406   16.013705914   440.1679   1   9   0.0003   0.0002   0.0012   0.0001   0.0002   0.0004   0.00  164.8
2018/03/15 09:55:13.000   78.247143406   16.013705912   440.1680   1   9   0.0003   0.0002   0.0011   0.0001   0.0002   0.0004   0.00  166.5
2018/03/15 09:55:14.000   78.247143406   16.013705911   440.1681   1   9   0.0003   0.0002   0.0011   0.0001   0.0002   0.0004   0.00  167.6
2018/03/15 09:55:15.000   78.247143406   16.013705911   440.1682   1   9   0.0003   0.0002   0.0011   0.0001   0.0002   0.0004   0.00  168.3
2018/03/15 09:55:16.000   78.247143405   16.013705910   440.1682   1   9   0.0003   0.0002   0.0011   0.0001   0.0002   0.0004   0.00  168.7
2018/03/15 09:55:17.000   78.247143405   16.013705909   440.1682   1   9   0.0003   0.0002   0.0011   0.0001   0.0002   0.0004   0.00  169.1
2018/03/15 09:55:18.000   78.247143404   16.013705908   440.1681   1   9   0.0003   0.0002   0.0011   0.0001   0.0002   0.0004   0.00  169.7
2018/03/15 09:55:19.000   78.247143404   16.013705907   440.1681   1   9   0.0003   0.0002   0.0011   0.0001   0.0002   0.0004   0.00  170.2
2018/03/15 09:55:20.000   78.247143403   16.013705905   440.1680   1   9   0.0003   0.0002   0.0011   0.0001   0.0002   0.0004   0.00  170.6
2018/03/15 09:55:21.000   78.247143403   16.013705902   440.1680   1   9   0.0003   0.0002   0.0011   0.0001   0.0002   0.0004   0.00  171.2
2018/03/15 09:55:22.000   78.247143402   16.013705900   440.1679   1   9   0.0003   0.0002   0.0011   0.0001   0.0002   0.0004   0.00  171.6
2018/03/15 09:55:23.000   78.247143402   16.013705896   440.1679   1   9   0.0003   0.0002   0.0011   0.0001   0.0002   0.0004   0.00  171.9
2018/03/15 09:55:24.000   78.247143401   16.013705893   440.1679   1   9   0.0003   0.0002   0.0011   0.0001   0.0002   0.0004   0.00  171.9
2018/03/15 09:55:25.000   78.247143401   16.013705891   440.1678   1   9   0.0003   0.0002   0.0011   0.0001   0.0002   0.0004   0.00  171.7
2018/03/15 09:55:26.000   78.247143400   16.013705888   440.1679   1   9   0.0003   0.0002   0.0011   0.0001   0.0002   0.0004   0.00  171.8
2018/03/15 09:55:27.000   78.247143400   16.013705886   440.1678   1   9   0.0003   0.0002   0.0011   0.0001   0.0002   0.0004   0.00  172.2
2018/03/15 09:55:28.000   78.247143400   16.013705884   440.1677   1   9   0.0003   0.0002   0.0011   0.0001   0.0002   0.0004   0.00  172.6
2018/03/15 09:55:29.000   78.247143400   16.013705883   440.1677   1   9   0.0003   0.0002   0.0011   0.0001   0.0002   0.0004   0.00  173.3
2018/03/15 09:55:30.000   78.247143400   16.013705881   440.1676   1   9   0.0003   0.0002   0.0011   0.0001   0.0002   0.0004   0.00  174.0
2018/03/15 09:55:31.000   78.247143400   16.013705880   440.1676   1   9   0.0003   0.0002   0.0011   0.0001   0.0002   0.0004   0.00  174.8
2018/03/15 09:55:32.000   78.247143400   16.013705880   440.1677   1   9   0.0003   0.0002   0.0011   0.0001   0.0002   0.0004   0.00  175.2
2018/03/15 09:55:33.000   78.247143400   16.013705880   440.1677   1   9   0.0003   0.0002   0.0011   0.0001   0.0002   0.0004   0.00  175.7
2018/03/15 09:55:34.000   78.247143399   16.013705880   440.1676   1   9   0.0003   0.0002   0.0011   0.0001   0.0002   0.0004   0.00  175.6
2018/03/15 09:55:35.000   78.247143399   16.013705881   440.1675   1   9   0.0003   0.0002   0.0011   0.0001   0.0002   0.0004   0.00  175.3
2018/03/15 09:55:36.000   78.247143399   16.013705881   440.1674   1   9   0.0003   0.0002   0.0011   0.0001   0.0002   0.0004   0.00  175.2
2018/03/15 09:55:37.000   78.247143399   16.013705882   440.1673   1   9   0.0003   0.0002   0.0011   0.0001   0.0002   0.0004   0.00  175.3
2018/03/15 09:55:38.000   78.247143399   16.013705883   440.1672   1   9   0.0003   0.0002   0.0011   0.0001   0.0002   0.0004   0.00  175.0
2018/03/15 09:55:39.000   78.247143399   16.013705884   440.1672   1   9   0.0003   0.0002   0.0011   0.0001   0.0002   0.0004   0.00  174.8
2018/03/15 09:55:40.000   78.247143399   16.013705885   440.1673   1   9   0.0003   0.0002   0.0011   0.0001   0.0002   0.0004   0.00  174.6
2018/03/15 09:55:41.000   78.247143399   16.013705885   440.1673   1   9   0.0003   0.0002   0.0011   0.0001   0.0002   0.0004   0.00  173.5
2018/03/15 09:55:42.000   78.247143400   16.013705886   440.1672   1   9   0.0003   0.0002   0.0011   0.0001   0.0002   0.0004   0.00  172.9
2018/03/15 09:55:43.000   78.247143400   16.013705887   440.1672   1   9   0.0003   0.0002   0.0011   0.0001   0.0002   0.0004   0.00  172.4
2018/03/15 09:55:44.000   78.247143400   16.013705888   440.1671   1   9   0.0003   0.0002   0.0011   0.0001   0.0002   0.0004   0.00  172.2
2018/03/15 09:55:45.000   78.247143401   16.013705888   440.1670   1   9   0.0003   0.0002   0.0011   0.0001   0.0002   0.0004   0.00  172.2
2018/03/15 09:55:46.000   78.247143401   16.013705888   440.1669   1   9   0.0003   0.0002   0.0011   0.0001   0.0002   0.0004   0.00  172.4
2018/03/15 09:55:47.000   78.247143401   16.013705889   440.1666   1   9   0.0003   0.0002   0.0011   0.0001   0.0002   0.0004   0.00  172.6
2018/03/15 09:55:48.000   78.247143401   16.013705888   440.1664   1   9   0.0003   0.0002   0.0011   0.0001   0.0002   0.0004   0.00  172.8
2018/03/15 09:55:49.000   78.247143401   16.013705888   440.1662   1   9   0.0003   0.0002   0.0011   0.0001   0.0002   0.0004   0.00  173.3
2018/03/15 09:55:50.000   78.247143401   16.013705888   440.1660   1   9   0.0003   0.0002   0.0011   0.0001   0.0002   0.0004   0.00  174.2
2018/03/15 09:55:51.000   78.247143401   16.013705887   440.1658   1   9   0.0003   0.0002   0.0011   0.0001   0.0002   0.0004   0.00  174.9
2018/03/15 09:55:52.000   78.247143401   16.013705886   440.1655   1   9   0.0003   0.0002   0.0011   0.0001   0.0002   0.0004   0.00  175.6
2018/03/15 09:55:53.000   78.247143401   16.013705885   440.1653   1   9   0.0003   0.0002   0.0011   0.0001   0.0002   0.0004   0.00  176.3
2018/03/15 09:55:54.000   78.247143402   16.013705884   440.1651   1   9   0.0003   0.0002   0.0011   0.0001   0.0002   0.0004   0.00  176.5
2018/03/15 09:55:55.000   78.247143402   16.013705883   440.1648   1   9   0.0003   0.0002   0.0011   0.0001   0.0002   0.0004   0.00  176.9
2018/03/15 09:55:56.000   78.247143402   16.013705882   440.1645   1   9   0.0003   0.0002   0.0011   0.0001   0.0002   0.0004   0.00  176.9
2018/03/15 09:55:57.000   78.247143402   16.013705881   440.1641   1   9   0.0003   0.0002   0.0011   0.0001   0.0002   0.0004   0.00  177.1
2018/03/15 09:55:58.000   78.247143401   16.013705880   440.1637   1   9   0.0003   0.0002   0.0011   0.0001   0.0002   0.0004   0.00  176.8
2018/03/15 09:55:59.000   78.247143401   16.013705879   440.1634   1   9   0.0003   0.0002   0.0011   0.0001   0.0002   0.0004   0.00  176.5
2018/03/15 09:56:00.000   78.247143401   16.013705878   440.1630   1   9   0.0003   0.0002   0.0011   0.0001   0.0002   0.0004   0.00  176.1
2018/03/15 09:56:01.000   78.247143401   16.013705877   440.1627   1   9   0.0003   0.0002   0.0011   0.0001   0.0002   0.0004   0.00  175.6
2018/03/15 09:56:02.000   78.247143401   16.013705875   440.1624   1   9   0.0003   0.0002   0.0011   0.0001   0.0002   0.0004   0.00  175.0
2018/03/15 09:56:03.000   78.247143400   16.013705874   440.1621   1   9   0.0003   0.0002   0.0011   0.0001   0.0002   0.0004   0.00  174.7
2018/03/15 09:56:04.000   78.247143400   16.013705871   440.1618   1   9   0.0003   0.0002   0.0011   0.0001   0.0002   0.0004   0.00  174.0
2018/03/15 09:56:05.000   78.247143400   16.013705869   440.1615   1   9   0.0003   0.0002   0.0011   0.0001   0.0002   0.0004   0.00  173.7
2018/03/15 09:56:06.000   78.247143400   16.013705867   440.1612   1   9   0.0003   0.0002   0.0011   0.0001   0.0002   0.0004   0.00  173.1
2018/03/15 09:56:07.000   78.247143399   16.013705864   440.1609   1   9   0.0003   0.0002   0.0011   0.0001   0.0002   0.0004   0.00  172.9
2018/03/15 09:56:08.000   78.247143399   16.013705861   440.1607   1   9   0.0003   0.0002   0.0011   0.0001   0.0002   0.0004   0.00  172.6
2018/03/15 09:56:09.000   78.247143399   16.013705858   440.1605   1   9   0.0003   0.0002   0.0011   0.0001   0.0002   0.0004   0.00  172.3
2018/03/15 09:56:10.000   78.247143399   16.013705855   440.1603   1   9   0.0003   0.0002   0.0011   0.0001   0.0002   0.0004   0.00  171.8
2018/03/15 09:56:11.000   78.247143398   16.013705852   440.1601   1   9   0.0003   0.0002   0.0011   0.0001   0.0002   0.0004   0.00  171.5
2018/03/15 09:56:12.000   78.247143398   16.013705850   440.1599   1   9   0.0003   0.0002   0.0011   0.0001   0.0002   0.0004   0.00  171.1
2018/03/15 09:56:13.000   78.247143397   16.013705848   440.1597   1   9   0.0003   0.0002   0.0011   0.0001   0.0002   0.0004   0.00  171.0
2018/03/15 09:56:14.000   78.247143396   16.013705846   440.1595   1   9   0.0003   0.0002   0.0011   0.0001   0.0002   0.0004   0.00  170.9
2018/03/15 09:56:15.000   78.247143396   16.013705843   440.1593   1   9   0.0003   0.0002   0.0011   0.0001   0.0002   0.0004   0.00  171.0
2018/03/15 09:56:16.000   78.247143395   16.013705841   440.1592   1   9   0.0003   0.0002   0.0011   0.0001   0.0002   0.0004   0.00  171.3
2018/03/15 09:56:17.000   78.247143394   16.013705838   440.1590   1   9   0.0003   0.0002   0.0011   0.0001   0.0002   0.0004   0.00  172.0
2018/03/15 09:56:18.000   78.247143393   16.013705836   440.1589   1   9   0.0003   0.0002   0.0011   0.0001   0.0002   0.0004   0.00  172.5
2018/03/15 09:56:19.000   78.247143393   16.013705834   440.1588   1   9   0.0003   0.0002   0.0011   0.0001   0.0002   0.0004   0.00  173.6
2018/03/15 09:56:20.000   78.247143393   16.013705832   440.1587   1   9   0.0003   0.0002   0.0011   0.0001   0.0002   0.0004   0.00  174.6
2018/03/15 09:56:21.000   78.247143392   16.013705832   440.1586   1   9   0.0003   0.0002   0.0011   0.0001   0.0002   0.0004   0.00  175.6
2018/03/15 09:56:22.000   78.247143392   16.013705831   440.1585   1   9   0.0003   0.0002   0.0011   0.0001   0.0002   0.0004   0.00  176.9
2018/03/15 09:56:23.000   78.247143392   16.013705831   440.1584   1   9   0.0003   0.0002   0.0011   0.0001   0.0002   0.0004   0.00  178.2
2018/03/15 09:56:24.000   78.247143392   16.013705831   440.1583   1   9   0.0003   0.0002   0.0011   0.0001   0.0002   0.0004   0.00  179.7
2018/03/15 09:56:25.000   78.247143391   16.013705831   440.1582   1   9   0.0003   0.0002   0.0011   0.0001   0.0002   0.0004   0.00  181.1
2018/03/15 09:56:26.000   78.247143391   16.013705831   440.1581   1   9   0.0003   0.0002   0.0011   0.0001   0.0002   0.0004   0.00  182.6
2018/03/15 09:56:27.000   78.247143391   16.013705831   440.1580   1   9   0.0003   0.0002   0.0011   0.0001   0.0002   0.0004   0.00  184.3
2018/03/15 09:56:28.000   78.247143392   16.013705832   440.1579   1   9   0.0003   0.0002   0.0011   0.0001   0.0002   0.0004   0.00  186.5
2018/03/15 09:56:29.000   78.247143392   16.013705832   440.1579   1   9   0.0003   0.0002   0.0011   0.0001   0.0002   0.0004   0.00  188.9
2018/03/15 09:56:30.000   78.247143392   16.013705832   440.1579   1   9   0.0003   0.0002   0.0011   0.0001   0.0002   0.0004   0.00  191.6
2018/03/15 09:56:31.000   78.247143392   16.013705832   440.1578   1   9   0.0003   0.0002   0.0011   0.0001   0.0002   0.0004   0.00  194.1
2018/03/15 09:56:32.000   78.247143393   16.013705832   440.1577   1   9   0.0003   0.0002   0.0011   0.0001   0.0002   0.0004   0.00  196.6
2018/03/15 09:56:33.000   78.247143393   16.013705832   440.1576   1   9   0.0003   0.0002   0.0011   0.0001   0.0002   0.0004   0.00  198.9
2018/03/15 09:56:34.000   78.247143394   16.013705833   440.1575   1   9   0.0003   0.0002   0.0011   0.0001   0.0002   0.0004   0.00  201.5
2018/03/15 09:56:35.000   78.247143394   16.013705833   440.1574   1   9   0.0003   0.0002   0.0011   0.0001   0.0002   0.0004   0.00  203.9
2018/03/15 09:56:36.000   78.247143395   16.013705834   440.1573   1   9   0.0003   0.0002   0.0011   0.0001   0.0002   0.0004   0.00  206.8
2018/03/15 09:56:37.000   78.247143396   16.013705835   440.1573   1   9   0.0003   0.0002   0.0011   0.0001   0.0002   0.0004   0.00  211.2
2018/03/15 09:56:38.000   78.247143397   16.013705837   440.1573   1   9   0.0003   0.0002   0.0011   0.0001   0.0002   0.0004   0.00  216.7
2018/03/15 09:56:39.000   78.247143398   16.013705839   440.1574   1   9   0.0003   0.0002   0.0011   0.0001   0.0002   0.0004   0.00  223.3
2018/03/15 09:56:40.000   78.247143399   16.013705841   440.1575   1   9   0.0003   0.0002   0.0011   0.0001   0.0002   0.0004   0.00  231.2
2018/03/15 09:56:41.000   78.247143400   16.013705844   440.1576   1   9   0.0003   0.0002   0.0011   0.0001   0.0002   0.0004   0.00  239.4
2018/03/15 09:56:42.000   78.247143401   16.013705846   440.1577   1   9   0.0003   0.0002   0.0011   0.0001   0.0002   0.0004   0.00  248.3
2018/03/15 09:56:43.000   78.247143402   16.013705849   440.1577   1   9   0.0003   0.0002   0.0010   0.0001   0.0002   0.0004   0.00  256.4
2018/03/15 09:56:44.000   78.247143403   16.013705851   440.1578   1   9   0.0003   0.0002   0.0010   0.0001   0.0002   0.0004   0.00  263.7
2018/03/15 09:56:45.000   78.247143404   16.013705853   440.1578   1   9   0.0003   0.0002   0.0010   0.0001   0.0002   0.0004   0.00  271.1
2018/03/15 09:56:46.000   78.247143404   16.013705856   440.1578   1   9   0.0003   0.0002   0.0010   0.0001   0.0002   0.0004   0.00  278.5
2018/03/15 09:56:47.000   78.247143405   16.013705859   440.1579   1   9   0.0003   0.0002   0.0010   0.0001   0.0002   0.0004   0.00  285.8
2018/03/15 09:56:48.000   78.247143406   16.013705861   440.1579   1   9   0.0003   0.0002   0.0010   0.0001   0.0002   0.0004   0.00  293.3
2018/03/15 09:56:49.000   78.247143407   16.013705865   440.1579   1   9   0.0003   0.0002   0.0010   0.0001   0.0002   0.0004   0.00  300.4
2018/03/15 09:56:50.000   78.247143408   16.013705868   440.1579   1   9   0.0003   0.0002   0.0010   0.0001   0.0002   0.0004   0.00  307.6
2018/03/15 09:56:51.000   78.247143409   16.013705871   440.1580   1   9   0.0003   0.0002   0.0010   0.0001   0.0002   0.0004   0.00  315.1
2018/03/15 09:56:52.000   78.247143409   16.013705874   440.1580   1   9   0.0003   0.0002   0.0010   0.0001   0.0002   0.0004   0.00  323.1
2018/03/15 09:56:53.000   78.247143410   16.013705877   440.1582   1   9   0.0003   0.0002   0.0010   0.0001   0.0002   0.0004   0.00  330.8
2018/03/15 09:56:54.000   78.247143411   16.013705881   440.1584   1   9   0.0003   0.0002   0.0010   0.0001   0.0002   0.0004   0.00  338.8
2018/03/15 09:56:55.000   78.247143411   16.013705884   440.1586   1   9   0.0003   0.0002   0.0010   0.0001   0.0002   0.0004   0.00  346.6
2018/03/15 09:56:56.000   78.247143412   16.013705888   440.1587   1   9   0.0003   0.0002   0.0010   0.0001   0.0002   0.0004   0.00  353.7
2018/03/15 09:56:57.000   78.247143412   16.013705891   440.1589   1   9   0.0003   0.0002   0.0010   0.0001   0.0002   0.0004   0.00  359.0
2018/03/15 09:56:58.000   78.247143413   16.013705894   440.1591   1   9   0.0003   0.0002   0.0010   0.0001   0.0002   0.0004   0.00  362.6
2018/03/15 09:56:59.000   78.247143413   16.013705897   440.1592   1   9   0.0003   0.0002   0.0010   0.0001   0.0002   0.0004   0.00  364.2
2018/03/15 09:57:00.000   78.247143414   16.013705899   440.1593   1   9   0.0003   0.0002   0.0010   0.0001   0.0002   0.0004   0.00  365.0
2018/03/15 09:57:01.000   78.247143414   16.013705901   440.1593   1   9   0.0003   0.0002   0.0010   0.0001   0.0002   0.0004   0.00  366.6
2018/03/15 09:57:02.000   78.247143413   16.013705903   440.1592   1   9   0.0003   0.0002   0.0010   0.0001   0.0002   0.0004   0.00  368.1
2018/03/15 09:57:03.000   78.247143414   16.013705905   440.1592   1   9   0.0003   0.0002   0.0010   0.0001   0.0002   0.0004   0.00  369.4
2018/03/15 09:57:04.000   78.247143414   16.013705906   440.1592   1   9   0.0003   0.0002   0.0010   0.0001   0.0002   0.0004   0.00  371.3
