% program   : RTKPOST ver.2.4.2
% inp file  : Z:\home\linda\Documents\Spring18\GitHub_Unis\data\processed_data\46250705.obs
% inp file  : Z:\home\linda\Documents\Spring18\GitHub_Unis\data\processed_data\46250705.nav
% obs start : 2018/03/11 12:25:09.0 GPST (week1992  44709.0s)
% obs end   : 2018/03/11 12:40:16.0 GPST (week1992  45616.0s)
% pos mode  : single
% elev mask : 15.0 deg
% ionos opt : broadcast
% tropo opt : saastamoinen
% ephemeris : broadcast
% navi sys  : gps glonass galileo qzss sbas
%
% (lat/lon/height=WGS84/ellipsoidal,Q=1:fix,2:float,3:sbas,4:dgps,5:single,6:ppp,ns=# of satellites)
%  GPST                  latitude(deg) longitude(deg)  height(m)   Q  ns   sdn(m)   sde(m)   sdu(m)  sdne(m)  sdeu(m)  sdun(m) age(s)  ratio
2018/03/11 12:25:09.000   78.256425930   16.214759799   423.9645   5   8   2.0020   2.6446  13.6900  -1.3662   4.9363  -3.1825   0.00    0.0
2018/03/11 12:25:10.000   78.256431023   16.214772892   422.1520   5   8   2.0021   2.6444  13.6905  -1.3664   4.9359  -3.1836   0.00    0.0
2018/03/11 12:25:11.000   78.256433487   16.214760007   420.4232   5   8   2.0022   2.6442  13.6910  -1.3667   4.9355  -3.1847   0.00    0.0
2018/03/11 12:25:12.000   78.256435082   16.214746657   420.9736   5   8   2.0024   2.6440  13.6914  -1.3670   4.9351  -3.1859   0.00    0.0
2018/03/11 12:25:13.000   78.256432644   16.214754105   422.3509   5   8   2.0025   2.6438  13.6918  -1.3672   4.9347  -3.1870   0.00    0.0
2018/03/11 12:25:14.000   78.256430904   16.214739653   424.2129   5   8   2.0027   2.6436  13.6923  -1.3675   4.9344  -3.1881   0.00    0.0
2018/03/11 12:25:15.000   78.256432752   16.214743660   421.7463   5   8   2.0028   2.6434  13.6927  -1.3677   4.9340  -3.1892   0.00    0.0
2018/03/11 12:25:16.000   78.256431434   16.214743722   421.3297   5   8   2.0030   2.6432  13.6931  -1.3680   4.9336  -3.1903   0.00    0.0
2018/03/11 12:25:17.000   78.256431614   16.214750010   420.5889   5   8   2.0031   2.6430  13.6935  -1.3682   4.9332  -3.1914   0.00    0.0
2018/03/11 12:25:18.000   78.256425134   16.214763484   423.7616   5   8   2.0033   2.6428  13.6939  -1.3685   4.9328  -3.1925   0.00    0.0
2018/03/11 12:25:19.000   78.256421171   16.214771813   425.0265   5   8   2.0034   2.6426  13.6943  -1.3687   4.9324  -3.1935   0.00    0.0
2018/03/11 12:25:20.000   78.256423328   16.214761893   425.8010   5   8   2.0036   2.6423  13.6947  -1.3690   4.9320  -3.1946   0.00    0.0
2018/03/11 12:25:21.000   78.256430789   16.214759818   423.7937   5   8   2.0037   2.6421  13.6951  -1.3692   4.9315  -3.1957   0.00    0.0
2018/03/11 12:25:22.000   78.256428793   16.214756080   421.9934   5   8   2.0039   2.6419  13.6954  -1.3694   4.9311  -3.1968   0.00    0.0
2018/03/11 12:25:23.000   78.256423080   16.214766449   426.5190   5   8   2.0040   2.6417  13.6958  -1.3697   4.9307  -3.1979   0.00    0.0
2018/03/11 12:25:24.000   78.256427872   16.214734699   421.2473   5   8   2.0041   2.6415  13.6961  -1.3699   4.9303  -3.1990   0.00    0.0
2018/03/11 12:25:25.000   78.256442716   16.214740184   415.9347   5   8   2.0043   2.6413  13.6965  -1.3702   4.9299  -3.2000   0.00    0.0
2018/03/11 12:25:26.000   78.256437824   16.214728547   419.0091   5   8   2.0044   2.6411  13.6968  -1.3704   4.9294  -3.2011   0.00    0.0
2018/03/11 12:25:27.000   78.256433968   16.214730808   421.9400   5   8   2.0046   2.6409  13.6971  -1.3707   4.9290  -3.2022   0.00    0.0
2018/03/11 12:25:28.000   78.256426838   16.214740964   422.6776   5   8   2.0047   2.6407  13.6975  -1.3709   4.9286  -3.2032   0.00    0.0
2018/03/11 12:25:29.000   78.256432700   16.214758455   420.8685   5   8   2.0049   2.6405  13.6978  -1.3711   4.9281  -3.2043   0.00    0.0
2018/03/11 12:25:30.000   78.256433762   16.214769461   422.0530   5   8   2.0050   2.6403  13.6981  -1.3714   4.9277  -3.2054   0.00    0.0
2018/03/11 12:25:31.000   78.256426837   16.214750314   423.0128   5   8   2.0052   2.6400  13.6984  -1.3716   4.9272  -3.2064   0.00    0.0
2018/03/11 12:25:32.000   78.256423847   16.214750951   424.8299   5   8   2.0053   2.6398  13.6986  -1.3718   4.9268  -3.2075   0.00    0.0
2018/03/11 12:25:33.000   78.256427470   16.214753514   423.9381   5   8   2.0054   2.6396  13.6989  -1.3721   4.9263  -3.2085   0.00    0.0
2018/03/11 12:25:34.000   78.256431876   16.214756252   421.0495   5   8   2.0056   2.6394  13.6992  -1.3723   4.9259  -3.2096   0.00    0.0
2018/03/11 12:25:35.000   78.256426874   16.214743699   421.9742   5   8   2.0057   2.6392  13.6994  -1.3725   4.9254  -3.2106   0.00    0.0
2018/03/11 12:25:36.000   78.256420516   16.214735786   425.8177   5   8   2.0059   2.6390  13.6997  -1.3728   4.9250  -3.2116   0.00    0.0
2018/03/11 12:25:37.000   78.256431495   16.214735144   421.5564   5   8   2.0060   2.6388  13.6999  -1.3730   4.9245  -3.2127   0.00    0.0
2018/03/11 12:25:38.000   78.256437854   16.214754369   420.5111   5   8   2.0062   2.6385  13.7002  -1.3732   4.9240  -3.2137   0.00    0.0
2018/03/11 12:25:39.000   78.256429775   16.214750607   421.4280   5   8   2.0063   2.6383  13.7004  -1.3735   4.9236  -3.2148   0.00    0.0
2018/03/11 12:25:40.000   78.256426840   16.214745735   424.3336   5   8   2.0064   2.6381  13.7006  -1.3737   4.9231  -3.2158   0.00    0.0
2018/03/11 12:25:41.000   78.256431861   16.214743320   419.7766   5   8   2.0066   2.6379  13.7008  -1.3739   4.9226  -3.2168   0.00    0.0
2018/03/11 12:25:42.000   78.256439368   16.214732703   418.6725   5   8   2.0067   2.6377  13.7010  -1.3741   4.9221  -3.2179   0.00    0.0
2018/03/11 12:25:43.000   78.256434945   16.214739082   419.8872   5   8   2.0069   2.6374  13.7012  -1.3744   4.9216  -3.2189   0.00    0.0
2018/03/11 12:25:44.000   78.256427209   16.214742093   423.5769   5   8   2.0070   2.6372  13.7014  -1.3746   4.9212  -3.2199   0.00    0.0
2018/03/11 12:25:45.000   78.256421107   16.214740682   426.1365   5   8   2.0072   2.6370  13.7015  -1.3748   4.9207  -3.2209   0.00    0.0
2018/03/11 12:25:46.000   78.256434027   16.214751511   420.7064   5   8   2.0073   2.6368  13.7017  -1.3750   4.9202  -3.2219   0.00    0.0
2018/03/11 12:25:47.000   78.256434894   16.214751478   420.7711   5   8   2.0074   2.6365  13.7019  -1.3752   4.9197  -3.2229   0.00    0.0
2018/03/11 12:25:48.000   78.256429316   16.214771884   422.5368   5   8   2.0076   2.6363  13.7020  -1.3755   4.9192  -3.2239   0.00    0.0
2018/03/11 12:25:49.000   78.256422693   16.214761201   425.7935   5   8   2.0077   2.6361  13.7021  -1.3757   4.9187  -3.2249   0.00    0.0
2018/03/11 12:25:50.000   78.256429809   16.214763206   422.4830   5   8   2.0079   2.6358  13.7023  -1.3759   4.9181  -3.2259   0.00    0.0
2018/03/11 12:25:51.000   78.256434955   16.214743905   420.6503   5   8   2.0080   2.6356  13.7024  -1.3761   4.9176  -3.2270   0.00    0.0
2018/03/11 12:25:52.000   78.256430477   16.214730518   420.7670   5   8   2.0082   2.6354  13.7025  -1.3763   4.9171  -3.2279   0.00    0.0
2018/03/11 12:25:53.000   78.256424768   16.214740868   425.0532   5   8   2.0083   2.6352  13.7026  -1.3765   4.9166  -3.2289   0.00    0.0
2018/03/11 12:25:54.000   78.256431483   16.214733765   423.2943   5   8   2.0084   2.6349  13.7027  -1.3768   4.9161  -3.2299   0.00    0.0
2018/03/11 12:25:55.000   78.256434020   16.214742039   420.8016   5   8   2.0086   2.6347  13.7028  -1.3770   4.9156  -3.2309   0.00    0.0
2018/03/11 12:25:56.000   78.256435887   16.214734550   420.4562   5   8   2.0087   2.6345  13.7029  -1.3772   4.9150  -3.2319   0.00    0.0
2018/03/11 12:25:57.000   78.256431281   16.214744874   420.8727   5   8   2.0089   2.6342  13.7030  -1.3774   4.9145  -3.2329   0.00    0.0
2018/03/11 12:25:58.000   78.256431630   16.214764967   423.9964   5   8   2.0090   2.6340  13.7030  -1.3776   4.9140  -3.2339   0.00    0.0
2018/03/11 12:25:59.000   78.256427858   16.214779937   423.0827   5   8   2.0091   2.6338  13.7031  -1.3778   4.9134  -3.2348   0.00    0.0
2018/03/11 12:26:00.000   78.256424869   16.214761650   422.7325   5   8   2.0093   2.6335  13.7031  -1.3780   4.9129  -3.2358   0.00    0.0
2018/03/11 12:26:01.000   78.256426079   16.214744032   422.5081   5   8   2.0094   2.6333  13.7032  -1.3782   4.9123  -3.2368   0.00    0.0
2018/03/11 12:26:02.000   78.256426235   16.214782482   425.0911   5   8   2.0096   2.6330  13.7032  -1.3784   4.9118  -3.2378   0.00    0.0
2018/03/11 12:26:03.000   78.256428363   16.214775445   422.2506   5   8   2.0097   2.6328  13.7032  -1.3786   4.9112  -3.2387   0.00    0.0
2018/03/11 12:26:04.000   78.256433212   16.214761953   420.0343   5   8   2.0098   2.6326  13.7032  -1.3788   4.9107  -3.2397   0.00    0.0
2018/03/11 12:26:05.000   78.256429130   16.214758739   423.4658   5   8   2.0100   2.6323  13.7032  -1.3790   4.9101  -3.2406   0.00    0.0
2018/03/11 12:26:06.000   78.256423653   16.214735943   424.0916   5   8   2.0101   2.6321  13.7032  -1.3792   4.9096  -3.2416   0.00    0.0
2018/03/11 12:26:07.000   78.256427646   16.214726375   424.4689   5   8   2.0103   2.6319  13.7032  -1.3794   4.9090  -3.2426   0.00    0.0
2018/03/11 12:26:08.000   78.256436298   16.214733621   420.6948   5   8   2.0104   2.6316  13.7032  -1.3796   4.9084  -3.2435   0.00    0.0
2018/03/11 12:26:09.000   78.256441461   16.214726773   417.4499   5   8   2.0105   2.6314  13.7032  -1.3798   4.9079  -3.2445   0.00    0.0
2018/03/11 12:26:10.000   78.256431458   16.214741796   422.2476   5   8   2.0107   2.6311  13.7032  -1.3800   4.9073  -3.2454   0.00    0.0
2018/03/11 12:26:11.000   78.256421667   16.214752451   425.9613   5   8   2.0108   2.6309  13.7031  -1.3802   4.9067  -3.2463   0.00    0.0
2018/03/11 12:26:12.000   78.256424683   16.214749911   424.0955   5   8   2.0109   2.6306  13.7031  -1.3804   4.9061  -3.2473   0.00    0.0
2018/03/11 12:26:13.000   78.256433254   16.214774895   420.2140   5   8   2.0111   2.6304  13.7030  -1.3806   4.9056  -3.2482   0.00    0.0
2018/03/11 12:26:14.000   78.256435133   16.214769615   418.3598   5   8   2.0112   2.6301  13.7029  -1.3808   4.9050  -3.2492   0.00    0.0
2018/03/11 12:26:15.000   78.256433449   16.214746971   420.6263   5   8   2.0114   2.6299  13.7028  -1.3810   4.9044  -3.2501   0.00    0.0
2018/03/11 12:26:16.000   78.256430352   16.214725800   421.9196   5   8   2.0115   2.6296  13.7028  -1.3812   4.9038  -3.2510   0.00    0.0
2018/03/11 12:26:17.000   78.256432944   16.214732705   419.9759   5   8   2.0116   2.6294  13.7027  -1.3814   4.9032  -3.2519   0.00    0.0
2018/03/11 12:26:18.000   78.256434948   16.214749077   420.6752   5   8   2.0118   2.6291  13.7026  -1.3816   4.9026  -3.2529   0.00    0.0
2018/03/11 12:26:19.000   78.256429698   16.214722301   421.3842   5   8   2.0119   2.6289  13.7025  -1.3818   4.9020  -3.2538   0.00    0.0
2018/03/11 12:26:20.000   78.256429197   16.214747569   424.5312   5   8   2.0120   2.6286  13.7023  -1.3820   4.9014  -3.2547   0.00    0.0
2018/03/11 12:26:21.000   78.256429705   16.214747305   423.0920   5   8   2.0122   2.6284  13.7022  -1.3822   4.9008  -3.2556   0.00    0.0
2018/03/11 12:26:22.000   78.256428308   16.214748186   420.9562   5   8   2.0123   2.6281  13.7021  -1.3823   4.9002  -3.2565   0.00    0.0
2018/03/11 12:26:23.000   78.256424282   16.214756663   423.4492   5   8   2.0125   2.6279  13.7019  -1.3825   4.8995  -3.2574   0.00    0.0
2018/03/11 12:26:24.000   78.256423491   16.214772395   426.2745   5   8   2.0126   2.6276  13.7018  -1.3827   4.8989  -3.2583   0.00    0.0
2018/03/11 12:26:25.000   78.256428959   16.214763364   423.5567   5   8   2.0127   2.6274  13.7016  -1.3829   4.8983  -3.2592   0.00    0.0
2018/03/11 12:26:26.000   78.256427099   16.214762989   422.5869   5   8   2.0129   2.6271  13.7014  -1.3831   4.8977  -3.2601   0.00    0.0
2018/03/11 12:26:27.000   78.256427304   16.214760387   424.2727   5   8   2.0130   2.6269  13.7013  -1.3833   4.8970  -3.2610   0.00    0.0
2018/03/11 12:26:28.000   78.256427254   16.214766811   425.8217   5   8   2.0131   2.6266  13.7011  -1.3834   4.8964  -3.2619   0.00    0.0
2018/03/11 12:26:29.000   78.256436576   16.214746241   420.9103   5   8   2.0133   2.6263  13.7009  -1.3836   4.8958  -3.2628   0.00    0.0
2018/03/11 12:26:30.000   78.256438530   16.214753317   419.8876   5   8   2.0134   2.6261  13.7007  -1.3838   4.8951  -3.2637   0.00    0.0
2018/03/11 12:26:31.000   78.256435785   16.214747507   418.4409   5   8   2.0135   2.6258  13.7005  -1.3840   4.8945  -3.2646   0.00    0.0
2018/03/11 12:26:32.000   78.256429218   16.214744576   421.6263   5   8   2.0137   2.6256  13.7002  -1.3841   4.8938  -3.2655   0.00    0.0
2018/03/11 12:26:33.000   78.256425719   16.214738701   422.5503   5   8   2.0138   2.6253  13.7000  -1.3843   4.8932  -3.2664   0.00    0.0
2018/03/11 12:26:34.000   78.256436349   16.214727510   418.5312   5   8   2.0139   2.6250  13.6998  -1.3845   4.8925  -3.2672   0.00    0.0
2018/03/11 12:26:35.000   78.256439785   16.214733433   417.0275   5   8   2.0141   2.6248  13.6995  -1.3847   4.8919  -3.2681   0.00    0.0
2018/03/11 12:26:36.000   78.256431756   16.214754369   421.7717   5   8   2.0142   2.6245  13.6993  -1.3848   4.8912  -3.2690   0.00    0.0
2018/03/11 12:26:37.000   78.256425166   16.214730711   424.7235   5   8   2.0143   2.6243  13.6990  -1.3850   4.8906  -3.2698   0.00    0.0
2018/03/11 12:26:38.000   78.256427296   16.214739091   423.3447   5   8   2.0145   2.6240  13.6988  -1.3852   4.8899  -3.2707   0.00    0.0
2018/03/11 12:26:39.000   78.256432485   16.214760014   422.5137   5   8   2.0146   2.6237  13.6985  -1.3854   4.8892  -3.2716   0.00    0.0
2018/03/11 12:26:40.000   78.256431195   16.214743756   422.2934   5   8   2.0147   2.6235  13.6982  -1.3855   4.8886  -3.2724   0.00    0.0
2018/03/11 12:26:41.000   78.256423635   16.214742012   423.7574   5   8   2.0149   2.6232  13.6979  -1.3857   4.8879  -3.2733   0.00    0.0
2018/03/11 12:26:42.000   78.256425727   16.214738555   421.7891   5   8   2.0150   2.6229  13.6976  -1.3859   4.8872  -3.2741   0.00    0.0
2018/03/11 12:26:43.000   78.256436592   16.214742466   419.0066   5   8   2.0151   2.6227  13.6973  -1.3860   4.8865  -3.2750   0.00    0.0
2018/03/11 12:26:44.000   78.256433211   16.214751134   421.3135   5   8   2.0153   2.6224  13.6970  -1.3862   4.8858  -3.2758   0.00    0.0
2018/03/11 12:26:45.000   78.256426203   16.214755837   424.4835   5   8   2.0154   2.6221  13.6966  -1.3864   4.8851  -3.2767   0.00    0.0
2018/03/11 12:26:46.000   78.256423206   16.214747252   424.2329   5   8   2.0155   2.6219  13.6963  -1.3865   4.8845  -3.2775   0.00    0.0
2018/03/11 12:26:47.000   78.256429041   16.214741751   422.2526   5   8   2.0157   2.6216  13.6960  -1.3867   4.8838  -3.2784   0.00    0.0
2018/03/11 12:26:48.000   78.256431943   16.214732361   421.0352   5   8   2.0158   2.6213  13.6956  -1.3868   4.8831  -3.2792   0.00    0.0
2018/03/11 12:26:49.000   78.256430837   16.214744273   422.0955   5   8   2.0159   2.6210  13.6952  -1.3870   4.8824  -3.2800   0.00    0.0
2018/03/11 12:26:50.000   78.256424312   16.214737084   422.4967   5   8   2.0161   2.6208  13.6949  -1.3872   4.8817  -3.2809   0.00    0.0
2018/03/11 12:26:51.000   78.256431868   16.214757051   422.0306   5   8   2.0162   2.6205  13.6945  -1.3873   4.8810  -3.2817   0.00    0.0
2018/03/11 12:26:52.000   78.256438157   16.214754091   418.4785   5   8   2.0163   2.6202  13.6941  -1.3875   4.8802  -3.2825   0.00    0.0
2018/03/11 12:26:53.000   78.256433532   16.214768190   420.7896   5   8   2.0165   2.6199  13.6937  -1.3876   4.8795  -3.2833   0.00    0.0
2018/03/11 12:26:54.000   78.256422785   16.214759529   425.3902   5   8   2.0166   2.6197  13.6933  -1.3878   4.8788  -3.2841   0.00    0.0
2018/03/11 12:26:55.000   78.256422698   16.214754438   425.4509   5   8   2.0167   2.6194  13.6929  -1.3879   4.8781  -3.2850   0.00    0.0
2018/03/11 12:26:56.000   78.256436551   16.214763271   419.0474   5   8   2.0169   2.6191  13.6925  -1.3881   4.8774  -3.2858   0.00    0.0
2018/03/11 12:26:57.000   78.256441248   16.214757225   416.3915   5   8   2.0170   2.6188  13.6920  -1.3882   4.8766  -3.2866   0.00    0.0
2018/03/11 12:26:58.000   78.256433570   16.214770790   420.5948   5   8   2.0171   2.6185  13.6916  -1.3884   4.8759  -3.2874   0.00    0.0
2018/03/11 12:26:59.000   78.256418933   16.214746269   426.9267   5   8   2.0172   2.6183  13.6912  -1.3885   4.8752  -3.2882   0.00    0.0
2018/03/11 12:27:00.000   78.256417028   16.214753106   427.5776   5   8   2.0174   2.6180  13.6907  -1.3887   4.8744  -3.2890   0.00    0.0
2018/03/11 12:27:01.000   78.256428599   16.214764966   423.9563   5   8   2.0175   2.6177  13.6903  -1.3888   4.8737  -3.2898   0.00    0.0
2018/03/11 12:27:02.000   78.256434807   16.214763343   420.6836   5   8   2.0176   2.6174  13.6898  -1.3890   4.8730  -3.2906   0.00    0.0
2018/03/11 12:27:03.000   78.256428534   16.214764683   423.0990   5   8   2.0178   2.6171  13.6893  -1.3891   4.8722  -3.2914   0.00    0.0
2018/03/11 12:27:04.000   78.256416422   16.214743164   428.4415   5   8   2.0179   2.6169  13.6888  -1.3893   4.8715  -3.2922   0.00    0.0
2018/03/11 12:27:05.000   78.256419959   16.214764041   428.4992   5   8   2.0180   2.6166  13.6883  -1.3894   4.8707  -3.2930   0.00    0.0
2018/03/11 12:27:06.000   78.256428544   16.214755730   424.4497   5   8   2.0181   2.6163  13.6878  -1.3896   4.8700  -3.2937   0.00    0.0
2018/03/11 12:27:07.000   78.256427174   16.214738425   421.4749   5   8   2.0183   2.6160  13.6873  -1.3897   4.8692  -3.2945   0.00    0.0
2018/03/11 12:27:08.000   78.256426217   16.214758382   420.9528   5   8   2.0184   2.6157  13.6868  -1.3898   4.8684  -3.2953   0.00    0.0
2018/03/11 12:27:09.000   78.256433541   16.214777742   422.3877   5   8   2.0185   2.6154  13.6863  -1.3900   4.8677  -3.2961   0.00    0.0
2018/03/11 12:27:10.000   78.256432994   16.214756175   421.3322   5   8   2.0187   2.6151  13.6857  -1.3901   4.8669  -3.2969   0.00    0.0
2018/03/11 12:27:11.000   78.256429691   16.214725465   419.3154   5   8   2.0188   2.6149  13.6852  -1.3903   4.8661  -3.2976   0.00    0.0
2018/03/11 12:27:12.000   78.256428802   16.214748828   421.8112   5   8   2.0189   2.6146  13.6846  -1.3904   4.8654  -3.2984   0.00    0.0
2018/03/11 12:27:13.000   78.256428063   16.214767802   422.3759   5   8   2.0190   2.6143  13.6841  -1.3905   4.8646  -3.2991   0.00    0.0
2018/03/11 12:27:14.000   78.256432789   16.214747823   422.0306   5   8   2.0192   2.6140  13.6835  -1.3907   4.8638  -3.2999   0.00    0.0
2018/03/11 12:27:15.000   78.256431138   16.214737077   423.0002   5   8   2.0193   2.6137  13.6829  -1.3908   4.8630  -3.3007   0.00    0.0
2018/03/11 12:27:16.000   78.256428314   16.214744551   423.8877   5   8   2.0194   2.6134  13.6823  -1.3909   4.8622  -3.3014   0.00    0.0
2018/03/11 12:27:17.000   78.256424343   16.214740335   423.3310   5   8   2.0195   2.6131  13.6818  -1.3911   4.8614  -3.3022   0.00    0.0
2018/03/11 12:27:18.000   78.256430741   16.214713749   419.9558   5   8   2.0197   2.6128  13.6812  -1.3912   4.8606  -3.3029   0.00    0.0
2018/03/11 12:27:19.000   78.256430680   16.214730912   420.7288   5   8   2.0198   2.6125  13.6805  -1.3913   4.8598  -3.3037   0.00    0.0
2018/03/11 12:27:20.000   78.256428474   16.214734629   424.0112   5   8   2.0199   2.6122  13.6799  -1.3915   4.8590  -3.3044   0.00    0.0
2018/03/11 12:27:21.000   78.256424434   16.214730278   423.4367   5   8   2.0200   2.6119  13.6793  -1.3916   4.8582  -3.3051   0.00    0.0
2018/03/11 12:27:22.000   78.256424477   16.214745925   422.6656   5   8   2.0202   2.6116  13.6787  -1.3917   4.8574  -3.3059   0.00    0.0
2018/03/11 12:27:23.000   78.256437023   16.214758186   420.5969   5   8   2.0203   2.6113  13.6780  -1.3919   4.8566  -3.3066   0.00    0.0
2018/03/11 12:27:24.000   78.256437660   16.214750016   421.1028   5   8   2.0204   2.6110  13.6774  -1.3920   4.8558  -3.3074   0.00    0.0
2018/03/11 12:27:25.000   78.256435025   16.214750637   422.1506   5   8   2.0205   2.6107  13.6767  -1.3921   4.8550  -3.3081   0.00    0.0
2018/03/11 12:27:26.000   78.256431031   16.214755727   421.6693   5   8   2.0207   2.6104  13.6760  -1.3922   4.8542  -3.3088   0.00    0.0
2018/03/11 12:27:27.000   78.256426489   16.214753975   422.8660   5   8   2.0208   2.6101  13.6754  -1.3923   4.8534  -3.3095   0.00    0.0
2018/03/11 12:27:28.000   78.256426845   16.214762035   427.6460   5   8   2.0209   2.6098  13.6747  -1.3925   4.8525  -3.3102   0.00    0.0
2018/03/11 12:27:29.000   78.256426677   16.214757489   426.6072   5   8   2.0210   2.6095  13.6740  -1.3926   4.8517  -3.3110   0.00    0.0
2018/03/11 12:27:30.000   78.256424736   16.214737666   424.5949   5   8   2.0212   2.6092  13.6733  -1.3927   4.8509  -3.3117   0.00    0.0
2018/03/11 12:27:31.000   78.256422369   16.214740714   426.7195   5   8   2.0213   2.6089  13.6726  -1.3928   4.8500  -3.3124   0.00    0.0
2018/03/11 12:27:32.000   78.256425807   16.214746132   424.2967   5   8   2.0214   2.6086  13.6719  -1.3929   4.8492  -3.3131   0.00    0.0
2018/03/11 12:27:33.000   78.256426948   16.214752586   422.9187   5   8   2.0215   2.6083  13.6711  -1.3931   4.8484  -3.3138   0.00    0.0
2018/03/11 12:27:34.000   78.256425450   16.214772322   425.1803   5   8   2.0217   2.6080  13.6704  -1.3932   4.8475  -3.3145   0.00    0.0
2018/03/11 12:27:35.000   78.256427751   16.214764293   423.3523   5   8   2.0218   2.6077  13.6697  -1.3933   4.8467  -3.3152   0.00    0.0
2018/03/11 12:27:36.000   78.256433030   16.214775447   422.7633   5   8   2.0219   2.6074  13.6689  -1.3934   4.8458  -3.3159   0.00    0.0
2018/03/11 12:27:37.000   78.256437384   16.214757763   420.7692   5   8   2.0220   2.6071  13.6682  -1.3935   4.8450  -3.3166   0.00    0.0
2018/03/11 12:27:38.000   78.256436105   16.214749434   420.3920   5   8   2.0221   2.6068  13.6674  -1.3936   4.8441  -3.3173   0.00    0.0
2018/03/11 12:27:39.000   78.256432601   16.214749898   421.4411   5   8   2.0223   2.6065  13.6666  -1.3937   4.8432  -3.3180   0.00    0.0
2018/03/11 12:27:40.000   78.256435720   16.214755074   420.1992   5   8   2.0224   2.6062  13.6659  -1.3939   4.8424  -3.3187   0.00    0.0
2018/03/11 12:27:41.000   78.256435026   16.214765896   421.8507   5   8   2.0225   2.6059  13.6651  -1.3940   4.8415  -3.3193   0.00    0.0
2018/03/11 12:27:42.000   78.256434847   16.214759835   422.0053   5   8   2.0226   2.6056  13.6643  -1.3941   4.8406  -3.3200   0.00    0.0
2018/03/11 12:27:43.000   78.256433701   16.214747677   422.8592   5   8   2.0227   2.6053  13.6635  -1.3942   4.8398  -3.3207   0.00    0.0
2018/03/11 12:27:44.000   78.256426865   16.214764005   425.1776   5   8   2.0229   2.6050  13.6626  -1.3943   4.8389  -3.3214   0.00    0.0
2018/03/11 12:27:45.000   78.256415975   16.214746100   429.9486   5   8   2.0230   2.6046  13.6618  -1.3944   4.8380  -3.3220   0.00    0.0
2018/03/11 12:27:46.000   78.256419883   16.214758320   426.0866   5   8   2.0231   2.6043  13.6610  -1.3945   4.8371  -3.3227   0.00    0.0
2018/03/11 12:27:47.000   78.256431084   16.214764562   419.9528   5   8   2.0232   2.6040  13.6602  -1.3946   4.8362  -3.3234   0.00    0.0
2018/03/11 12:27:48.000   78.256425568   16.214785126   425.3969   5   8   2.0233   2.6037  13.6593  -1.3947   4.8354  -3.3240   0.00    0.0
2018/03/11 12:27:49.000   78.256418178   16.214766109   429.3510   5   8   2.0235   2.6034  13.6585  -1.3948   4.8345  -3.3247   0.00    0.0
2018/03/11 12:27:50.000   78.256422014   16.214761710   426.7992   5   8   2.0236   2.6031  13.6576  -1.3949   4.8336  -3.3253   0.00    0.0
2018/03/11 12:27:51.000   78.256441606   16.214769825   418.6987   5   8   2.0237   2.6028  13.6567  -1.3950   4.8327  -3.3260   0.00    0.0
2018/03/11 12:27:52.000   78.256441424   16.214763650   420.2486   5   8   2.0238   2.6024  13.6558  -1.3951   4.8318  -3.3267   0.00    0.0
2018/03/11 12:27:53.000   78.256436933   16.214752732   422.8019   5   8   2.0239   2.6021  13.6550  -1.3952   4.8309  -3.3273   0.00    0.0
2018/03/11 12:27:54.000   78.256431243   16.214746633   422.7818   5   8   2.0241   2.6018  13.6541  -1.3953   4.8300  -3.3279   0.00    0.0
2018/03/11 12:27:55.000   78.256431515   16.214764959   423.8863   5   8   2.0242   2.6015  13.6532  -1.3954   4.8291  -3.3286   0.00    0.0
2018/03/11 12:27:56.000   78.256429568   16.214750325   422.6797   5   8   2.0243   2.6012  13.6523  -1.3955   4.8281  -3.3292   0.00    0.0
2018/03/11 12:27:57.000   78.256430070   16.214780595   425.2774   5   8   2.0244   2.6009  13.6513  -1.3956   4.8272  -3.3299   0.00    0.0
2018/03/11 12:27:58.000   78.256432198   16.214769043   423.2919   5   8   2.0245   2.6005  13.6504  -1.3957   4.8263  -3.3305   0.00    0.0
2018/03/11 12:27:59.000   78.256427135   16.214782986   425.8170   5   8   2.0246   2.6002  13.6495  -1.3958   4.8254  -3.3311   0.00    0.0
2018/03/11 12:28:00.000   78.256424290   16.214781859   426.8838   5   8   2.0248   2.5999  13.6485  -1.3959   4.8245  -3.3317   0.00    0.0
2018/03/11 12:28:01.000   78.256425798   16.214768529   424.1490   5   8   2.0249   2.5996  13.6476  -1.3959   4.8235  -3.3324   0.00    0.0
2018/03/11 12:28:02.000   78.256427306   16.214749851   423.3877   5   8   2.0250   2.5992  13.6466  -1.3960   4.8226  -3.3330   0.00    0.0
2018/03/11 12:28:03.000   78.256425488   16.214749669   423.9041   5   8   2.0251   2.5989  13.6457  -1.3961   4.8217  -3.3336   0.00    0.0
2018/03/11 12:28:04.000   78.256431357   16.214757012   423.7643   5   8   2.0252   2.5986  13.6447  -1.3962   4.8207  -3.3342   0.00    0.0
2018/03/11 12:28:05.000   78.256433679   16.214744647   422.6576   5   8   2.0253   2.5983  13.6437  -1.3963   4.8198  -3.3348   0.00    0.0
2018/03/11 12:28:06.000   78.256429889   16.214759160   423.4227   5   8   2.0254   2.5979  13.6427  -1.3964   4.8189  -3.3355   0.00    0.0
2018/03/11 12:28:07.000   78.256428578   16.214736685   421.9566   5   8   2.0256   2.5976  13.6417  -1.3965   4.8179  -3.3361   0.00    0.0
2018/03/11 12:28:08.000   78.256429897   16.214755585   421.4300   5   8   2.0257   2.5973  13.6407  -1.3965   4.8170  -3.3367   0.00    0.0
2018/03/11 12:28:09.000   78.256433555   16.214762232   421.7541   5   8   2.0258   2.5970  13.6397  -1.3966   4.8160  -3.3373   0.00    0.0
2018/03/11 12:28:10.000   78.256430556   16.214752782   423.4463   5   8   2.0259   2.5966  13.6387  -1.3967   4.8151  -3.3379   0.00    0.0
2018/03/11 12:28:11.000   78.256425593   16.214748607   424.0345   5   8   2.0260   2.5963  13.6376  -1.3968   4.8141  -3.3385   0.00    0.0
2018/03/11 12:28:12.000   78.256422434   16.214753949   424.2585   5   8   2.0261   2.5960  13.6366  -1.3969   4.8131  -3.3390   0.00    0.0
2018/03/11 12:28:13.000   78.256421976   16.214755295   423.6343   5   8   2.0262   2.5957  13.6356  -1.3969   4.8122  -3.3396   0.00    0.0
2018/03/11 12:28:14.000   78.256428611   16.214738303   421.5484   5   8   2.0264   2.5953  13.6345  -1.3970   4.8112  -3.3402   0.00    0.0
2018/03/11 12:28:15.000   78.256428741   16.214739622   421.4908   5   8   2.0265   2.5950  13.6334  -1.3971   4.8102  -3.3408   0.00    0.0
2018/03/11 12:28:16.000   78.256427327   16.214724586   420.4994   5   8   2.0266   2.5947  13.6324  -1.3972   4.8093  -3.3414   0.00    0.0
2018/03/11 12:28:17.000   78.256423820   16.214735921   425.5156   5   8   2.0267   2.5943  13.6313  -1.3972   4.8083  -3.3420   0.00    0.0
2018/03/11 12:28:18.000   78.256429445   16.214724897   419.5627   5   8   2.0268   2.5940  13.6302  -1.3973   4.8073  -3.3425   0.00    0.0
2018/03/11 12:28:19.000   78.256436438   16.214717292   415.7469   5   8   2.0269   2.5937  13.6291  -1.3974   4.8063  -3.3431   0.00    0.0
2018/03/11 12:28:20.000   78.256433989   16.214739946   420.7467   5   8   2.0270   2.5933  13.6280  -1.3975   4.8053  -3.3437   0.00    0.0
2018/03/11 12:28:21.000   78.256428014   16.214723694   424.7011   5   8   2.0271   2.5930  13.6269  -1.3975   4.8044  -3.3442   0.00    0.0
2018/03/11 12:28:22.000   78.256424110   16.214734373   424.1291   5   8   2.0272   2.5927  13.6258  -1.3976   4.8034  -3.3448   0.00    0.0
2018/03/11 12:28:23.000   78.256433025   16.214750445   422.2325   5   8   2.0274   2.5923  13.6247  -1.3977   4.8024  -3.3454   0.00    0.0
2018/03/11 12:28:24.000   78.256429918   16.214734777   419.7124   5   8   2.0275   2.5920  13.6235  -1.3977   4.8014  -3.3459   0.00    0.0
2018/03/11 12:28:25.000   78.256425402   16.214736909   423.7460   5   8   2.0276   2.5917  13.6224  -1.3978   4.8004  -3.3465   0.00    0.0
2018/03/11 12:28:26.000   78.256420556   16.214742912   427.3171   5   8   2.0277   2.5913  13.6212  -1.3979   4.7994  -3.3470   0.00    0.0
2018/03/11 12:28:27.000   78.256425648   16.214749529   425.2798   5   8   2.0278   2.5910  13.6201  -1.3979   4.7984  -3.3476   0.00    0.0
2018/03/11 12:28:28.000   78.256431589   16.214737924   419.4645   5   8   2.0279   2.5906  13.6189  -1.3980   4.7974  -3.3481   0.00    0.0
2018/03/11 12:28:29.000   78.256430530   16.214745767   420.7773   5   8   2.0280   2.5903  13.6177  -1.3981   4.7963  -3.3487   0.00    0.0
2018/03/11 12:28:30.000   78.256427750   16.214726800   423.5722   5   8   2.0281   2.5900  13.6166  -1.3981   4.7953  -3.3492   0.00    0.0
2018/03/11 12:28:31.000   78.256426803   16.214734276   425.8339   5   8   2.0282   2.5896  13.6154  -1.3982   4.7943  -3.3498   0.00    0.0
2018/03/11 12:28:32.000   78.256434130   16.214746040   421.9151   5   8   2.0283   2.5893  13.6142  -1.3983   4.7933  -3.3503   0.00    0.0
2018/03/11 12:28:33.000   78.256436839   16.214739801   418.6456   5   8   2.0285   2.5889  13.6130  -1.3983   4.7923  -3.3508   0.00    0.0
2018/03/11 12:28:34.000   78.256430295   16.214744958   423.3008   5   8   2.0286   2.5886  13.6118  -1.3984   4.7912  -3.3514   0.00    0.0
2018/03/11 12:28:35.000   78.256422495   16.214739580   424.1471   5   8   2.0287   2.5883  13.6105  -1.3984   4.7902  -3.3519   0.00    0.0
2018/03/11 12:28:36.000   78.256424209   16.214733237   420.7841   5   8   2.0288   2.5879  13.6093  -1.3985   4.7892  -3.3524   0.00    0.0
2018/03/11 12:28:37.000   78.256428831   16.214744522   420.7129   5   8   2.0289   2.5876  13.6081  -1.3985   4.7881  -3.3529   0.00    0.0
2018/03/11 12:28:38.000   78.256429645   16.214738581   422.7848   5   8   2.0290   2.5872  13.6068  -1.3986   4.7871  -3.3534   0.00    0.0
2018/03/11 12:28:39.000   78.256424032   16.214731338   419.2745   5   8   2.0291   2.5869  13.6056  -1.3986   4.7861  -3.3540   0.00    0.0
2018/03/11 12:28:40.000   78.256420985   16.214745129   427.1544   5   8   2.0292   2.5865  13.6043  -1.3987   4.7850  -3.3545   0.00    0.0
2018/03/11 12:28:41.000   78.256422940   16.214744230   426.4586   5   8   2.0293   2.5862  13.6031  -1.3988   4.7840  -3.3550   0.00    0.0
2018/03/11 12:28:42.000   78.256434869   16.214737851   422.4125   5   8   2.0294   2.5858  13.6018  -1.3988   4.7829  -3.3555   0.00    0.0
2018/03/11 12:28:43.000   78.256438657   16.214763248   424.2385   5   8   2.0295   2.5855  13.6005  -1.3989   4.7819  -3.3560   0.00    0.0
2018/03/11 12:28:44.000   78.256430423   16.214741907   424.8105   5   8   2.0296   2.5851  13.5992  -1.3989   4.7808  -3.3565   0.00    0.0
2018/03/11 12:28:45.000   78.256421295   16.214737909   425.0276   5   8   2.0297   2.5848  13.5979  -1.3990   4.7797  -3.3570   0.00    0.0
2018/03/11 12:28:46.000   78.256434974   16.214754804   421.0491   5   8   2.0298   2.5844  13.5966  -1.3990   4.7787  -3.3575   0.00    0.0
2018/03/11 12:28:47.000   78.256437869   16.214745701   417.2489   5   8   2.0299   2.5841  13.5953  -1.3990   4.7776  -3.3580   0.00    0.0
2018/03/11 12:28:48.000   78.256434562   16.214753280   416.8598   5   8   2.0300   2.5838  13.5940  -1.3991   4.7766  -3.3585   0.00    0.0
2018/03/11 12:28:49.000   78.256423755   16.214722527   420.6779   5   8   2.0301   2.5834  13.5926  -1.3991   4.7755  -3.3589   0.00    0.0
2018/03/11 12:28:50.000   78.256426426   16.214724624   423.3491   5   8   2.0303   2.5830  13.5913  -1.3992   4.7744  -3.3594   0.00    0.0
2018/03/11 12:28:51.000   78.256433949   16.214743638   421.0947   5   8   2.0304   2.5827  13.5900  -1.3992   4.7733  -3.3599   0.00    0.0
2018/03/11 12:28:52.000   78.256434784   16.214750333   422.6980   5   8   2.0305   2.5823  13.5886  -1.3993   4.7723  -3.3604   0.00    0.0
2018/03/11 12:28:53.000   78.256429355   16.214751843   423.9768   5   8   2.0306   2.5820  13.5873  -1.3993   4.7712  -3.3609   0.00    0.0
2018/03/11 12:28:54.000   78.256425210   16.214781836   428.0476   5   8   2.0307   2.5816  13.5859  -1.3993   4.7701  -3.3613   0.00    0.0
2018/03/11 12:28:55.000   78.256424138   16.214786353   427.3440   5   8   2.0308   2.5813  13.5845  -1.3994   4.7690  -3.3618   0.00    0.0
2018/03/11 12:28:56.000   78.256422009   16.214768911   425.2862   5   8   2.0309   2.5809  13.5831  -1.3994   4.7679  -3.3623   0.00    0.0
2018/03/11 12:28:57.000   78.256423811   16.214784677   427.1716   5   8   2.0310   2.5806  13.5818  -1.3995   4.7668  -3.3627   0.00    0.0
2018/03/11 12:28:58.000   78.256423971   16.214800130   425.7159   5   8   2.0311   2.5802  13.5804  -1.3995   4.7657  -3.3632   0.00    0.0
2018/03/11 12:28:59.000   78.256428858   16.214789933   422.1082   5   8   2.0312   2.5799  13.5790  -1.3995   4.7646  -3.3637   0.00    0.0
2018/03/11 12:29:00.000   78.256431732   16.214790260   426.8098   5   8   2.0313   2.5795  13.5775  -1.3996   4.7635  -3.3641   0.00    0.0
2018/03/11 12:29:01.000   78.256429279   16.214784751   425.5894   5   8   2.0314   2.5791  13.5761  -1.3996   4.7624  -3.3646   0.00    0.0
2018/03/11 12:29:02.000   78.256430692   16.214758866   420.3179   5   8   2.0315   2.5788  13.5747  -1.3996   4.7613  -3.3650   0.00    0.0
2018/03/11 12:29:03.000   78.256432326   16.214762208   420.5371   5   8   2.0316   2.5784  13.5733  -1.3997   4.7602  -3.3655   0.00    0.0
2018/03/11 12:29:04.000   78.256433144   16.214741782   422.0627   5   8   2.0317   2.5781  13.5718  -1.3997   4.7591  -3.3659   0.00    0.0
2018/03/11 12:29:05.000   78.256432587   16.214737503   423.0664   5   8   2.0318   2.5777  13.5704  -1.3997   4.7580  -3.3663   0.00    0.0
2018/03/11 12:29:06.000   78.256430310   16.214740628   420.8654   5   8   2.0319   2.5774  13.5689  -1.3997   4.7568  -3.3668   0.00    0.0
2018/03/11 12:29:07.000   78.256429330   16.214756875   423.2092   5   8   2.0320   2.5770  13.5674  -1.3998   4.7557  -3.3672   0.00    0.0
2018/03/11 12:29:08.000   78.256428356   16.214762001   424.9644   5   8   2.0321   2.5766  13.5660  -1.3998   4.7546  -3.3676   0.00    0.0
2018/03/11 12:29:09.000   78.256425707   16.214765919   425.9090   5   8   2.0322   2.5763  13.5645  -1.3998   4.7535  -3.3681   0.00    0.0
2018/03/11 12:29:10.000   78.256425447   16.214763212   424.6772   5   8   2.0323   2.5759  13.5630  -1.3998   4.7523  -3.3685   0.00    0.0
2018/03/11 12:29:11.000   78.256425928   16.214748925   423.4072   5   8   2.0324   2.5755  13.5615  -1.3999   4.7512  -3.3689   0.00    0.0
2018/03/11 12:29:12.000   78.256424373   16.214736048   421.7771   5   8   2.0325   2.5752  13.5600  -1.3999   4.7501  -3.3693   0.00    0.0
2018/03/11 12:29:13.000   78.256432864   16.214757300   420.1852   5   8   2.0326   2.5748  13.5585  -1.3999   4.7489  -3.3698   0.00    0.0
2018/03/11 12:29:14.000   78.256435587   16.214751773   420.2305   5   8   2.0327   2.5745  13.5570  -1.3999   4.7478  -3.3702   0.00    0.0
2018/03/11 12:29:15.000   78.256430906   16.214737984   422.3128   5   8   2.0328   2.5741  13.5555  -1.4000   4.7466  -3.3706   0.00    0.0
2018/03/11 12:29:16.000   78.256427194   16.214727025   423.2840   5   8   2.0329   2.5737  13.5539  -1.4000   4.7455  -3.3710   0.00    0.0
2018/03/11 12:29:17.000   78.256435571   16.214743902   423.2730   5   8   2.0330   2.5734  13.5524  -1.4000   4.7443  -3.3714   0.00    0.0
2018/03/11 12:29:18.000   78.256437339   16.214718530   417.3938   5   8   2.0330   2.5730  13.5508  -1.4000   4.7432  -3.3718   0.00    0.0
2018/03/11 12:29:19.000   78.256435370   16.214740581   420.1530   5   8   2.0331   2.5726  13.5493  -1.4000   4.7420  -3.3722   0.00    0.0
2018/03/11 12:29:20.000   78.256424529   16.214714512   421.8090   5   8   2.0332   2.5723  13.5477  -1.4000   4.7409  -3.3726   0.00    0.0
2018/03/11 12:29:21.000   78.256418073   16.214738987   424.5893   5   8   2.0333   2.5719  13.5461  -1.4001   4.7397  -3.3730   0.00    0.0
2018/03/11 12:29:22.000   78.256426710   16.214761855   422.3240   5   8   2.0334   2.5715  13.5446  -1.4001   4.7385  -3.3734   0.00    0.0
2018/03/11 12:29:23.000   78.256429838   16.214749966   422.0158   5   7   2.1489   2.8446  18.5980  -1.0559   6.1606  -1.5900   0.00    0.0
2018/03/11 12:29:24.000   78.256428804   16.214767204   424.9394   5   7   2.1488   2.8444  18.6029  -1.0561   6.1611  -1.5909   0.00    0.0
2018/03/11 12:29:25.000   78.256422577   16.214737198   423.8258   5   7   2.1488   2.8443  18.6078  -1.0562   6.1616  -1.5918   0.00    0.0
2018/03/11 12:29:26.000   78.256413574   16.214723572   422.8512   5   7   2.1487   2.8442  18.6127  -1.0563   6.1621  -1.5927   0.00    0.0
2018/03/11 12:29:27.000   78.256434218   16.214746571   426.1725   5   7   2.1486   2.8441  18.6176  -1.0565   6.1626  -1.5936   0.00    0.0
2018/03/11 12:29:28.000   78.256442218   16.214747748   424.3026   5   7   2.1485   2.8440  18.6225  -1.0566   6.1631  -1.5946   0.00    0.0
2018/03/11 12:29:29.000   78.256434730   16.214715211   419.9830   5   7   2.1485   2.8439  18.6274  -1.0567   6.1636  -1.5955   0.00    0.0
2018/03/11 12:29:30.000   78.256422763   16.214694003   418.8216   5   7   2.1484   2.8437  18.6322  -1.0569   6.1641  -1.5963   0.00    0.0
2018/03/11 12:29:31.000   78.256423856   16.214709332   419.2045   5   7   2.1483   2.8436  18.6371  -1.0570   6.1645  -1.5973   0.00    0.0
2018/03/11 12:29:32.000   78.256440640   16.214749865   423.5030   5   7   2.1482   2.8435  18.6419  -1.0572   6.1650  -1.5982   0.00    0.0
2018/03/11 12:29:33.000   78.256439366   16.214743611   421.0420   5   7   2.1482   2.8434  18.6467  -1.0573   6.1655  -1.5991   0.00    0.0
2018/03/11 12:29:34.000   78.256431613   16.214738223   417.7612   5   7   2.1481   2.8432  18.6515  -1.0574   6.1659  -1.6000   0.00    0.0
2018/03/11 12:29:35.000   78.256422581   16.214734876   417.9167   5   7   2.1480   2.8431  18.6562  -1.0576   6.1664  -1.6009   0.00    0.0
2018/03/11 12:29:36.000   78.256419170   16.214719164   418.9520   5   7   2.1479   2.8430  18.6610  -1.0577   6.1668  -1.6018   0.00    0.0
2018/03/11 12:29:37.000   78.256431848   16.214748074   423.4311   5   7   2.1479   2.8428  18.6658  -1.0578   6.1672  -1.6027   0.00    0.0
2018/03/11 12:29:38.000   78.256436599   16.214761090   424.5232   5   7   2.1478   2.8427  18.6705  -1.0580   6.1677  -1.6036   0.00    0.0
2018/03/11 12:29:39.000   78.256430690   16.214751037   422.3735   5   7   2.1477   2.8426  18.6752  -1.0581   6.1681  -1.6045   0.00    0.0
2018/03/11 12:29:40.000   78.256420300   16.214733893   421.9257   5   7   2.1476   2.8424  18.6799  -1.0582   6.1685  -1.6054   0.00    0.0
2018/03/11 12:29:41.000   78.256417261   16.214723652   421.8711   5   7   2.1476   2.8423  18.6846  -1.0584   6.1689  -1.6062   0.00    0.0
2018/03/11 12:29:42.000   78.256428039   16.214740521   424.5115   5   7   2.1475   2.8421  18.6893  -1.0585   6.1693  -1.6071   0.00    0.0
2018/03/11 12:29:43.000   78.256428417   16.214753584   425.2088   5   7   2.1474   2.8420  18.6940  -1.0586   6.1697  -1.6080   0.00    0.0
2018/03/11 12:29:44.000   78.256418482   16.214743672   423.9756   5   7   2.1473   2.8419  18.6986  -1.0588   6.1701  -1.6089   0.00    0.0
2018/03/11 12:29:45.000   78.256418730   16.214755036   422.4729   5   7   2.1473   2.8417  18.7032  -1.0589   6.1705  -1.6098   0.00    0.0
2018/03/11 12:29:46.000   78.256431337   16.214783236   425.0494   5   7   2.1472   2.8416  18.7079  -1.0590   6.1709  -1.6107   0.00    0.0
2018/03/11 12:29:47.000   78.256428766   16.214775410   426.9807   5   7   2.1471   2.8414  18.7125  -1.0592   6.1713  -1.6116   0.00    0.0
2018/03/11 12:29:48.000   78.256426209   16.214744867   424.6254   5   7   2.1470   2.8413  18.7171  -1.0593   6.1717  -1.6124   0.00    0.0
2018/03/11 12:29:49.000   78.256428556   16.214742126   424.6796   5   7   2.1470   2.8411  18.7216  -1.0594   6.1720  -1.6133   0.00    0.0
2018/03/11 12:29:50.000   78.256434448   16.214753519   422.2321   5   7   2.1469   2.8410  18.7262  -1.0596   6.1724  -1.6142   0.00    0.0
2018/03/11 12:29:51.000   78.256435328   16.214755619   423.3719   5   7   2.1468   2.8408  18.7308  -1.0597   6.1727  -1.6151   0.00    0.0
2018/03/11 12:29:52.000   78.256434303   16.214762477   427.2362   5   7   2.1467   2.8406  18.7353  -1.0598   6.1731  -1.6159   0.00    0.0
2018/03/11 12:29:53.000   78.256429467   16.214755224   424.6619   5   7   2.1467   2.8405  18.7398  -1.0600   6.1734  -1.6168   0.00    0.0
2018/03/11 12:29:54.000   78.256425464   16.214717899   415.9167   5   7   2.1466   2.8403  18.7443  -1.0601   6.1738  -1.6176   0.00    0.0
2018/03/11 12:29:55.000   78.256425567   16.214730218   416.2168   5   7   2.1465   2.8402  18.7488  -1.0602   6.1741  -1.6185   0.00    0.0
2018/03/11 12:29:56.000   78.256428380   16.214757328   422.4191   5   7   2.1464   2.8400  18.7533  -1.0603   6.1744  -1.6193   0.00    0.0
2018/03/11 12:29:57.000   78.256433182   16.214744133   421.3166   5   7   2.1464   2.8398  18.7577  -1.0605   6.1747  -1.6202   0.00    0.0
2018/03/11 12:29:58.000   78.256429848   16.214732953   418.6626   5   7   2.1463   2.8397  18.7622  -1.0606   6.1750  -1.6211   0.00    0.0
2018/03/11 12:29:59.000   78.256425018   16.214720336   419.5298   5   7   2.1462   2.8395  18.7666  -1.0607   6.1754  -1.6219   0.00    0.0
2018/03/11 12:30:00.000   78.256433903   16.214761014   428.7017   5   7   2.1461   2.8393  18.7710  -1.0608   6.1756  -1.6228   0.00    0.0
2018/03/11 12:30:01.000   78.256440733   16.214747957   426.8100   5   7   2.1461   2.8392  18.7754  -1.0610   6.1759  -1.6236   0.00    0.0
2018/03/11 12:30:02.000   78.256440464   16.214747978   422.6614   5   7   2.1460   2.8390  18.7798  -1.0611   6.1762  -1.6245   0.00    0.0
2018/03/11 12:30:03.000   78.256434274   16.214751790   424.4413   5   7   2.1459   2.8388  18.7842  -1.0612   6.1765  -1.6253   0.00    0.0
2018/03/11 12:30:04.000   78.256423493   16.214748820   424.5531   5   7   2.1459   2.8386  18.7886  -1.0613   6.1768  -1.6261   0.00    0.0
2018/03/11 12:30:05.000   78.256423875   16.214753215   424.7799   5   7   2.1458   2.8385  18.7929  -1.0615   6.1771  -1.6270   0.00    0.0
2018/03/11 12:30:06.000   78.256427544   16.214764082   424.2651   5   7   2.1457   2.8383  18.7972  -1.0616   6.1773  -1.6278   0.00    0.0
2018/03/11 12:30:07.000   78.256426592   16.214788035   426.4156   5   7   2.1456   2.8381  18.8015  -1.0617   6.1776  -1.6286   0.00    0.0
2018/03/11 12:30:08.000   78.256428742   16.214748458   421.9867   5   7   2.1456   2.8379  18.8058  -1.0618   6.1778  -1.6295   0.00    0.0
2018/03/11 12:30:09.000   78.256423347   16.214737306   421.5368   5   7   2.1455   2.8378  18.8101  -1.0620   6.1781  -1.6303   0.00    0.0
2018/03/11 12:30:10.000   78.256424326   16.214737586   422.9508   5   7   2.1454   2.8376  18.8144  -1.0621   6.1783  -1.6311   0.00    0.0
2018/03/11 12:30:11.000   78.256425217   16.214745792   423.4535   5   7   2.1453   2.8374  18.8186  -1.0622   6.1786  -1.6319   0.00    0.0
2018/03/11 12:30:12.000   78.256431767   16.214746272   425.1940   5   7   2.1453   2.8372  18.8229  -1.0623   6.1788  -1.6328   0.00    0.0
2018/03/11 12:30:13.000   78.256429059   16.214757827   424.1844   5   7   2.1452   2.8370  18.8271  -1.0624   6.1790  -1.6336   0.00    0.0
2018/03/11 12:30:14.000   78.256431298   16.214753292   425.5022   5   7   2.1451   2.8368  18.8313  -1.0626   6.1792  -1.6344   0.00    0.0
2018/03/11 12:30:15.000   78.256431509   16.214758247   423.0791   5   7   2.1450   2.8366  18.8355  -1.0627   6.1794  -1.6352   0.00    0.0
2018/03/11 12:30:16.000   78.256432140   16.214776897   424.5492   5   7   2.1450   2.8364  18.8397  -1.0628   6.1796  -1.6361   0.00    0.0
2018/03/11 12:30:17.000   78.256427713   16.214777260   422.6940   5   7   2.1449   2.8362  18.8438  -1.0629   6.1798  -1.6369   0.00    0.0
2018/03/11 12:30:18.000   78.256429088   16.214761261   420.0615   5   7   2.1448   2.8360  18.8480  -1.0630   6.1800  -1.6377   0.00    0.0
2018/03/11 12:30:19.000   78.256422296   16.214741713   421.3472   5   7   2.1447   2.8358  18.8521  -1.0632   6.1802  -1.6385   0.00    0.0
2018/03/11 12:30:20.000   78.256424834   16.214730842   422.6908   5   7   2.1447   2.8356  18.8562  -1.0633   6.1804  -1.6393   0.00    0.0
2018/03/11 12:30:21.000   78.256428723   16.214746131   422.6695   5   7   2.1446   2.8354  18.8603  -1.0634   6.1806  -1.6401   0.00    0.0
2018/03/11 12:30:22.000   78.256431298   16.214719595   418.3601   5   7   2.1445   2.8352  18.8644  -1.0635   6.1807  -1.6409   0.00    0.0
2018/03/11 12:30:23.000   78.256421884   16.214708169   421.3693   5   7   2.1445   2.8350  18.8685  -1.0636   6.1809  -1.6417   0.00    0.0
2018/03/11 12:30:24.000   78.256419139   16.214697421   421.3613   5   7   2.1444   2.8348  18.8725  -1.0637   6.1810  -1.6424   0.00    0.0
2018/03/11 12:30:25.000   78.256421667   16.214727925   422.5427   5   7   2.1443   2.8346  18.8765  -1.0639   6.1812  -1.6432   0.00    0.0
2018/03/11 12:30:26.000   78.256431718   16.214726598   421.6465   5   7   2.1442   2.8344  18.8806  -1.0640   6.1813  -1.6441   0.00    0.0
2018/03/11 12:30:27.000   78.256426619   16.214727692   423.2763   5   7   2.1442   2.8342  18.8846  -1.0641   6.1815  -1.6448   0.00    0.0
2018/03/11 12:30:28.000   78.256420662   16.214728487   421.8426   5   7   2.1441   2.8340  18.8886  -1.0642   6.1816  -1.6456   0.00    0.0
2018/03/11 12:30:29.000   78.256422812   16.214713644   419.3302   5   7   2.1440   2.8338  18.8925  -1.0643   6.1817  -1.6464   0.00    0.0
2018/03/11 12:30:30.000   78.256432427   16.214770574   423.6342   5   7   2.1439   2.8336  18.8965  -1.0644   6.1818  -1.6472   0.00    0.0
2018/03/11 12:30:31.000   78.256438289   16.214766464   426.3882   5   7   2.1439   2.8333  18.9004  -1.0645   6.1819  -1.6480   0.00    0.0
2018/03/11 12:30:32.000   78.256434995   16.214782260   425.1519   5   7   2.1438   2.8331  18.9043  -1.0647   6.1820  -1.6488   0.00    0.0
2018/03/11 12:30:33.000   78.256428302   16.214758506   422.6842   5   7   2.1437   2.8329  18.9082  -1.0648   6.1821  -1.6495   0.00    0.0
2018/03/11 12:30:34.000   78.256414747   16.214725994   421.3073   5   7   2.1436   2.8327  18.9121  -1.0649   6.1822  -1.6503   0.00    0.0
2018/03/11 12:30:35.000   78.256423824   16.214754900   424.5602   5   7   2.1436   2.8325  18.9160  -1.0650   6.1823  -1.6511   0.00    0.0
2018/03/11 12:30:36.000   78.256436110   16.214786241   426.9312   5   7   2.1435   2.8322  18.9199  -1.0651   6.1824  -1.6519   0.00    0.0
2018/03/11 12:30:37.000   78.256441167   16.214785474   426.5141   5   7   2.1434   2.8320  18.9237  -1.0652   6.1825  -1.6527   0.00    0.0
2018/03/11 12:30:38.000   78.256437059   16.214799969   427.9347   5   7   2.1434   2.8318  18.9275  -1.0653   6.1825  -1.6534   0.00    0.0
2018/03/11 12:30:39.000   78.256424948   16.214749758   424.2892   5   7   2.1433   2.8316  18.9314  -1.0654   6.1826  -1.6541   0.00    0.0
2018/03/11 12:30:40.000   78.256402210   16.214681996   415.6856   5   7   2.1432   2.8313  18.9352  -1.0655   6.1827  -1.6548   0.00    0.0
2018/03/11 12:30:41.000   78.256430099   16.214755846   420.9891   5   7   2.1431   2.8311  18.9389  -1.0657   6.1827  -1.6557   0.00    0.0
2018/03/11 12:30:42.000   78.256432565   16.214770478   424.0194   5   7   2.1431   2.8309  18.9427  -1.0658   6.1827  -1.6564   0.00    0.0
2018/03/11 12:30:43.000   78.256429609   16.214766523   423.9097   5   7   2.1430   2.8306  18.9464  -1.0659   6.1828  -1.6572   0.00    0.0
2018/03/11 12:30:44.000   78.256413975   16.214719136   418.7060   5   7   2.1429   2.8304  18.9502  -1.0660   6.1828  -1.6579   0.00    0.0
2018/03/11 12:30:45.000   78.256425531   16.214735267   422.9133   5   7   2.1428   2.8302  18.9539  -1.0661   6.1828  -1.6587   0.00    0.0
2018/03/11 12:30:46.000   78.256450795   16.214800281   428.7173   5   7   2.1428   2.8299  18.9576  -1.0662   6.1828  -1.6595   0.00    0.0
2018/03/11 12:30:47.000   78.256445332   16.214778612   426.8966   5   7   2.1427   2.8297  18.9612  -1.0663   6.1828  -1.6602   0.00    0.0
2018/03/11 12:30:48.000   78.256436934   16.214753771   426.0072   5   7   2.1426   2.8294  18.9649  -1.0664   6.1828  -1.6609   0.00    0.0
2018/03/11 12:30:49.000   78.256421410   16.214684107   416.6235   5   7   2.1425   2.8292  18.9686  -1.0665   6.1828  -1.6616   0.00    0.0
2018/03/11 12:30:50.000   78.256417713   16.214711964   421.1567   5   7   2.1425   2.8289  18.9722  -1.0666   6.1828  -1.6623   0.00    0.0
2018/03/11 12:30:51.000   78.256440265   16.214765172   426.0325   5   7   2.1424   2.8287  18.9758  -1.0667   6.1828  -1.6631   0.00    0.0
2018/03/11 12:30:52.000   78.256442304   16.214791173   427.7720   5   7   2.1423   2.8284  18.9794  -1.0668   6.1828  -1.6639   0.00    0.0
2018/03/11 12:30:53.000   78.256450009   16.214809918   429.6632   5   7   2.1423   2.8282  18.9830  -1.0669   6.1827  -1.6646   0.00    0.0
2018/03/11 12:30:54.000   78.256441375   16.214796904   429.7626   5   7   2.1422   2.8279  18.9865  -1.0670   6.1827  -1.6653   0.00    0.0
2018/03/11 12:30:55.000   78.256397532   16.214667864   415.7478   5   7   2.1421   2.8277  18.9901  -1.0671   6.1827  -1.6659   0.00    0.0
2018/03/11 12:30:56.000   78.256432336   16.214770197   423.1833   5   7   2.1420   2.8274  18.9936  -1.0672   6.1826  -1.6668   0.00    0.0
2018/03/11 12:30:57.000   78.256438829   16.214797600   427.7066   5   7   2.1420   2.8272  18.9971  -1.0673   6.1826  -1.6675   0.00    0.0
2018/03/11 12:30:58.000   78.256431873   16.214785854   427.5565   5   7   2.1419   2.8269  19.0006  -1.0674   6.1825  -1.6682   0.00    0.0
2018/03/11 12:30:59.000   78.256420696   16.214743817   424.6179   5   7   2.1418   2.8266  19.0041  -1.0675   6.1824  -1.6689   0.00    0.0
2018/03/11 12:31:00.000   78.256414107   16.214745304   423.8199   5   7   2.1417   2.8264  19.0076  -1.0676   6.1824  -1.6696   0.00    0.0
2018/03/11 12:31:01.000   78.256442344   16.214820659   429.3792   5   7   2.1417   2.8261  19.0110  -1.0677   6.1823  -1.6704   0.00    0.0
2018/03/11 12:31:02.000   78.256440926   16.214789483   425.4772   5   7   2.1416   2.8258  19.0144  -1.0678   6.1822  -1.6711   0.00    0.0
2018/03/11 12:31:03.000   78.256431214   16.214778314   422.5079   5   7   2.1415   2.8256  19.0179  -1.0679   6.1821  -1.6718   0.00    0.0
2018/03/11 12:31:04.000   78.256418250   16.214735959   420.0364   5   7   2.1415   2.8253  19.0213  -1.0680   6.1820  -1.6724   0.00    0.0
2018/03/11 12:31:05.000   78.256415613   16.214731809   420.3977   5   7   2.1414   2.8250  19.0246  -1.0681   6.1819  -1.6731   0.00    0.0
2018/03/11 12:31:06.000   78.256432507   16.214787213   423.9725   5   7   2.1413   2.8248  19.0280  -1.0682   6.1818  -1.6739   0.00    0.0
2018/03/11 12:31:07.000   78.256441715   16.214815631   427.7525   5   7   2.1412   2.8245  19.0313  -1.0683   6.1816  -1.6746   0.00    0.0
2018/03/11 12:31:08.000   78.256436503   16.214785346   429.2981   5   7   2.1412   2.8242  19.0347  -1.0684   6.1815  -1.6753   0.00    0.0
2018/03/11 12:31:09.000   78.256423677   16.214726346   424.3350   5   7   2.1411   2.8239  19.0380  -1.0685   6.1814  -1.6759   0.00    0.0
2018/03/11 12:31:10.000   78.256416551   16.214698761   419.6959   5   7   2.1410   2.8237  19.0413  -1.0686   6.1813  -1.6766   0.00    0.0
2018/03/11 12:31:11.000   78.256430761   16.214757424   425.1814   5   7   2.1409   2.8234  19.0445  -1.0687   6.1811  -1.6773   0.00    0.0
2018/03/11 12:31:12.000   78.256433469   16.214757312   424.0610   5   7   2.1409   2.8231  19.0478  -1.0688   6.1809  -1.6780   0.00    0.0
2018/03/11 12:31:13.000   78.256427287   16.214749389   426.0896   5   7   2.1408   2.8228  19.0510  -1.0689   6.1808  -1.6787   0.00    0.0
2018/03/11 12:31:14.000   78.256413896   16.214722643   423.0560   5   7   2.1407   2.8225  19.0543  -1.0690   6.1806  -1.6793   0.00    0.0
2018/03/11 12:31:15.000   78.256416756   16.214722136   421.6757   5   7   2.1407   2.8223  19.0575  -1.0691   6.1804  -1.6800   0.00    0.0
2018/03/11 12:31:16.000   78.256434374   16.214765189   424.8719   5   7   2.1406   2.8220  19.0607  -1.0692   6.1803  -1.6807   0.00    0.0
2018/03/11 12:31:17.000   78.256435051   16.214758993   424.7665   5   7   2.1405   2.8217  19.0638  -1.0693   6.1801  -1.6814   0.00    0.0
2018/03/11 12:31:18.000   78.256430365   16.214752462   425.4523   5   7   2.1404   2.8214  19.0670  -1.0694   6.1799  -1.6821   0.00    0.0
2018/03/11 12:31:19.000   78.256428654   16.214720008   421.2267   5   7   2.1404   2.8211  19.0701  -1.0694   6.1797  -1.6827   0.00    0.0
2018/03/11 12:31:20.000   78.256423968   16.214700955   419.9620   5   7   2.1403   2.8208  19.0732  -1.0695   6.1795  -1.6834   0.00    0.0
2018/03/11 12:31:21.000   78.256428419   16.214742526   426.0038   5   7   2.1402   2.8205  19.0763  -1.0696   6.1793  -1.6841   0.00    0.0
2018/03/11 12:31:22.000   78.256430833   16.214764091   427.6107   5   7   2.1402   2.8202  19.0794  -1.0697   6.1790  -1.6847   0.00    0.0
2018/03/11 12:31:23.000   78.256428412   16.214742373   420.1812   5   7   2.1401   2.8199  19.0825  -1.0698   6.1788  -1.6854   0.00    0.0
2018/03/11 12:31:24.000   78.256426166   16.214717824   415.8911   5   7   2.1400   2.8196  19.0855  -1.0699   6.1786  -1.6860   0.00    0.0
2018/03/11 12:31:25.000   78.256421715   16.214742700   420.9479   5   7   2.1399   2.8193  19.0886  -1.0700   6.1783  -1.6867   0.00    0.0
2018/03/11 12:31:26.000   78.256420201   16.214760944   424.8281   5   7   2.1399   2.8190  19.0916  -1.0701   6.1781  -1.6873   0.00    0.0
2018/03/11 12:31:27.000   78.256425493   16.214744536   419.9582   5   7   2.1398   2.8187  19.0946  -1.0702   6.1778  -1.6880   0.00    0.0
2018/03/11 12:31:28.000   78.256427603   16.214747025   417.6467   5   7   2.1397   2.8184  19.0976  -1.0702   6.1776  -1.6886   0.00    0.0
2018/03/11 12:31:29.000   78.256427083   16.214737680   420.7480   5   7   2.1396   2.8181  19.1005  -1.0703   6.1773  -1.6893   0.00    0.0
2018/03/11 12:31:30.000   78.256426885   16.214744453   426.4013   5   7   2.1396   2.8178  19.1035  -1.0704   6.1770  -1.6899   0.00    0.0
2018/03/11 12:31:31.000   78.256427289   16.214743701   425.8585   5   7   2.1395   2.8175  19.1064  -1.0705   6.1767  -1.6905   0.00    0.0
2018/03/11 12:31:32.000   78.256430322   16.214745447   424.9783   5   7   2.1394   2.8171  19.1093  -1.0706   6.1765  -1.6912   0.00    0.0
2018/03/11 12:31:33.000   78.256432362   16.214747489   423.2041   5   7   2.1394   2.8168  19.1122  -1.0707   6.1762  -1.6918   0.00    0.0
2018/03/11 12:31:34.000   78.256427775   16.214740378   422.6330   5   7   2.1393   2.8165  19.1151  -1.0708   6.1759  -1.6924   0.00    0.0
2018/03/11 12:31:35.000   78.256423685   16.214754787   426.7043   5   7   2.1392   2.8162  19.1179  -1.0708   6.1756  -1.6931   0.00    0.0
2018/03/11 12:31:36.000   78.256425249   16.214779224   427.8725   5   7   2.1391   2.8159  19.1207  -1.0709   6.1752  -1.6937   0.00    0.0
2018/03/11 12:31:37.000   78.256426527   16.214769285   423.1229   5   7   2.1391   2.8156  19.1236  -1.0710   6.1749  -1.6943   0.00    0.0
2018/03/11 12:31:38.000   78.256424449   16.214745005   418.6886   5   7   2.1390   2.8152  19.1264  -1.0711   6.1746  -1.6949   0.00    0.0
2018/03/11 12:31:39.000   78.256419866   16.214761873   424.8539   5   7   2.1389   2.8149  19.1291  -1.0712   6.1743  -1.6956   0.00    0.0
2018/03/11 12:31:40.000   78.256422968   16.214755988   424.4759   5   7   2.1389   2.8146  19.1319  -1.0713   6.1739  -1.6962   0.00    0.0
2018/03/11 12:31:41.000   78.256428851   16.214748595   424.4767   5   7   2.1388   2.8143  19.1346  -1.0713   6.1736  -1.6968   0.00    0.0
2018/03/11 12:31:42.000   78.256430049   16.214742426   423.6652   5   7   2.1387   2.8139  19.1374  -1.0714   6.1732  -1.6974   0.00    0.0
2018/03/11 12:31:43.000   78.256428200   16.214753425   424.8669   5   7   2.1386   2.8136  19.1401  -1.0715   6.1728  -1.6980   0.00    0.0
2018/03/11 12:31:44.000   78.256424951   16.214729758   421.9652   5   7   2.1386   2.8133  19.1428  -1.0716   6.1725  -1.6986   0.00    0.0
2018/03/11 12:31:45.000   78.256422074   16.214736267   423.5181   5   7   2.1385   2.8129  19.1455  -1.0717   6.1721  -1.6992   0.00    0.0
2018/03/11 12:31:46.000   78.256426916   16.214768913   424.6645   5   7   2.1384   2.8126  19.1481  -1.0717   6.1717  -1.6998   0.00    0.0
2018/03/11 12:31:47.000   78.256431595   16.214787666   423.4660   5   7   2.1383   2.8123  19.1507  -1.0718   6.1713  -1.7004   0.00    0.0
2018/03/11 12:31:48.000   78.256424730   16.214766909   423.0364   5   7   2.1383   2.8119  19.1534  -1.0719   6.1709  -1.7010   0.00    0.0
2018/03/11 12:31:49.000   78.256418699   16.214755385   422.9879   5   7   2.1382   2.8116  19.1560  -1.0720   6.1705  -1.7016   0.00    0.0
2018/03/11 12:31:50.000   78.256419955   16.214759777   423.2192   5   7   2.1381   2.8112  19.1585  -1.0720   6.1701  -1.7022   0.00    0.0
2018/03/11 12:31:51.000   78.256427678   16.214758878   420.4015   5   7   2.1381   2.8109  19.1611  -1.0721   6.1697  -1.7028   0.00    0.0
2018/03/11 12:31:52.000   78.256432042   16.214759530   422.1832   5   7   2.1380   2.8106  19.1637  -1.0722   6.1693  -1.7034   0.00    0.0
2018/03/11 12:31:53.000   78.256427203   16.214751205   422.2264   5   7   2.1379   2.8102  19.1662  -1.0723   6.1689  -1.7040   0.00    0.0
2018/03/11 12:31:54.000   78.256426312   16.214757166   423.7526   5   7   2.1378   2.8099  19.1687  -1.0724   6.1684  -1.7046   0.00    0.0
2018/03/11 12:31:55.000   78.256422546   16.214744710   423.9844   5   7   2.1378   2.8095  19.1712  -1.0724   6.1680  -1.7051   0.00    0.0
2018/03/11 12:31:56.000   78.256422220   16.214742266   423.6857   5   7   2.1377   2.8092  19.1737  -1.0725   6.1675  -1.7057   0.00    0.0
2018/03/11 12:31:57.000   78.256427207   16.214745027   420.3582   5   7   2.1376   2.8088  19.1761  -1.0726   6.1671  -1.7063   0.00    0.0
2018/03/11 12:31:58.000   78.256424314   16.214759141   421.7812   5   7   2.1376   2.8085  19.1785  -1.0726   6.1666  -1.7069   0.00    0.0
2018/03/11 12:31:59.000   78.256418570   16.214738421   424.8975   5   7   2.1375   2.8081  19.1810  -1.0727   6.1661  -1.7074   0.00    0.0
2018/03/11 12:32:00.000   78.256419509   16.214733927   423.0657   5   7   2.1374   2.8077  19.1834  -1.0728   6.1657  -1.7080   0.00    0.0
2018/03/11 12:32:01.000   78.256426133   16.214761339   420.7349   5   7   2.1373   2.8074  19.1857  -1.0729   6.1652  -1.7086   0.00    0.0
2018/03/11 12:32:02.000   78.256427884   16.214758988   423.2604   5   7   2.1373   2.8070  19.1881  -1.0729   6.1647  -1.7091   0.00    0.0
2018/03/11 12:32:03.000   78.256422693   16.214750222   424.9752   5   7   2.1372   2.8067  19.1904  -1.0730   6.1642  -1.7097   0.00    0.0
2018/03/11 12:32:04.000   78.256427217   16.214732190   421.6259   5   7   2.1371   2.8063  19.1928  -1.0731   6.1637  -1.7102   0.00    0.0
2018/03/11 12:32:05.000   78.256428351   16.214751518   424.2567   5   7   2.1371   2.8059  19.1951  -1.0731   6.1632  -1.7108   0.00    0.0
