% program   : RTKPOST ver.2.4.2
% inp file  : Z:\home\linda\Documents\Spring18\GitHub_Unis\data\processed_data\46250754.obs
% inp file  : Z:\home\linda\Documents\Spring18\GitHub_Unis\data\base_station_data\lyrs0750.18o
% inp file  : Z:\home\linda\Documents\Spring18\GitHub_Unis\data\processed_data\46250754.nav
% obs start : 2018/03/16 10:25:16.0 GPST (week1992 469516.0s)
% obs end   : 2018/03/16 10:40:16.0 GPST (week1992 470416.0s)
% pos mode  : static
% freqs     : L1+L2
% solution  : forward
% elev mask : 15.0 deg
% dynamics  : on
% tidecorr  : off
% ionos opt : iono-free
% tropo opt : saastamoinen
% ephemeris : broadcast
% navi sys  : gps glonass galileo qzss sbas
% amb res   : fix and hold
% amb glo   : on
% val thres : 3.0
% antenna1  :                       ( 0.0000  0.0000  0.0000)
% antenna2  :                       ( 0.0000  0.0000  0.0000)
% ref pos   : 78.228825638   15.397310064   495.6816
%
% (lat/lon/height=WGS84/ellipsoidal,Q=1:fix,2:float,3:sbas,4:dgps,5:single,6:ppp,ns=# of satellites)
%  GPST                  latitude(deg) longitude(deg)  height(m)   Q  ns   sdn(m)   sde(m)   sdu(m)  sdne(m)  sdeu(m)  sdun(m) age(s)  ratio
2018/03/16 10:25:16.000   78.246517395   16.063354758   578.5013   2   9   1.5521   0.8391   4.5219   0.2125   0.6943   2.1854   0.00    1.6
2018/03/16 10:25:17.000   78.246507448   16.063342798   576.0783   2   9   1.1017   0.5939   3.2181   0.1522   0.4940   1.5557   0.00    1.5
2018/03/16 10:25:18.000   78.246501242   16.063348987   576.0130   2   9   0.9003   0.4851   2.6315   0.1245   0.4039   1.2721   0.00    1.6
2018/03/16 10:25:19.000   78.246496615   16.063347858   574.5773   2   9   0.7797   0.4202   2.2790   0.1077   0.3498   1.1016   0.00    1.5
2018/03/16 10:25:20.000   78.246498779   16.063355784   575.2041   2   9   0.6970   0.3758   2.0369   0.0961   0.3126   0.9845   0.00    1.5
2018/03/16 10:25:21.000   78.246496866   16.063360847   574.7801   2   9   0.6358   0.3431   1.8571   0.0875   0.2849   0.8974   0.00    1.5
2018/03/16 10:25:22.000   78.246491583   16.063343296   573.3280   2   9   0.5880   0.3176   1.7164   0.0806   0.2633   0.8292   0.00    1.3
2018/03/16 10:25:23.000   78.246491147   16.063352607   574.2262   2   9   0.5493   0.2971   1.6022   0.0750   0.2458   0.7738   0.00    1.4
2018/03/16 10:25:24.000   78.246490047   16.063354219   574.7085   2   9   0.5170   0.2801   1.5069   0.0703   0.2311   0.7275   0.00    1.5
2018/03/16 10:25:25.000   78.246486049   16.063343116   573.6399   2   9   0.4896   0.2657   1.4256   0.0663   0.2187   0.6880   0.00    1.3
2018/03/16 10:25:26.000   78.246486343   16.063343766   573.8332   2   9   0.4659   0.2533   1.3551   0.0627   0.2078   0.6536   0.00    1.3
2018/03/16 10:25:27.000   78.246486635   16.063344652   573.9995   2   9   0.4451   0.2425   1.2930   0.0596   0.1983   0.6234   0.00    1.3
2018/03/16 10:25:28.000   78.246485801   16.063343027   573.7780   2   9   0.4266   0.2330   1.2378   0.0567   0.1898   0.5964   0.00    1.2
2018/03/16 10:25:29.000   78.246485428   16.063340190   573.5643   2   9   0.4101   0.2244   1.1881   0.0542   0.1822   0.5722   0.00    1.2
2018/03/16 10:25:30.000   78.246485597   16.063342111   573.3951   2   9   0.3951   0.2168   1.1430   0.0518   0.1753   0.5501   0.00    1.2
2018/03/16 10:25:31.000   78.246485818   16.063341338   573.0930   2   9   0.3815   0.2099   1.1018   0.0497   0.1690   0.5299   0.00    1.1
2018/03/16 10:25:32.000   78.246485932   16.063341471   573.1278   2   9   0.3690   0.2036   1.0639   0.0477   0.1632   0.5113   0.00    1.1
2018/03/16 10:25:33.000   78.246487197   16.063341448   573.3515   2   9   0.3575   0.1978   1.0288   0.0458   0.1578   0.4941   0.00    1.1
2018/03/16 10:25:34.000   78.246488298   16.063344007   573.5895   2   9   0.3468   0.1925   0.9962   0.0440   0.1528   0.4780   0.00    1.1
2018/03/16 10:25:35.000   78.246489199   16.063345537   573.8196   2   9   0.3368   0.1875   0.9658   0.0424   0.1482   0.4630   0.00    1.1
2018/03/16 10:25:36.000   78.246490521   16.063342716   574.0270   2   9   0.3276   0.1830   0.9372   0.0408   0.1438   0.4489   0.00    1.0
2018/03/16 10:25:37.000   78.246491461   16.063342653   574.2674   2   9   0.3189   0.1787   0.9104   0.0393   0.1397   0.4357   0.00    1.0
2018/03/16 10:25:38.000   78.246493015   16.063344382   574.5543   2   9   0.3107   0.1747   0.8851   0.0379   0.1359   0.4231   0.00    1.0
2018/03/16 10:25:39.000   78.246493505   16.063344126   574.5388   2   9   0.3030   0.1710   0.8611   0.0366   0.1322   0.4113   0.00    1.0
2018/03/16 10:25:40.000   78.246493406   16.063344591   574.4178   2   9   0.2957   0.1675   0.8384   0.0353   0.1287   0.4000   0.00    1.0
2018/03/16 10:25:41.000   78.246493424   16.063346613   574.2957   2   9   0.2887   0.1642   0.8167   0.0341   0.1254   0.3892   0.00    1.1
2018/03/16 10:25:42.000   78.246493902   16.063350526   574.4154   2   9   0.2822   0.1611   0.7961   0.0329   0.1223   0.3790   0.00    1.1
2018/03/16 10:25:43.000   78.246494354   16.063351842   574.4457   2   9   0.2759   0.1581   0.7765   0.0318   0.1193   0.3691   0.00    1.1
2018/03/16 10:25:44.000   78.246495101   16.063348401   574.2782   2   9   0.2699   0.1553   0.7577   0.0307   0.1164   0.3598   0.00    1.1
2018/03/16 10:25:45.000   78.246496380   16.063350014   574.4986   2   9   0.2642   0.1526   0.7396   0.0297   0.1137   0.3508   0.00    1.1
2018/03/16 10:25:46.000   78.246497483   16.063352601   574.6075   2   9   0.2588   0.1501   0.7224   0.0287   0.1110   0.3421   0.00    1.1
2018/03/16 10:25:47.000   78.246498602   16.063352618   574.6346   2   9   0.2536   0.1477   0.7058   0.0277   0.1085   0.3338   0.00    1.2
2018/03/16 10:25:48.000   78.246499131   16.063352590   574.5747   2   9   0.2486   0.1454   0.6898   0.0268   0.1061   0.3258   0.00    1.2
2018/03/16 10:25:49.000   78.246499942   16.063354911   574.7456   2   9   0.2437   0.1432   0.6745   0.0259   0.1037   0.3181   0.00    1.2
2018/03/16 10:25:50.000   78.246500625   16.063356587   574.8398   2   9   0.2391   0.1410   0.6597   0.0250   0.1015   0.3106   0.00    1.2
2018/03/16 10:25:51.000   78.246500067   16.063355530   574.6089   2   9   0.2347   0.1390   0.6455   0.0242   0.0993   0.3035   0.00    1.2
2018/03/16 10:25:52.000   78.246499818   16.063355613   574.4851   2   9   0.2304   0.1371   0.6317   0.0234   0.0972   0.2965   0.00    1.2
2018/03/16 10:25:53.000   78.246499764   16.063356456   574.5016   2   9   0.2263   0.1352   0.6184   0.0226   0.0952   0.2898   0.00    1.2
2018/03/16 10:25:54.000   78.246499240   16.063356587   574.4621   2   9   0.2223   0.1334   0.6056   0.0219   0.0932   0.2833   0.00    1.2
2018/03/16 10:25:55.000   78.246498498   16.063355245   574.3535   2   9   0.2184   0.1316   0.5932   0.0212   0.0913   0.2771   0.00    1.2
2018/03/16 10:25:56.000   78.246497673   16.063354922   574.2487   2   9   0.2147   0.1300   0.5812   0.0205   0.0895   0.2710   0.00    1.2
2018/03/16 10:25:57.000   78.246497286   16.063354717   574.2147   2   9   0.2111   0.1283   0.5696   0.0198   0.0877   0.2651   0.00    1.2
2018/03/16 10:25:58.000   78.246497208   16.063354514   574.1858   2   9   0.2076   0.1268   0.5583   0.0192   0.0860   0.2594   0.00    1.2
2018/03/16 10:25:59.000   78.246496930   16.063354053   574.0690   2   9   0.2043   0.1253   0.5474   0.0185   0.0844   0.2538   0.00    1.2
2018/03/16 10:26:00.000   78.246496733   16.063353362   574.1019   2   9   0.2010   0.1238   0.5368   0.0179   0.0827   0.2485   0.00    1.2
2018/03/16 10:26:01.000   78.246496687   16.063354165   574.2337   2   9   0.1979   0.1224   0.5266   0.0174   0.0812   0.2432   0.00    1.1
2018/03/16 10:26:02.000   78.246497037   16.063355510   574.4132   2   9   0.1948   0.1210   0.5166   0.0168   0.0796   0.2382   0.00    1.1
2018/03/16 10:26:03.000   78.246497452   16.063355664   574.5110   2   9   0.1918   0.1197   0.5070   0.0163   0.0782   0.2332   0.00    1.1
2018/03/16 10:26:04.000   78.246497746   16.063355121   574.6313   2   9   0.1890   0.1184   0.4976   0.0158   0.0767   0.2285   0.00    1.1
2018/03/16 10:26:05.000   78.246498099   16.063356306   574.7450   2   9   0.1862   0.1171   0.4885   0.0153   0.0753   0.2238   0.00    1.1
2018/03/16 10:26:06.000   78.246498392   16.063356568   574.7626   2   9   0.1834   0.1159   0.4796   0.0149   0.0739   0.2193   0.00    1.1
2018/03/16 10:26:07.000   78.246498475   16.063356974   574.7181   2   9   0.1808   0.1147   0.4710   0.0144   0.0726   0.2149   0.00    1.2
2018/03/16 10:26:08.000   78.246498500   16.063357124   574.7451   2   9   0.1782   0.1136   0.4626   0.0140   0.0713   0.2106   0.00    1.2
2018/03/16 10:26:09.000   78.246498766   16.063357731   574.8426   2   9   0.1757   0.1124   0.4545   0.0137   0.0701   0.2064   0.00    1.2
2018/03/16 10:26:10.000   78.246499072   16.063358210   574.9288   2   9   0.1733   0.1113   0.4466   0.0133   0.0689   0.2024   0.00    1.2
2018/03/16 10:26:11.000   78.246499157   16.063358334   574.9187   2   9   0.1709   0.1103   0.4389   0.0129   0.0677   0.1984   0.00    1.2
2018/03/16 10:26:12.000   78.246499172   16.063358975   574.9539   2   9   0.1686   0.1092   0.4314   0.0126   0.0665   0.1946   0.00    1.2
2018/03/16 10:26:13.000   78.246499366   16.063358806   575.0091   2   9   0.1664   0.1082   0.4241   0.0123   0.0654   0.1908   0.00    1.2
2018/03/16 10:26:14.000   78.246499313   16.063358096   574.9800   2   9   0.1642   0.1072   0.4170   0.0121   0.0643   0.1872   0.00    1.2
2018/03/16 10:26:15.000   78.246499445   16.063357739   575.0026   2   9   0.1621   0.1063   0.4101   0.0118   0.0632   0.1836   0.00    1.2
2018/03/16 10:26:16.000   78.246499259   16.063357680   574.9448   2   9   0.1600   0.1053   0.4033   0.0116   0.0621   0.1801   0.00    1.2
2018/03/16 10:26:17.000   78.246499060   16.063358252   574.9155   2   9   0.1580   0.1044   0.3968   0.0113   0.0611   0.1768   0.00    1.2
2018/03/16 10:26:18.000   78.246498881   16.063359170   574.9094   2   9   0.1560   0.1035   0.3904   0.0112   0.0601   0.1735   0.00    1.2
2018/03/16 10:26:19.000   78.246498344   16.063358744   574.8131   2   9   0.1541   0.1026   0.3841   0.0110   0.0591   0.1702   0.00    1.3
2018/03/16 10:26:20.000   78.246497940   16.063358840   574.7081   2   9   0.1522   0.1018   0.3780   0.0108   0.0582   0.1671   0.00    1.3
2018/03/16 10:26:21.000   78.246497532   16.063358724   574.5807   2   9   0.1504   0.1009   0.3721   0.0107   0.0572   0.1640   0.00    1.3
2018/03/16 10:26:22.000   78.246496883   16.063358346   574.3852   2   9   0.1486   0.1001   0.3663   0.0106   0.0563   0.1611   0.00    1.3
2018/03/16 10:26:23.000   78.246496496   16.063358843   574.3054   2   9   0.1469   0.0993   0.3607   0.0105   0.0554   0.1581   0.00    1.3
2018/03/16 10:26:24.000   78.246496196   16.063359269   574.2719   2   9   0.1452   0.0985   0.3552   0.0104   0.0545   0.1553   0.00    1.4
2018/03/16 10:26:25.000   78.246496110   16.063358469   574.2921   2   9   0.1435   0.0977   0.3498   0.0103   0.0537   0.1525   0.00    1.4
2018/03/16 10:26:26.000   78.246496377   16.063357392   574.3243   2   9   0.1419   0.0970   0.3445   0.0103   0.0528   0.1498   0.00    1.4
2018/03/16 10:26:27.000   78.246496421   16.063356585   574.3320   2   9   0.1403   0.0962   0.3394   0.0102   0.0520   0.1472   0.00    1.4
2018/03/16 10:26:28.000   78.246496362   16.063356329   574.2878   2   9   0.1387   0.0955   0.3344   0.0102   0.0512   0.1446   0.00    1.5
2018/03/16 10:26:29.000   78.246496329   16.063355854   574.2129   2   9   0.1372   0.0948   0.3295   0.0102   0.0504   0.1420   0.00    1.5
2018/03/16 10:26:30.000   78.246496199   16.063355372   574.1567   2   9   0.1357   0.0941   0.3248   0.0102   0.0497   0.1396   0.00    1.5
2018/03/16 10:26:31.000   78.246496050   16.063354865   574.0832   2   9   0.1342   0.0934   0.3201   0.0102   0.0489   0.1372   0.00    1.5
2018/03/16 10:26:32.000   78.246495839   16.063353411   573.9661   2   9   0.1328   0.0927   0.3155   0.0102   0.0482   0.1348   0.00    1.6
2018/03/16 10:26:33.000   78.246495728   16.063353163   573.8686   2   9   0.1314   0.0920   0.3111   0.0103   0.0475   0.1325   0.00    1.6
2018/03/16 10:26:34.000   78.246495702   16.063353045   573.8236   2   9   0.1300   0.0914   0.3068   0.0103   0.0468   0.1302   0.00    1.6
2018/03/16 10:26:35.000   78.246495782   16.063352416   573.7962   2   9   0.1287   0.0907   0.3025   0.0104   0.0461   0.1280   0.00    1.7
2018/03/16 10:26:36.000   78.246495996   16.063352364   573.8086   2   9   0.1274   0.0901   0.2983   0.0104   0.0454   0.1259   0.00    1.7
2018/03/16 10:26:37.000   78.246496277   16.063352429   573.8378   2   9   0.1261   0.0895   0.2943   0.0105   0.0447   0.1238   0.00    1.7
2018/03/16 10:26:38.000   78.246496600   16.063352174   573.8889   2   9   0.1248   0.0889   0.2903   0.0106   0.0441   0.1217   0.00    1.7
2018/03/16 10:26:39.000   78.246496842   16.063352414   573.9235   2   9   0.1236   0.0883   0.2864   0.0106   0.0434   0.1197   0.00    1.8
2018/03/16 10:26:40.000   78.246497036   16.063352421   573.9747   2   9   0.1224   0.0877   0.2826   0.0107   0.0428   0.1177   0.00    1.8
2018/03/16 10:26:41.000   78.246497258   16.063352758   574.0235   2   9   0.1212   0.0871   0.2789   0.0108   0.0422   0.1158   0.00    1.8
2018/03/16 10:26:42.000   78.246497313   16.063353120   574.0432   2   9   0.1200   0.0865   0.2753   0.0109   0.0415   0.1139   0.00    1.8
2018/03/16 10:26:43.000   78.246497251   16.063353233   574.0408   2   9   0.1189   0.0860   0.2717   0.0110   0.0410   0.1120   0.00    1.8
2018/03/16 10:26:44.000   78.246497285   16.063353273   574.0211   2   9   0.1178   0.0854   0.2682   0.0111   0.0404   0.1102   0.00    1.8
2018/03/16 10:26:45.000   78.246497285   16.063353316   573.9816   2   9   0.1167   0.0849   0.2648   0.0112   0.0398   0.1085   0.00    1.8
2018/03/16 10:26:46.000   78.246497122   16.063352967   573.9418   2   9   0.1156   0.0843   0.2615   0.0113   0.0392   0.1067   0.00    1.8
2018/03/16 10:26:47.000   78.246496969   16.063352872   573.9081   2   9   0.1145   0.0838   0.2582   0.0114   0.0387   0.1050   0.00    1.8
2018/03/16 10:26:48.000   78.246496890   16.063352817   573.8722   2   9   0.1135   0.0833   0.2550   0.0115   0.0381   0.1034   0.00    1.7
2018/03/16 10:26:49.000   78.246496760   16.063352896   573.8524   2   9   0.1125   0.0828   0.2518   0.0116   0.0376   0.1017   0.00    1.7
2018/03/16 10:26:50.000   78.246496751   16.063352984   573.8476   2   9   0.1115   0.0823   0.2488   0.0117   0.0370   0.1001   0.00    1.7
2018/03/16 10:26:51.000   78.246496772   16.063352894   573.8653   2   9   0.1105   0.0818   0.2458   0.0118   0.0365   0.0986   0.00    1.7
2018/03/16 10:26:52.000   78.246496845   16.063353208   573.8899   2   9   0.1095   0.0813   0.2428   0.0119   0.0360   0.0970   0.00    1.7
2018/03/16 10:26:53.000   78.246496928   16.063353175   573.9114   2   9   0.1086   0.0808   0.2399   0.0120   0.0355   0.0955   0.00    1.7
2018/03/16 10:26:54.000   78.246496963   16.063353521   573.9374   2   9   0.1076   0.0803   0.2371   0.0122   0.0350   0.0941   0.00    1.7
2018/03/16 10:26:55.000   78.246496967   16.063354063   573.9492   2   9   0.1067   0.0799   0.2343   0.0123   0.0345   0.0926   0.00    1.7
2018/03/16 10:26:56.000   78.246496956   16.063354006   573.9478   2   9   0.1058   0.0794   0.2316   0.0124   0.0340   0.0912   0.00    1.7
2018/03/16 10:26:57.000   78.246496847   16.063354118   573.9195   2   9   0.1049   0.0789   0.2289   0.0125   0.0336   0.0898   0.00    1.7
2018/03/16 10:26:58.000   78.246496714   16.063354442   573.8895   2   9   0.1040   0.0785   0.2263   0.0126   0.0331   0.0884   0.00    1.7
2018/03/16 10:26:59.000   78.246496462   16.063354123   573.8592   2   9   0.1032   0.0780   0.2237   0.0127   0.0326   0.0871   0.00    1.6
2018/03/16 10:27:00.000   78.246496407   16.063354399   573.8647   2   9   0.1023   0.0776   0.2212   0.0128   0.0322   0.0858   0.00    1.6
2018/03/16 10:27:01.000   78.246496453   16.063355165   573.8963   2   9   0.1015   0.0772   0.2187   0.0129   0.0317   0.0845   0.00    1.6
2018/03/16 10:27:02.000   78.246496555   16.063355410   573.9161   2   9   0.1007   0.0767   0.2163   0.0130   0.0313   0.0833   0.00    1.6
2018/03/16 10:27:03.000   78.246496708   16.063356169   573.9746   2   9   0.0999   0.0763   0.2139   0.0131   0.0309   0.0820   0.00    1.6
2018/03/16 10:27:04.000   78.246496823   16.063356428   574.0314   2   9   0.0991   0.0759   0.2116   0.0132   0.0304   0.0808   0.00    1.6
2018/03/16 10:27:05.000   78.246496891   16.063356642   574.0638   2   9   0.0983   0.0755   0.2093   0.0133   0.0300   0.0796   0.00    1.6
2018/03/16 10:27:06.000   78.246496968   16.063357024   574.0859   2   9   0.0976   0.0751   0.2070   0.0134   0.0296   0.0784   0.00    1.6
2018/03/16 10:27:07.000   78.246496961   16.063356875   574.0719   2   9   0.0968   0.0747   0.2048   0.0135   0.0292   0.0773   0.00    1.6
2018/03/16 10:27:08.000   78.246496984   16.063356895   574.0644   2   9   0.0961   0.0743   0.2026   0.0136   0.0288   0.0762   0.00    1.6
2018/03/16 10:27:09.000   78.246497072   16.063357192   574.0545   2   9   0.0953   0.0739   0.2005   0.0137   0.0284   0.0751   0.00    1.6
2018/03/16 10:27:10.000   78.246497117   16.063357193   574.0403   2   9   0.0946   0.0735   0.1984   0.0138   0.0280   0.0740   0.00    1.6
2018/03/16 10:27:11.000   78.246497097   16.063357366   574.0315   2   9   0.0939   0.0731   0.1964   0.0139   0.0276   0.0729   0.00    1.6
2018/03/16 10:27:12.000   78.246497196   16.063357882   574.0508   2   9   0.0932   0.0727   0.1944   0.0140   0.0272   0.0719   0.00    1.6
2018/03/16 10:27:13.000   78.246497291   16.063358001   574.0651   2   9   0.0925   0.0723   0.1924   0.0140   0.0268   0.0708   0.00    1.6
2018/03/16 10:27:14.000   78.246497325   16.063357872   574.0727   2   9   0.0918   0.0720   0.1904   0.0141   0.0265   0.0698   0.00    1.6
2018/03/16 10:27:15.000   78.246497284   16.063357898   574.0720   2   9   0.0912   0.0716   0.1885   0.0142   0.0261   0.0688   0.00    1.6
2018/03/16 10:27:16.000   78.246497290   16.063358415   574.0596   2   9   0.0905   0.0712   0.1866   0.0143   0.0257   0.0679   0.00    1.6
2018/03/16 10:27:17.000   78.246497220   16.063358799   574.0469   2   9   0.0898   0.0709   0.1848   0.0144   0.0254   0.0669   0.00    1.5
2018/03/16 10:27:18.000   78.246497122   16.063358854   574.0324   2   9   0.0892   0.0705   0.1830   0.0145   0.0250   0.0660   0.00    1.5
2018/03/16 10:27:19.000   78.246497156   16.063358787   574.0232   2   9   0.0886   0.0702   0.1812   0.0145   0.0247   0.0651   0.00    1.5
2018/03/16 10:27:20.000   78.246497237   16.063358856   574.0316   2   9   0.0879   0.0698   0.1794   0.0146   0.0243   0.0641   0.00    1.5
2018/03/16 10:27:21.000   78.246497385   16.063359236   574.0366   2   9   0.0873   0.0695   0.1779   0.0147   0.0240   0.0633   0.00    1.1
2018/03/16 10:27:22.000   78.246497392   16.063359119   574.0298   2   9   0.0867   0.0692   0.1763   0.0148   0.0236   0.0625   0.00    1.1
2018/03/16 10:27:23.000   78.246497422   16.063359269   574.0133   2   9   0.0861   0.0688   0.1748   0.0148   0.0233   0.0616   0.00    1.1
2018/03/16 10:27:24.000   78.246497554   16.063359485   573.9910   2   9   0.0855   0.0685   0.1733   0.0149   0.0230   0.0608   0.00    1.1
2018/03/16 10:27:25.000   78.246497678   16.063359982   573.9835   2   9   0.0850   0.0682   0.1719   0.0150   0.0226   0.0600   0.00    1.1
2018/03/16 10:27:26.000   78.246497654   16.063360205   573.9630   2   9   0.0844   0.0678   0.1704   0.0151   0.0223   0.0592   0.00    1.1
2018/03/16 10:27:27.000   78.246497640   16.063360051   573.9503   2   9   0.0838   0.0675   0.1690   0.0151   0.0220   0.0584   0.00    1.1
2018/03/16 10:27:28.000   78.246497638   16.063360353   573.9575   2   9   0.0833   0.0672   0.1676   0.0152   0.0217   0.0577   0.00    1.1
2018/03/16 10:27:29.000   78.246497560   16.063360640   573.9475   2   9   0.0827   0.0669   0.1662   0.0152   0.0213   0.0569   0.00    1.1
2018/03/16 10:27:30.000   78.246497512   16.063360822   573.9550   2   9   0.0822   0.0666   0.1648   0.0153   0.0210   0.0562   0.00    1.1
2018/03/16 10:27:31.000   78.246497455   16.063361354   573.9688   2   9   0.0816   0.0663   0.1635   0.0154   0.0207   0.0554   0.00    1.1
2018/03/16 10:27:32.000   78.246497461   16.063361595   573.9886   2   9   0.0811   0.0660   0.1621   0.0154   0.0204   0.0547   0.00    1.1
2018/03/16 10:27:33.000   78.246497433   16.063361663   574.0061   2   9   0.0806   0.0657   0.1608   0.0155   0.0201   0.0540   0.00    1.1
2018/03/16 10:27:34.000   78.246497368   16.063361507   574.0109   2   9   0.0801   0.0654   0.1595   0.0155   0.0197   0.0533   0.00    1.1
2018/03/16 10:27:35.000   78.246497325   16.063361568   574.0244   2   9   0.0796   0.0651   0.1582   0.0156   0.0194   0.0526   0.00    1.1
2018/03/16 10:27:36.000   78.246497297   16.063361928   574.0437   2   9   0.0791   0.0648   0.1570   0.0156   0.0191   0.0519   0.00    1.1
2018/03/16 10:27:37.000   78.246497310   16.063362153   574.0448   2   9   0.0786   0.0645   0.1557   0.0157   0.0188   0.0512   0.00    1.1
2018/03/16 10:27:38.000   78.246497289   16.063361810   574.0466   2   9   0.0781   0.0642   0.1545   0.0158   0.0185   0.0506   0.00    1.1
2018/03/16 10:27:39.000   78.246497318   16.063361968   574.0708   2   9   0.0776   0.0639   0.1533   0.0158   0.0182   0.0499   0.00    1.1
2018/03/16 10:27:40.000   78.246497341   16.063362197   574.0887   2   9   0.0771   0.0636   0.1521   0.0158   0.0179   0.0493   0.00    1.1
2018/03/16 10:27:41.000   78.246497294   16.063362102   574.0913   2   9   0.0766   0.0634   0.1509   0.0159   0.0176   0.0486   0.00    1.1
2018/03/16 10:27:42.000   78.246497298   16.063361563   574.0691   2   9   0.0762   0.0631   0.1497   0.0159   0.0173   0.0480   0.00    1.1
2018/03/16 10:27:43.000   78.246497352   16.063361400   574.0762   2   9   0.0757   0.0628   0.1486   0.0160   0.0170   0.0474   0.00    1.1
2018/03/16 10:27:44.000   78.246497382   16.063361654   574.0833   2   9   0.0752   0.0625   0.1475   0.0160   0.0167   0.0468   0.00    1.1
2018/03/16 10:27:45.000   78.246497327   16.063361577   574.0937   2   9   0.0748   0.0623   0.1463   0.0161   0.0164   0.0462   0.00    1.1
2018/03/16 10:27:46.000   78.246497222   16.063361400   574.0870   2   9   0.0743   0.0620   0.1452   0.0161   0.0161   0.0456   0.00    1.1
2018/03/16 10:27:47.000   78.246497218   16.063361659   574.1000   2   9   0.0739   0.0617   0.1442   0.0162   0.0158   0.0450   0.00    1.1
2018/03/16 10:27:48.000   78.246497251   16.063362329   574.1210   2   9   0.0735   0.0615   0.1431   0.0162   0.0155   0.0444   0.00    1.1
2018/03/16 10:27:49.000   78.246497347   16.063362484   574.1390   2   9   0.0730   0.0612   0.1420   0.0162   0.0153   0.0439   0.00    1.0
2018/03/16 10:27:50.000   78.246497400   16.063362252   574.1555   2   9   0.0726   0.0610   0.1410   0.0163   0.0150   0.0433   0.00    1.0
2018/03/16 10:27:51.000   78.246497441   16.063362301   574.1673   2   9   0.0722   0.0607   0.1399   0.0163   0.0147   0.0427   0.00    1.0
2018/03/16 10:27:52.000   78.246497446   16.063362358   574.1651   2   9   0.0718   0.0605   0.1389   0.0163   0.0144   0.0422   0.00    1.0
2018/03/16 10:27:53.000   78.246497351   16.063362366   574.1334   2   9   0.0714   0.0602   0.1379   0.0164   0.0141   0.0416   0.00    1.0
2018/03/16 10:27:54.000   78.246497233   16.063362272   574.1142   2   9   0.0710   0.0600   0.1369   0.0164   0.0138   0.0411   0.00    1.0
2018/03/16 10:27:55.000   78.246497152   16.063362457   574.0956   2   9   0.0706   0.0597   0.1359   0.0164   0.0135   0.0406   0.00    1.0
2018/03/16 10:27:56.000   78.246497067   16.063362787   574.0890   2   9   0.0702   0.0595   0.1350   0.0165   0.0132   0.0401   0.00    1.0
2018/03/16 10:27:57.000   78.246497029   16.063362417   574.0785   2   9   0.0698   0.0592   0.1340   0.0165   0.0129   0.0396   0.00    1.0
2018/03/16 10:27:58.000   78.246497038   16.063361799   574.0775   2   9   0.0694   0.0590   0.1331   0.0165   0.0127   0.0390   0.00    1.0
2018/03/16 10:27:59.000   78.246497114   16.063361924   574.0796   2   9   0.0690   0.0588   0.1321   0.0166   0.0124   0.0385   0.00    1.0
2018/03/16 10:28:00.000   78.246497120   16.063361754   574.0771   2   9   0.0686   0.0585   0.1312   0.0166   0.0121   0.0381   0.00    1.0
2018/03/16 10:28:01.000   78.246497090   16.063361465   574.0634   2   9   0.0682   0.0583   0.1303   0.0166   0.0118   0.0376   0.00    1.0
2018/03/16 10:28:02.000   78.246497121   16.063361503   574.0544   2   9   0.0679   0.0581   0.1294   0.0166   0.0115   0.0371   0.00    1.0
2018/03/16 10:28:03.000   78.246497133   16.063361693   574.0678   2   9   0.0675   0.0578   0.1285   0.0167   0.0112   0.0366   0.00    1.1
2018/03/16 10:28:04.000   78.246497115   16.063361812   574.0693   2   9   0.0671   0.0576   0.1276   0.0167   0.0109   0.0361   0.00    1.1
2018/03/16 10:28:05.000   78.246497093   16.063361611   574.0710   2   9   0.0668   0.0574   0.1267   0.0167   0.0106   0.0357   0.00    1.1
2018/03/16 10:28:06.000   78.246497144   16.063361603   574.0705   2   9   0.0664   0.0572   0.1259   0.0167   0.0103   0.0352   0.00    1.1
2018/03/16 10:28:07.000   78.246497240   16.063362053   574.0791   2   9   0.0661   0.0569   0.1250   0.0167   0.0100   0.0348   0.00    1.1
2018/03/16 10:28:08.000   78.246497388   16.063362398   574.0788   2   9   0.0657   0.0567   0.1242   0.0168   0.0097   0.0343   0.00    1.1
2018/03/16 10:28:09.000   78.246497451   16.063362562   574.0695   2   9   0.0654   0.0565   0.1234   0.0168   0.0094   0.0339   0.00    1.1
2018/03/16 10:28:10.000   78.246497468   16.063362657   574.0723   2   9   0.0650   0.0563   0.1226   0.0168   0.0091   0.0334   0.00    1.1
2018/03/16 10:28:11.000   78.246497575   16.063362804   574.0855   2   9   0.0647   0.0561   0.1218   0.0168   0.0088   0.0330   0.00    1.1
2018/03/16 10:28:12.000   78.246497661   16.063363185   574.0897   2   9   0.0644   0.0559   0.1210   0.0168   0.0085   0.0326   0.00    1.1
2018/03/16 10:28:13.000   78.246497640   16.063363515   574.0914   2   9   0.0640   0.0557   0.1202   0.0169   0.0081   0.0322   0.00    1.1
2018/03/16 10:28:14.000   78.246497604   16.063363705   574.0992   2   9   0.0637   0.0554   0.1194   0.0169   0.0078   0.0318   0.00    1.1
2018/03/16 10:28:15.000   78.246497545   16.063364142   574.1111   2   9   0.0634   0.0552   0.1186   0.0169   0.0075   0.0314   0.00    1.1
2018/03/16 10:28:16.000   78.246497563   16.063364370   574.1161   2   9   0.0631   0.0550   0.1179   0.0169   0.0071   0.0309   0.00    1.1
2018/03/16 10:28:17.000   78.246497560   16.063364379   574.1229   2   9   0.0627   0.0548   0.1171   0.0169   0.0068   0.0305   0.00    1.1
2018/03/16 10:28:18.000   78.246497583   16.063364675   574.1310   2   9   0.0624   0.0546   0.1164   0.0169   0.0064   0.0301   0.00    1.1
2018/03/16 10:28:19.000   78.246497563   16.063365108   574.1405   2   9   0.0621   0.0544   0.1156   0.0169   0.0060   0.0298   0.00    1.1
2018/03/16 10:28:20.000   78.246497532   16.063365497   574.1529   2   9   0.0618   0.0542   0.1149   0.0169   0.0056   0.0294   0.00    1.1
2018/03/16 10:28:21.000   78.246497459   16.063365895   574.1569   2   9   0.0615   0.0540   0.1142   0.0170   0.0052   0.0290   0.00    1.2
2018/03/16 10:28:22.000   78.246497407   16.063366096   574.1476   2   9   0.0612   0.0538   0.1135   0.0170   0.0047   0.0286   0.00    1.2
2018/03/16 10:28:23.000   78.246497353   16.063366342   574.1388   2   9   0.0609   0.0536   0.1128   0.0170   0.0042   0.0282   0.00    1.2
2018/03/16 10:28:24.000   78.246497334   16.063366421   574.1425   2   9   0.0606   0.0535   0.1121   0.0170   0.0037   0.0279   0.00    1.2
2018/03/16 10:28:25.000   78.246497294   16.063366301   574.1455   2   9   0.0603   0.0533   0.1114   0.0170   0.0031   0.0275   0.00    1.2
2018/03/16 10:28:26.000   78.246497243   16.063366608   574.1595   2   9   0.0600   0.0531   0.1107   0.0170   0.0023   0.0271   0.00    1.2
2018/03/16 10:28:27.000   78.246497188   16.063366678   574.1663   2   9   0.0597   0.0529   0.1101   0.0170   0.0012   0.0268   0.00    1.2
2018/03/16 10:28:28.000   78.246497181   16.063366746   574.1715   2   9   0.0594   0.0527   0.1094   0.0170  -0.0016   0.0264   0.00    1.2
2018/03/16 10:28:29.000   78.246497185   16.063366873   574.1818   2   9   0.0592   0.0525   0.1087   0.0170  -0.0025   0.0261   0.00    1.2
2018/03/16 10:28:30.000   78.246497129   16.063366695   574.1890   2   9   0.0589   0.0523   0.1081   0.0170  -0.0032   0.0257   0.00    1.2
2018/03/16 10:28:31.000   78.246497081   16.063366643   574.1935   2   9   0.0586   0.0521   0.1074   0.0170  -0.0037   0.0254   0.00    1.2
2018/03/16 10:28:32.000   78.246497050   16.063366489   574.1873   2   9   0.0583   0.0520   0.1068   0.0170  -0.0042   0.0251   0.00    1.2
2018/03/16 10:28:33.000   78.246497032   16.063366173   574.1776   2   9   0.0581   0.0518   0.1062   0.0170  -0.0046   0.0247   0.00    1.2
2018/03/16 10:28:34.000   78.246497050   16.063366338   574.1751   2   9   0.0578   0.0516   0.1056   0.0170  -0.0049   0.0244   0.00    1.2
2018/03/16 10:28:35.000   78.246497067   16.063366444   574.1637   2   9   0.0575   0.0514   0.1049   0.0171  -0.0053   0.0241   0.00    1.2
2018/03/16 10:28:36.000   78.246497071   16.063366234   574.1478   2   9   0.0573   0.0513   0.1043   0.0171  -0.0056   0.0237   0.00    1.2
2018/03/16 10:28:37.000   78.246497077   16.063366155   574.1437   2   9   0.0570   0.0511   0.1037   0.0171  -0.0059   0.0234   0.00    1.2
2018/03/16 10:28:38.000   78.246497109   16.063365976   574.1398   2   9   0.0567   0.0509   0.1031   0.0171  -0.0061   0.0231   0.00    1.2
2018/03/16 10:28:39.000   78.246497086   16.063365762   574.1366   2   9   0.0565   0.0507   0.1026   0.0171  -0.0064   0.0228   0.00    1.2
2018/03/16 10:28:40.000   78.246497087   16.063365874   574.1350   2   9   0.0562   0.0506   0.1020   0.0171  -0.0066   0.0225   0.00    1.3
2018/03/16 10:28:41.000   78.246497071   16.063365775   574.1339   2   9   0.0560   0.0504   0.1014   0.0171  -0.0068   0.0222   0.00    1.3
2018/03/16 10:28:42.000   78.246497052   16.063365663   574.1316   2   9   0.0557   0.0502   0.1008   0.0171  -0.0070   0.0218   0.00    1.3
2018/03/16 10:28:43.000   78.246497040   16.063365472   574.1222   2   9   0.0555   0.0501   0.1003   0.0171  -0.0072   0.0215   0.00    1.3
2018/03/16 10:28:44.000   78.246497083   16.063365297   574.1188   2   9   0.0552   0.0499   0.0997   0.0171  -0.0074   0.0212   0.00    1.3
2018/03/16 10:28:45.000   78.246497140   16.063365113   574.1074   2   9   0.0550   0.0497   0.0992   0.0171  -0.0076   0.0209   0.00    1.3
2018/03/16 10:28:46.000   78.246497157   16.063364944   574.0987   2   9   0.0548   0.0496   0.0986   0.0171  -0.0078   0.0207   0.00    1.3
2018/03/16 10:28:47.000   78.246497187   16.063364759   574.0871   2   9   0.0545   0.0494   0.0981   0.0171  -0.0079   0.0204   0.00    1.3
2018/03/16 10:28:48.000   78.246497186   16.063364739   574.0812   2   9   0.0543   0.0492   0.0975   0.0170  -0.0081   0.0201   0.00    1.3
2018/03/16 10:28:49.000   78.246497164   16.063364548   574.0754   2   9   0.0541   0.0491   0.0970   0.0170  -0.0083   0.0198   0.00    1.3
2018/03/16 10:28:50.000   78.246497129   16.063364406   574.0747   2   9   0.0538   0.0489   0.0965   0.0170  -0.0084   0.0195   0.00    1.3
2018/03/16 10:28:51.000   78.246497102   16.063364494   574.0743   2   9   0.0536   0.0488   0.0960   0.0170  -0.0085   0.0192   0.00    1.3
2018/03/16 10:28:52.000   78.246497035   16.063364448   574.0711   2   9   0.0534   0.0486   0.0955   0.0170  -0.0087   0.0189   0.00    1.3
2018/03/16 10:28:53.000   78.246496965   16.063364429   574.0646   2   9   0.0531   0.0485   0.0949   0.0170  -0.0088   0.0187   0.00    1.3
2018/03/16 10:28:54.000   78.246496896   16.063364571   574.0561   2   9   0.0529   0.0483   0.0944   0.0170  -0.0089   0.0184   0.00    1.3
2018/03/16 10:28:55.000   78.246496815   16.063364506   574.0471   2   9   0.0527   0.0481   0.0939   0.0170  -0.0091   0.0181   0.00    1.3
2018/03/16 10:28:56.000   78.246496769   16.063364441   574.0417   2   9   0.0525   0.0480   0.0935   0.0170  -0.0092   0.0178   0.00    1.3
2018/03/16 10:28:57.000   78.246496809   16.063364444   574.0430   2   9   0.0523   0.0478   0.0930   0.0170  -0.0093   0.0176   0.00    1.3
2018/03/16 10:28:58.000   78.246496850   16.063364491   574.0379   2   9   0.0520   0.0477   0.0925   0.0170  -0.0094   0.0173   0.00    1.3
2018/03/16 10:28:59.000   78.246496852   16.063364385   574.0307   2   9   0.0518   0.0475   0.0920   0.0170  -0.0095   0.0170   0.00    1.3
2018/03/16 10:29:00.000   78.246496865   16.063364355   574.0214   2   9   0.0516   0.0474   0.0915   0.0170  -0.0096   0.0168   0.00    1.3
2018/03/16 10:29:01.000   78.246496861   16.063364363   574.0161   2   9   0.0514   0.0472   0.0911   0.0170  -0.0097   0.0165   0.00    1.3
2018/03/16 10:29:02.000   78.246496862   16.063364478   574.0060   2   9   0.0512   0.0471   0.0906   0.0170  -0.0098   0.0162   0.00    1.3
2018/03/16 10:29:03.000   78.246496870   16.063364477   574.0029   2   9   0.0510   0.0470   0.0901   0.0170  -0.0099   0.0160   0.00    1.3
2018/03/16 10:29:04.000   78.246496879   16.063364452   573.9999   2   9   0.0508   0.0468   0.0897   0.0170  -0.0100   0.0157   0.00    1.3
2018/03/16 10:29:05.000   78.246496908   16.063364426   574.0014   2   9   0.0506   0.0467   0.0892   0.0170  -0.0101   0.0155   0.00    1.3
2018/03/16 10:29:06.000   78.246496902   16.063364233   574.0028   2   9   0.0504   0.0465   0.0888   0.0169  -0.0102   0.0152   0.00    1.3
2018/03/16 10:29:07.000   78.246496949   16.063364362   574.0106   2   9   0.0502   0.0464   0.0884   0.0169  -0.0102   0.0150   0.00    1.3
2018/03/16 10:29:08.000   78.246496971   16.063364408   574.0196   2   9   0.0500   0.0462   0.0879   0.0169  -0.0103   0.0147   0.00    1.3
2018/03/16 10:29:09.000   78.246496966   16.063364695   574.0273   2   9   0.0498   0.0461   0.0875   0.0169  -0.0104   0.0145   0.00    1.3
2018/03/16 10:29:10.000   78.246496950   16.063364863   574.0366   2   9   0.0496   0.0460   0.0871   0.0169  -0.0105   0.0142   0.00    1.3
2018/03/16 10:29:11.000   78.246496895   16.063364941   574.0389   2   9   0.0494   0.0458   0.0866   0.0169  -0.0106   0.0140   0.00    1.3
2018/03/16 10:29:12.000   78.246496886   16.063365121   574.0411   2   9   0.0492   0.0457   0.0862   0.0169  -0.0106   0.0137   0.00    1.3
2018/03/16 10:29:13.000   78.246496844   16.063365368   574.0456   2   9   0.0490   0.0456   0.0858   0.0169  -0.0107   0.0135   0.00    1.3
2018/03/16 10:29:14.000   78.246496824   16.063365431   574.0496   2   9   0.0488   0.0454   0.0854   0.0169  -0.0108   0.0133   0.00    1.3
2018/03/16 10:29:15.000   78.246496806   16.063365543   574.0502   2   9   0.0486   0.0453   0.0850   0.0169  -0.0108   0.0130   0.00    1.3
2018/03/16 10:29:16.000   78.246496777   16.063365750   574.0551   2   9   0.0485   0.0452   0.0846   0.0168  -0.0109   0.0128   0.00    1.3
2018/03/16 10:29:17.000   78.246496778   16.063365993   574.0611   2   9   0.0483   0.0450   0.0842   0.0168  -0.0110   0.0125   0.00    1.3
2018/03/16 10:29:18.000   78.246496788   16.063366143   574.0646   2   9   0.0481   0.0449   0.0838   0.0168  -0.0110   0.0123   0.00    1.3
2018/03/16 10:29:19.000   78.246496769   16.063366204   574.0693   2   9   0.0479   0.0448   0.0834   0.0168  -0.0111   0.0120   0.00    1.3
2018/03/16 10:29:20.000   78.246496737   16.063366351   574.0803   2   9   0.0477   0.0446   0.0830   0.0168  -0.0111   0.0118   0.00    1.3
2018/03/16 10:29:21.000   78.246496714   16.063366521   574.0839   2   9   0.0475   0.0445   0.0826   0.0168  -0.0112   0.0116   0.00    1.3
2018/03/16 10:29:22.000   78.246496677   16.063366440   574.0815   2   9   0.0474   0.0444   0.0822   0.0168  -0.0112   0.0113   0.00    1.3
2018/03/16 10:29:23.000   78.246496624   16.063366365   574.0818   2   9   0.0472   0.0442   0.0818   0.0168  -0.0113   0.0111   0.00    1.3
2018/03/16 10:29:24.000   78.246496628   16.063366423   574.0811   2   9   0.0470   0.0441   0.0815   0.0168  -0.0113   0.0109   0.00    1.3
2018/03/16 10:29:25.000   78.246496616   16.063366407   574.0853   2   9   0.0468   0.0440   0.0811   0.0167  -0.0114   0.0106   0.00    1.3
2018/03/16 10:29:26.000   78.246496601   16.063366344   574.0922   2   9   0.0467   0.0439   0.0807   0.0167  -0.0114   0.0104   0.00    1.3
2018/03/16 10:29:27.000   78.246496572   16.063366376   574.0980   2   9   0.0465   0.0437   0.0803   0.0167  -0.0115   0.0101   0.00    1.3
2018/03/16 10:29:28.000   78.246496557   16.063366355   574.1024   2   9   0.0463   0.0436   0.0800   0.0167  -0.0115   0.0099   0.00    1.3
2018/03/16 10:29:29.000   78.246496565   16.063366547   574.1034   2   9   0.0462   0.0435   0.0796   0.0167  -0.0116   0.0097   0.00    1.3
2018/03/16 10:29:30.000   78.246496578   16.063366650   574.1053   2   9   0.0460   0.0434   0.0793   0.0167  -0.0116   0.0094   0.00    1.3
2018/03/16 10:29:31.000   78.246496599   16.063366574   574.1045   2   9   0.0458   0.0433   0.0789   0.0167  -0.0117   0.0092   0.00    1.3
2018/03/16 10:29:32.000   78.246496590   16.063366608   574.1019   2   9   0.0457   0.0431   0.0786   0.0166  -0.0117   0.0090   0.00    1.3
2018/03/16 10:29:33.000   78.246496583   16.063366797   574.1048   2   9   0.0455   0.0430   0.0782   0.0166  -0.0117   0.0087   0.00    1.3
2018/03/16 10:29:34.000   78.246496543   16.063366884   574.1036   2   9   0.0454   0.0429   0.0779   0.0166  -0.0118   0.0085   0.00    1.3
2018/03/16 10:29:35.000   78.246496530   16.063366843   574.0999   2   9   0.0452   0.0428   0.0775   0.0166  -0.0118   0.0082   0.00    1.3
2018/03/16 10:29:36.000   78.246496517   16.063366625   574.0966   2   9   0.0450   0.0427   0.0772   0.0166  -0.0118   0.0080   0.00    1.3
2018/03/16 10:29:37.000   78.246496498   16.063366592   574.0931   2   9   0.0449   0.0425   0.0769   0.0166  -0.0119   0.0077   0.00    1.3
2018/03/16 10:29:38.000   78.246496483   16.063366618   574.0887   2   9   0.0447   0.0424   0.0765   0.0166  -0.0119   0.0075   0.00    1.3
2018/03/16 10:29:39.000   78.246496456   16.063366587   574.0819   2   9   0.0446   0.0423   0.0762   0.0165  -0.0119   0.0072   0.00    1.3
2018/03/16 10:29:40.000   78.246496428   16.063366437   574.0774   2   9   0.0444   0.0422   0.0759   0.0165  -0.0120   0.0070   0.00    1.3
2018/03/16 10:29:41.000   78.246496471   16.063366523   574.0745   2   9   0.0443   0.0421   0.0756   0.0165  -0.0120   0.0067   0.00    1.3
2018/03/16 10:29:42.000   78.246496492   16.063366566   574.0726   2   9   0.0441   0.0420   0.0752   0.0165  -0.0120   0.0064   0.00    1.3
2018/03/16 10:29:43.000   78.246496482   16.063366417   574.0702   2   9   0.0440   0.0419   0.0749   0.0165  -0.0121   0.0062   0.00    1.3
2018/03/16 10:29:44.000   78.246496435   16.063366194   574.0676   2   9   0.0438   0.0417   0.0746   0.0165  -0.0121   0.0059   0.00    1.3
2018/03/16 10:29:45.000   78.246496359   16.063366128   574.0673   2   9   0.0437   0.0416   0.0743   0.0165  -0.0121   0.0056   0.00    1.3
2018/03/16 10:29:46.000   78.246496260   16.063366100   574.0631   2   9   0.0435   0.0415   0.0740   0.0164  -0.0122   0.0053   0.00    1.2
2018/03/16 10:29:47.000   78.246496178   16.063366044   574.0538   2   9   0.0434   0.0414   0.0737   0.0164  -0.0122   0.0050   0.00    1.2
2018/03/16 10:29:48.000   78.246496162   16.063365920   574.0455   2   9   0.0432   0.0413   0.0734   0.0164  -0.0122   0.0047   0.00    1.2
2018/03/16 10:29:49.000   78.246496173   16.063365884   574.0417   2   9   0.0431   0.0412   0.0731   0.0164  -0.0122   0.0043   0.00    1.2
2018/03/16 10:29:50.000   78.246496204   16.063365722   574.0376   2   9   0.0429   0.0411   0.0728   0.0164  -0.0123   0.0040   0.00    1.2
2018/03/16 10:29:51.000   78.246496231   16.063365668   574.0294   2   9   0.0428   0.0410   0.0725   0.0164  -0.0123   0.0036   0.00    1.2
2018/03/16 10:29:52.000   78.246496235   16.063365718   574.0335   2   9   0.0427   0.0409   0.0722   0.0163  -0.0123   0.0032   0.00    1.2
2018/03/16 10:29:53.000   78.246496275   16.063365762   574.0310   2   9   0.0425   0.0408   0.0719   0.0163  -0.0123   0.0027   0.00    1.2
2018/03/16 10:29:54.000   78.246496299   16.063365748   574.0278   2   9   0.0424   0.0407   0.0716   0.0163  -0.0123   0.0021   0.00    1.2
2018/03/16 10:29:55.000   78.246496313   16.063365690   574.0249   2   9   0.0422   0.0406   0.0713   0.0163  -0.0124   0.0014   0.00    1.2
2018/03/16 10:29:56.000   78.246496303   16.063365409   574.0224   2   9   0.0421   0.0405   0.0710   0.0163  -0.0124  -0.0008   0.00    1.2
2018/03/16 10:29:57.000   78.246496298   16.063365318   574.0209   2   9   0.0420   0.0404   0.0707   0.0163  -0.0124  -0.0018   0.00    1.2
2018/03/16 10:29:58.000   78.246496291   16.063365392   574.0178   2   9   0.0418   0.0403   0.0705   0.0162  -0.0124  -0.0024   0.00    1.2
2018/03/16 10:29:59.000   78.246496261   16.063365279   574.0128   2   9   0.0417   0.0402   0.0702   0.0162  -0.0124  -0.0028   0.00    1.2
2018/03/16 10:30:00.000   78.246496234   16.063365200   574.0112   2   9   0.0416   0.0400   0.0699   0.0162  -0.0125  -0.0032   0.00    1.2
2018/03/16 10:30:01.000   78.246496220   16.063365328   574.0205   2   9   0.0414   0.0399   0.0696   0.0162  -0.0125  -0.0036   0.00    1.2
2018/03/16 10:30:02.000   78.246496226   16.063365433   574.0268   2   9   0.0413   0.0398   0.0694   0.0162  -0.0125  -0.0039   0.00    1.2
2018/03/16 10:30:03.000   78.246496265   16.063365536   574.0272   2   9   0.0412   0.0397   0.0691   0.0162  -0.0125  -0.0042   0.00    1.2
2018/03/16 10:30:04.000   78.246496300   16.063365639   574.0270   2   9   0.0410   0.0396   0.0688   0.0161  -0.0125  -0.0044   0.00    1.2
2018/03/16 10:30:05.000   78.246496297   16.063365566   574.0254   2   9   0.0409   0.0395   0.0686   0.0161  -0.0125  -0.0047   0.00    1.2
2018/03/16 10:30:06.000   78.246496288   16.063365703   574.0277   2   9   0.0408   0.0395   0.0683   0.0161  -0.0126  -0.0049   0.00    1.2
2018/03/16 10:30:07.000   78.246496247   16.063365710   574.0320   2   9   0.0407   0.0394   0.0680   0.0161  -0.0126  -0.0051   0.00    1.2
2018/03/16 10:30:08.000   78.246496210   16.063365688   574.0321   2   9   0.0405   0.0393   0.0678   0.0161  -0.0126  -0.0053   0.00    1.2
2018/03/16 10:30:09.000   78.246496191   16.063365693   574.0291   2   9   0.0404   0.0392   0.0675   0.0161  -0.0126  -0.0055   0.00    1.2
2018/03/16 10:30:10.000   78.246496155   16.063365544   574.0272   2   9   0.0403   0.0391   0.0673   0.0160  -0.0126  -0.0056   0.00    1.2
2018/03/16 10:30:11.000   78.246496140   16.063365538   574.0312   2   9   0.0402   0.0390   0.0670   0.0160  -0.0126  -0.0058   0.00    1.2
2018/03/16 10:30:12.000   78.246496124   16.063365495   574.0337   2   9   0.0400   0.0389   0.0668   0.0160  -0.0126  -0.0059   0.00    1.2
2018/03/16 10:30:13.000   78.246496116   16.063365497   574.0316   2   9   0.0399   0.0388   0.0665   0.0160  -0.0126  -0.0061   0.00    1.2
2018/03/16 10:30:14.000   78.246496159   16.063365707   574.0342   2   9   0.0398   0.0387   0.0663   0.0160  -0.0126  -0.0062   0.00    1.2
2018/03/16 10:30:15.000   78.246496179   16.063365843   574.0386   2   9   0.0397   0.0386   0.0660   0.0160  -0.0127  -0.0064   0.00    1.2
2018/03/16 10:30:16.000   78.246496203   16.063365839   574.0401   2   9   0.0396   0.0385   0.0658   0.0159  -0.0127  -0.0065   0.00    1.2
2018/03/16 10:30:17.000   78.246496198   16.063365822   574.0445   2   9   0.0394   0.0384   0.0656   0.0159  -0.0127  -0.0066   0.00    1.2
2018/03/16 10:30:18.000   78.246496192   16.063365991   574.0452   2   9   0.0393   0.0383   0.0653   0.0159  -0.0127  -0.0067   0.00    1.2
2018/03/16 10:30:19.000   78.246496155   16.063366164   574.0469   2   9   0.0392   0.0382   0.0651   0.0159  -0.0127  -0.0069   0.00    1.2
2018/03/16 10:30:20.000   78.246496098   16.063366381   574.0489   2   9   0.0391   0.0381   0.0648   0.0159  -0.0127  -0.0070   0.00    1.2
2018/03/16 10:30:21.000   78.246496071   16.063366435   574.0462   2   9   0.0390   0.0380   0.0646   0.0159  -0.0127  -0.0071   0.00    1.2
2018/03/16 10:30:22.000   78.246496067   16.063366488   574.0482   2   9   0.0389   0.0380   0.0644   0.0158  -0.0127  -0.0072   0.00    1.2
2018/03/16 10:30:23.000   78.246496069   16.063366712   574.0477   2   9   0.0387   0.0379   0.0642   0.0158  -0.0127  -0.0073   0.00    1.2
2018/03/16 10:30:24.000   78.246496056   16.063366733   574.0468   2   9   0.0386   0.0378   0.0639   0.0158  -0.0127  -0.0074   0.00    1.2
2018/03/16 10:30:25.000   78.246496054   16.063366674   574.0435   2   9   0.0385   0.0377   0.0637   0.0158  -0.0127  -0.0075   0.00    1.2
2018/03/16 10:30:26.000   78.246496054   16.063366709   574.0435   2   9   0.0384   0.0376   0.0635   0.0158  -0.0127  -0.0076   0.00    1.2
2018/03/16 10:30:27.000   78.246496070   16.063366807   574.0431   2   9   0.0383   0.0375   0.0632   0.0157  -0.0128  -0.0077   0.00    1.2
2018/03/16 10:30:28.000   78.246496077   16.063366799   574.0432   2   9   0.0382   0.0374   0.0630   0.0157  -0.0128  -0.0077   0.00    1.2
2018/03/16 10:30:29.000   78.246496083   16.063366790   574.0451   2   9   0.0381   0.0373   0.0628   0.0157  -0.0128  -0.0078   0.00    1.2
2018/03/16 10:30:30.000   78.246496076   16.063366797   574.0484   2   9   0.0380   0.0373   0.0626   0.0157  -0.0128  -0.0079   0.00    1.2
2018/03/16 10:30:31.000   78.246496058   16.063366784   574.0541   2   9   0.0379   0.0372   0.0624   0.0157  -0.0128  -0.0080   0.00    1.2
2018/03/16 10:30:32.000   78.246496064   16.063366853   574.0502   2   9   0.0378   0.0371   0.0622   0.0157  -0.0128  -0.0080   0.00    1.2
2018/03/16 10:30:33.000   78.246496068   16.063366745   574.0451   2   9   0.0377   0.0370   0.0619   0.0156  -0.0128  -0.0081   0.00    1.2
2018/03/16 10:30:34.000   78.246496078   16.063366815   574.0407   2   9   0.0375   0.0369   0.0617   0.0156  -0.0128  -0.0082   0.00    1.2
2018/03/16 10:30:35.000   78.246496091   16.063366815   574.0395   2   9   0.0374   0.0368   0.0615   0.0156  -0.0128  -0.0083   0.00    1.2
2018/03/16 10:30:36.000   78.246496112   16.063366830   574.0410   2   9   0.0373   0.0367   0.0613   0.0156  -0.0128  -0.0083   0.00    1.2
2018/03/16 10:30:37.000   78.246496129   16.063366901   574.0438   2   9   0.0372   0.0367   0.0611   0.0156  -0.0128  -0.0084   0.00    1.2
2018/03/16 10:30:38.000   78.246496132   16.063366762   574.0454   2   9   0.0371   0.0366   0.0609   0.0155  -0.0128  -0.0084   0.00    1.2
2018/03/16 10:30:39.000   78.246496139   16.063366779   574.0441   2   9   0.0370   0.0365   0.0607   0.0155  -0.0128  -0.0085   0.00    1.2
2018/03/16 10:30:40.000   78.246496144   16.063366914   574.0460   2   9   0.0369   0.0364   0.0605   0.0155  -0.0128  -0.0086   0.00    1.2
2018/03/16 10:30:41.000   78.246496119   16.063366748   574.0438   2   9   0.0368   0.0363   0.0603   0.0155  -0.0128  -0.0086   0.00    1.2
2018/03/16 10:30:42.000   78.246496096   16.063366703   574.0431   2   9   0.0367   0.0363   0.0601   0.0155  -0.0128  -0.0087   0.00    1.2
2018/03/16 10:30:43.000   78.246496092   16.063366768   574.0409   2   9   0.0366   0.0362   0.0599   0.0155  -0.0128  -0.0087   0.00    1.2
2018/03/16 10:30:44.000   78.246496085   16.063366831   574.0399   2   9   0.0365   0.0361   0.0597   0.0154  -0.0128  -0.0088   0.00    1.2
2018/03/16 10:30:45.000   78.246496049   16.063366861   574.0410   2   9   0.0364   0.0360   0.0595   0.0154  -0.0128  -0.0088   0.00    1.2
2018/03/16 10:30:46.000   78.246496032   16.063366908   574.0409   2   9   0.0363   0.0359   0.0593   0.0154  -0.0128  -0.0089   0.00    1.1
2018/03/16 10:30:47.000   78.246496029   16.063366941   574.0431   2   9   0.0362   0.0359   0.0591   0.0154  -0.0128  -0.0089   0.00    1.1
2018/03/16 10:30:48.000   78.246496043   16.063367052   574.0422   2   9   0.0361   0.0358   0.0589   0.0154  -0.0128  -0.0090   0.00    1.1
2018/03/16 10:30:49.000   78.246496031   16.063367033   574.0427   2   9   0.0360   0.0357   0.0587   0.0153  -0.0128  -0.0090   0.00    1.1
2018/03/16 10:30:50.000   78.246496013   16.063366897   574.0460   2   9   0.0359   0.0356   0.0586   0.0153  -0.0128  -0.0091   0.00    1.1
2018/03/16 10:30:51.000   78.246496013   16.063366945   574.0447   2   9   0.0359   0.0355   0.0584   0.0153  -0.0128  -0.0091   0.00    1.1
2018/03/16 10:30:52.000   78.246496019   16.063367013   574.0428   2   9   0.0358   0.0355   0.0582   0.0153  -0.0128  -0.0091   0.00    1.1
2018/03/16 10:30:53.000   78.246496018   16.063367000   574.0391   2   9   0.0357   0.0354   0.0580   0.0153  -0.0128  -0.0092   0.00    1.1
2018/03/16 10:30:54.000   78.246496000   16.063367043   574.0324   2   9   0.0356   0.0353   0.0578   0.0153  -0.0128  -0.0092   0.00    1.1
2018/03/16 10:30:55.000   78.246496002   16.063367022   574.0297   2   9   0.0355   0.0352   0.0576   0.0152  -0.0128  -0.0093   0.00    1.1
2018/03/16 10:30:56.000   78.246496031   16.063367092   574.0277   2   9   0.0354   0.0352   0.0575   0.0152  -0.0128  -0.0093   0.00    1.1
2018/03/16 10:30:57.000   78.246496043   16.063367114   574.0254   2   9   0.0353   0.0351   0.0573   0.0152  -0.0128  -0.0093   0.00    1.1
2018/03/16 10:30:58.000   78.246496037   16.063366896   574.0254   2   9   0.0352   0.0350   0.0571   0.0152  -0.0128  -0.0094   0.00    1.1
2018/03/16 10:30:59.000   78.246496034   16.063366842   574.0263   2   9   0.0351   0.0349   0.0569   0.0152  -0.0128  -0.0094   0.00    1.1
2018/03/16 10:31:00.000   78.246496046   16.063366862   574.0267   2   9   0.0350   0.0349   0.0567   0.0151  -0.0128  -0.0094   0.00    1.1
2018/03/16 10:31:01.000   78.246496053   16.063366847   574.0251   2   9   0.0349   0.0348   0.0566   0.0151  -0.0128  -0.0095   0.00    1.1
2018/03/16 10:31:02.000   78.246496042   16.063366809   574.0245   2   9   0.0348   0.0347   0.0564   0.0151  -0.0128  -0.0095   0.00    1.1
2018/03/16 10:31:03.000   78.246496024   16.063366847   574.0250   2   9   0.0348   0.0347   0.0562   0.0151  -0.0128  -0.0095   0.00    1.1
2018/03/16 10:31:04.000   78.246496025   16.063366807   574.0246   2   9   0.0347   0.0346   0.0561   0.0151  -0.0128  -0.0095   0.00    1.1
2018/03/16 10:31:05.000   78.246496050   16.063366852   574.0197   2   9   0.0346   0.0345   0.0559   0.0150  -0.0128  -0.0096   0.00    1.1
2018/03/16 10:31:06.000   78.246496058   16.063366869   574.0193   2   9   0.0345   0.0344   0.0557   0.0150  -0.0128  -0.0096   0.00    1.1
2018/03/16 10:31:07.000   78.246496080   16.063366876   574.0184   2   9   0.0344   0.0344   0.0555   0.0150  -0.0128  -0.0096   0.00    1.1
2018/03/16 10:31:08.000   78.246496109   16.063366899   574.0139   2   9   0.0343   0.0343   0.0554   0.0150  -0.0128  -0.0097   0.00    1.1
2018/03/16 10:31:09.000   78.246496126   16.063366824   574.0133   2   9   0.0342   0.0342   0.0552   0.0150  -0.0128  -0.0097   0.00    1.1
2018/03/16 10:31:10.000   78.246496134   16.063366752   574.0127   2   9   0.0342   0.0342   0.0550   0.0150  -0.0128  -0.0097   0.00    1.1
2018/03/16 10:31:11.000   78.246496125   16.063366681   574.0101   2   9   0.0341   0.0341   0.0549   0.0149  -0.0128  -0.0097   0.00    1.1
2018/03/16 10:31:12.000   78.246496108   16.063366627   574.0070   2   9   0.0340   0.0340   0.0547   0.0149  -0.0128  -0.0098   0.00    1.1
2018/03/16 10:31:13.000   78.246496088   16.063366579   574.0065   2   9   0.0339   0.0339   0.0546   0.0149  -0.0128  -0.0098   0.00    1.1
2018/03/16 10:31:14.000   78.246496046   16.063366620   574.0063   2   9   0.0338   0.0339   0.0544   0.0149  -0.0128  -0.0098   0.00    1.1
2018/03/16 10:31:15.000   78.246496017   16.063366638   574.0058   2   9   0.0337   0.0338   0.0542   0.0149  -0.0128  -0.0098   0.00    1.1
2018/03/16 10:31:16.000   78.246495994   16.063366695   574.0078   2   9   0.0337   0.0337   0.0541   0.0148  -0.0128  -0.0098   0.00    1.1
2018/03/16 10:31:17.000   78.246495997   16.063366860   574.0070   2   9   0.0336   0.0337   0.0539   0.0148  -0.0128  -0.0099   0.00    1.1
2018/03/16 10:31:18.000   78.246495992   16.063366922   574.0060   2   9   0.0335   0.0336   0.0538   0.0148  -0.0128  -0.0099   0.00    1.1
2018/03/16 10:31:19.000   78.246495967   16.063366851   574.0069   2   9   0.0334   0.0335   0.0536   0.0148  -0.0127  -0.0099   0.00    1.1
2018/03/16 10:31:20.000   78.246495941   16.063366848   574.0092   2   9   0.0333   0.0335   0.0535   0.0148  -0.0127  -0.0099   0.00    1.1
2018/03/16 10:31:21.000   78.246495916   16.063366782   574.0097   2   9   0.0333   0.0334   0.0533   0.0148  -0.0127  -0.0099   0.00    1.1
2018/03/16 10:31:22.000   78.246495907   16.063366788   574.0088   2   9   0.0332   0.0333   0.0532   0.0147  -0.0127  -0.0100   0.00    1.1
2018/03/16 10:31:23.000   78.246495906   16.063366789   574.0058   2   9   0.0331   0.0333   0.0530   0.0147  -0.0127  -0.0100   0.00    1.1
2018/03/16 10:31:24.000   78.246495887   16.063366660   574.0063   2   9   0.0330   0.0332   0.0529   0.0147  -0.0127  -0.0100   0.00    1.1
2018/03/16 10:31:25.000   78.246495893   16.063366593   574.0068   2   9   0.0329   0.0331   0.0527   0.0147  -0.0127  -0.0100   0.00    1.1
2018/03/16 10:31:26.000   78.246495910   16.063366606   574.0057   2   9   0.0329   0.0331   0.0526   0.0147  -0.0127  -0.0100   0.00    1.1
2018/03/16 10:31:27.000   78.246495931   16.063366518   574.0034   2   9   0.0328   0.0330   0.0524   0.0147  -0.0127  -0.0100   0.00    1.1
2018/03/16 10:31:28.000   78.246495976   16.063366546   574.0028   2   9   0.0327   0.0330   0.0523   0.0146  -0.0127  -0.0100   0.00    1.1
2018/03/16 10:31:29.000   78.246496028   16.063366599   574.0015   2   9   0.0326   0.0329   0.0521   0.0146  -0.0127  -0.0101   0.00    1.1
2018/03/16 10:31:30.000   78.246496063   16.063366619   573.9997   2   9   0.0326   0.0328   0.0520   0.0146  -0.0127  -0.0101   0.00    1.1
2018/03/16 10:31:31.000   78.246496081   16.063366661   573.9998   2   9   0.0325   0.0328   0.0518   0.0146  -0.0127  -0.0101   0.00    1.1
2018/03/16 10:31:32.000   78.246496077   16.063366621   574.0011   2   9   0.0324   0.0327   0.0517   0.0146  -0.0127  -0.0101   0.00    1.1
2018/03/16 10:31:33.000   78.246496063   16.063366626   574.0024   2   9   0.0323   0.0326   0.0516   0.0145  -0.0127  -0.0101   0.00    1.1
2018/03/16 10:31:34.000   78.246496038   16.063366649   574.0004   2   9   0.0323   0.0326   0.0514   0.0145  -0.0127  -0.0101   0.00    1.1
2018/03/16 10:31:35.000   78.246496004   16.063366628   573.9995   2   9   0.0322   0.0325   0.0513   0.0145  -0.0127  -0.0101   0.00    1.1
2018/03/16 10:31:36.000   78.246495976   16.063366551   573.9998   2   9   0.0321   0.0324   0.0511   0.0145  -0.0127  -0.0102   0.00    1.1
2018/03/16 10:31:37.000   78.246495967   16.063366551   573.9976   2   9   0.0321   0.0324   0.0510   0.0145  -0.0127  -0.0102   0.00    1.1
2018/03/16 10:31:38.000   78.246495968   16.063366558   573.9986   2   9   0.0320   0.0323   0.0509   0.0145  -0.0126  -0.0102   0.00    1.1
2018/03/16 10:31:39.000   78.246495970   16.063366471   573.9979   2   9   0.0319   0.0323   0.0507   0.0144  -0.0126  -0.0102   0.00    1.1
2018/03/16 10:31:40.000   78.246495987   16.063366477   573.9951   2   9   0.0318   0.0322   0.0506   0.0144  -0.0126  -0.0102   0.00    1.1
2018/03/16 10:31:41.000   78.246495985   16.063366501   573.9941   2   9   0.0318   0.0321   0.0505   0.0144  -0.0126  -0.0102   0.00    1.1
2018/03/16 10:31:42.000   78.246495979   16.063366446   573.9916   2   9   0.0317   0.0321   0.0503   0.0144  -0.0126  -0.0102   0.00    1.1
2018/03/16 10:31:43.000   78.246495957   16.063366318   573.9891   2   9   0.0316   0.0320   0.0502   0.0144  -0.0126  -0.0102   0.00    1.1
2018/03/16 10:31:44.000   78.246495937   16.063366281   573.9884   2   9   0.0316   0.0320   0.0501   0.0144  -0.0126  -0.0102   0.00    1.1
2018/03/16 10:31:45.000   78.246495938   16.063366302   573.9892   2   9   0.0315   0.0319   0.0499   0.0143  -0.0126  -0.0102   0.00    1.1
2018/03/16 10:31:46.000   78.246495946   16.063366261   573.9870   2   9   0.0314   0.0318   0.0498   0.0143  -0.0126  -0.0102   0.00    1.1
2018/03/16 10:31:47.000   78.246495950   16.063366161   573.9884   2   9   0.0313   0.0318   0.0497   0.0143  -0.0126  -0.0103   0.00    1.1
2018/03/16 10:31:48.000   78.246495947   16.063366158   573.9898   2   9   0.0313   0.0317   0.0495   0.0143  -0.0126  -0.0103   0.00    1.1
2018/03/16 10:31:49.000   78.246495938   16.063366172   573.9933   2   9   0.0312   0.0317   0.0494   0.0143  -0.0126  -0.0103   0.00    1.1
2018/03/16 10:31:50.000   78.246495931   16.063366266   573.9976   2   9   0.0311   0.0316   0.0493   0.0142  -0.0126  -0.0103   0.00    1.1
2018/03/16 10:31:51.000   78.246495936   16.063366346   573.9984   2   9   0.0311   0.0316   0.0491   0.0142  -0.0126  -0.0103   0.00    1.1
2018/03/16 10:31:52.000   78.246495947   16.063366382   574.0015   2   9   0.0310   0.0315   0.0490   0.0142  -0.0126  -0.0103   0.00    1.1
2018/03/16 10:31:53.000   78.246495961   16.063366470   574.0051   2   9   0.0309   0.0314   0.0489   0.0142  -0.0125  -0.0103   0.00    1.1
2018/03/16 10:31:54.000   78.246495965   16.063366513   574.0057   2   9   0.0309   0.0314   0.0488   0.0142  -0.0125  -0.0103   0.00    1.1
2018/03/16 10:31:55.000   78.246495956   16.063366479   574.0052   2   9   0.0308   0.0313   0.0487   0.0142  -0.0125  -0.0103   0.00    1.1
2018/03/16 10:31:56.000   78.246495939   16.063366466   574.0059   2   9   0.0307   0.0313   0.0485   0.0141  -0.0125  -0.0103   0.00    1.1
2018/03/16 10:31:57.000   78.246495941   16.063366451   574.0063   2   9   0.0307   0.0312   0.0484   0.0141  -0.0125  -0.0103   0.00    1.1
2018/03/16 10:31:58.000   78.246495946   16.063366477   574.0060   2   9   0.0306   0.0312   0.0483   0.0141  -0.0125  -0.0103   0.00    1.1
2018/03/16 10:31:59.000   78.246495950   16.063366479   574.0043   2   9   0.0306   0.0311   0.0482   0.0141  -0.0125  -0.0103   0.00    1.1
2018/03/16 10:32:00.000   78.246495937   16.063366370   574.0024   2   9   0.0305   0.0310   0.0480   0.0141  -0.0125  -0.0103   0.00    1.1
2018/03/16 10:32:01.000   78.246495936   16.063366352   574.0028   2   9   0.0304   0.0310   0.0479   0.0141  -0.0125  -0.0103   0.00    1.1
2018/03/16 10:32:02.000   78.246495956   16.063366395   574.0023   2   9   0.0304   0.0309   0.0478   0.0140  -0.0125  -0.0103   0.00    1.1
2018/03/16 10:32:03.000   78.246495963   16.063366370   574.0018   2   9   0.0303   0.0309   0.0477   0.0140  -0.0125  -0.0103   0.00    1.1
2018/03/16 10:32:04.000   78.246495975   16.063366408   574.0019   2   9   0.0302   0.0308   0.0476   0.0140  -0.0125  -0.0103   0.00    1.1
2018/03/16 10:32:05.000   78.246495983   16.063366485   574.0042   2   9   0.0302   0.0308   0.0475   0.0140  -0.0125  -0.0103   0.00    1.1
2018/03/16 10:32:06.000   78.246495975   16.063366543   574.0060   2   9   0.0301   0.0307   0.0473   0.0140  -0.0125  -0.0103   0.00    1.1
2018/03/16 10:32:07.000   78.246495965   16.063366599   574.0081   2   9   0.0301   0.0307   0.0472   0.0140  -0.0124  -0.0103   0.00    1.1
2018/03/16 10:32:08.000   78.246495944   16.063366590   574.0121   2   9   0.0300   0.0306   0.0471   0.0139  -0.0124  -0.0103   0.00    1.0
2018/03/16 10:32:09.000   78.246495929   16.063366615   574.0130   2   9   0.0299   0.0306   0.0470   0.0139  -0.0124  -0.0104   0.00    1.0
