% program   : RTKPOST ver.2.4.2
% inp file  : Z:\home\linda\Documents\Spring18\GitHub_Unis\data\processed_data\46250703.obs
% inp file  : Z:\home\linda\Documents\Spring18\GitHub_Unis\data\base_station_data\lyrs0700.18o
% inp file  : Z:\home\linda\Documents\Spring18\GitHub_Unis\data\processed_data\46250703.nav
% obs start : 2018/03/11 11:29:01.0 GPST (week1992  41341.0s)
% obs end   : 2018/03/11 11:52:36.0 GPST (week1992  42756.0s)
% pos mode  : static
% freqs     : L1+L2
% solution  : forward
% elev mask : 15.0 deg
% dynamics  : on
% tidecorr  : off
% ionos opt : estimation
% tropo opt : saastamoinen
% ephemeris : broadcast
% navi sys  : gps glonass galileo qzss sbas
% amb res   : fix and hold
% amb glo   : on
% val thres : 3.0
% antenna1  :                       ( 0.0000  0.0000  0.0000)
% antenna2  :                       ( 0.0000  0.0000  0.0000)
% ref pos   : 78.228825638   15.397310064   495.6816
%
% (lat/lon/height=WGS84/ellipsoidal,Q=1:fix,2:float,3:sbas,4:dgps,5:single,6:ppp,ns=# of satellites)
%  GPST                  latitude(deg) longitude(deg)  height(m)   Q  ns   sdn(m)   sde(m)   sdu(m)  sdne(m)  sdeu(m)  sdun(m) age(s)  ratio
2018/03/11 11:29:01.000   78.256791794   16.230322860   399.7830   2   9   0.4932   0.4153   1.3620  -0.2148  -0.2837   0.5671   0.00    1.3
2018/03/11 11:29:02.000   78.256789421   16.230328460   399.2615   2   9   0.3572   0.3008   0.9855  -0.1555  -0.2056   0.4111   0.00    1.1
2018/03/11 11:29:03.000   78.256788942   16.230329326   398.9707   2   9   0.2972   0.2502   0.8188  -0.1295  -0.1712   0.3417   0.00    1.2
2018/03/11 11:29:04.000   78.256787713   16.230334433   398.5156   2   9   0.2619   0.2203   0.7202  -0.1141  -0.1510   0.3006   0.00    1.3
2018/03/11 11:29:05.000   78.256787974   16.230333945   398.6866   2   9   0.2381   0.2001   0.6537  -0.1038  -0.1373   0.2728   0.00    1.3
2018/03/11 11:29:06.000   78.256788224   16.230333474   398.8056   2   9   0.2207   0.1854   0.6051  -0.0963  -0.1274   0.2525   0.00    1.2
2018/03/11 11:29:07.000   78.256788322   16.230331306   398.8522   2   9   0.2074   0.1741   0.5677  -0.0906  -0.1198   0.2369   0.00    1.3
2018/03/11 11:29:08.000   78.256788253   16.230330905   398.8616   2   9   0.1967   0.1651   0.5379  -0.0860  -0.1137   0.2244   0.00    1.3
2018/03/11 11:29:09.000   78.256788387   16.230330352   398.8602   2   9   0.1880   0.1577   0.5135  -0.0822  -0.1087   0.2142   0.00    1.3
2018/03/11 11:29:10.000   78.256788169   16.230330550   398.7732   2   9   0.1807   0.1516   0.4930  -0.0791  -0.1046   0.2056   0.00    1.3
2018/03/11 11:29:11.000   78.256788327   16.230331107   398.7617   2   9   0.1745   0.1463   0.4756  -0.0764  -0.1010   0.1983   0.00    1.3
2018/03/11 11:29:12.000   78.256788408   16.230331078   398.8549   2   9   0.1692   0.1418   0.4605  -0.0741  -0.0980   0.1920   0.00    1.2
2018/03/11 11:29:13.000   78.256788510   16.230330935   398.8861   2   9   0.1645   0.1378   0.4473  -0.0721  -0.0953   0.1864   0.00    1.1
2018/03/11 11:29:14.000   78.256788656   16.230331439   398.9360   2   9   0.1604   0.1343   0.4357  -0.0703  -0.0929   0.1815   0.00    1.1
2018/03/11 11:29:15.000   78.256788708   16.230332552   399.0196   2   9   0.1567   0.1312   0.4253  -0.0687  -0.0908   0.1771   0.00    1.1
2018/03/11 11:29:16.000   78.256788656   16.230333191   399.0982   2   9   0.1534   0.1284   0.4159  -0.0673  -0.0889   0.1732   0.00    1.1
2018/03/11 11:29:17.000   78.256788926   16.230334092   399.1232   2   9   0.1504   0.1259   0.4075  -0.0660  -0.0872   0.1696   0.00    1.0
2018/03/11 11:29:18.000   78.256789047   16.230333117   399.2181   2   9   0.1477   0.1236   0.3998  -0.0649  -0.0857   0.1664   0.00    1.0
2018/03/11 11:29:19.000   78.256789394   16.230331599   399.3390   2   9   0.1452   0.1215   0.3928  -0.0638  -0.0842   0.1634   0.00    1.0
2018/03/11 11:29:20.000   78.256789729   16.230330721   399.4148   2   9   0.1429   0.1196   0.3863  -0.0628  -0.0829   0.1607   0.00    1.1
2018/03/11 11:29:21.000   78.256789978   16.230330339   399.4183   2   9   0.1408   0.1178   0.3803  -0.0619  -0.0817   0.1581   0.00    1.1
2018/03/11 11:29:22.000   78.256790114   16.230329770   399.4233   2   9   0.1389   0.1162   0.3747  -0.0611  -0.0805   0.1558   0.00    1.1
2018/03/11 11:29:23.000   78.256790360   16.230328926   399.4165   2   9   0.1370   0.1146   0.3696  -0.0603  -0.0795   0.1536   0.00    1.1
2018/03/11 11:29:24.000   78.256790553   16.230327516   399.3717   2   9   0.1353   0.1132   0.3647  -0.0595  -0.0785   0.1515   0.00    1.0
2018/03/11 11:29:25.000   78.256790661   16.230326312   399.3579   2   9   0.1338   0.1119   0.3602  -0.0588  -0.0775   0.1496   0.00    1.1
2018/03/11 11:29:26.000   78.256790686   16.230326253   399.3390   2   9   0.1323   0.1107   0.3559  -0.0582  -0.0766   0.1477   0.00    1.1
2018/03/11 11:29:27.000   78.256790721   16.230325717   399.2913   2   9   0.1309   0.1095   0.3519  -0.0576  -0.0758   0.1460   0.00    1.1
2018/03/11 11:29:28.000   78.256790664   16.230325400   399.2910   2   9   0.1295   0.1084   0.3481  -0.0570  -0.0750   0.1444   0.00    1.1
2018/03/11 11:29:29.000   78.256790737   16.230324623   399.3115   2   9   0.1283   0.1073   0.3445  -0.0565  -0.0742   0.1428   0.00    1.1
2018/03/11 11:29:30.000   78.256790841   16.230323950   399.3207   2   9   0.1271   0.1064   0.3411  -0.0559  -0.0735   0.1413   0.00    1.1
2018/03/11 11:29:31.000   78.256790963   16.230323475   399.3572   2   9   0.1260   0.1054   0.3378  -0.0554  -0.0728   0.1399   0.00    1.1
2018/03/11 11:29:32.000   78.256791010   16.230323305   399.3563   2   9   0.1249   0.1046   0.3347  -0.0550  -0.0722   0.1386   0.00    1.1
2018/03/11 11:29:33.000   78.256791142   16.230323650   399.3381   2   9   0.1238   0.1037   0.3317  -0.0545  -0.0715   0.1373   0.00    1.1
2018/03/11 11:29:34.000   78.256791288   16.230323796   399.3499   2   9   0.1229   0.1029   0.3288  -0.0541  -0.0709   0.1360   0.00    1.1
2018/03/11 11:29:35.000   78.256791297   16.230323649   399.3750   2   9   0.1219   0.1022   0.3261  -0.0537  -0.0703   0.1348   0.00    1.1
2018/03/11 11:29:36.000   78.256791273   16.230323471   399.3765   2   9   0.1210   0.1014   0.3234  -0.0533  -0.0697   0.1337   0.00    1.1
2018/03/11 11:29:37.000   78.256791327   16.230323161   399.4017   2   9   0.1201   0.1007   0.3209  -0.0529  -0.0692   0.1325   0.00    1.1
2018/03/11 11:29:38.000   78.256791352   16.230323207   399.4248   2   9   0.1193   0.1001   0.3184  -0.0525  -0.0686   0.1315   0.00    1.1
2018/03/11 11:29:39.000   78.256791255   16.230323271   399.4156   2   9   0.1185   0.0994   0.3161  -0.0521  -0.0681   0.1304   0.00    1.0
2018/03/11 11:29:40.000   78.256791226   16.230323086   399.3990   2   9   0.1177   0.0988   0.3138  -0.0518  -0.0676   0.1294   0.00    1.0
2018/03/11 11:29:41.000   78.256791185   16.230322876   399.3734   2   9   0.1170   0.0982   0.3115  -0.0514  -0.0671   0.1284   0.00    1.0
2018/03/11 11:29:42.000   78.256791169   16.230322617   399.3254   2   9   0.1162   0.0976   0.3094  -0.0511  -0.0666   0.1274   0.00    1.0
2018/03/11 11:29:43.000   78.256791170   16.230321989   399.3325   2   9   0.1155   0.0971   0.3073  -0.0508  -0.0661   0.1265   0.00    1.1
2018/03/11 11:29:44.000   78.256791140   16.230321728   399.3320   2   9   0.1148   0.0965   0.3053  -0.0505  -0.0655   0.1256   0.00    1.1
2018/03/11 11:29:45.000   78.256791103   16.230321689   399.3456   2   9   0.1142   0.0960   0.3034  -0.0501  -0.0650   0.1248   0.00    1.1
2018/03/11 11:29:46.000   78.256791104   16.230322005   399.3359   2   9   0.1136   0.0955   0.3015  -0.0498  -0.0645   0.1239   0.00    1.1
2018/03/11 11:29:47.000   78.256791136   16.230321979   399.3523   2   9   0.1129   0.0951   0.2997  -0.0495  -0.0640   0.1231   0.00    1.1
2018/03/11 11:29:48.000   78.256791134   16.230321828   399.3685   2   9   0.1123   0.0946   0.2979  -0.0492  -0.0635   0.1223   0.00    1.0
2018/03/11 11:29:49.000   78.256791061   16.230322085   399.3795   2   9   0.1118   0.0942   0.2962  -0.0489  -0.0630   0.1215   0.00    1.0
2018/03/11 11:29:50.000   78.256791082   16.230321776   399.3850   2   9   0.1112   0.0937   0.2945  -0.0486  -0.0626   0.1208   0.00    1.0
2018/03/11 11:29:51.000   78.256791135   16.230321598   399.3846   2   9   0.1106   0.0933   0.2928  -0.0484  -0.0621   0.1200   0.00    1.0
2018/03/11 11:29:52.000   78.256791115   16.230321305   399.3580   2   9   0.1100   0.0929   0.2911  -0.0481  -0.0618   0.1192   0.00    1.0
2018/03/11 11:29:53.000   78.256791167   16.230320724   399.3503   2   9   0.1095   0.0925   0.2894  -0.0479  -0.0614   0.1184   0.00    1.0
2018/03/11 11:29:54.000   78.256791252   16.230320362   399.3698   2   9   0.1090   0.0921   0.2878  -0.0476  -0.0610   0.1177   0.00    1.0
2018/03/11 11:29:55.000   78.256791359   16.230320090   399.3765   2   9   0.1085   0.0917   0.2862  -0.0474  -0.0606   0.1169   0.00    1.1
2018/03/11 11:29:56.000   78.256791344   16.230320114   399.3557   2   9   0.1080   0.0913   0.2846  -0.0471  -0.0602   0.1162   0.00    1.0
2018/03/11 11:29:57.000   78.256791323   16.230320026   399.3338   2   9   0.1074   0.0909   0.2831  -0.0469  -0.0599   0.1155   0.00    1.0
2018/03/11 11:29:58.000   78.256791336   16.230319564   399.3338   2   9   0.1070   0.0906   0.2815  -0.0467  -0.0595   0.1148   0.00    1.1
2018/03/11 11:29:59.000   78.256791313   16.230319143   399.3062   2   9   0.1065   0.0902   0.2801  -0.0464  -0.0591   0.1141   0.00    1.1
2018/03/11 11:30:00.000   78.256791237   16.230318808   399.2670   2   9   0.1060   0.0899   0.2786  -0.0462  -0.0587   0.1134   0.00    1.0
2018/03/11 11:30:01.000   78.256791176   16.230318694   399.2416   2   9   0.1055   0.0896   0.2772  -0.0460  -0.0582   0.1127   0.00    1.0
2018/03/11 11:30:02.000   78.256791162   16.230318702   399.2280   2   9   0.1051   0.0892   0.2758  -0.0457  -0.0578   0.1121   0.00    1.0
2018/03/11 11:30:03.000   78.256791226   16.230318364   399.2450   2   9   0.1046   0.0889   0.2744  -0.0455  -0.0574   0.1114   0.00    1.0
2018/03/11 11:30:04.000   78.256791291   16.230318344   399.2537   2   9   0.1042   0.0886   0.2730  -0.0453  -0.0570   0.1107   0.00    1.1
2018/03/11 11:30:05.000   78.256791347   16.230318302   399.2592   2   9   0.1038   0.0883   0.2716  -0.0450  -0.0566   0.1101   0.00    1.1
2018/03/11 11:30:06.000   78.256791402   16.230318668   399.2734   2   9   0.1033   0.0880   0.2702  -0.0448  -0.0562   0.1094   0.00    1.1
2018/03/11 11:30:07.000   78.256791400   16.230318958   399.2813   2   9   0.1029   0.0877   0.2689  -0.0446  -0.0558   0.1088   0.00    1.1
2018/03/11 11:30:08.000   78.256791334   16.230318932   399.2585   2   9   0.1025   0.0874   0.2675  -0.0444  -0.0555   0.1081   0.00    1.0
2018/03/11 11:30:09.000   78.256791271   16.230318853   399.2506   2   9   0.1021   0.0871   0.2661  -0.0442  -0.0552   0.1074   0.00    1.1
2018/03/11 11:30:10.000   78.256791217   16.230318837   399.2446   2   9   0.1017   0.0868   0.2648  -0.0440  -0.0548   0.1068   0.00    1.0
2018/03/11 11:30:11.000   78.256791161   16.230319086   399.2425   2   9   0.1013   0.0866   0.2635  -0.0438  -0.0545   0.1062   0.00    1.0
2018/03/11 11:30:12.000   78.256791119   16.230319223   399.2364   2   9   0.1009   0.0863   0.2622  -0.0436  -0.0541   0.1055   0.00    1.0
2018/03/11 11:30:13.000   78.256791081   16.230319128   399.2236   2   9   0.1005   0.0860   0.2608  -0.0434  -0.0537   0.1049   0.00    1.0
2018/03/11 11:30:14.000   78.256791047   16.230319023   399.2076   2   9   0.1001   0.0858   0.2595  -0.0432  -0.0534   0.1042   0.00    1.0
2018/03/11 11:30:15.000   78.256791026   16.230318988   399.1974   2   9   0.0997   0.0855   0.2583  -0.0430  -0.0530   0.1036   0.00    1.0
2018/03/11 11:30:16.000   78.256791014   16.230318755   399.1803   2   9   0.0993   0.0853   0.2570  -0.0428  -0.0526   0.1030   0.00    1.1
2018/03/11 11:30:17.000   78.256790965   16.230318385   399.1448   2   9   0.0989   0.0850   0.2557  -0.0426  -0.0523   0.1024   0.00    1.1
2018/03/11 11:30:18.000   78.256790920   16.230317908   399.1032   2   9   0.0985   0.0848   0.2545  -0.0424  -0.0519   0.1017   0.00    1.1
2018/03/11 11:30:19.000   78.256790921   16.230317578   399.0654   2   9   0.0982   0.0845   0.2532  -0.0422  -0.0516   0.1011   0.00    1.2
2018/03/11 11:30:20.000   78.256790940   16.230317497   399.0671   2   9   0.0978   0.0843   0.2520  -0.0420  -0.0512   0.1005   0.00    1.2
2018/03/11 11:30:21.000   78.256790959   16.230317501   399.0693   2   9   0.0974   0.0840   0.2507  -0.0418  -0.0508   0.0999   0.00    1.2
2018/03/11 11:30:22.000   78.256790944   16.230317568   399.0805   2   9   0.0971   0.0838   0.2495  -0.0416  -0.0504   0.0993   0.00    1.2
2018/03/11 11:30:23.000   78.256790955   16.230317532   399.0864   2   9   0.0967   0.0836   0.2483  -0.0414  -0.0501   0.0987   0.00    1.2
2018/03/11 11:30:24.000   78.256791016   16.230317693   399.1049   2   9   0.0964   0.0833   0.2471  -0.0412  -0.0497   0.0981   0.00    1.1
2018/03/11 11:30:25.000   78.256791030   16.230317693   399.1096   2   9   0.0960   0.0831   0.2459  -0.0410  -0.0493   0.0975   0.00    1.0
2018/03/11 11:30:26.000   78.256791033   16.230317650   399.1205   2   9   0.0957   0.0829   0.2447  -0.0408  -0.0489   0.0969   0.00    1.0
2018/03/11 11:30:27.000   78.256791020   16.230317573   399.1416   2   9   0.0953   0.0827   0.2435  -0.0406  -0.0486   0.0963   0.00    1.0
2018/03/11 11:30:28.000   78.256791086   16.230317531   399.1464   2   9   0.0950   0.0825   0.2423  -0.0405  -0.0482   0.0957   0.00    1.0
2018/03/11 11:30:29.000   78.256791159   16.230317500   399.1589   2   9   0.0946   0.0823   0.2411  -0.0403  -0.0478   0.0951   0.00    1.0
2018/03/11 11:30:30.000   78.256791186   16.230317525   399.1646   2   9   0.0943   0.0820   0.2399  -0.0401  -0.0474   0.0945   0.00    1.1
2018/03/11 11:30:31.000   78.256791180   16.230317498   399.1800   2   9   0.0939   0.0818   0.2387  -0.0399  -0.0470   0.0939   0.00    1.1
2018/03/11 11:30:32.000   78.256791132   16.230317490   399.1784   2   9   0.0936   0.0816   0.2375  -0.0397  -0.0467   0.0933   0.00    1.1
2018/03/11 11:30:33.000   78.256791104   16.230317636   399.1703   2   9   0.0933   0.0814   0.2364  -0.0395  -0.0463   0.0927   0.00    1.1
2018/03/11 11:30:34.000   78.256791056   16.230317394   399.1502   2   9   0.0929   0.0812   0.2352  -0.0393  -0.0459   0.0921   0.00    1.1
2018/03/11 11:30:35.000   78.256790991   16.230317166   399.1149   2   9   0.0926   0.0810   0.2341  -0.0391  -0.0455   0.0915   0.00    1.1
2018/03/11 11:30:36.000   78.256790932   16.230316952   399.0802   2   9   0.0923   0.0808   0.2329  -0.0389  -0.0451   0.0909   0.00    1.1
2018/03/11 11:30:37.000   78.256790892   16.230316723   399.0479   2   9   0.0920   0.0806   0.2318  -0.0387  -0.0447   0.0904   0.00    1.1
2018/03/11 11:30:38.000   78.256790850   16.230316714   399.0296   2   9   0.0916   0.0805   0.2306  -0.0386  -0.0444   0.0898   0.00    1.1
2018/03/11 11:30:39.000   78.256790848   16.230316726   399.0284   2   9   0.0913   0.0803   0.2295  -0.0384  -0.0440   0.0892   0.00    1.2
2018/03/11 11:30:40.000   78.256790868   16.230316621   399.0340   2   9   0.0910   0.0801   0.2284  -0.0382  -0.0436   0.0886   0.00    1.2
2018/03/11 11:30:41.000   78.256790927   16.230316705   399.0406   2   9   0.0907   0.0799   0.2272  -0.0380  -0.0432   0.0880   0.00    1.2
2018/03/11 11:30:42.000   78.256790938   16.230316689   399.0489   2   9   0.0904   0.0797   0.2261  -0.0378  -0.0428   0.0875   0.00    1.2
2018/03/11 11:30:43.000   78.256790935   16.230316796   399.0379   2   9   0.0900   0.0795   0.2250  -0.0376  -0.0424   0.0869   0.00    1.2
2018/03/11 11:30:44.000   78.256790914   16.230316982   399.0371   2   9   0.0897   0.0793   0.2239  -0.0374  -0.0420   0.0863   0.00    1.2
2018/03/11 11:30:45.000   78.256790917   16.230316974   399.0281   2   9   0.0894   0.0792   0.2227  -0.0373  -0.0416   0.0857   0.00    1.2
2018/03/11 11:30:46.000   78.256790911   16.230317040   399.0095   2   9   0.0891   0.0790   0.2216  -0.0371  -0.0412   0.0852   0.00    1.2
2018/03/11 11:30:47.000   78.256790900   16.230317108   399.0006   2   9   0.0888   0.0788   0.2205  -0.0369  -0.0408   0.0846   0.00    1.2
2018/03/11 11:30:48.000   78.256790904   16.230317222   398.9914   2   9   0.0885   0.0786   0.2194  -0.0367  -0.0404   0.0840   0.00    1.2
2018/03/11 11:30:49.000   78.256790930   16.230317250   398.9776   2   9   0.0882   0.0784   0.2183  -0.0365  -0.0400   0.0835   0.00    1.2
2018/03/11 11:30:50.000   78.256790973   16.230317322   398.9657   2   9   0.0879   0.0783   0.2172  -0.0363  -0.0396   0.0829   0.00    1.2
2018/03/11 11:30:51.000   78.256791011   16.230317225   398.9539   2   9   0.0876   0.0781   0.2161  -0.0362  -0.0392   0.0823   0.00    1.1
2018/03/11 11:30:52.000   78.256791021   16.230317091   398.9398   2   9   0.0873   0.0779   0.2151  -0.0360  -0.0388   0.0818   0.00    1.1
2018/03/11 11:30:53.000   78.256791008   16.230316808   398.9166   2   9   0.0870   0.0778   0.2140  -0.0358  -0.0384   0.0812   0.00    1.1
2018/03/11 11:30:54.000   78.256790998   16.230316647   398.8999   2   9   0.0867   0.0776   0.2129  -0.0356  -0.0380   0.0806   0.00    1.1
2018/03/11 11:30:55.000   78.256790948   16.230316432   398.8931   2   9   0.0864   0.0774   0.2118  -0.0354  -0.0376   0.0801   0.00    1.1
2018/03/11 11:30:56.000   78.256790908   16.230316381   398.8808   2   9   0.0861   0.0773   0.2108  -0.0353  -0.0372   0.0795   0.00    1.1
2018/03/11 11:30:57.000   78.256790918   16.230316299   398.8863   2   9   0.0858   0.0771   0.2097  -0.0351  -0.0368   0.0790   0.00    1.1
2018/03/11 11:30:58.000   78.256790967   16.230316166   398.8993   2   9   0.0855   0.0769   0.2086  -0.0349  -0.0364   0.0784   0.00    1.1
2018/03/11 11:30:59.000   78.256790960   16.230316162   398.9099   2   9   0.0853   0.0768   0.2076  -0.0347  -0.0360   0.0779   0.00    1.1
2018/03/11 11:31:00.000   78.256790915   16.230316265   398.9203   2   9   0.0850   0.0766   0.2065  -0.0345  -0.0356   0.0773   0.00    1.1
2018/03/11 11:31:01.000   78.256790888   16.230316288   398.9341   2   9   0.0847   0.0765   0.2055  -0.0344  -0.0352   0.0768   0.00    1.1
2018/03/11 11:31:02.000   78.256790878   16.230316325   398.9480   2   9   0.0844   0.0763   0.2044  -0.0342  -0.0348   0.0762   0.00    1.1
2018/03/11 11:31:03.000   78.256790861   16.230316388   398.9540   2   9   0.0841   0.0762   0.2034  -0.0340  -0.0344   0.0757   0.00    1.0
2018/03/11 11:31:04.000   78.256790798   16.230316424   398.9592   2   9   0.0838   0.0760   0.2023  -0.0338  -0.0340   0.0751   0.00    1.0
2018/03/11 11:31:05.000   78.256790715   16.230316421   398.9565   2   9   0.0835   0.0758   0.2013  -0.0337  -0.0336   0.0746   0.00    1.0
2018/03/11 11:31:06.000   78.256790671   16.230316423   398.9501   2   9   0.0833   0.0757   0.2003  -0.0335  -0.0332   0.0740   0.00    1.0
2018/03/11 11:31:07.000   78.256790637   16.230316464   398.9527   2   9   0.0830   0.0755   0.1993  -0.0333  -0.0328   0.0735   0.00    1.0
2018/03/11 11:31:08.000   78.256790626   16.230316571   398.9441   2   9   0.0827   0.0754   0.1982  -0.0331  -0.0324   0.0730   0.00    1.0
2018/03/11 11:31:09.000   78.256790561   16.230316576   398.9259   2   9   0.0824   0.0752   0.1972  -0.0330  -0.0319   0.0724   0.00    1.0
2018/03/11 11:31:10.000   78.256790507   16.230316568   398.9009   2   9   0.0822   0.0751   0.1962  -0.0328  -0.0315   0.0719   0.00    1.0
2018/03/11 11:31:11.000   78.256790501   16.230316475   398.8914   2   9   0.0819   0.0749   0.1952  -0.0326  -0.0311   0.0714   0.00    1.1
2018/03/11 11:31:12.000   78.256790475   16.230316306   398.8784   2   9   0.0816   0.0748   0.1942  -0.0324  -0.0307   0.0708   0.00    1.1
2018/03/11 11:31:13.000   78.256790458   16.230316200   398.8640   2   9   0.0813   0.0746   0.1932  -0.0323  -0.0303   0.0703   0.00    1.1
2018/03/11 11:31:14.000   78.256790466   16.230316246   398.8479   2   9   0.0811   0.0745   0.1922  -0.0321  -0.0299   0.0698   0.00    1.1
2018/03/11 11:31:15.000   78.256790478   16.230316371   398.8324   2   9   0.0808   0.0743   0.1912  -0.0319  -0.0294   0.0692   0.00    1.1
2018/03/11 11:31:16.000   78.256790482   16.230316411   398.8226   2   9   0.0805   0.0742   0.1902  -0.0317  -0.0290   0.0687   0.00    1.1
2018/03/11 11:31:17.000   78.256790507   16.230316364   398.8252   2   9   0.0803   0.0741   0.1892  -0.0316  -0.0286   0.0682   0.00    1.1
2018/03/11 11:31:18.000   78.256790522   16.230316317   398.8327   2   9   0.0800   0.0739   0.1883  -0.0314  -0.0282   0.0677   0.00    1.1
2018/03/11 11:31:19.000   78.256790539   16.230316324   398.8332   2   9   0.0797   0.0738   0.1873  -0.0312  -0.0278   0.0672   0.00    1.1
2018/03/11 11:31:20.000   78.256790522   16.230316477   398.8306   2   9   0.0795   0.0736   0.1863  -0.0311  -0.0273   0.0667   0.00    1.1
2018/03/11 11:31:21.000   78.256790478   16.230316680   398.8276   2   9   0.0792   0.0735   0.1854  -0.0309  -0.0269   0.0661   0.00    1.1
2018/03/11 11:31:22.000   78.256790463   16.230316638   398.8293   2   9   0.0790   0.0733   0.1844  -0.0307  -0.0265   0.0656   0.00    1.1
2018/03/11 11:31:23.000   78.256790496   16.230316537   398.8366   2   9   0.0787   0.0732   0.1835  -0.0306  -0.0260   0.0651   0.00    1.1
2018/03/11 11:31:24.000   78.256790500   16.230316594   398.8444   2   9   0.0784   0.0731   0.1825  -0.0304  -0.0256   0.0646   0.00    1.1
2018/03/11 11:31:25.000   78.256790467   16.230316500   398.8428   2   9   0.0782   0.0729   0.1816  -0.0302  -0.0252   0.0641   0.00    1.1
2018/03/11 11:31:26.000   78.256790425   16.230316566   398.8407   2   9   0.0779   0.0728   0.1806  -0.0301  -0.0247   0.0636   0.00    1.1
2018/03/11 11:31:27.000   78.256790383   16.230316533   398.8435   2   9   0.0777   0.0727   0.1797  -0.0299  -0.0243   0.0631   0.00    1.1
2018/03/11 11:31:28.000   78.256790356   16.230316435   398.8517   2   9   0.0774   0.0725   0.1788  -0.0297  -0.0239   0.0626   0.00    1.1
2018/03/11 11:31:29.000   78.256790331   16.230316386   398.8615   2   9   0.0772   0.0724   0.1778  -0.0296  -0.0234   0.0621   0.00    1.1
2018/03/11 11:31:30.000   78.256790280   16.230316355   398.8633   2   9   0.0769   0.0723   0.1769  -0.0294  -0.0230   0.0616   0.00    1.1
2018/03/11 11:31:31.000   78.256790272   16.230316249   398.8584   2   9   0.0767   0.0721   0.1760  -0.0292  -0.0225   0.0612   0.00    1.1
2018/03/11 11:31:32.000   78.256790279   16.230316203   398.8556   2   9   0.0764   0.0720   0.1751  -0.0291  -0.0221   0.0607   0.00    1.0
2018/03/11 11:31:33.000   78.256790294   16.230316009   398.8634   2   9   0.0762   0.0719   0.1742  -0.0289  -0.0216   0.0602   0.00    1.0
2018/03/11 11:31:34.000   78.256790283   16.230315841   398.8720   2   9   0.0759   0.0717   0.1733  -0.0288  -0.0212   0.0597   0.00    1.0
2018/03/11 11:31:35.000   78.256790321   16.230315737   398.8802   2   9   0.0757   0.0716   0.1724  -0.0286  -0.0207   0.0592   0.00    1.0
2018/03/11 11:31:36.000   78.256790366   16.230315698   398.8914   2   9   0.0754   0.0715   0.1715  -0.0284  -0.0202   0.0587   0.00    1.0
2018/03/11 11:31:37.000   78.256790352   16.230315752   398.8887   2   9   0.0752   0.0713   0.1706  -0.0283  -0.0198   0.0583   0.00    1.0
2018/03/11 11:31:38.000   78.256790336   16.230315642   398.8888   2   9   0.0750   0.0712   0.1697  -0.0281  -0.0193   0.0578   0.00    1.0
2018/03/11 11:31:39.000   78.256790330   16.230315600   398.8858   2   9   0.0747   0.0711   0.1688  -0.0279  -0.0188   0.0573   0.00    1.1
2018/03/11 11:31:40.000   78.256790323   16.230315721   398.8794   2   9   0.0745   0.0709   0.1680  -0.0278  -0.0183   0.0569   0.00    1.1
2018/03/11 11:31:41.000   78.256790308   16.230315725   398.8702   2   9   0.0742   0.0708   0.1671  -0.0276  -0.0179   0.0564   0.00    1.1
2018/03/11 11:31:42.000   78.256790299   16.230315693   398.8603   2   9   0.0740   0.0707   0.1662  -0.0275  -0.0174   0.0559   0.00    1.1
2018/03/11 11:31:43.000   78.256790298   16.230315692   398.8497   2   9   0.0738   0.0706   0.1654  -0.0273  -0.0169   0.0555   0.00    1.1
2018/03/11 11:31:44.000   78.256790274   16.230315742   398.8495   2   9   0.0735   0.0704   0.1645  -0.0272  -0.0163   0.0550   0.00    1.1
2018/03/11 11:31:45.000   78.256790257   16.230315738   398.8416   2   9   0.0733   0.0703   0.1637  -0.0270  -0.0158   0.0546   0.00    1.1
2018/03/11 11:31:46.000   78.256790279   16.230315760   398.8378   2   9   0.0731   0.0702   0.1628  -0.0268  -0.0153   0.0541   0.00    1.2
2018/03/11 11:31:47.000   78.256790319   16.230315828   398.8379   2   9   0.0728   0.0700   0.1620  -0.0267  -0.0148   0.0537   0.00    1.2
2018/03/11 11:31:48.000   78.256790349   16.230315919   398.8309   2   9   0.0726   0.0699   0.1612  -0.0265  -0.0142   0.0532   0.00    1.2
2018/03/11 11:31:49.000   78.256790376   16.230316023   398.8283   2   9   0.0724   0.0698   0.1603  -0.0264  -0.0136   0.0528   0.00    1.2
2018/03/11 11:31:50.000   78.256790400   16.230316169   398.8254   2   9   0.0721   0.0697   0.1595  -0.0262  -0.0131   0.0523   0.00    1.2
2018/03/11 11:31:51.000   78.256790392   16.230316284   398.8244   2   9   0.0719   0.0696   0.1587  -0.0261  -0.0125   0.0519   0.00    1.2
2018/03/11 11:31:52.000   78.256790403   16.230316295   398.8284   2   9   0.0717   0.0694   0.1579  -0.0259  -0.0118   0.0514   0.00    1.2
2018/03/11 11:31:53.000   78.256790419   16.230316226   398.8412   2   9   0.0715   0.0693   0.1571  -0.0258  -0.0112   0.0510   0.00    1.1
2018/03/11 11:31:54.000   78.256790399   16.230316124   398.8565   2   9   0.0712   0.0692   0.1563  -0.0256  -0.0105   0.0506   0.00    1.1
2018/03/11 11:31:55.000   78.256790406   16.230316084   398.8768   2   9   0.0710   0.0691   0.1555  -0.0255  -0.0098   0.0501   0.00    1.1
2018/03/11 11:31:56.000   78.256790422   16.230316066   398.8878   2   9   0.0708   0.0689   0.1547  -0.0253  -0.0091   0.0497   0.00    1.1
2018/03/11 11:31:57.000   78.256790431   16.230316033   398.9030   2   9   0.0706   0.0688   0.1539  -0.0252  -0.0083   0.0493   0.00    1.1
2018/03/11 11:31:58.000   78.256790415   16.230316141   398.9168   2   9   0.0703   0.0687   0.1531  -0.0250  -0.0074   0.0489   0.00    1.1
2018/03/11 11:31:59.000   78.256790365   16.230316159   398.9272   2   9   0.0701   0.0686   0.1523  -0.0249  -0.0064   0.0484   0.00    1.1
2018/03/11 11:32:00.000   78.256790306   16.230316103   398.9320   2   9   0.0699   0.0685   0.1516  -0.0247  -0.0053   0.0480   0.00    1.0
2018/03/11 11:32:01.000   78.256790275   16.230316072   398.9326   2   9   0.0697   0.0683   0.1508  -0.0246  -0.0039   0.0476   0.00    1.0
2018/03/11 11:32:02.000   78.256790236   16.230315937   398.9318   2   9   0.0695   0.0682   0.1500  -0.0244  -0.0016   0.0472   0.00    1.0
2018/03/11 11:32:03.000   78.256790179   16.230315833   398.9349   2   9   0.0692   0.0681   0.1493  -0.0243   0.0032   0.0468   0.00    1.0
2018/03/11 11:32:04.000   78.256790137   16.230315720   398.9343   2   9   0.0690   0.0680   0.1485  -0.0241   0.0047   0.0464   0.00    1.0
2018/03/11 11:32:05.000   78.256790128   16.230315715   398.9336   2   9   0.0688   0.0679   0.1478  -0.0240   0.0059   0.0460   0.00    1.1
2018/03/11 11:32:06.000   78.256790102   16.230315856   398.9299   2   9   0.0686   0.0678   0.1470  -0.0238   0.0068   0.0456   0.00    1.1
2018/03/11 11:32:07.000   78.256790075   16.230316020   398.9253   2   9   0.0684   0.0676   0.1463  -0.0237   0.0076   0.0452   0.00    1.1
2018/03/11 11:32:08.000   78.256790060   16.230316183   398.9170   2   9   0.0682   0.0675   0.1455  -0.0235   0.0083   0.0448   0.00    1.1
2018/03/11 11:32:09.000   78.256790076   16.230316412   398.9103   2   9   0.0680   0.0674   0.1448  -0.0234   0.0090   0.0444   0.00    1.1
2018/03/11 11:32:10.000   78.256790121   16.230316594   398.8980   2   9   0.0678   0.0673   0.1441  -0.0232   0.0096   0.0440   0.00    1.1
2018/03/11 11:32:11.000   78.256790173   16.230316662   398.8928   2   9   0.0675   0.0672   0.1434  -0.0231   0.0102   0.0436   0.00    1.1
2018/03/11 11:32:12.000   78.256790195   16.230316664   398.8863   2   9   0.0673   0.0671   0.1426  -0.0230   0.0107   0.0432   0.00    1.1
2018/03/11 11:32:13.000   78.256790224   16.230316626   398.8797   2   9   0.0671   0.0669   0.1419  -0.0228   0.0112   0.0428   0.00    1.1
2018/03/11 11:32:14.000   78.256790231   16.230316740   398.8774   2   9   0.0669   0.0668   0.1412  -0.0227   0.0116   0.0424   0.00    1.1
2018/03/11 11:32:15.000   78.256790224   16.230316851   398.8736   2   9   0.0667   0.0667   0.1405  -0.0225   0.0120   0.0421   0.00    1.1
2018/03/11 11:32:16.000   78.256790211   16.230316884   398.8693   2   9   0.0665   0.0666   0.1398  -0.0224   0.0125   0.0417   0.00    1.1
2018/03/11 11:32:17.000   78.256790227   16.230316837   398.8698   2   9   0.0663   0.0665   0.1391  -0.0223   0.0128   0.0413   0.00    1.1
2018/03/11 11:32:18.000   78.256790254   16.230316910   398.8701   2   9   0.0661   0.0664   0.1384  -0.0221   0.0132   0.0409   0.00    1.1
2018/03/11 11:32:19.000   78.256790261   16.230316972   398.8713   2   9   0.0659   0.0663   0.1377  -0.0220   0.0136   0.0406   0.00    1.1
2018/03/11 11:32:20.000   78.256790260   16.230317057   398.8748   2   9   0.0657   0.0661   0.1371  -0.0218   0.0139   0.0402   0.00    1.1
2018/03/11 11:32:21.000   78.256790286   16.230317048   398.8796   2   9   0.0655   0.0660   0.1364  -0.0217   0.0142   0.0398   0.00    1.1
2018/03/11 11:32:22.000   78.256790309   16.230317016   398.8861   2   9   0.0653   0.0659   0.1357  -0.0216   0.0145   0.0395   0.00    1.1
2018/03/11 11:32:23.000   78.256790298   16.230317030   398.8990   2   9   0.0651   0.0658   0.1350  -0.0214   0.0148   0.0391   0.00    1.0
2018/03/11 11:32:24.000   78.256790264   16.230317034   398.9089   2   9   0.0649   0.0657   0.1344  -0.0213   0.0151   0.0387   0.00    1.0
2018/03/11 11:32:25.000   78.256790214   16.230316918   398.9118   2   9   0.0647   0.0656   0.1337  -0.0211   0.0154   0.0384   0.00    1.0
2018/03/11 11:32:26.000   78.256790169   16.230316895   398.9145   2   9   0.0645   0.0655   0.1331  -0.0210   0.0157   0.0380   0.00    1.0
2018/03/11 11:32:27.000   78.256790144   16.230317013   398.9179   2   9   0.0643   0.0654   0.1324  -0.0209   0.0159   0.0377   0.00    1.0
2018/03/11 11:32:28.000   78.256790146   16.230317103   398.9225   2   9   0.0641   0.0653   0.1318  -0.0207   0.0162   0.0373   0.00    1.0
2018/03/11 11:32:29.000   78.256790142   16.230317232   398.9291   2   9   0.0639   0.0651   0.1311  -0.0206   0.0164   0.0370   0.00    1.0
2018/03/11 11:32:30.000   78.256790131   16.230317233   398.9356   2   9   0.0637   0.0650   0.1305  -0.0205   0.0167   0.0366   0.00    1.0
2018/03/11 11:32:31.000   78.256790120   16.230317275   398.9464   2   9   0.0635   0.0649   0.1299  -0.0203   0.0169   0.0363   0.00    1.0
2018/03/11 11:32:32.000   78.256790088   16.230317235   398.9524   2   9   0.0634   0.0648   0.1292  -0.0202   0.0171   0.0359   0.00    1.0
2018/03/11 11:32:33.000   78.256790071   16.230317272   398.9577   2   9   0.0632   0.0647   0.1286  -0.0201   0.0173   0.0356   0.00    1.0
2018/03/11 11:32:34.000   78.256790051   16.230317381   398.9555   2   9   0.0630   0.0646   0.1280  -0.0199   0.0175   0.0353   0.00    1.0
2018/03/11 11:32:35.000   78.256790047   16.230317482   398.9424   2   9   0.0628   0.0645   0.1274  -0.0198   0.0177   0.0349   0.00    1.0
2018/03/11 11:32:36.000   78.256790028   16.230317633   398.9261   2   9   0.0626   0.0644   0.1267  -0.0197   0.0179   0.0346   0.00    1.0
2018/03/11 11:32:37.000   78.256790016   16.230317802   398.9158   2   9   0.0624   0.0643   0.1261  -0.0195   0.0181   0.0343   0.00    1.0
2018/03/11 11:32:38.000   78.256790022   16.230317851   398.9057   2   9   0.0622   0.0642   0.1255  -0.0194   0.0183   0.0339   0.00    1.0
2018/03/11 11:32:39.000   78.256790023   16.230317873   398.8969   2   9   0.0620   0.0641   0.1249  -0.0193   0.0184   0.0336   0.00    1.1
2018/03/11 11:32:40.000   78.256790030   16.230317912   398.8881   2   9   0.0618   0.0640   0.1243  -0.0191   0.0186   0.0333   0.00    1.1
2018/03/11 11:32:41.000   78.256790057   16.230317952   398.8813   2   9   0.0617   0.0638   0.1237  -0.0190   0.0188   0.0330   0.00    1.1
2018/03/11 11:32:42.000   78.256790086   16.230317935   398.8753   2   9   0.0615   0.0637   0.1232  -0.0189   0.0189   0.0326   0.00    1.1
2018/03/11 11:32:43.000   78.256790103   16.230317955   398.8695   2   9   0.0613   0.0636   0.1226  -0.0187   0.0191   0.0323   0.00    1.1
2018/03/11 11:32:44.000   78.256790095   16.230317917   398.8646   2   9   0.0611   0.0635   0.1220  -0.0186   0.0192   0.0320   0.00    1.1
2018/03/11 11:32:45.000   78.256790097   16.230317877   398.8572   2   9   0.0609   0.0634   0.1214  -0.0185   0.0194   0.0317   0.00    1.1
2018/03/11 11:32:46.000   78.256790074   16.230317963   398.8526   2   9   0.0608   0.0633   0.1208  -0.0184   0.0195   0.0314   0.00    1.1
2018/03/11 11:32:47.000   78.256790034   16.230318087   398.8493   2   9   0.0606   0.0632   0.1203  -0.0182   0.0197   0.0311   0.00    1.1
2018/03/11 11:32:48.000   78.256789994   16.230318118   398.8459   2   9   0.0604   0.0631   0.1197  -0.0181   0.0198   0.0308   0.00    1.1
2018/03/11 11:32:49.000   78.256789967   16.230318136   398.8500   2   9   0.0602   0.0630   0.1191  -0.0180   0.0199   0.0305   0.00    1.1
2018/03/11 11:32:50.000   78.256789964   16.230318116   398.8539   2   9   0.0600   0.0629   0.1186  -0.0178   0.0201   0.0302   0.00    1.1
2018/03/11 11:32:51.000   78.256789969   16.230318079   398.8585   2   9   0.0599   0.0628   0.1180  -0.0177   0.0202   0.0299   0.00    1.0
2018/03/11 11:32:52.000   78.256789974   16.230318062   398.8606   2   9   0.0597   0.0627   0.1175  -0.0176   0.0203   0.0296   0.00    1.0
2018/03/11 11:32:53.000   78.256789975   16.230318112   398.8602   2   9   0.0595   0.0626   0.1169  -0.0175   0.0204   0.0293   0.00    1.0
2018/03/11 11:32:54.000   78.256789946   16.230318168   398.8595   2   9   0.0593   0.0625   0.1164  -0.0173   0.0205   0.0290   0.00    1.0
2018/03/11 11:32:55.000   78.256789926   16.230318218   398.8611   2   9   0.0592   0.0624   0.1159  -0.0172   0.0206   0.0287   0.00    1.0
2018/03/11 11:32:56.000   78.256789907   16.230318240   398.8605   2   9   0.0590   0.0623   0.1153  -0.0171   0.0207   0.0284   0.00    1.0
2018/03/11 11:32:57.000   78.256789888   16.230318284   398.8592   2   9   0.0588   0.0622   0.1148  -0.0170   0.0208   0.0281   0.00    1.0
2018/03/11 11:32:58.000   78.256789853   16.230318269   398.8559   2   9   0.0586   0.0621   0.1143  -0.0168   0.0209   0.0278   0.00    1.0
2018/03/11 11:32:59.000   78.256789843   16.230318278   398.8504   2   9   0.0585   0.0620   0.1137  -0.0167   0.0210   0.0275   0.00    1.1
2018/03/11 11:33:00.000   78.256789831   16.230318348   398.8443   2   9   0.0583   0.0619   0.1132  -0.0166   0.0211   0.0272   0.00    1.1
2018/03/11 11:33:01.000   78.256789821   16.230318314   398.8423   2   9   0.0581   0.0618   0.1127  -0.0165   0.0212   0.0270   0.00    1.1
2018/03/11 11:33:02.000   78.256789835   16.230318212   398.8399   2   9   0.0580   0.0617   0.1122  -0.0163   0.0213   0.0267   0.00    1.1
2018/03/11 11:33:03.000   78.256789856   16.230318187   398.8334   2   9   0.0578   0.0616   0.1117  -0.0162   0.0214   0.0264   0.00    1.1
2018/03/11 11:33:04.000   78.256789876   16.230318205   398.8218   2   9   0.0576   0.0615   0.1112  -0.0161   0.0215   0.0261   0.00    1.1
2018/03/11 11:33:05.000   78.256789882   16.230318244   398.8085   2   9   0.0575   0.0614   0.1107  -0.0160   0.0216   0.0259   0.00    1.1
2018/03/11 11:33:06.000   78.256789887   16.230318239   398.8030   2   9   0.0573   0.0613   0.1102  -0.0158   0.0217   0.0256   0.00    1.1
2018/03/11 11:33:07.000   78.256789897   16.230318192   398.8012   2   9   0.0571   0.0612   0.1097  -0.0157   0.0217   0.0253   0.00    1.1
2018/03/11 11:33:08.000   78.256789893   16.230318108   398.8015   2   9   0.0570   0.0611   0.1092  -0.0156   0.0218   0.0250   0.00    1.1
2018/03/11 11:33:09.000   78.256789875   16.230318007   398.8027   2   9   0.0568   0.0610   0.1087  -0.0155   0.0219   0.0248   0.00    1.1
2018/03/11 11:33:10.000   78.256789838   16.230317982   398.8036   2   9   0.0566   0.0609   0.1082  -0.0154   0.0219   0.0245   0.00    1.1
2018/03/11 11:33:11.000   78.256789794   16.230318025   398.8046   2   9   0.0565   0.0608   0.1077  -0.0152   0.0220   0.0242   0.00    1.1
2018/03/11 11:33:12.000   78.256789771   16.230318022   398.8040   2   9   0.0563   0.0607   0.1072  -0.0151   0.0221   0.0240   0.00    1.1
2018/03/11 11:33:13.000   78.256789756   16.230317954   398.8009   2   9   0.0561   0.0606   0.1067  -0.0150   0.0221   0.0237   0.00    1.1
2018/03/11 11:33:14.000   78.256789749   16.230318019   398.7945   2   9   0.0560   0.0605   0.1063  -0.0149   0.0222   0.0235   0.00    1.1
2018/03/11 11:33:15.000   78.256789761   16.230318098   398.7905   2   9   0.0558   0.0604   0.1058  -0.0147   0.0223   0.0232   0.00    1.1
2018/03/11 11:33:16.000   78.256789771   16.230318160   398.7876   2   9   0.0557   0.0603   0.1053  -0.0146   0.0223   0.0229   0.00    1.1
2018/03/11 11:33:17.000   78.256789759   16.230318234   398.7838   2   9   0.0555   0.0602   0.1049  -0.0145   0.0224   0.0227   0.00    1.1
2018/03/11 11:33:18.000   78.256789750   16.230318209   398.7800   2   9   0.0553   0.0601   0.1044  -0.0144   0.0224   0.0224   0.00    1.1
2018/03/11 11:33:19.000   78.256789735   16.230318184   398.7740   2   9   0.0552   0.0600   0.1039  -0.0143   0.0225   0.0222   0.00    1.1
2018/03/11 11:33:20.000   78.256789720   16.230318253   398.7674   2   9   0.0550   0.0599   0.1035  -0.0142   0.0226   0.0219   0.00    1.1
2018/03/11 11:33:21.000   78.256789715   16.230318296   398.7596   2   9   0.0549   0.0598   0.1030  -0.0140   0.0226   0.0217   0.00    1.1
2018/03/11 11:33:22.000   78.256789724   16.230318251   398.7492   2   9   0.0547   0.0597   0.1026  -0.0139   0.0226   0.0214   0.00    1.1
2018/03/11 11:33:23.000   78.256789733   16.230318175   398.7421   2   9   0.0546   0.0596   0.1021  -0.0138   0.0227   0.0212   0.00    1.1
2018/03/11 11:33:24.000   78.256789745   16.230318188   398.7349   2   9   0.0544   0.0595   0.1017  -0.0137   0.0227   0.0209   0.00    1.1
2018/03/11 11:33:25.000   78.256789765   16.230318251   398.7303   2   9   0.0542   0.0594   0.1013  -0.0136   0.0228   0.0207   0.00    1.1
2018/03/11 11:33:26.000   78.256789793   16.230318249   398.7288   2   9   0.0541   0.0593   0.1008  -0.0134   0.0228   0.0205   0.00    1.1
2018/03/11 11:33:27.000   78.256789808   16.230318195   398.7265   2   9   0.0539   0.0592   0.1004  -0.0133   0.0229   0.0202   0.00    1.1
2018/03/11 11:33:28.000   78.256789815   16.230318164   398.7262   2   9   0.0538   0.0591   0.0999  -0.0132   0.0229   0.0200   0.00    1.1
2018/03/11 11:33:29.000   78.256789810   16.230318137   398.7262   2   9   0.0536   0.0590   0.0995  -0.0131   0.0229   0.0197   0.00    1.1
2018/03/11 11:33:30.000   78.256789794   16.230318099   398.7215   2   9   0.0535   0.0589   0.0991  -0.0130   0.0230   0.0195   0.00    1.1
2018/03/11 11:33:31.000   78.256789778   16.230318076   398.7181   2   9   0.0533   0.0588   0.0987  -0.0129   0.0230   0.0193   0.00    1.1
2018/03/11 11:33:32.000   78.256789755   16.230318000   398.7153   2   9   0.0532   0.0587   0.0982  -0.0127   0.0231   0.0190   0.00    1.1
2018/03/11 11:33:33.000   78.256789721   16.230317937   398.7139   2   9   0.0530   0.0586   0.0978  -0.0126   0.0231   0.0188   0.00    1.1
2018/03/11 11:33:34.000   78.256789700   16.230317892   398.7107   2   9   0.0529   0.0585   0.0974  -0.0125   0.0231   0.0186   0.00    1.1
2018/03/11 11:33:35.000   78.256789700   16.230317825   398.7101   2   9   0.0527   0.0584   0.0970  -0.0124   0.0232   0.0183   0.00    1.1
2018/03/11 11:33:36.000   78.256789707   16.230317792   398.7107   2   9   0.0526   0.0583   0.0966  -0.0123   0.0232   0.0181   0.00    1.1
2018/03/11 11:33:37.000   78.256789719   16.230317721   398.7087   2   9   0.0524   0.0582   0.0962  -0.0122   0.0232   0.0179   0.00    1.1
2018/03/11 11:33:38.000   78.256789706   16.230317689   398.7055   2   9   0.0523   0.0581   0.0958  -0.0120   0.0232   0.0177   0.00    1.1
2018/03/11 11:33:39.000   78.256789697   16.230317692   398.6999   2   9   0.0521   0.0580   0.0954  -0.0119   0.0233   0.0174   0.00    1.1
2018/03/11 11:33:40.000   78.256789674   16.230317786   398.6923   2   9   0.0520   0.0579   0.0950  -0.0118   0.0233   0.0172   0.00    1.1
2018/03/11 11:33:41.000   78.256789659   16.230317776   398.6834   2   9   0.0519   0.0578   0.0946  -0.0117   0.0233   0.0170   0.00    1.1
2018/03/11 11:33:42.000   78.256789652   16.230317827   398.6731   2   9   0.0517   0.0577   0.0942  -0.0116   0.0233   0.0168   0.00    1.1
2018/03/11 11:33:43.000   78.256789644   16.230317816   398.6628   2   9   0.0516   0.0576   0.0938  -0.0115   0.0234   0.0165   0.00    1.1
2018/03/11 11:33:44.000   78.256789644   16.230317848   398.6545   2   9   0.0514   0.0575   0.0934  -0.0113   0.0234   0.0163   0.00    1.1
2018/03/11 11:33:45.000   78.256789648   16.230317884   398.6461   2   9   0.0513   0.0574   0.0930  -0.0112   0.0234   0.0161   0.00    1.1
2018/03/11 11:33:46.000   78.256789671   16.230317908   398.6412   2   9   0.0511   0.0574   0.0926  -0.0111   0.0234   0.0159   0.00    1.1
2018/03/11 11:33:47.000   78.256789704   16.230317877   398.6390   2   9   0.0510   0.0573   0.0922  -0.0110   0.0234   0.0157   0.00    1.1
2018/03/11 11:33:48.000   78.256789735   16.230317799   398.6352   2   9   0.0509   0.0572   0.0919  -0.0109   0.0234   0.0155   0.00    1.1
2018/03/11 11:33:49.000   78.256789760   16.230317754   398.6309   2   9   0.0507   0.0571   0.0915  -0.0108   0.0235   0.0152   0.00    1.1
2018/03/11 11:33:50.000   78.256789778   16.230317786   398.6255   2   9   0.0506   0.0570   0.0911  -0.0106   0.0235   0.0150   0.00    1.1
2018/03/11 11:33:51.000   78.256789796   16.230317792   398.6195   2   9   0.0504   0.0569   0.0907  -0.0105   0.0235   0.0148   0.00    1.1
2018/03/11 11:33:52.000   78.256789802   16.230317858   398.6149   2   9   0.0503   0.0568   0.0904  -0.0104   0.0235   0.0146   0.00    1.1
2018/03/11 11:33:53.000   78.256789790   16.230317866   398.6100   2   9   0.0502   0.0567   0.0900  -0.0103   0.0235   0.0144   0.00    1.1
2018/03/11 11:33:54.000   78.256789777   16.230317829   398.6094   2   9   0.0500   0.0566   0.0896  -0.0102   0.0235   0.0142   0.00    1.1
2018/03/11 11:33:55.000   78.256789760   16.230317754   398.6101   2   9   0.0499   0.0565   0.0893  -0.0101   0.0235   0.0140   0.00    1.1
2018/03/11 11:33:56.000   78.256789732   16.230317675   398.6126   2   9   0.0497   0.0564   0.0889  -0.0099   0.0235   0.0138   0.00    1.1
2018/03/11 11:33:57.000   78.256789712   16.230317552   398.6149   2   9   0.0496   0.0563   0.0886  -0.0098   0.0236   0.0135   0.00    1.1
2018/03/11 11:33:58.000   78.256789700   16.230317447   398.6149   2   9   0.0495   0.0562   0.0882  -0.0097   0.0236   0.0133   0.00    1.1
2018/03/11 11:33:59.000   78.256789700   16.230317378   398.6131   2   9   0.0493   0.0561   0.0878  -0.0096   0.0236   0.0131   0.00    1.1
2018/03/11 11:34:00.000   78.256789682   16.230317363   398.6092   2   9   0.0492   0.0561   0.0875  -0.0095   0.0236   0.0129   0.00    1.1
2018/03/11 11:34:01.000   78.256789658   16.230317309   398.6056   2   9   0.0491   0.0560   0.0871  -0.0094   0.0236   0.0127   0.00    1.1
2018/03/11 11:34:02.000   78.256789624   16.230317315   398.6023   2   9   0.0489   0.0559   0.0868  -0.0092   0.0236   0.0125   0.00    1.1
2018/03/11 11:34:03.000   78.256789605   16.230317356   398.5962   2   9   0.0488   0.0558   0.0865  -0.0091   0.0236   0.0123   0.00    1.1
2018/03/11 11:34:04.000   78.256789580   16.230317297   398.5916   2   9   0.0487   0.0557   0.0861  -0.0090   0.0236   0.0121   0.00    1.1
2018/03/11 11:34:05.000   78.256789572   16.230317215   398.5872   2   9   0.0485   0.0556   0.0858  -0.0089   0.0236   0.0119   0.00    1.1
2018/03/11 11:34:06.000   78.256789577   16.230317215   398.5811   2   9   0.0484   0.0555   0.0854  -0.0088   0.0236   0.0117   0.00    1.1
2018/03/11 11:34:07.000   78.256789568   16.230317204   398.5765   2   9   0.0483   0.0554   0.0851  -0.0087   0.0236   0.0115   0.00    1.1
2018/03/11 11:34:08.000   78.256789571   16.230317142   398.5732   2   9   0.0481   0.0553   0.0848  -0.0085   0.0236   0.0113   0.00    1.1
2018/03/11 11:34:09.000   78.256789592   16.230317057   398.5678   2   9   0.0480   0.0552   0.0844  -0.0084   0.0236   0.0111   0.00    1.1
2018/03/11 11:34:10.000   78.256789617   16.230317078   398.5627   2   9   0.0479   0.0551   0.0841  -0.0083   0.0236   0.0109   0.00    1.1
2018/03/11 11:34:11.000   78.256789637   16.230317073   398.5559   2   9   0.0478   0.0551   0.0838  -0.0082   0.0236   0.0106   0.00    1.1
2018/03/11 11:34:12.000   78.256789647   16.230317035   398.5486   2   9   0.0476   0.0550   0.0834  -0.0081   0.0236   0.0104   0.00    1.1
2018/03/11 11:34:13.000   78.256789654   16.230317000   398.5422   2   9   0.0475   0.0549   0.0831  -0.0079   0.0236   0.0102   0.00    1.1
2018/03/11 11:34:14.000   78.256789661   16.230316984   398.5361   2   9   0.0474   0.0548   0.0828  -0.0078   0.0236   0.0100   0.00    1.1
2018/03/11 11:34:15.000   78.256789673   16.230316893   398.5293   2   9   0.0472   0.0547   0.0825  -0.0077   0.0236   0.0098   0.00    1.1
2018/03/11 11:34:16.000   78.256789672   16.230316830   398.5216   2   9   0.0471   0.0546   0.0822  -0.0076   0.0236   0.0096   0.00    1.1
2018/03/11 11:34:17.000   78.256789666   16.230316828   398.5154   2   9   0.0470   0.0545   0.0818  -0.0074   0.0236   0.0094   0.00    1.1
2018/03/11 11:34:18.000   78.256789658   16.230316767   398.5122   2   9   0.0469   0.0544   0.0815  -0.0073   0.0236   0.0092   0.00    1.1
2018/03/11 11:34:19.000   78.256789644   16.230316700   398.5104   2   9   0.0467   0.0543   0.0812  -0.0072   0.0236   0.0090   0.00    1.1
2018/03/11 11:34:20.000   78.256789638   16.230316657   398.5074   2   9   0.0466   0.0542   0.0809  -0.0071   0.0236   0.0088   0.00    1.1
2018/03/11 11:34:21.000   78.256789656   16.230316549   398.5032   2   9   0.0465   0.0542   0.0806  -0.0069   0.0236   0.0086   0.00    1.1
2018/03/11 11:34:22.000   78.256789667   16.230316444   398.4991   2   9   0.0464   0.0541   0.0803  -0.0068   0.0236   0.0084   0.00    1.1
2018/03/11 11:34:23.000   78.256789663   16.230316366   398.4969   2   9   0.0462   0.0540   0.0800  -0.0067   0.0236   0.0081   0.00    1.1
2018/03/11 11:34:24.000   78.256789645   16.230316361   398.4967   2   9   0.0461   0.0539   0.0797  -0.0066   0.0236   0.0079   0.00    1.1
2018/03/11 11:34:25.000   78.256789626   16.230316338   398.4946   2   9   0.0460   0.0538   0.0794  -0.0064   0.0235   0.0077   0.00    1.1
2018/03/11 11:34:26.000   78.256789612   16.230316328   398.4924   2   9   0.0459   0.0537   0.0791  -0.0063   0.0235   0.0075   0.00    1.1
2018/03/11 11:34:27.000   78.256789596   16.230316332   398.4910   2   9   0.0458   0.0536   0.0788  -0.0062   0.0235   0.0073   0.00    1.1
2018/03/11 11:34:28.000   78.256789600   16.230316438   398.4891   2   9   0.0456   0.0535   0.0785  -0.0060   0.0235   0.0070   0.00    1.1
2018/03/11 11:34:29.000   78.256789592   16.230316446   398.4857   2   9   0.0455   0.0535   0.0782  -0.0059   0.0235   0.0068   0.00    1.1
2018/03/11 11:34:30.000   78.256789591   16.230316451   398.4814   2   9   0.0454   0.0534   0.0779  -0.0057   0.0235   0.0066   0.00    1.1
2018/03/11 11:34:31.000   78.256789594   16.230316494   398.4802   2   9   0.0453   0.0533   0.0776  -0.0056   0.0235   0.0064   0.00    1.1
2018/03/11 11:34:32.000   78.256789611   16.230316519   398.4788   2   9   0.0452   0.0532   0.0773  -0.0055   0.0235   0.0061   0.00    1.1
2018/03/11 11:34:33.000   78.256789641   16.230316372   398.4770   2   9   0.0450   0.0531   0.0770  -0.0053   0.0235   0.0059   0.00    1.1
2018/03/11 11:34:34.000   78.256789655   16.230316264   398.4731   2   9   0.0449   0.0530   0.0768  -0.0052   0.0235   0.0056   0.00    1.1
2018/03/11 11:34:35.000   78.256789663   16.230316219   398.4661   2   9   0.0448   0.0529   0.0765  -0.0050   0.0234   0.0054   0.00    1.1
2018/03/11 11:34:36.000   78.256789672   16.230316100   398.4584   2   9   0.0447   0.0528   0.0762  -0.0049   0.0234   0.0051   0.00    1.1
2018/03/11 11:34:37.000   78.256789671   16.230316049   398.4508   2   9   0.0446   0.0528   0.0759  -0.0047   0.0234   0.0048   0.00    1.1
2018/03/11 11:34:38.000   78.256789674   16.230315979   398.4436   2   9   0.0445   0.0527   0.0756  -0.0046   0.0234   0.0046   0.00    1.1
2018/03/11 11:34:39.000   78.256789687   16.230315903   398.4368   2   9   0.0443   0.0526   0.0754  -0.0044   0.0234   0.0043   0.00    1.1
2018/03/11 11:34:40.000   78.256789685   16.230315903   398.4298   2   9   0.0442   0.0525   0.0751  -0.0042   0.0234   0.0040   0.00    1.1
2018/03/11 11:34:41.000   78.256789687   16.230315810   398.4258   2   9   0.0441   0.0524   0.0748  -0.0041   0.0234   0.0036   0.00    1.1
2018/03/11 11:34:42.000   78.256789696   16.230315751   398.4232   2   9   0.0440   0.0523   0.0745  -0.0039   0.0233   0.0033   0.00    1.1
2018/03/11 11:34:43.000   78.256789696   16.230315611   398.4200   2   9   0.0439   0.0522   0.0743  -0.0037   0.0233   0.0029   0.00    1.1
2018/03/11 11:34:44.000   78.256789714   16.230315454   398.4188   2   9   0.0438   0.0522   0.0740  -0.0035   0.0233   0.0025   0.00    1.1
2018/03/11 11:34:45.000   78.256789720   16.230315304   398.4165   2   9   0.0437   0.0521   0.0737  -0.0033   0.0233   0.0019   0.00    1.1
2018/03/11 11:34:46.000   78.256789725   16.230315260   398.4114   2   9   0.0435   0.0520   0.0735  -0.0031   0.0233   0.0012   0.00    1.1
2018/03/11 11:34:47.000   78.256789720   16.230315201   398.4054   2   9   0.0434   0.0519   0.0732  -0.0029   0.0233  -0.0008   0.00    1.1
2018/03/11 11:34:48.000   78.256789712   16.230315228   398.3992   2   9   0.0433   0.0518   0.0729  -0.0027   0.0233  -0.0017   0.00    1.1
2018/03/11 11:34:49.000   78.256789707   16.230315189   398.3954   2   9   0.0432   0.0517   0.0727  -0.0024   0.0232  -0.0022   0.00    1.1
2018/03/11 11:34:50.000   78.256789703   16.230315226   398.3950   2   9   0.0431   0.0516   0.0724  -0.0021   0.0232  -0.0027   0.00    1.1
2018/03/11 11:34:51.000   78.256789703   16.230315172   398.3937   2   9   0.0430   0.0516   0.0722  -0.0018   0.0232  -0.0030   0.00    1.0
2018/03/11 11:34:52.000   78.256789700   16.230315137   398.3939   2   9   0.0429   0.0515   0.0719  -0.0014   0.0232  -0.0033   0.00    1.1
2018/03/11 11:34:53.000   78.256789688   16.230315110   398.3933   2   9   0.0428   0.0514   0.0716  -0.0009   0.0232  -0.0036   0.00    1.1
2018/03/11 11:34:54.000   78.256789682   16.230315113   398.3930   2   9   0.0427   0.0513   0.0714   0.0006   0.0231  -0.0039   0.00    1.1
2018/03/11 11:34:55.000   78.256789682   16.230315105   398.3915   2   9   0.0426   0.0512   0.0711   0.0013   0.0231  -0.0041   0.00    1.1
2018/03/11 11:34:56.000   78.256789688   16.230315113   398.3922   2   9   0.0424   0.0511   0.0709   0.0017   0.0231  -0.0043   0.00    1.0
2018/03/11 11:34:57.000   78.256789696   16.230315181   398.3898   2   9   0.0423   0.0511   0.0706   0.0020   0.0231  -0.0045   0.00    1.0
2018/03/11 11:34:58.000   78.256789700   16.230315251   398.3881   2   9   0.0422   0.0510   0.0704   0.0023   0.0231  -0.0047   0.00    1.0
2018/03/11 11:34:59.000   78.256789699   16.230315291   398.3848   2   9   0.0421   0.0509   0.0701   0.0025   0.0231  -0.0049   0.00    1.0
2018/03/11 11:35:00.000   78.256789704   16.230315306   398.3811   2   9   0.0420   0.0508   0.0699   0.0027   0.0230  -0.0051   0.00    1.0
2018/03/11 11:35:01.000   78.256789713   16.230315324   398.3781   2   9   0.0419   0.0507   0.0697   0.0029   0.0230  -0.0052   0.00    1.1
2018/03/11 11:35:02.000   78.256789721   16.230315320   398.3754   2   9   0.0418   0.0506   0.0694   0.0031   0.0230  -0.0054   0.00    1.1
2018/03/11 11:35:03.000   78.256789726   16.230315303   398.3704   2   9   0.0417   0.0506   0.0692   0.0033   0.0230  -0.0055   0.00    1.1
2018/03/11 11:35:39.000   78.256789719   16.230315354   398.3695   2   9   0.0417   0.0505   0.0692   0.0031   0.0229  -0.0055   0.00    1.0
2018/03/11 11:35:40.000   78.256789717   16.230315392   398.3680   2   9   0.0417   0.0505   0.0691   0.0031   0.0229  -0.0054   0.00    1.0
2018/03/11 11:35:41.000   78.256789713   16.230315415   398.3674   2   9   0.0416   0.0504   0.0691   0.0031   0.0229  -0.0054   0.00    1.0
2018/03/11 11:35:42.000   78.256789710   16.230315432   398.3672   2   9   0.0416   0.0504   0.0691   0.0030   0.0229  -0.0054   0.00    1.1
2018/03/11 11:35:43.000   78.256789702   16.230315438   398.3671   2   9   0.0416   0.0504   0.0691   0.0030   0.0229  -0.0054   0.00    1.1
2018/03/11 11:35:44.000   78.256789691   16.230315477   398.3675   2   9   0.0416   0.0504   0.0691   0.0029   0.0229  -0.0053   0.00    1.1
2018/03/11 11:35:45.000   78.256789685   16.230315522   398.3673   2   9   0.0416   0.0503   0.0691   0.0029   0.0228  -0.0053   0.00    1.1
2018/03/11 11:35:46.000   78.256789681   16.230315585   398.3679   2   9   0.0416   0.0503   0.0691   0.0028   0.0228  -0.0053   0.00    1.0
2018/03/11 11:35:47.000   78.256789674   16.230315631   398.3687   2   9   0.0416   0.0503   0.0691   0.0028   0.0228  -0.0052   0.00    1.0
2018/03/11 11:35:48.000   78.256789667   16.230315684   398.3688   2   9   0.0415   0.0503   0.0691   0.0028   0.0228  -0.0052   0.00    1.0
2018/03/11 11:35:49.000   78.256789655   16.230315686   398.3701   2   9   0.0415   0.0502   0.0691   0.0027   0.0228  -0.0052   0.00    1.0
2018/03/11 11:35:50.000   78.256789642   16.230315687   398.3707   2   9   0.0415   0.0502   0.0690   0.0027   0.0228  -0.0052   0.00    1.0
2018/03/11 11:35:51.000   78.256789637   16.230315783   398.3718   2   9   0.0415   0.0502   0.0690   0.0026   0.0228  -0.0051   0.00    1.0
2018/03/11 11:35:52.000   78.256789629   16.230315865   398.3728   2   9   0.0415   0.0502   0.0690   0.0026   0.0227  -0.0051   0.00    1.0
2018/03/11 11:35:53.000   78.256789631   16.230315838   398.3734   2   9   0.0415   0.0502   0.0690   0.0025   0.0227  -0.0051   0.00    1.0
2018/03/11 11:35:54.000   78.256789637   16.230315823   398.3736   2   9   0.0415   0.0501   0.0690   0.0025   0.0227  -0.0050   0.00    1.0
2018/03/11 11:35:55.000   78.256789643   16.230315790   398.3741   2   9   0.0414   0.0501   0.0690   0.0024   0.0227  -0.0050   0.00    1.0
2018/03/11 11:35:56.000   78.256789650   16.230315784   398.3737   2   9   0.0414   0.0501   0.0690   0.0024   0.0227  -0.0050   0.00    1.0
2018/03/11 11:35:57.000   78.256789651   16.230315802   398.3737   2   9   0.0414   0.0501   0.0690   0.0023   0.0227  -0.0050   0.00    1.0
2018/03/11 11:35:58.000   78.256789656   16.230315827   398.3729   2   9   0.0414   0.0500   0.0690   0.0023   0.0227  -0.0049   0.00    1.0
2018/03/11 11:35:59.000   78.256789653   16.230315853   398.3725   2   9   0.0414   0.0500   0.0689   0.0022   0.0226  -0.0049   0.00    1.0
2018/03/11 11:36:00.000   78.256789642   16.230315850   398.3727   2   9   0.0414   0.0500   0.0689   0.0022   0.0226  -0.0049   0.00    1.0
2018/03/11 11:36:01.000   78.256789630   16.230315832   398.3734   2   9   0.0414   0.0500   0.0689   0.0021   0.0226  -0.0048   0.00    1.0
2018/03/11 11:36:02.000   78.256789623   16.230315820   398.3740   2   9   0.0413   0.0499   0.0689   0.0020   0.0226  -0.0048   0.00    1.0
2018/03/11 11:36:03.000   78.256789618   16.230315848   398.3734   2   9   0.0413   0.0499   0.0689   0.0020   0.0226  -0.0048   0.00    1.0
2018/03/11 11:36:04.000   78.256789624   16.230315886   398.3727   2   9   0.0413   0.0499   0.0689   0.0019   0.0226  -0.0048   0.00    1.0
2018/03/11 11:36:05.000   78.256789627   16.230315850   398.3714   2   9   0.0413   0.0499   0.0689   0.0019   0.0225  -0.0047   0.00    1.0
2018/03/11 11:36:06.000   78.256789637   16.230315853   398.3706   2   9   0.0413   0.0498   0.0689   0.0018   0.0225  -0.0047   0.00    1.0
2018/03/11 11:36:07.000   78.256789637   16.230315825   398.3702   2   9   0.0413   0.0498   0.0689   0.0017   0.0225  -0.0047   0.00    1.0
2018/03/11 11:36:08.000   78.256789631   16.230315782   398.3698   2   9   0.0413   0.0498   0.0688   0.0017   0.0225  -0.0046   0.00    1.0
2018/03/11 11:36:09.000   78.256789632   16.230315820   398.3694   2   9   0.0412   0.0498   0.0688   0.0016   0.0225  -0.0046   0.00    1.0
2018/03/11 11:36:10.000   78.256789632   16.230315885   398.3687   2   9   0.0412   0.0497   0.0688   0.0015   0.0225  -0.0046   0.00    1.0
2018/03/11 11:36:11.000   78.256789638   16.230315929   398.3688   2   9   0.0412   0.0497   0.0688   0.0015   0.0225  -0.0046   0.00    1.0
2018/03/11 11:36:12.000   78.256789636   16.230315956   398.3692   2   9   0.0412   0.0497   0.0688   0.0014   0.0224  -0.0045   0.00    1.0
2018/03/11 11:36:13.000   78.256789638   16.230315986   398.3698   2   9   0.0412   0.0497   0.0688   0.0013   0.0224  -0.0045   0.00    1.0
2018/03/11 11:36:14.000   78.256789640   16.230315963   398.3704   2   9   0.0412   0.0496   0.0688   0.0012   0.0224  -0.0045   0.00    1.0
2018/03/11 11:36:15.000   78.256789650   16.230315990   398.3709   2   9   0.0411   0.0496   0.0688   0.0011   0.0224  -0.0044   0.00    1.0
2018/03/11 11:36:16.000   78.256789656   16.230316029   398.3719   2   9   0.0411   0.0496   0.0687   0.0010   0.0224  -0.0044   0.00    1.0
2018/03/11 11:36:17.000   78.256789661   16.230316039   398.3720   2   9   0.0411   0.0496   0.0687   0.0009   0.0224  -0.0044   0.00    1.0
2018/03/11 11:36:18.000   78.256789660   16.230316074   398.3724   2   9   0.0411   0.0496   0.0687   0.0008   0.0224  -0.0044   0.00    1.0
2018/03/11 11:36:19.000   78.256789662   16.230316115   398.3724   2   9   0.0411   0.0495   0.0687   0.0006   0.0223  -0.0043   0.00    1.0
2018/03/11 11:36:20.000   78.256789659   16.230316138   398.3723   2   9   0.0411   0.0495   0.0687   0.0004   0.0223  -0.0043   0.00    1.0
2018/03/11 11:36:21.000   78.256789655   16.230316166   398.3716   2   9   0.0411   0.0495   0.0687  -0.0002   0.0223  -0.0043   0.00    1.1
2018/03/11 11:36:22.000   78.256789651   16.230316182   398.3715   2   9   0.0410   0.0495   0.0687  -0.0005   0.0223  -0.0042   0.00    1.1
2018/03/11 11:36:23.000   78.256789654   16.230316145   398.3716   2   9   0.0410   0.0494   0.0687  -0.0007   0.0223  -0.0042   0.00    1.1
2018/03/11 11:36:24.000   78.256789652   16.230316113   398.3718   2   9   0.0410   0.0494   0.0686  -0.0008   0.0223  -0.0042   0.00    1.1
2018/03/11 11:36:25.000   78.256789655   16.230316119   398.3721   2   9   0.0410   0.0494   0.0686  -0.0009   0.0223  -0.0042   0.00    1.1
2018/03/11 11:36:26.000   78.256789663   16.230316065   398.3716   2   9   0.0410   0.0494   0.0686  -0.0010   0.0222  -0.0041   0.00    1.1
2018/03/11 11:36:27.000   78.256789679   16.230316055   398.3710   2   9   0.0410   0.0493   0.0686  -0.0011   0.0222  -0.0041   0.00    1.1
2018/03/11 11:36:28.000   78.256789692   16.230316107   398.3702   2   9   0.0410   0.0493   0.0686  -0.0012   0.0222  -0.0041   0.00    1.0
2018/03/11 11:36:29.000   78.256789705   16.230316130   398.3700   2   9   0.0409   0.0493   0.0686  -0.0013   0.0222  -0.0040   0.00    1.0
