     2.11           OBSERVATION DATA    M (MIXED)           RINEX VERSION / TYPE
teqc  2018Mar15                         20180319 14:17:32UTCPGM / RUN BY / DATE
Linux 2.6.32-573.12.1.x86_64|x86_64|gcc -static|Linux 64|=+ COMMENT
END OF STATIC MODE OBSERVATION                              COMMENT
BIT 2 OF LLI FLAGS DATA COLLECTED UNDER A/S CONDITION       COMMENT
-Unknown-                                                   MARKER NAME
4625                                                        MARKER NUMBER
-Unknown-           -Unknown-                               OBSERVER / AGENCY
5127468778          TRIMBLE             4.63                REC # / TYPE / VERS
47477114                            NONE                    ANT # / TYPE
  6378137.0000        0.0000        0.0000                  APPROX POSITION XYZ
        0.0000        0.0000        0.0000                  ANTENNA: DELTA H/E/N
     1     1                                                WAVELENGTH FACT L1/2
     7    L1    L2    C1    P1    P2    S1    S2            # / TYPES OF OBSERV
    18                                                      LEAP SECONDS
 SNR is mapped to RINEX snr flag value [0-9]                COMMENT
  L1 & L2: min(max(int(snr_dBHz/6), 0), 9)                  COMMENT
  2018     3    11    13    43   13.0000000     GPS         TIME OF FIRST OBS
                                                            END OF HEADER
 18  3 11 13 43 13.0000000  0 19R05R06G10G14G22R14R15R13R24R22R23G32
                                G11G28G01G24G12G17G19
                  88407957.829 5  21263835.344                    21263835.918
                        31.500
                  85418140.668 6  20580844.313                    20580844.523
                        37.900
 123354876.528 7  96120726.84044  23473661.180                    23473667.516
        43.000          29.400
 127271731.932 7  99172847.92342  24219015.867                    24219021.727
        43.400          15.600
 127407203.465 7  99278350.86544  24244786.266                    24244787.102
        42.100          26.800
                  80288234.654 6  19365260.859                    19365262.973
                        41.200
                  83485494.249 5  20086935.703                    20086939.238
                        35.600
                  92191136.242 5  22197132.250                    22197133.988
                        33.800
                  94087315.582 4  22621888.867                    22621889.238
                        26.400
                  89308884.352 6  21510724.633                    21510727.527
                        40.800
                  83754234.095 6  20130393.266                    20130397.785
                        36.600
 118485127.102 7  92326091.86645  22546970.516                    22546976.344
        46.400          34.200
 122579005.329 6  95516116.08543  23326007.883                    23326011.902
        40.200          23.800
 127742413.679 6  99539552.85043  24308572.859                    24308576.102
        39.300          21.700
 117339389.040 7  91433314.09345  22328944.609                    22328951.121
        42.600          30.400
 109710292.777 8  85488558.94446  20877174.688                    20877180.254
        52.000          41.600
 118892672.987 7  92643657.13445  22624523.789                    22624526.195
        44.400          30.900
 114354548.442 8  89107455.10645  21760948.320                    21760951.305
        48.100          33.100
 114663821.639 7  89348434.65945  21819798.406                    21819800.918
        44.400          31.400
 18  3 11 13 43 14.0000000  0 19R05R06G10G14G22R14R15R13R24R22R23G32
                                G11G28G01G24G12G17G19
                  88410652.616 5  21264482.805                    21264484.273
                        31.900
                  85417235.355 6  20580625.227                    20580626.488
                        38.100
 123358114.038 7  96123249.57944  23474276.750                    23474283.941
        42.300          28.500
 127268860.367 7  99170610.48943  24218469.570                    24218475.512
        44.200          18.300
 127404979.936 7  99276618.24744  24244362.883                    24244364.008
        42.200          28.300
                  80289328.958 6  19365524.805                    19365527.355
                        41.200
                  83483758.704 6  20086518.078                    20086521.824
                        36.100
                  92194704.687 5  22197990.836                    22197993.824
                        34.600
                  94084186.140 4  22621135.938                    22621136.844
                        26.800
                  89311722.925 6  21511407.516                    21511410.703
                        40.700
                  83753409.712 6  20130195.508                    20130199.430
                        36.900
 118483417.373 7  92324759.61445  22546645.477                    22546651.184
        46.000          33.700
 122581946.267 6  95518407.71244  23326568.047                    23326571.254
        40.200          24.300
 127746156.781 6  99542469.52343  24309285.164                    24309288.531
        39.200          21.700
 117340552.794 7  91434220.91445  22329165.930                    22329172.363
        42.400          30.700
 109711364.772 8  85489394.26546  20877378.531                    20877384.816
        51.600          41.800
 118889517.429 7  92641198.25745  22623922.852                    22623926.281
        44.600          30.900
 114354346.425 8  89107297.65945  21760910.336                    21760912.574
        48.600          33.000
 114661960.809 7  89346984.66945  21819445.266                    21819446.652
        45.200          31.900
 18  3 11 13 43 15.0000000  0 19R05R06G10G14G22R14R15R13R24R22R23G32
                                G11G28G01G24G12G17G19
                  88413347.937 5  21265131.195                    21265132.457
                        32.300
                  85416330.743 6  20580408.344                    20580408.559
                        37.900
 123361351.943 7  96125772.63144  23474892.789                    23474899.719
        42.700          28.000
 127265989.075 7  99168373.16143  24217923.641                    24217929.551
        44.400          21.800
 127402756.795 7  99274885.93044  24243940.242                    24243941.141
        42.600          28.100
                  80290423.876 6  19365790.313                    19365791.586
                        41.000
                  83482023.681 6  20086100.883                    20086104.344
                        36.200
                  92198273.280 5  22198851.328                    22198853.367
                        33.700
                  94081056.926 4  22620383.664                    22620384.035
                        25.500
                  89314561.959 6  21512094.031                    21512094.520
                        41.100
                  83752586.052 6  20129997.398                    20130001.301
                        36.700
 118481708.235 7  92323427.82345  22546320.234                    22546326.016
        46.600          34.500
 122584887.814 6  95520699.80844  23327127.797                    23327131.305
        40.600          24.900
 127749900.019 6  99545386.32343  24309998.031                    24310001.023
        39.200          21.800
 117341717.245 7  91435128.27745  22329387.188                    22329394.254
        42.500          30.200
 109712437.430 8  85490230.09946  20877582.914                    20877588.551
        51.500          41.900
 118886362.190 7  92638739.62645  22623322.883                    22623325.934
        44.600          30.600
 114354145.063 8  89107140.73245  21760872.156                    21760874.750
        48.900          33.100
 114660100.634 7  89345535.19945  21819092.164                    21819092.887
        45.700          32.300
 18  3 11 13 43 16.0000000  0 19R05R06G10G14G22R14R15R13R24R22R23G32
                                G11G28G01G24G12G17G19
                  88416043.853 5  21265779.461                    21265780.891
                        32.300
                  85415426.861 6  20580189.875                    20580190.813
                        37.800
 123364590.359 7  96128296.07544  23475509.266                    23475515.773
        43.000          26.900
 127263118.131 7  99166136.07143  24217377.250                    24217383.094
        44.400          22.000
 127400534.165 7  99273154.02444  24243517.016                    24243518.004
        42.600          27.500
                  80291519.495 6  19366053.656                    19366055.668
                        41.100
                  83480289.231 6  20085683.375                    20085687.148
                        36.000
                  92201842.136 5  22199711.781                    22199712.891
                        33.400
                  94077928.037 4  22619631.766                    22619631.988
                        26.200
                  89317401.517 6  21512777.617                    21512778.203
                        40.800
                  83751763.136 6  20129800.141                    20129803.508
                        36.700
 118479999.714 7  92322096.51645  22545995.305                    22546000.738
        46.700          34.000
 122587829.910 6  95522992.32144  23327688.320                    23327691.004
        41.300          25.200
 127753643.475 6  99548303.30943  24310710.633                    24310713.309
        39.300          21.100
 117342882.480 7  91436036.25245  22329609.648                    22329615.957
        43.000          30.000
 109713510.811 8  85491066.49146  20877787.516                    20877792.320
        51.300          41.700
 118883207.417 7  92636281.34845  22622723.141                    22622725.734
        45.000          30.700
 114353944.392 8  89106984.32745  21760833.672                    21760836.387
        49.100          33.400
 114658241.181 7  89344086.26745  21818737.852                    21818738.977
        46.000          32.600
 18  3 11 13 43 17.0000000  0 19R05R06G10G14G22R14R15R13R24R22R23G32
                                G11G28G01G24G12G17G19
                  88418740.300 5  21266427.438                    21266429.344
                        33.100
                  85414523.643 6  20579972.977                    20579973.063
                        38.000
 123367829.223 7  96130819.87944  23476125.438                    23476132.035
        42.900          27.000
 127260247.464 7  99163899.16654  24216831.109                    24216837.016
        45.000          25.300
 127398311.926 7  99271422.41144  24243094.781                    24243095.016
        42.100          27.500
                  80292615.754 6  19366318.594                    19366320.742
                        40.900
                  83478555.312 5  20085266.273                    20085269.973
                        35.800
                  92205411.257 5  22200570.258                    22200570.992
                        31.800
                  94074799.382 4  22618878.383                    22618880.121
                        25.100
                  89320241.595 6  21513459.609                    21513462.594
                        40.800
                  83750940.922 6  20129602.008                    20129606.090
                        36.500
 118478291.762 7  92320765.64645  22545670.492                    22545675.879
        46.600          33.900
 122590772.582 6  95525285.29544  23328248.867                    23328251.531
        40.900          24.500
 127757387.087 6  99551220.40343  24311422.109                    24311425.789
        39.200          21.300
 117344048.414 7  91436944.77745  22329832.266                    22329837.914
        43.600          30.700
 109714584.854 8  85491903.39847  20877992.016                    20877996.957
        51.400          42.000
 118880052.964 7  92633823.32245  22622121.945                    22622124.641
        45.000          31.200
 114353744.346 8  89106828.41945  21760795.109                    21760798.250
        48.600          33.400
 114656382.353 7  89342637.81745  21818383.711                    21818385.668
        45.200          32.400
 18  3 11 13 43 18.0000000  0 19R05R06G10G14G22R14R15R13R24R22R23G32
                                G11G28G01G24G12G17G19
                  88421437.312 5  21267076.727                    21267078.398
                        32.400
                  85413621.161 6  20579755.469                    20579755.246
                        38.100
 123371068.592 7  96133344.07444  23476741.320                    23476748.094
        43.100          26.800
 127257377.129 7  99161662.51944  24216284.781                    24216290.301
        44.000          26.400
 127396090.127 7  99269691.14444  24242671.820                    24242672.730
        42.500          27.500
                  80293712.691 6  19366582.797                    19366584.840
                        41.100
                  83476821.941 6  20084849.398                    20084852.980
                        36.100
                  92208980.683 5  22201428.563                    22201430.047
                        32.400
                  94071671.032 4  22618125.992                    22618127.988
                        24.900
                  89323082.253 6  21514144.219                    21514146.219
                        40.900
                  83750119.480 6  20129404.375                    20129408.523
                        36.600
 118476584.425 7  92319435.24545  22545344.953                    22545351.301
        45.300          33.500
 122593715.840 6  95527578.75044  23328808.164                    23328811.406
        41.100          25.300
 127761130.917 6  99554137.68543  24312134.133                    24312138.426
        39.200          21.500
 117345215.158 7  91437853.95445  22330053.281                    22330060.250
        42.800          30.600
 109715659.643 8  85492740.89447  20878196.148                    20878201.922
        51.400          42.000
 118876898.923 7  92631365.62845  22621521.867                    22621525.145
        44.900          31.500
 114353545.017 8  89106673.07045  21760757.820                    21760760.641
        48.600          33.400
 114654524.197 7  89341189.88545  21818029.406                    21818031.813
        44.500          32.100
 18  3 11 13 43 19.0000000  0 19R05R06G10G14G22R14R15R13R24R22R23G32
                                G11G28G01G24G12G17G19
                  88424134.852 5  21267725.344                    21267727.000
                        32.500
                  85412719.402 6  20579537.422                    20579537.898
                        37.500
 123374308.378 7  96135868.59944  23477358.258                    23477364.363
        42.800          27.200
 127254507.100 7  99159426.10844  24215738.719                    24215743.895
        43.600          27.400
 127393868.763 7  99267960.21144  24242248.953                    24242249.793
        42.300          27.600
                  80294810.292 6  19366847.117                    19366849.504
                        41.000
                  83475089.117 6  20084432.555                    20084435.563
                        36.400
                  92212550.358 5  22202289.492                    22202289.219
                        34.000
                  94068542.993 4  22617374.039                    22617376.207
                        26.200
                  89325923.344 6  21514829.516                    21514830.660
                        41.100
                  83749298.733 6  20129207.047                    20129210.840
                        36.800
 118474877.656 7  92318105.29845  22545019.406                    22545026.172
        45.100          33.300
 122596659.660 6  95529872.64644  23329368.586                    23329371.613
        41.100          24.100
 127764874.938 6  99557055.11243  24312847.000                    24312850.508
        39.400          21.700
 117346382.636 6  91438763.69545  22330274.734                    22330282.523
        41.000          30.600
 109716735.117 8  85493578.92646  20878400.297                    20878406.523
        51.400          41.800
 118873745.257 7  92628908.22945  22620921.961                    22620925.320
        45.000          31.200
 114353346.327 8  89106518.22345  21760720.445                    21760722.941
        48.900          33.100
 114652666.688 7  89339742.48645  21817676.273                    21817678.203
        45.100          32.300
 18  3 11 13 43 20.0000000  0 19R05R06G10G14G22R14R15R13R24R22R23G32
                                G11G28G01G24G12G17G19
                  88426832.938 5  21268375.711                    21268375.539
                        32.500
                  85411818.322 6  20579319.313                    20579321.121
                        37.300
 123377548.623 7  96138393.46944  23477974.781                    23477981.063
        42.700          26.500
 127251637.376 7  99157189.95744  24215193.016                    24215198.309
        42.900          27.100
 127391647.812 7  99266229.59144  24241826.695                    24241827.496
        42.400          28.200
                  80295908.569 6  19367112.164                    19367114.270
                        41.100
                  83473356.799 6  20084016.141                    20084019.055
                        36.200
                  92216120.269 5  22203147.797                    22203149.488
                        35.300
                  94065415.217 4  22616622.469                    22616623.680
                        25.100
                  89328764.936 6  21515514.141                    21515515.285
                        41.100
                  83748478.702 6  20129010.234                    20129014.277
                        36.700
 118473171.444 7  92316775.79545  22544695.188                    22544701.387
        45.600          33.700
 122599604.085 6  95532167.01844  23329928.445                    23329931.566
        40.900          24.500
 127768619.173 6  99559972.69143  24313559.883                    24313563.047
        39.900          21.700
 117347550.887 6  91439674.01744  22330496.266                    22330504.133
        41.100          29.800
 109717811.276 8  85494417.49446  20878604.758                    20878611.145
        51.800          41.800
 118870591.938 7  92626451.09345  22620321.711                    22620324.688
        45.200          30.900
 114353148.301 8  89106363.88745  21760682.586                    21760684.902
        48.900          32.700
 114650809.820 7  89338295.58645  21817323.844                    21817324.645
        45.800          32.200
 18  3 11 13 43 21.0000000  0 19R05R06G10G14G22R14R15R13R24R22R23G32
                                G11G28G01G24G12G17G19
                  88429531.559 5  21269024.078                    21269025.297
                        32.400
                  85410917.928 6  20579102.656                    20579104.605
                        37.200
 123380789.315 7  96140918.70044  23478591.102                    23478597.422
        42.400          24.900
 127248767.979 7  99154954.07244  24214646.344                    24214652.391
        42.600          27.800
 127389427.280 7  99264499.30544  24241403.805                    24241405.168
        42.700          28.600
                  80297007.511 6  19367377.289                    19367379.512
                        41.100
                  83471625.046 6  20083599.211                    20083602.453
                        36.400
                  92219690.384 5  22204007.719                    22204009.609
                        35.300
                  94062287.722 3  22615871.164                    22615871.094
                        23.900
                  89331607.076 6  21516197.883                    21516200.023
                        41.600
                  83747659.399 6  20128813.430                    20128817.461
                        36.800
 118471465.868 7  92315446.77945  22544371.500                    22544376.617
        46.400          33.500
 122602549.077 6  95534461.82143  23330488.063                    23330492.285
        39.500          22.800
 127772363.552 6  99562890.37643  24314271.992                    24314275.230
        39.200          21.800
 117348719.863 7  91440584.89245  22330720.984                    22330726.586
        42.600          30.200
 109718888.144 8  85495256.60647  20878810.031                    20878815.703
        52.100          42.000
 118867438.995 7  92623994.24545  22619721.742                    22619724.965
        45.400          31.600
 114352950.945 8  89106210.07345  21760644.281                    21760647.531
        48.400          33.000
 114648953.675 7  89336849.24745  21816971.180                    21816971.930
        46.800          32.200
 18  3 11 13 43 22.0000000  0 19R05R06G10G14G22R14R15R13R24R22R23G32
                                G11G28G01G24G12G17G19
                  88432230.754 5  21269671.898                    21269674.289
                        32.300
                  85410018.248 6  20578887.078                    20578887.164
                        37.500
 123384030.477 7  96143444.29344  23479208.023                    23479214.258
        42.100          25.500
 127245898.849 6  99152718.40544  24214099.852                    24214106.250
        40.900          25.500
 127387207.210 7  99262769.38944  24240981.391                    24240982.387
        42.400          27.200
                  80298107.093 6  19367642.367                    19367644.574
                        41.000
                  83469893.809 6  20083182.484                    20083185.320
                        37.000
                  92223260.762 5  22204867.773                    22204869.961
                        33.800
                  94059160.502 4  22615118.852                    22615120.082
                        26.000
                  89334449.710 6  21516883.352                    21516884.137
                        41.200
                  83746840.799 6  20128616.883                    20128620.801
                        36.500
 118469760.847 7  92314118.19845  22544047.141                    22544052.496
        46.500          33.600
 122605494.645 6  95536757.07643  23331048.242                    23331052.547
        39.500          22.200
 127776108.114 6  99565808.21343  24314984.664                    24314987.949
        39.900          21.300
 117349889.562 7  91441496.33044  22330943.602                    22330949.500
        43.300          29.300
 109719965.727 8  85496096.27746  20879016.102                    20879020.793
        52.200          41.900
 118864286.419 7  92621537.69545  22619121.883                    22619124.980
        45.500          31.500
 114352754.240 8  89106056.77545  21760606.953                    21760609.977
        48.500          32.400
 114647098.186 7  89335403.40745  21816617.453                    21816618.461
        46.600          32.700
 18  3 11 13 43 23.0000000  0 19R05R06G10G14G22R14R15R13R24R22R23G32
                                G11G28G01G24G12G17G19
                  88434930.486 5  21270322.727                    21270323.914
                        32.300
                  85409119.283 6  20578670.047                    20578670.465
                        36.900
 123387272.122 7  96145970.25944  23479824.859                    23479830.465
        42.000          25.500
 127243030.065 6  99150483.01543  24213553.719                    24213560.734
        39.100          23.800
 127384987.567 7  99261039.81344  24240559.219                    24240560.219
        42.300          26.700
                  80299207.346 6  19367907.750                    19367910.176
                        41.300
                  83468163.144 6  20082765.789                    20082769.477
                        36.000
                  92226831.362 5  22205728.719                    22205729.227
                        32.500
                  94056033.553 4  22614367.375                    22614368.391
                        24.000
                  89337292.864 6  21517568.000                    21517569.402
                        41.000
                  83746022.979 6  20128419.664                    20128423.816
                        36.900
 118468056.473 7  92312790.11045  22543722.820                    22543727.875
        46.300          34.000
 122608440.819 6  95539052.79643  23331609.633                    23331613.320
        39.900          22.800
 127779852.907 6  99568726.23243  24315698.250                    24315700.770
        40.000          21.700
 117351060.044 7  91442408.40445  22331165.563                    22331172.230
        42.700          30.100
 109721044.018 8  85496936.49346  20879221.250                    20879226.250
        52.500          41.800
 118861134.258 7  92619081.46645  22618522.031                    22618525.172
        45.400          31.300
 114352558.242 8  89105904.03645  21760569.969                    21760573.020
        48.700          33.000
 114645243.380 7  89333958.10145  21816263.508                    21816265.699
        45.500          31.600
 18  3 11 13 43 24.0000000  0 19R05R06G10G14G22R14R15R13R24R22R23G32
                                G11G28G01G24G12G17G19
                  88437630.784 5  21270971.391                    21270973.473
                        32.000
                  85408221.057 6  20578452.969                    20578454.164
                        36.900
 123390514.240 7  96148496.58544  23480441.461                    23480447.969
        42.000          26.500
 127240161.537 6  99148247.83943  24213006.305                    24213015.043
        36.700          22.600
 127382768.354 7  99259310.57144  24240136.320                    24240137.535
        42.500          26.500
                  80300308.276 6  19368173.359                    19368175.438
                        41.300
                  83466433.017 6  20082350.266                    20082352.820
                        36.000
                  92230402.236 5  22206589.094                    22206588.094
                        30.900
                  94052906.856 4  22613615.414                    22613616.578
                        26.300
                  89340136.543 6  21518251.250                    21518254.828
                        41.300
                  83745205.876 6  20128223.758                    20128227.406
                        37.100
 118466352.689 7  92311462.48045  22543398.367                    22543403.840
        45.900          33.500
 122611387.583 6  95541348.96544  23332170.570                    23332173.660
        40.900          24.000
 127783597.883 6  99571644.39643  24316410.195                    24316413.398
        39.900          21.100
 117352231.305 7  91443321.08845  22331387.594                    22331395.090
        42.100          30.200
 109722122.993 8  85497777.25946  20879426.195                    20879431.430
        52.100          41.700
 118857982.475 7  92616625.53545  22617921.953                    22617925.629
        45.500          31.000
 114352362.905 8  89105751.80945  21760532.953                    21760535.996
        49.300          32.400
 114643389.201 7  89332513.28045  21815910.273                    21815912.871
        44.400          32.100
 18  3 11 13 43 25.0000000  0 19R05R06G10G14G22R14R15R13R24R22R23G32
                                G11G28G01G24G12G17G19
                  88440331.618 5  21271621.688                    21271622.969
                        32.500
                  85407323.530 6  20578238.047                    20578238.426
                        37.100
 123393756.799 6  96151023.25144  23481059.016                    23481064.656
        41.700          26.700
 127237293.288 5  99146012.90043  24212458.656                    24212468.945
        34.500          22.500
 127380549.594 7  99257581.67444  24239714.891                    24239715.457
        42.400          26.400
                  80301409.854 6  19368438.883                    19368441.238
                        41.100
                  83464703.432 6  20081933.672                    20081936.813
                        36.400
                  92233973.463 5  22207447.656                    22207447.043
                        32.600
                  94049780.494 4  22612862.672                    22612864.805
                        24.900
                  89342980.739 6  21518936.867                    21518939.547
                        41.300
                  83744389.510 6  20128027.617                    20128031.105
                        36.700
 118464649.503 7  92310135.31045  22543073.703                    22543079.809
        45.900          33.700
 122614334.900 6  95543645.58244  23332732.609                    23332734.844
        41.100          25.400
 127787343.053 6  99574562.69243  24317122.766                    24317125.750
        39.800          21.100
 117353403.335 7  91444234.35445  22331611.227                    22331618.188
        42.600          30.900
 109723202.662 8  85498618.55546  20879630.906                    20879637.387
        51.800          41.800
 118854831.068 7  92614169.88745  22617322.797                    22617325.730
        45.500          31.000
 114352168.247 8  89105600.11245  21760495.453                    21760499.008
        48.700          32.300
 114641535.688 7  89331068.99845  21815558.547                    21815559.938
        45.300          32.000
 18  3 11 13 43 26.0000000  0 19R05R06G10G14G22R14R15R13R24R22R23G32
                                G11G28G01G24G12G17G19
                  88443032.975 5  21272271.164                    21272272.406
                        32.200
                  85406426.696 6  20578021.805                    20578021.633
                        37.700
 123396999.812 6  96153550.28644  23481675.258                    23481681.668
        41.600          26.000
 127234425.366 5  99143778.23343  24211912.766                    24211922.598
        34.600          22.300
 127378331.230 7  99255853.06744  24239292.164                    24239293.098
        42.300          27.000
                  80302512.081 6  19368705.195                    19368706.453
                        41.300
                  83462974.377 6  20081518.094                    20081521.000
                        36.400
                  92237544.933 5  22208305.438                    22208307.266
                        33.800
                  94046654.387 4  22612112.023                    22612113.449
                        25.400
                  89345825.415 6  21519623.391                    21519624.453
                        41.100
                  83743573.865 6  20127831.672                    20127835.230
                        36.600
 118462946.875 7  92308808.57845  22542749.211                    22542755.859
        45.500          33.300
 122617282.785 6  95545942.63344  23333293.391                    23333295.969
        41.400          24.600
 127791088.360 6  99577481.11043  24317835.297                    24317838.703
        39.600          21.300
 117354576.074 7  91445148.17945  22331835.539                    22331841.566
        43.000          30.600
 109724282.979 8  85499460.35646  20879836.750                    20879842.941
        51.900          41.600
 118851680.013 7  92611714.51745  22616723.156                    22616726.328
        44.900          30.500
 114351974.237 8  89105448.93645  21760458.516                    21760462.180
        48.700          32.500
 114639682.844 7  89329625.23645  21815207.164                    21815206.930
        46.500          32.300
 18  3 11 13 43 27.0000000  0 19R05R06G10G14G22R14R15R13R24R22R23G32
                                G11G28G01G24G12G17G19
                  88445734.852 5  21272920.867                    21272921.867
                        32.900
                  85405530.519 6  20577805.258                    20577805.582
                        37.800
 123400243.212 6  96156077.60444  23482292.945                    23482298.871
        41.500          26.900
 127231557.681 6  99141543.75243  24211368.711                    24211377.027
        36.200          21.800
 127376113.271 7  99254124.77844  24238870.133                    24238871.246
        42.500          26.500
                  80303614.898 6  19368971.016                    19368972.883
                        41.000
                  83461245.828 6  20081101.109                    20081105.094
                        36.000
                  92241116.631 5  22209165.344                    22209167.328
                        35.300
                  94043528.530 3  22611359.969                    22611362.133
                        23.500
                  89348670.580 6  21520307.883                    21520309.633
                        40.700
                  83742758.923 6  20127635.430                    20127639.434
                        36.500
 118461244.771 7  92307482.27445  22542425.750                    22542431.797
        46.000          34.000
 122620231.221 6  95548240.12243  23333853.977                    23333857.281
        41.100          23.800
 127794833.861 6  99580399.67943  24318548.164                    24318551.016
        39.200          21.300
 117355749.486 7  91446062.52945  22332058.266                    22332064.949
        43.000          30.500
 109725363.967 8  85500302.68047  20880042.805                    20880047.984
        51.700          42.000
 118848529.294 7  92609259.40445  22616123.219                    22616126.438
        45.100          30.200
 114351780.852 8  89105298.23645  21760421.594                    21760424.902
        48.700          32.600
 114637830.647 7  89328181.96545  21814854.148                    21814855.020
        46.300          31.600
 18  3 11 13 43 28.0000000  0 19R05R06G10G14G22R14R15R13R24R22R23G32
                                G11G28G01G24G12G17G19
                  88448437.312 5  21273571.094                    21273571.816
                        31.500
                  85404635.107 6  20577589.469                    20577589.859
                        37.500
 123403487.155 6  96158605.34944  23482910.117                    23482916.441
        41.800          27.200
 127228690.451 6  99139309.60544  24210824.117                    24210831.395
        38.800          24.900
 127373895.794 7  99252396.86844  24238448.297                    24238449.684
        42.300          26.200
                  80304718.406 6  19369236.750                    19369238.797
                        40.800
                  83459517.868 5  20080685.703                    20080689.438
                        35.900
                  92244688.469 5  22210028.773                    22210028.574
                        35.300
                  94040402.987 4  22610609.984                    22610610.707
                        24.000
                  89351516.323 6  21520993.219                    21520995.398
                        40.700
                  83741944.754 6  20127439.703                    20127444.348
                        36.500
 118459543.364 7  92306156.51245  22542102.641                    22542108.371
        46.400          34.000
 122623180.234 6  95550538.05243  23334414.594                    23334418.469
        40.900          22.500
 127798579.551 6  99583318.39243  24319260.578                    24319264.090
        38.800          20.600
 117356923.744 6  91446977.54445  22332280.844                    22332288.160
        41.900          30.600
 109726445.677 8  85501145.56346  20880249.016                    20880254.172
        51.900          41.800
 118845378.988 7  92606804.61345  22615524.055                    22615527.309
        44.800          30.400
 114351588.176 8  89105148.09745  21760385.945                    21760388.516
        48.800          33.200
 114635979.127 7  89326739.20845  21814500.078                    21814502.492
        44.600          32.100
 18  3 11 13 43 29.0000000  0 19R05R06G10G14G22R14R15R13R24R22R23G32
                                G11G28G01G24G12G17G19
                  88451140.307 5  21274220.500                    21274222.875
                        32.700
                  85403740.412 6  20577373.156                    20577374.816
                        37.300
 123406731.539 6  96161133.43844  23483527.773                    23483533.559
        41.800          27.900
 127225823.507 6  99137075.66244  24210279.578                    24210285.629
        41.600          26.900
 127371678.729 7  99250669.27344  24238026.047                    24238027.422
        42.500          26.700
                  80305822.556 6  19369503.641                    19369505.359
                        41.100
                  83457790.438 5  20080270.594                    20080273.574
                        35.900
                  92248260.572 5  22210890.000                    22210889.453
                        33.400
                  94037277.779 3  22609858.195                    22609859.363
                        22.800
                  89354362.539 6  21521679.180                    21521680.230
                        40.600
                  83741131.301 6  20127244.023                    20127248.250
                        36.900
 118457842.532 7  92304831.19145  22541778.352                    22541784.473
        46.500          33.800
 122626129.898 6  95552836.48343  23334975.813                    23334979.734
        40.200          22.800
 127802325.432 6  99586237.25843  24319973.844                    24319976.570
        38.900          20.100
 117358098.766 6  91447893.15245  22332504.563                    22332511.680
        41.700          30.500
 109727528.110 8  85501989.01146  20880454.688                    20880460.141
        51.900          41.900
 118842229.065 7  92604350.13044  22614924.320                    22614927.887
        44.900          29.800
 114351396.215 8  89104998.50745  21760349.172                    21760352.035
        48.500          33.000
 114634128.243 7  89325296.96745  21814147.836                    21814150.188
        44.700          31.300
 18  3 11 13 43 30.0000000  0 19R05R06G10G14G22R14R15R13R24R22R23G32
                                G11G28G01G24G12G17G19
                  88453843.875 5  21274870.969                    21274872.961
                        32.800
                  85402846.425 6  20577158.203                    20577159.160
                        37.100
 123409976.358 7  96163661.86544  23484144.875                    23484151.074
        42.200          26.700
 127222956.882 7  99134841.92844  24209734.523                    24209740.539
        43.400          27.800
 127369462.101 7  99248942.02244  24237604.711                    24237605.262
        42.200          24.300
                  80306927.381 6  19369769.641                    19369771.551
                        40.800
                  83456063.564 6  20079854.500                    20079858.172
                        36.200
                  92251832.973 5  22211748.531                    22211749.801
                        31.600
                  94034152.803 4  22609106.555                    22609107.707
                        24.500
                  89357209.256 6  21522364.602                    21522366.168
                        40.400
                  83740318.571 6  20127049.141                    20127052.977
                        36.800
 118456142.283 7  92303506.31845  22541454.742                    22541461.152
        46.000          33.800
 122629080.111 6  95555135.34543  23335537.734                    23335541.059
        40.400          22.000
 127806071.529 6  99589156.31243  24320686.695                    24320689.531
        39.000          21.100
 117359274.507 7  91448809.30044  22332729.688                    22332735.418
        43.500          29.900
 109728611.280 8  85502833.03346  20880660.508                    20880666.414
        52.000          41.900
 118839079.531 7  92601895.95744  22614324.961                    22614328.621
        44.300          29.900
 114351204.896 8  89104849.41245  21760311.672                    21760315.492
        48.500          32.700
 114632278.065 7  89323855.29145  21813797.156                    21813797.832
        44.900          32.700
 18  3 11 13 43 31.0000000  0 19R05R06G10G14G22R14R15R13R24R22R23G32
                                G11G28G01G24G12G17G19
                  88456547.973 5  21275521.898                    21275523.371
                        33.200
                  85401953.160 6  20576943.930                    20576944.293
                        37.000
 123413221.663 7  96166190.67044  23484763.188                    23484768.938
        42.500          28.000
 127220090.560 7  99132608.42944  24209189.445                    24209194.875
        44.200          26.400
 127367245.893 6  99247215.11644  24237182.555                    24237183.828
        41.900          26.000
                  80308032.844 6  19370036.617                    19370038.547
                        41.000
                  83454337.244 6  20079439.266                    20079442.629
                        36.000
                  92255405.720 4  22212606.016                    22212609.258
                        29.500
                  94031028.094 4  22608354.781                    22608356.422
                        24.400
                  89360056.509 6  21523049.453                    21523052.020
                        40.400
                  83739506.564 6  20126854.172                    20126857.742
                        36.600
 118454442.623 7  92302181.90945  22541131.570                    22541137.496
        46.400          33.400
 122632030.898 6  95557434.64943  23336098.719                    23336102.113
        41.200          22.600
 127809817.783 6  99592075.47043  24321398.594                    24321402.500
        38.900          21.100
 117360450.935 7  91449725.98845  22332954.164                    22332959.172
        44.300          30.700
 109729695.114 8  85503677.58446  20880866.602                    20880872.711
        51.800          41.700
 118835930.351 7  92599442.05245  22613725.914                    22613729.086
        44.900          30.500
 114351014.232 8  89104700.84545  21760275.680                    21760278.805
        48.700          32.100
 114630428.530 7  89322414.10745  21813446.180                    21813446.500
        46.100          32.200
 18  3 11 13 43 32.0000000  0 19R05R06G10G14G22R14R15R13R24R22R23G32
                                G11G28G01G24G12G17G19
                  88459252.650 5  21276172.102                    21276173.855
                        32.500
                  85401060.589 6  20576728.297                    20576729.172
                        37.100
 123416467.425 7  96168719.83544  23485380.734                    23485386.469
        42.800          27.900
 127217224.582 7  99130375.19644  24208643.969                    24208649.402
        45.000          25.800
 127365030.136 6  99245488.56244  24236761.211                    24236762.000
        41.500          26.200
                  80309139.025 6  19370303.922                    19370305.316
                        41.300
                  83452611.474 6  20079024.406                    20079027.934
                        36.200
                  92258978.774 5  22213465.656                    22213468.016
                        32.000
                  94027903.673 3  22607603.664                    22607605.273
                        23.600
                  89362904.282 6  21523736.250                    21523737.754
                        40.400
                  83738695.323 6  20126658.289                    20126662.984
                        36.400
 118452743.571 7  92300857.97945  22540808.633                    22540814.188
        46.500          33.900
 122634982.255 7  95559734.41843  23336660.594                    23336663.703
        42.100          22.200
 127813564.269 6  99594994.79243  24322111.969                    24322115.367
        39.000          20.900
 117361628.187 7  91450643.34445  22333177.211                    22333183.633
        43.000          30.900
 109730779.679 8  85504522.69446  20881073.141                    20881078.910
        51.300          41.700
 118832781.567 7  92596988.44545  22613126.664                    22613129.828
        44.500          30.300
 114350824.289 8  89104552.83545  21760240.547                    21760243.281
        49.000          32.100
 114628579.717 7  89320973.45945  21813093.219                    21813094.672
        44.900          33.200
 18  3 11 13 43 33.0000000  0 19R05R06G10G14G22R14R15R13R24R22R23G32
                                G11G28G01G24G12G17G19
                  88461957.933 5  21276822.844                    21276825.066
                        33.100
                  85400168.776 6  20576513.344                    20576514.523
                        37.400
 123419713.716 7  96171249.42244  23485998.633                    23486004.297
        42.800          28.600
 127214358.965 7  99128142.26044  24208098.977                    24208104.332
        45.300          24.400
 127362814.883 6  99243762.38844  24236339.492                    24236340.594
        41.300          24.300
                  80310245.909 6  19370570.039                    19370572.328
                        40.900
                  83450886.309 6  20078609.211                    20078612.152
                        36.200
                  92262551.976 5  22214330.664                    22214328.406
                        33.700
                  94024779.595 3  22606852.203                    22606854.234
                        23.200
                  89365752.615 6  21524422.789                    21524423.863
                        40.100
                  83737884.881 6  20126463.227                    20126468.109
                        36.500
 118451045.213 7  92299534.58945  22540485.313                    22540491.023
        46.300          33.800
 122637934.312 7  95562034.73243  23337222.836                    23337225.512
        42.300          23.000
 127817311.014 6  99597914.32943  24322825.625                    24322828.367
        38.700          21.300
 117362806.293 6  91451561.37344  22333398.594                    22333408.070
        39.500          29.400
 109731865.002 8  85505368.39446  20881280.281                    20881285.367
        51.700          41.700
 118829633.251 7  92594535.20945  22612527.164                    22612530.703
        44.400          31.300
 114350635.063 8  89104405.38445  21760204.320                    21760206.871
        49.500          32.400
 114626731.602 7  89319533.35445  21812739.961                    21812742.867
        43.700          32.300
 18  3 11 13 43 34.0000000  0 19R05R06G10G14G22R14R15R13R24R22R23G32
                                G11G28G01G24G12G17G19
                  88464663.708 5  21277474.945                    21277475.211
                        32.500
                  85399277.680 6  20576299.508                    20576300.051
                        37.100
 123422960.424 7  96173779.33244  23486616.844                    23486621.969
        43.300          28.000
 127211493.671 7  99125909.58044  24207553.938                    24207559.355
        45.600          24.000
 127360600.053 6  99242036.54744  24235917.781                    24235918.852
        41.100          25.500
                  80311353.410 6  19370837.930                    19370839.473
                        41.100
                  83449161.672 6  20078194.320                    20078197.422
                        36.100
                  92266125.406 5  22215192.125                    22215190.406
                        34.200
                  94021655.834 3  22606101.398                    22606103.180
                        23.200
                  89368601.441 6  21525107.844                    21525110.387
                        40.500
                  83737075.138 6  20126269.258                    20126273.480
                        36.800
 118449347.402 7  92298211.62545  22540162.727                    22540167.676
        46.600          33.400
 122640886.919 7  95564335.47844  23337784.883                    23337787.293
        42.300          24.700
 127821057.913 6  99600833.96943  24323538.227                    24323541.574
        38.200          21.500
 117363985.185 6  91452479.98144  22333623.578                    22333631.512
        39.900          29.900
 109732950.989 8  85506214.61346  20881487.188                    20881491.914
        51.400          41.700
 118826485.299 7  92592082.25545  22611928.164                    22611931.797
        44.500          30.900
 114350446.484 8  89104258.43345  21760168.086                    21760171.211
        49.100          32.900
 114624884.102 7  89318093.75945  21812389.125                    21812391.047
        44.400          32.400
 18  3 11 13 43 35.0000000  0 19R05R06G10G14G22R14R15R13R24R22R23G32
                                G11G28G01G24G12G17G19
                  88467370.048 5  21278124.398                    21278126.484
                        32.300
                  85398387.231 6  20576083.984                    20576084.875
                        37.400
 123426207.609 7  96176309.61844  23487234.930                    23487239.883
        43.900          27.900
 127208628.629 7  99123677.11143  24207008.594                    24207014.090
        45.200          21.500
 127358385.625 6  99240311.00944  24235496.367                    24235497.168
        41.700          25.200
                  80312461.568 6  19371104.547                    19371106.352
                        41.000
                  83447437.549 6  20077779.133                    20077782.582
                        36.000
                  92269699.090 5  22216051.000                    22216051.000
                        33.800
                  94018532.315 3  22605350.398                    22605352.313
                        23.300
                  89371450.765 6  21525794.055                    21525796.727
                        40.400
                  83736266.104 6  20126074.836                    20126078.707
                        36.900
 118447650.184 7  92296889.11845  22539839.891                    22539844.895
        47.200          34.000
 122643840.061 7  95566636.62643  23338346.258                    23338349.309
        42.000          22.900
 127824804.993 6  99603753.77843  24324251.078                    24324254.402
        38.700          21.300
 117365164.723 7  91453399.06445  22333851.531                    22333855.918
        42.800          30.700
 109734037.632 8  85507061.34846  20881693.617                    20881698.992
        51.400          41.700
 118823337.671 7  92589629.55045  22611329.328                    22611332.828
        44.500          30.900
 114350258.538 8  89104111.97945  21760131.930                    21760135.406
        49.200          33.500
 114623037.306 7  89316654.72645  21812039.234                    21812039.398
        46.200          33.100
 18  3 11 13 43 36.0000000  0 19R05R06G10G14G22R14R15R13R24R22R23G32
                                G11G28G01G24G12G17G19
                  88470076.962 5  21278776.570                    21278777.109
                        30.800
                  85397497.551 6  20575868.906                    20575870.461
                        37.500
 123429455.264 7  96178840.26744  23487852.469                    23487857.879
        43.800          28.900
 127205763.935 7  99121444.93843  24206463.898                    24206469.609
        44.600          20.900
 127356171.709 7  99238585.87344  24235075.109                    24235076.051
        42.300          25.700
                  80313570.434 6  19371372.344                    19371374.422
                        41.000
                  83445714.015 5  20077364.695                    20077367.922
                        35.900
                  92273273.122 5  22216908.055                    22216912.508
                        32.800
                  94015409.104 3  22604598.969                    22604600.844
                        22.700
                  89374300.640 6  21526480.672                    21526482.520
                        40.900
                  83735457.844 6  20125880.430                    20125885.004
                        37.200
 118445953.596 7  92295567.09645  22539516.484                    22539522.262
        46.200          34.300
 122646793.835 6  95568938.26744  23338908.203                    23338911.738
        41.700          24.900
 127828552.316 6  99606673.78143  24324964.305                    24324967.551
        39.000          21.700
 117366345.025 7  91454318.76645  22334076.727                    22334080.574
        43.900          30.600
 109735125.026 8  85507908.66346  20881899.906                    20881905.832
        51.300          41.800
 118820190.486 7  92587177.20045  22610730.234                    22610733.496
        44.500          31.300
 114350071.308 8  89103966.08645  21760096.508                    21760099.949
        48.900          32.800
 114621191.240 7  89315216.24745  21811688.172                    21811688.355
        46.100          32.400
 18  3 11 13 43 37.0000000  0 19R05R06G10G14G22R14R15R13R24R22R23G32
                                G11G28G01G24G12G17G19
                  88472784.428 5  21279425.977                    21279428.395
                        32.200
                  85396608.607 6  20575656.672                    20575656.305
                        37.600
 123432703.421 7  96181371.30644  23488470.820                    23488475.855
        44.000          29.100
 127202899.587 7  99119213.07043  24205918.445                    24205924.891
        43.800          19.300
 127353958.205 7  99236861.06844  24234654.539                    24234655.008
        42.400          25.700
                  80314679.940 6  19371639.391                    19371641.711
                        40.900
                  83443991.024 6  20076949.781                    20076953.594
                        36.300
                  92276847.470 5  22217767.945                    22217771.656
                        31.600
                  94012286.190 3  22603848.789                    22603850.121
                        23.800
                  89377151.036 6  21527168.453                    21527169.461
                        40.800
                  83734650.321 6  20125686.133                    20125690.684
                        36.800
 118444257.599 7  92294245.52845  22539192.633                    22539199.539
        45.000          33.300
 122649748.194 6  95571240.35443  23339470.617                    23339473.777
        41.400          23.200
 127832299.830 6  99609593.90843  24325677.234                    24325680.895
        38.700          21.300
 117367526.086 7  91455239.09645  22334299.539                    22334305.867
        43.000          31.700
 109736213.115 8  85508756.52246  20882106.742                    20882113.051
        51.100          41.700
 118817043.683 7  92584725.14345  22610131.570                    22610134.922
        44.500          31.500
 114349884.757 8  89103820.72445  21760061.430                    21760064.395
        49.700          33.000
 114619345.803 7  89313778.23745  21811336.047                    21811337.391
        45.100          32.300
 18  3 11 13 43 38.0000000  0 19R05R06G10G14G22R14R15R13R24R22R23G32
                                G11G28G01G24G12G17G19
                  88475492.423 5  21280077.320                    21280079.551
                        32.400
                  85395720.327 6  20575441.102                    20575442.266
                        37.700
 123435951.973 7  96183902.65444  23489088.742                    23489094.273
        43.400          28.500
 127200035.528 7  99116981.47043  24205373.266                    24205381.520
        42.200          19.300
 127351745.109 7  99235136.58244  24234233.508                    24234233.727
        42.300          26.300
                  80315790.117 6  19371907.539                    19371909.340
                        41.000
                  83442268.555 6  20076535.984                    20076539.137
                        36.500
                  92280421.945 5  22218632.383                    22218631.406
                        32.400
                  94009163.528 4  22603098.508                    22603099.457
                        24.000
                  89380001.911 6  21527855.000                    21527856.590
                        40.900
                  83733843.521 6  20125492.625                    20125496.547
                        36.700
 118442562.178 7  92292924.42545  22538870.453                    22538876.563
        45.100          33.900
 122652703.130 6  95573542.87943  23340033.250                    23340035.961
        41.700          23.900
 127836047.507 6  99612514.15743  24326390.961                    24326393.918
        39.000          21.500
 117368707.926 6  91456160.04945  22334522.531                    22334530.742
        41.100          30.400
 109737301.881 8  85509604.91146  20882314.195                    20882319.875
        51.100          41.700
 118813897.259 7  92582273.38145  22609532.898                    22609536.285
        44.600          31.200
 114349698.839 8  89103675.85145  21760026.055                    21760029.195
        49.400          32.900
 114617501.027 7  89312340.74145  21810983.953                    21810986.293
        43.900          31.900
 18  3 11 13 43 39.0000000  0 19R05R06G10G14G22R14R15R13R24R22R23G32
                                G11G28G01G24G12G17G19
                  88478200.952 5  21280729.688                    21280731.102
                        31.900
                  85394832.770 6  20575227.672                    20575228.547
                        37.700
 123439201.021 7  96186434.38344  23489707.406                    23489712.598
        43.000          29.000
 127197171.779 7  99114750.07943  24204827.469                    24204837.285
        42.000          19.000
 127349532.463 7  99233412.44844  24233812.180                    24233812.750
        42.200          25.900
                  80316900.935 6  19372175.914                    19372177.406
                        41.000
                  83440546.631 6  20076121.672                    20076124.777
                        36.100
                  92283996.688 5  22219493.969                    22219492.230
                        32.700
