     2.11           OBSERVATION DATA    M (MIXED)           RINEX VERSION / TYPE
teqc  2018Mar15                         20180319 14:17:34UTCPGM / RUN BY / DATE
Linux 2.6.32-573.12.1.x86_64|x86_64|gcc -static|Linux 64|=+ COMMENT
END OF STATIC MODE OBSERVATION                              COMMENT
BIT 2 OF LLI FLAGS DATA COLLECTED UNDER A/S CONDITION       COMMENT
-Unknown-                                                   MARKER NAME
4625                                                        MARKER NUMBER
-Unknown-           -Unknown-                               OBSERVER / AGENCY
5127468778          TRIMBLE             4.63                REC # / TYPE / VERS
47477114                            NONE                    ANT # / TYPE
  5853922.5948  2532236.5302        0.0000                  APPROX POSITION XYZ
        0.0000        0.0000        0.0000                  ANTENNA: DELTA H/E/N
     1     1                                                WAVELENGTH FACT L1/2
     7    L1    L2    C1    P1    P2    S1    S2            # / TYPES OF OBSERV
    18                                                      LEAP SECONDS
 SNR is mapped to RINEX snr flag value [0-9]                COMMENT
  L1 & L2: min(max(int(snr_dBHz/6), 0), 9)                  COMMENT
  2018     3    15    14     7   50.0000000     GPS         TIME OF FIRST OBS
                                                            END OF HEADER
 18  3 15 14  7 50.0000000  0 17R01R02G25G12R12R10R11G14R20G17G22G01
                                R19G24G32R03G19
                  97787671.733 5  23519833.648                    23519836.465
                        32.100
                  85497907.397 6  20600063.250                    20600066.781
                        37.200
 128589062.953 7 100199403.41044  24469712.016                    24469718.754
        44.000          27.200
 112769642.264 8  87872335.56645  21459318.031                    21459322.434
        48.100          33.300
                                  22947003.445

                  84621591.438 5  20410453.070                    20410455.672
                        35.600
                  82645100.186 6  19884733.820                    19884735.926
                        38.300
 121684675.402 7  94819135.60544  23155803.680                    23155807.230
        43.800          26.500
                  87557188.044 6  21051815.141                    21051817.781
                        36.800
 116129486.500 8  90490547.22445  22098718.344                    22098722.125
        49.100          33.500
 123707514.975 7  96395442.98444  23540753.102                    23540754.988
        43.600          29.400
 122627826.788 6  95554239.30843  23335314.633                    23335321.754
        38.800          21.800
                  85746599.669 6  20609259.617                    20609259.367
                        37.400
 114652919.076 8  89339949.24846  21817726.109                    21817732.008
        49.700          36.500
 116513859.023 7  90790202.51545  22171850.406                    22171856.023
        45.600          34.100
                  91429018.360 6  21959586.203                    21959589.074
                        36.000
 112550378.458 7  87701777.26145  21417624.328                    21417626.238
        46.000          34.100
 18  3 15 14  7 51.0000000  0 17R01R02G25G12R12R10R11G14R20G17G22G01
                                R19G24G32R03G19
                  97791444.854 5  23520740.938                    23520744.520
                        32.800
                  85498954.502 6  20600316.789                    20600319.094
                        40.300
 128585487.197 7 100196617.11044  24469031.547                    24469038.688
        44.200          28.100
 112767656.762 8  87870788.43645  21458942.125                    21458943.957
        49.800          35.600
                                  22946263.164

                  84624078.100 6  20411051.039                    20411055.629
                        38.600
                  82644064.505 6  19884485.258                    19884486.762
                        40.700
 121682788.841 7  94817665.53844  23155444.625                    23155448.238
        43.400          26.700
                  87555207.462 6  21051337.836                    21051341.023
                        39.300
 116130867.639 8  90491623.43145  22098981.273                    22098984.609
        49.700          35.500
 123706565.247 7  96394702.92845  23540572.539                    23540574.188
        44.300          30.700
 122630628.269 6  95556422.27143  23335847.898                    23335855.117
        37.200          20.900
                  85748290.348 6  20609665.094                    20609665.535
                        39.900
 114655541.393 8  89341992.61146  21818224.711                    21818230.898
        49.100          37.600
 116513761.540 7  90790126.56345  22171832.063                    22171837.523
        45.900          35.700
                  91426860.166 6  21959068.938                    21959070.430
                        38.100
 112550304.031 7  87701719.24845  21417610.297                    21417612.039
        46.100          35.900
 18  3 15 14  7 52.0000000  0 17R01R02G25G12R12R10R11G14R20G17G22G01
                                R19G24G32R03G19
                  97795218.166 5  23521648.219                    23521652.355
                        33.300
                  85500002.345 6  20600569.297                    20600571.770
                        39.600
 128581911.627 7 100193830.95944  24468351.328                    24468358.250
        45.200          26.500
 112765671.871 8  87869241.76745  21458564.141                    21458566.914
        49.200          35.500
                                  22945522.086

                  84626565.291 6  20411651.023                    20411655.008
                        37.900
                  82643029.471 6  19884236.039                    19884238.031
                        40.800
 121680902.725 7  94816195.83544  23155086.266                    23155089.406
        44.700          27.500
                  87553227.484 6  21050862.523                    21050865.250
                        39.400
 116132249.410 8  90492700.14145  22099243.758                    22099247.609
        49.800          35.500
 123705616.146 7  96393963.37145  23540391.391                    23540393.289
        44.100          30.500
 122633430.382 6  95558605.73643  23336381.430                    23336388.121
        37.500          20.400
                  85749981.688 6  20610071.867                    20610071.836
                        40.200
 114658164.239 8  89344036.38546  21818723.773                    21818730.172
        49.500          37.100
 116513664.838 7  90790051.22246  22171814.391                    22171819.066
        47.300          36.000
                  91424702.483 6  21958550.266                    21958552.281
                        37.800
 112550230.393 7  87701661.86045  21417596.938                    21417597.785
        46.100          35.900
 18  3 15 14  7 53.0000000  0 17R01R02G25G12R12R10R11G14R20G17G22G01
                                R19G24G32R03G19
                  97798991.703 5  23522554.945                    23522559.664
                        34.000
                  85501050.947 6  20600822.203                    20600824.152
                        40.400
 128578336.296 7 100191045.00744  24467670.375                    24467677.906
        45.700          26.900
 112763687.503 8  87867695.50146  21458184.867                    21458189.176
        48.500          36.700
                                  22944781.406

                  84629052.995 6  20412252.336                    20412255.379
                        38.300
                  82641995.035 6  19883986.875                    19883988.852
                        41.300
 121679017.201 7  94814726.57244  23154727.055                    23154730.668
        44.400          28.300
                  87551248.043 6  21050385.945                    21050389.527
                        40.100
 116133631.808 8  90493777.33345  22099507.320                    22099510.512
        49.200          35.200
 123704667.652 7  96393224.31044  23540211.633                    23540212.883
        44.200          29.900
 122636233.045 6  95560789.59243  23336914.727                    23336921.563
        37.900          21.100
                  85751673.746 6  20610478.781                    20610479.055
                        40.200
 114660787.637 8  89346080.59046  21819223.383                    21819228.938
        49.600          38.100
 116513568.814 7  90789976.39345  22171795.461                    22171800.480
        47.000          35.800
                  91422545.270 6  21958031.742                    21958034.168
                        37.900
 112550157.545 7  87701605.08446  21417582.992                    21417584.379
        45.600          36.500
 18  3 15 14  7 54.0000000  0 17R01R02G25G12R12R10R11G14R20G17G22G01
                                R19G24G32R03G19
                  97802765.389 5  23523463.219                    23523467.070
                        33.600
                  85502100.250 6  20601074.742                    20601077.297
                        39.600
 128574761.093 7 100188259.13444  24466990.070                    24466997.371
        44.900          26.800
 112761703.760 8  87866149.72746  21457810.180                    21457811.648
        49.900          36.100
                                  22944040.406

                  84631541.206 6  20412851.148                    20412855.742
                        37.300
                  82640961.201 6  19883737.992                    19883740.547
                        41.000
 121677132.131 7  94813257.64944  23154368.125                    23154371.840
        43.100          27.300
                  87549269.213 6  21049910.383                    21049913.762
                        40.000
 116135014.818 8  90494855.00645  22099770.422                    22099773.965
        49.000          35.400
 123703719.658 7  96392485.62845  23540030.867                    23540032.508
        44.600          30.600
 122639036.316 6  95562973.95143  23337447.883                    23337454.883
        38.800          22.000
                  85753366.488 6  20610885.688                    20610885.309
                        40.100
 114663411.601 8  89348125.24246  21819722.508                    21819728.313
        49.800          38.200
 116513473.492 7  90789902.11045  22171777.172                    22171782.723
        46.600          35.800
                  91420388.524 6  21957514.625                    21957515.484
                        38.500
 112550085.441 7  87701548.89046  21417568.891                    21417570.387
        45.700          36.200
 18  3 15 14  7 55.0000000  0 17R01R02G25G12R12R10R11G14R20G17G22G01
                                R19G24G32R03G19
                  97806539.376 5  23524371.094                    23524375.715
                        30.800
                  85503150.275 6  20601327.656                    20601330.168
                        40.200
 128571186.173 6 100185473.51043  24466310.070                    24466316.949
        40.800          22.600
 112759720.585 8  87864604.38446  21457431.133                    21457434.895
        49.100          36.300
                                  22943299.867

                  84634029.969 6  20413451.891                    20413455.555
                        39.000
                  82639927.972 6  19883489.594                    19883491.859
                        41.800
 121675247.604 7  94811789.14644  23154009.547                    23154013.215
        43.400          28.100
                  87547290.927 6  21049435.805                    21049437.973
                        40.300
 116136398.470 8  90495933.16946  22100033.883                    22100037.320
        49.400          36.700
 123702772.341 7  96391747.45645  23539849.953                    23539852.156
        44.600          31.000
 122641840.095 6  95565158.73543  23337981.406                    23337988.332
        39.800          20.900
                  85755059.878 6  20611292.656                    20611292.848
                        40.000
 114666036.109 8  89350170.30746  21820222.531                    21820227.680
        50.000          38.400
 116513378.896 7  90789828.40646  22171758.422                    22171764.469
        46.300          36.300
                  91418232.340 6  21956996.344                    21956998.383
                        39.700
 112550014.136 7  87701493.33546  21417556.281                    21417557.219
        46.000          36.400
 18  3 15 14  7 56.0000000  0 17R01R02G25G12R12R10R11G14R20G17G22G01
                                R19G24G32R03G19
                  97810313.482 5  23525279.398                    23525283.203
                        32.200
                  85504201.076 6  20601581.156                    20601583.156
                        41.000
 128567611.316 6 100182687.94243  24465629.383                    24465636.492
        39.200          22.000
 112757737.974 8  87863059.48746  21457052.992                    21457056.855
        48.500          36.200
                                  22942557.055

                  84636519.224 6  20414052.813                    20414056.203
                        38.800
                  82638895.381 6  19883240.688                    19883243.020
                        41.900
 121673363.605 7  94810321.03445  23153651.516                    23153654.359
        44.900          30.900
                  87545313.192 6  21048959.586                    21048963.258
                        40.700
 116137782.741 8  90497011.82046  22100296.992                    22100300.766
        48.700          36.500
 123701825.579 7  96391009.70645  23539670.125                    23539671.898
        45.500          33.500
 122644644.448 6  95567343.95643  23338515.648                    23338522.379
        41.700          22.800
                  85756753.962 6  20611699.703                    20611699.305
                        40.400
 114668661.205 8  89352215.83746  21820721.391                    21820727.441
        49.100          38.100
 116513284.998 7  90789755.23846  22171740.297                    22171747.277
        46.500          36.300
                  91416076.660 6  21956478.594                    21956480.016
                        40.100
 112549943.642 7  87701438.40546  21417541.969                    21417543.883
        45.900          37.100
 18  3 15 14  7 57.0000000  0 17R01R02G25G12R12R10R11G14R20G17G22G01
                                R19G24G32R03G19
                  97814087.794 5  23526188.883                    23526191.039
                        32.500
                  85505252.628 6  20601834.117                    20601836.406
                        41.400
 128564036.702 7 100179902.54943  24464948.789                    24464956.230
        42.000          21.800
 112755755.975 8  87861515.08445  21456677.906                    21456680.137
        49.200          35.900
                                  22941817.023

                  84639009.051 6  20414651.805                    20414657.047
                        39.400
                  82637863.411 7  19882992.602                    19882994.266
                        42.300
 121671480.071 7  94808853.31745  23153292.719                    23153296.152
        43.800          30.200
                  87543336.038 6  21048483.477                    21048487.160
                        40.700
 116139167.632 8  90498090.96146  22100560.477                    22100564.313
        49.000          36.700
 123700879.466 7  96390272.47445  23539490.359                    23539491.898
        44.100          32.300
 122647449.482 6  95569529.69444  23339048.430                    23339056.391
        41.400          25.400
                  85758448.761 6  20612106.688                    20612107.355
                        40.900
 114671286.853 8  89354261.79946  21821221.328                    21821227.066
        49.300          37.500
 116513191.778 7  90789682.60446  22171722.352                    22171729.063
        46.600          37.300
                  91413921.542 6  21955960.719                    21955962.270
                        41.500
 112549873.925 7  87701384.09646  21417528.461                    21417530.598
        46.000          37.100
 18  3 15 14  7 58.0000000  0 17R01R02G25G12R12R10R11G14R20G17G22G01
                                R19G24G32R03G19
                  97817862.314 5  23527095.609                    23527098.824
                        32.900
                  85506304.859 6  20602087.703                    20602090.340
                        41.400
 128560462.297 7 100177117.30043  24464269.813                    24464276.242
        42.000          21.700
 112753774.497 8  87859971.07546  21456299.438                    21456303.387
        49.300          36.500
                                  22941076.492

                  84641499.326 6  20415253.898                    20415257.043
                        39.400
                  82636832.021 7  19882744.578                    19882746.676
                        42.300
 121669597.026 7  94807386.00845  23152934.125                    23152938.129
        44.300          30.400
                  87541359.473 6  21048009.352                    21048011.879
                        41.500
 116140553.119 8  90499170.56545  22100824.320                    22100827.730
        48.600          35.400
 123699933.852 7  96389535.63345  23539310.695                    23539312.074
        44.100          32.400
 122650254.915 6  95571715.76643  23339582.063                    23339589.293
        41.100          23.800
                  85760144.200 6  20612514.391                    20612514.738
                        40.900
 114673913.006 8  89356308.14846  21821720.711                    21821727.023
        49.600          38.400
 116513099.267 7  90789610.52246  22171704.820                    22171711.746
        46.700          37.300
                  91411766.899 6  21955443.234                    21955445.031
                        41.600
 112549804.995 7  87701330.39646  21417516.430                    21417517.293
        46.700          36.500
 18  3 15 14  7 59.0000000  0 17R01R02G25G12R12R10R11G14R20G17G22G01
                                R19G24G32R03G19
                  97821637.062 5  23528003.078                    23528006.922
                        31.600
                  85507357.820 6  20602341.617                    20602343.711
                        40.700
 128556888.043 7 100174332.15943  24463588.289                    24463596.105
        42.000          21.500
 112751793.623 8  87858427.55146  21455922.344                    21455925.660
        49.300          36.200
                                  22940335.734

                  84643990.138 6  20415854.211                    20415858.234
                        39.300
                  82635801.243 7  19882496.039                    19882498.324
                        42.300
 121667714.523 7  94805919.13644  23152575.914                    23152579.762
        42.300          29.100
                  87539383.526 6  21047534.453                    21047537.313
                        41.600
 116141939.259 8  90500250.67545  22101087.930                    22101091.613
        49.100          35.900
 123698988.893 7  96388799.29845  23539130.781                    23539132.051
        44.200          30.800
 122653061.094 6  95573902.43943  23340117.078                    23340123.816
        38.300          22.900
                  85761840.347 6  20612922.641                    20612922.508
                        41.800
 114676539.734 8  89358354.94846  21822220.594                    21822226.652
        49.400          38.500
 116513007.478 7  90789538.98646  22171687.492                    22171693.949
        46.900          37.100
                  91409612.800 6  21954926.438                    21954927.676
                        41.300
 112549736.849 7  87701277.31546  21417502.766                    21417504.422
        46.800          36.700
 18  3 15 14  8  0.0000000  0 17R01R02G25G12R12R10R11G14R20G17G22G01
                                R19G24G32R03G19
                  97825411.962 5  23528910.523                    23528914.387
                        31.900
                  85508411.496 6  20602595.539                    20602597.820
                        41.200
 128553314.063 7 100171547.21043  24462908.758                    24462915.910
        42.900          21.500
 112749813.403 8  87856884.53246  21455546.695                    21455548.980
        49.800          36.600
                                  22939595.352

                  84646481.493 6  20416454.742                    20416459.438
                        39.300
                  82634771.082 7  19882248.773                    19882250.313
                        42.100
 121665832.574 6  94804452.70944  23152217.695                    23152221.465
        41.600          29.600
                  87537408.131 6  21047059.047                    21047062.090
                        41.600
 116143326.032 8  90501331.27346  22101351.953                    22101355.473
        50.100          36.500
 123698044.545 7  96388063.43345  23538950.992                    23538952.664
        44.700          32.100
 122655867.820 6  95576089.53444  23340650.523                    23340657.602
        40.900          27.500
                  85763537.165 6  20613329.906                    20613329.977
                        41.400
 114679167.037 8  89360402.20946  21822721.117                    21822726.566
        49.700          38.600
 116512916.403 7  90789468.02146  22171670.273                    22171677.086
        46.600          37.100
                  91407459.177 6  21954408.016                    21954411.180
                        41.900
 112549669.484 7  87701224.83846  21417490.164                    21417491.469
        47.200          37.400
 18  3 15 14  8  1.0000000  0 17R01R02G25G12R12R10R11G14R20G17G22G01
                                R19G24G32R03G19
                  97829187.111 5  23529818.938                    23529822.891
                        30.400
                  85509465.888 6  20602848.891                    20602851.809
                        41.500
 128549740.213 6 100168762.40043  24462228.750                    24462235.551
        41.800          21.700
 112747833.729 8  87855341.93445  21455168.641                    21455172.352
        49.600          35.800
                                  22938854.477

                  84648973.370 6  20417056.344                    20417060.250
                        39.400
                  82633741.557 7  19882001.227                    19882002.863
                        42.100
 121663951.130 6  94802986.68044  23151859.594                    23151863.707
        41.900          28.800
                  87535433.286 7  21046583.617                    21046586.973
                        42.000
 116144713.422 8  90502412.36246  22101615.844                    22101619.180
        50.300          36.600
 123697100.744 7  96387328.00345  23538771.102                    23538772.711
        45.200          30.800
 122658675.138 6  95578277.06244  23341185.211                    23341191.641
        40.300          25.200
                  85765234.705 6  20613738.492                    20613737.727
                        41.000
 114681794.890 8  89362449.88646  21823220.508                    21823226.992
        49.800          39.000
 116512826.074 7  90789397.63346  22171653.094                    22171659.586
        45.800          37.300
                  91405306.068 6  21953890.938                    21953893.258
                        41.800
 112549602.925 7  87701172.98646  21417477.602                    21417478.871
        47.000          37.100
 18  3 15 14  8  2.0000000  0 17R01R02G25G12R12R10R11G14R20G17G22G01
                                R19G24G32R03G19
                  97832962.432 5  23530727.008                    23530730.457
                        31.200
                  85510521.032 7  20603103.945                    20603105.883
                        42.000
 128546166.538 6 100165977.72843  24461548.008                    24461555.879
        40.300          20.100
 112745854.620 8  87853799.77146  21454792.688                    21454795.609
        49.200          36.500
                                  22938113.961

                  84651465.746 6  20417657.078                    20417661.539
                        39.100
                  82632712.639 7  19881753.484                    19881755.172
                        42.400
 121662070.111 7  94801520.95644  23151501.719                    23151505.242
        42.200          29.000
                  87533459.031 7  21046109.594                    21046112.344
                        42.100
 116146101.452 8  90503493.95346  22101879.672                    22101883.129
        50.300          36.600
 123696157.604 7  96386593.09145  23538592.234                    23538593.449
        45.000          31.600
 122661482.934 6  95580464.94144  23341719.531                    23341726.160
        40.900          25.800
                  85766932.924 6  20614146.313                    20614146.902
                        41.500
 114684423.265 8  89364497.97446  21823721.383                    21823726.852
        50.200          38.600
 116512736.420 7  90789327.78246  22171636.688                    22171642.637
        45.900          37.500
                  91403153.460 6  21953375.242                    21953376.371
                        41.900
 112549537.109 7  87701121.72346  21417464.500                    21417466.242
        46.800          37.400
 18  3 15 14  8  3.0000000  0 17R01R02G25G12R12R10R11G14R20G17G22G01
                                R19G24G32R03G19
                  97836738.056 5  23531634.422                    23531639.391
                        32.400
                  85511576.943 6  20603357.734                    20603360.813
                        41.900
 128542593.191 6 100163193.35043  24460868.195                    24460875.668
        39.900          20.100
 112743876.137 8  87852258.08646  21454415.906                    21454419.188
        48.300          36.700
                                  22937374.602

                  84653958.652 6  20418259.078                    20418262.801
                        39.700
                  82631684.334 7  19881506.336                    19881507.906
                        42.000
 121660189.714 7  94800055.70145  23151144.125                    23151147.594
        43.300          30.000
                  87531485.342 7  21045634.422                    21045637.941
                        42.200
 116147490.131 8  90504576.04046  22102144.297                    22102147.883
        50.200          37.000
 123695215.033 7  96385858.60145  23538412.734                    23538413.848
        45.200          31.000
 122664291.359 7  95582653.32844  23342254.094                    23342260.211
        42.000          26.500
                  85768631.843 6  20614554.469                    20614554.844
                        41.900
 114687052.242 8  89366546.52846  21824220.945                    21824227.281
        49.900          38.700
 116512647.535 7  90789258.53146  22171620.031                    22171625.480
        46.800          37.900
                  91401001.424 7  21952858.492                    21952860.043
                        42.800
 112549472.077 7  87701071.06346  21417452.313                    21417453.785
        46.300          37.500
 18  3 15 14  8  4.0000000  0 17R01R02G25G12R12R10R11G14R20G17G22G01
                                R19G24G32R03G19
                  97840513.905 4  23532541.063                    23532547.039
                        26.900
                  85512633.614 6  20603612.109                    20603615.105
                        41.900
 128539019.980 6 100160409.04843  24460188.781                    24460196.012
        38.100          19.000
 112741898.236 8  87850716.87246  21454040.422                    21454042.891
        49.500          36.800
                                  22936637.188

                  84656452.056 6  20418860.875                    20418864.285
                        39.300
                  82630656.646 7  19881258.477                    19881260.594
                        42.500
 121658309.756 7  94798590.78645  23150786.289                    23150789.766
        43.900          30.000
                  87529512.211 7  21045159.492                    21045163.203
                        42.100
 116148879.450 8  90505658.62146  22102408.852                    22102412.219
        50.000          37.100
 123694273.077 7  96385124.59145  23538233.453                    23538234.676
        45.800          31.600
 122667100.336 6  95584842.15944  23342789.219                    23342795.441
        41.400          26.700
                  85770331.417 6  20614962.813                    20614963.113
                        41.600
 114689681.758 8  89368595.48846  21824721.930                    21824727.383
        50.500          38.800
 116512559.314 7  90789189.79446  22171604.055                    22171608.613
        46.700          36.800
                  91398849.940 7  21952340.852                    21952343.168
                        42.700
 112549407.841 7  87701021.00746  21417440.961                    21417441.695
        46.600          37.100
 18  3 15 14  8  5.0000000  0 17R01R02G25G12R12R10R11G14R20G17G22G01
                                R19G24G32R03G19
                  97844289.808 5  23533451.617                    23533455.168
                        31.700
                  85513690.956 6  20603867.383                    20603870.289
                        41.300
 128535446.840 5 100157624.84643  24459508.906                    24459516.098
        35.400          18.300
 112739920.900 8  87849176.08246  21453662.883                    21453666.484
        49.100          37.000
                                  22935897.039

                  84658945.975 6  20419461.516                    20419465.500
                        39.100
                  82629629.541 6  19881011.469                    19881013.125
                        41.900
 121656430.302 7  94797126.25544  23150429.305                    23150432.297
        43.100          27.800
                  87527539.662 7  21044686.117                    21044689.023
                        42.100
 116150269.390 8  90506741.69446  22102673.336                    22102676.781
        50.000          37.200
 123693331.702 7  96384391.03545  23538054.195                    23538055.555
        45.800          31.600
 122669909.855 6  95587031.39844  23343323.953                    23343329.988
        41.000          25.100
                  85772031.647 7  20615371.906                    20615371.727
                        42.600
 114692311.809 8  89370644.87846  21825221.867                    21825228.266
        49.600          38.100
 116512471.802 7  90789121.59646  22171587.180                    22171591.848
        46.400          37.100
                  91396698.933 6  21951823.797                    21951825.910
                        41.600
 112549344.360 7  87700971.51946  21417427.867                    21417429.801
        46.400          37.100
 18  3 15 14  8  6.0000000  0 17R01R02G25G12R12R10R11G14R20G17G22G01
                                R19G24G32R03G19
                  97848065.960 5  23534361.453                    23534363.723
                        32.400
                  85514749.073 6  20604121.281                    20604125.223
                        41.100
 128531873.952 5 100154840.78842  24458829.180                    24458836.422
        35.000          16.900
 112737944.146 8  87847635.76046  21453286.805                    21453289.879
        49.700          37.000
                                  22935156.625

                  84661440.429 6  20420063.164                    20420067.242
                        38.900
                  82628603.047 7  19880764.289                    19880766.418
                        42.000
 121654551.451 7  94795662.23344  23150071.594                    23150074.965
        42.800          27.200
                  87525567.709 7  21044212.211                    21044215.297
                        42.200
 116151659.947 8  90507825.24446  22102938.063                    22102941.590
        49.800          37.300
 123692390.912 7  96383657.96745  23537875.266                    23537876.633
        44.100          30.300
 122672719.986 6  95589221.11643  23343857.656                    23343864.559
        37.500          21.300
                  85773732.555 6  20615780.422                    20615780.492
                        41.600
 114694942.456 8  89372694.72646  21825722.414                    21825728.129
        49.300          38.700
 116512385.026 7  90789053.98946  22171570.250                    22171575.496
        46.800          37.600
                  91394548.484 6  21951306.805                    21951309.750
                        40.800
 112549281.665 7  87700922.63946  21417416.211                    21417417.902
        46.700          37.100
 18  3 15 14  8  7.0000000  0 17R01R02G25G12R12R10R11G14R20G17G22G01
                                R19G24G32R03G19
                  97851842.313 5  23535268.648                    23535272.242
                        32.200
                  85515807.853 6  20604376.977                    20604379.852
                        40.200
 128528301.324 6 100152056.95442  24458148.578                    24458155.953
        36.900          16.300
 112735968.004 8  87846095.91746  21452912.641                    21452914.648
        50.400          36.600
                                  22934417.039

                  84663935.376 6  20420665.766                    20420669.227
                        39.000
                  82627577.164 6  19880518.188                    19880519.672
                        41.900
 121652673.043 7  94794198.55544  23149714.133                    23149717.559
        43.400          28.200
                  87523596.292 6  21043737.930                    21043740.781
                        41.800
 116153051.105 8  90508909.26146  22103202.875                    22103206.035
        50.100          36.600
 123691450.729 7  96382925.36144  23537696.422                    23537697.570
        43.700          29.100
 122675530.655 5  95591411.27543  23344392.164                    23344399.617
        34.500          20.100
                  85775434.179 6  20616189.773                    20616189.918
                        41.300
 114697573.639 8  89374744.99246  21826223.398                    21826229.402
        49.300          37.600
 116512298.924 7  90788986.91046  22171553.758                    22171559.043
        47.000          37.600
                  91392398.496 6  21950791.141                    21950793.422
                        39.600
 112549219.726 7  87700874.35646  21417404.703                    21417405.500
        46.700          37.700
 18  3 15 14  8  8.0000000  0 17R01R02G25G12R12R10R11G14R20G17G22G01
                                R19G24G32R03G19
                  97855618.844 5  23536176.266                    23536180.355
                        31.800
                  85516867.378 6  20604632.523                    20604635.176
                        40.600
 128524728.797 6 100149273.15242  24457469.125                    24457476.113
        39.500          16.300
 112733992.405 8  87844556.47646  21452534.734                    21452538.609
        49.200          36.400
                                  22933677.055

                  84666430.844 6  20421266.852                    20421271.133
                        39.200
                  82626551.875 6  19880271.039                    19880272.965
                        41.900
 121650795.107 7  94792735.23744  23149356.969                    23149360.219
        42.900          27.400
                  87521625.471 7  21043264.289                    21043267.512
                        42.000
 116154442.907 8  90509993.77946  22103467.508                    22103470.750
        50.300          37.100
 123690511.136 7  96382193.19944  23537517.555                    23537518.852
        44.100          28.900
 122678341.856 5  95593601.83542  23344926.148                    23344934.488
        33.300          17.800
                  85777136.495 6  20616598.430                    20616598.809
                        41.400
 114700205.388 8  89376795.70246  21826723.734                    21826730.008
        49.200          37.700
 116512213.550 7  90788920.38746  22171537.484                    22171542.996
        46.000          37.200
                  91390249.005 6  21950274.859                    21950276.953
                        39.700
 112549158.561 7  87700826.68646  21417392.711                    21417394.172
        46.400          37.000
 18  3 15 14  8  9.0000000  0 17R01R02G25G12R12R10R11G14R20G17G22G01
                                R19G24G32R03G19
                  97859395.625 5  23537084.078                    23537088.711
                        34.300
                  85517927.626 6  20604888.313                    20604890.453
                        40.900
 128521156.477 6 100146489.47243  24456789.719                    24456796.367
        38.900          18.600
 112732017.379 8  87843017.50246  21452159.617                    21452162.535
        50.200          37.200
                                  22932936.820

                  84668926.826 6  20421869.094                    20421872.980
                        39.100
                  82625527.228 6  19880024.227                    19880026.742
                        41.700
 121648917.699 7  94791272.32344  23148999.141                    23149002.781
        42.700          28.800
                  87519655.246 6  21042789.953                    21042793.340
                        41.600
 116155835.334 8  90511078.78146  22103732.250                    22103735.691
        49.900          37.200
 123689572.100 7  96381461.46544  23537338.875                    23537340.160
        44.700          28.900
 122681153.706 5  95595792.90642  23345461.961                    23345469.621
        31.900          16.900
                  85778839.474 6  20617008.070                    20617007.488
                        41.100
 114702837.667 8  89378846.82946  21827225.719                    21827230.922
        49.600          38.100
 116512128.852 7  90788854.37746  22171520.633                    22171526.602
        47.000          37.700
                  91388100.046 6  21949758.516                    21949760.480
                        39.900
 112549098.192 7  87700779.63946  21417381.359                    21417382.707
        46.400          36.900
 18  3 15 14  8 10.0000000  0 17R01R02G25G12R12R10R11G14R20G17G22G01
                                R19G24G32R03G19
                  97863172.560 5  23537992.234                    23537996.785
                        30.100
                  85518988.670 6  20605144.234                    20605146.500
                        40.800
 128517584.439 6 100143706.06543  24456110.313                    24456116.578
        39.800          18.300
 112730043.017 8  87841479.04546  21451784.992                    21451786.598
        50.500          36.800
                                  22932198.477

                  84671423.359 6  20422471.461                    20422475.699
                        38.900
                  82624503.193 6  19879778.250                    19879779.633
                        41.800
 121647040.856 7  94789809.83644  23148641.758                    23148645.398
        42.000          26.700
                  87517685.579 7  21042316.508                    21042319.633
                        42.100
 116157228.412 8  90512164.29846  22103997.609                    22104000.875
        49.500          37.100
 123688633.735 7  96380730.23444  23537160.633                    23537161.867
        44.500          28.500
 122683966.073 5  95597984.38042  23345996.391                    23346004.457
        30.500          16.300
                  85780543.153 6  20617416.992                    20617417.570
                        41.300
 114705470.565 8  89380898.44046  21827725.578                    21827731.750
        49.400          38.200
 116512044.910 7  90788788.97346  22171504.883                    22171510.742
        45.800          37.000
                  91385951.668 6  21949243.188                    21949244.625
                        40.400
 112549038.666 7  87700733.24246  21417370.102                    21417371.273
        47.300          37.700
 18  3 15 14  8 11.0000000  0 17R01R02G25G12R12R10R11G14R20G17G22G01
                                R19G24G32R03G19
                  97866949.810 4  23538901.820                    23538905.426
                        29.000
                  85520050.490 6  20605399.578                    20605402.414
                        40.900
 128514012.668 6 100140922.83742  24455430.188                    24455437.172
        40.200          17.400
 112728069.235 8  87839941.04146  21451407.484                    21451411.309
        48.800          36.300
                                  22931458.891

                  84673920.422 6  20423072.813                    20423077.586
                        39.100
                  82623479.798 6  19879532.234                    19879533.910
                        41.500
 121645164.523 7  94788347.76444  23148284.867                    23148288.738
        43.300          28.700
                  87515716.510 6  21041843.125                    21041846.527
                        41.800
 116158622.141 8  90513250.31946  22104262.383                    22104266.238
        49.700          36.900
 123687695.947 7  96379999.46144  23536982.117                    23536983.352
        44.100          28.900
 122686779.106 5  95600176.34042  23346532.070                    23346540.113
        31.500          16.300
                  85782247.504 6  20617826.719                    20617827.480
                        41.500
 114708104.028 8  89382950.49146  21828227.344                    21828232.648
        49.600          38.400
 116511961.704 7  90788724.13446  22171488.461                    22171494.516
        46.100          37.200
                  91383803.777 6  21948727.469                    21948728.551
                        40.400
 112548979.907 7  87700687.44746  21417358.789                    21417360.688
        46.100          36.400
 18  3 15 14  8 12.0000000  0 17R01R02G25G12R12R10R11G14R20G17G22G01
                                R19G24G32R03G19
                  97870727.202 5  23539810.617                    23539814.293
                        30.000
                  85521113.040 6  20605656.875                    20605658.309
                        41.000
 128510441.013 6 100138139.64042  24454750.242                    24454757.508
        39.200          17.400
 112726096.021 8  87838403.47046  21451033.047                    21451035.316
        49.100          36.800
                                  22930717.930

                  84676418.021 6  20423676.922                    20423679.633
                        38.500
                  82622457.028 6  19879286.398                    19879287.809
                        41.600
 121643288.753 7  94786886.12344  23147928.102                    23147931.727
        43.300          28.300
                  87513748.014 6  21041370.078                    21041372.977
                        41.200
 116160016.505 8  90514336.84246  22104527.523                    22104531.770
        49.900          37.300
 123686758.850 7  96379269.23644  23536803.320                    23536804.949
        43.100          26.400
 122689592.798 5  95602368.76642  23347068.398                    23347075.250
        32.600          17.400
                  85783952.555 6  20618237.016                    20618237.047
                        41.200
 114710738.073 8  89385002.98946  21828728.320                    21828734.117
        49.200          38.500
 116511879.211 7  90788659.85846  22171472.703                    22171479.098
        45.400          36.200
                  91381656.403 6  21948212.250                    21948213.707
                        39.700
 112548921.953 7  87700642.27946  21417347.984                    21417348.969
        46.300          37.100
 18  3 15 14  8 13.0000000  0 17R01R02G25G12R12R10R11G14R20G17G22G01
                                R19G24G32R03G19
                  97874504.785 4  23540718.289                    23540722.574
                        29.600
                  85522176.275 6  20605912.141                    20605914.703
                        40.200
 128506869.549 6 100135356.60842  24454071.484                    24454077.836
        40.500          15.600
 112724123.387 8  87836866.34645  21450657.836                    21450660.648
        49.300          35.700
                                  22929977.539

                  84678916.104 6  20424278.641                    20424282.824
                        38.500
                  82621434.840 6  19879040.492                    19879042.008
                        41.200
 121641413.438 6  94785424.83644  23147571.063                    23147574.680
        40.500          26.500
                  87511780.076 6  21040897.211                    21040899.875
                        40.900
 116161411.442 8  90515423.80446  22104793.289                    22104797.176
        50.200          37.400
 123685822.399 7  96378539.55144  23536625.547                    23536626.660
        42.900          26.100
 122692406.916 6  95604561.53843  23347603.883                    23347610.707
        37.700          19.000
                  85785658.238 6  20618647.063                    20618646.770
                        40.500
 114713372.603 8  89387055.86746  21829229.273                    21829235.797
        48.600          37.300
 116511797.368 7  90788596.07845  22171457.625                    22171463.086
        45.200          34.700
                  91379509.517 6  21947695.781                    21947697.551
                        40.400
 112548864.744 7  87700597.69246  21417337.195                    21417338.441
        46.500          37.300
 18  3 15 14  8 14.0000000  0 17R01R02G25G12R12R10R11G14R20G17G22G01
                                R19G24G32R03G19
                  97878282.553 4  23541626.352                    23541631.348
                        29.900
                  85523240.248 6  20606167.953                    20606170.410
                        40.500
 128503298.249 6 100132573.82942  24453391.289                    24453398.266
        39.900          16.300
 112722151.334 8  87835329.67646  21450280.695                    21450284.957
        48.500          36.300
                                  22929240.305

                  84681414.725 6  20424881.492                    20424885.039
                        39.300
                  82620413.263 7  19878794.219                    19878795.945
                        42.300
 121639538.616 6  94783963.91744  23147214.094                    23147218.090
        41.700          26.200
                  87509812.705 6  21040422.969                    21040427.223
                        41.700
 116162807.027 8  90516511.28046  22105058.992                    22105062.742
        50.200          37.000
 123684886.452 7  96377810.26944  23536447.109                    23536448.918
        43.800          27.100
 122695221.585 6  95606754.79544  23348139.477                    23348146.422
        38.900          24.000
                  85787364.630 6  20619056.969                    20619057.613
                        41.200
 114716007.764 8  89389109.23746  21829731.906                    21829736.977
        49.500          37.900
 116511716.290 7  90788532.89445  22171442.133                    22171448.453
        45.200          35.400
                  91377363.153 6  21947179.500                    21947181.387
                        41.200
 112548808.309 7  87700553.70046  21417326.133                    21417327.902
        47.000          37.600
 18  3 15 14  8 15.0000000  0 17R01R02G25G12R12R10R11G14R20G17G22G01
                                R19G24G32R03G19
                  97882060.508 4  23542535.219                    23542539.742
                        29.300
                  85524304.937 6  20606424.383                    20606426.734
                        40.500
 128499727.145 6 100129791.18142  24452711.648                    24452718.570
        40.300          16.900
 112720179.886 8  87833793.48346  21449907.602                    21449909.461
        49.000          36.100
                                  22928499.836

                  84683913.858 6  20425484.703                    20425487.668
                        39.000
                  82619392.318 7  19878548.688                    19878550.023
                        42.100
 121637664.322 6  94782503.44344  23146858.273                    23146861.277
        39.300          25.600
                  87507845.930 6  21039950.422                    21039954.059
                        41.500
 116164203.224 8  90517599.23046  22105324.531                    22105328.348
        50.000          36.800
 123683951.061 7  96377081.38844  23536269.406                    23536270.750
        44.100          26.400
 122698036.758 5  95608948.42343  23348675.375                    23348682.109
        30.300          21.100
                  85789071.723 6  20619467.906                    20619467.313
                        41.300
 114718643.468 8  89391163.03646  21830231.875                    21830238.578
        48.900          38.300
 116511635.898 7  90788470.24445  22171426.945                    22171432.758
        45.100          35.800
                  91375217.294 6  21946664.383                    21946665.953
                        37.400
 112548752.679 7  87700510.33546  21417315.742                    21417317.215
        47.000          37.900
 18  3 15 14  8 16.0000000  0 17R01R02G25G12R12R10R11G14R20G17G22G01
                                R19G24G32R03G19
                  97885838.738 4  23543444.625                    23543449.109
                        28.300
                  85525370.377 6  20606681.633                    20606684.102
                        40.900
 128496156.294 6 100127008.75042  24452032.430                    24452039.203
        40.900          16.900
 112718209.002 8  87832257.72246  21449532.117                    21449535.027
        49.100          36.400
                                  22927760.711

                  84686413.476 6  20426087.070                    20426091.465
                        38.600
                  82618371.940 7  19878303.164                    19878305.340
                        42.400
 121635790.586 6  94781043.41944  23146501.523                    23146505.285
        41.400          26.800
                  87505879.735 6  21039479.273                    21039481.367
                        41.500
 116165600.060 8  90518687.67446  22105590.516                    22105594.281
        50.200          36.700
 123683016.388 7  96376353.04444  23536091.586                    23536092.824
        44.600          29.300
 122700852.590 6  95611142.60443  23349210.914                    23349218.148
        36.800          21.100
                  85790779.500 6  20619877.984                    20619877.754
                        40.900
 114721279.726 8  89393217.26346  21830734.797                    21830740.121
        49.300          38.600
 116511556.224 7  90788408.15546  22171411.938                    22171417.207
        45.600          36.600
                  91373072.006 6  21946149.563                    21946150.953
                        40.500
 112548697.794 7  87700467.55146  21417305.219                    21417306.613
        47.000          38.100
 18  3 15 14  8 17.0000000  0 17R01R02G25G12R12R10R11G14R20G17G22G01
                                R19G24G32R03G19
                  97889617.264 4  23544352.648                    23544357.625
                        26.200
                  85526436.615 6  20606938.258                    20606940.238
                        41.100
 128492585.771 6 100124226.55042  24451352.742                    24451359.699
        40.800          16.300
 112716238.730 8  87830722.44546  21449156.305                    21449159.691
        49.100          37.000
                                  22927020.656

                  84688913.653 6  20426689.445                    20426693.605
                        39.200
                  82617352.213 6  19878057.320                    19878059.457
                        41.800
 121633917.318 7  94779583.73344  23146145.422                    23146148.375
        43.600          29.500
                  87503914.131 6  21039005.961                    21039008.922
                        41.300
 116166997.561 8  90519776.63846  22105856.531                    22105860.297
        49.700          36.500
 123682082.288 7  96375625.16644  23535913.375                    23535914.949
        43.700          29.100
 122703669.022 6  95613337.23744  23349747.414                    23349754.223
        41.600          28.000
                  85792488.022 6  20620288.773                    20620288.977
                        41.400
 114723916.543 8  89395271.92346  21831236.508                    21831242.277
        49.500          38.600
 116511477.292 7  90788346.64645  22171396.797                    22171402.762
        46.400          35.800
                  91370927.223 6  21945634.094                    21945635.699
                        41.400
 112548643.751 7  87700425.43046  21417295.188                    21417296.750
        46.400          37.900
 18  3 15 14  8 18.0000000  0 15R02G25G12R10R11G14R20G17G22G01R19G24
                                G32R03G19
                  85527503.590 6  20607195.234                    20607197.703
                        41.100
 128489015.122 7 100121444.16742  24450672.672                    24450680.277
        44.600          17.400
 112714269.062 8  87829187.65146  21448782.703                    21448785.105
        49.300          36.600
                  84691414.329 6  20427293.625                    20427297.109
                        38.900
                  82616333.122 6  19877812.414                    19877813.852
                        41.700
 121632044.502 7  94778124.36445  23145788.906                    23145791.660
        45.000          30.100
                  87501949.113 6  21038532.281                    21038536.609
                        41.500
 116168395.683 8  90520866.08345  22106122.547                    22106126.148
        49.900          35.900
 123681148.788 7  96374897.75344  23535735.594                    23535737.340
        42.900          27.400
 122706486.052 7  95615532.29045  23350282.844                    23350290.305
        42.700          30.700
                  85794197.193 6  20620699.109                    20620698.871
                        41.200
 114726553.940 8  89397327.03646  21831737.992                    21831743.883
        49.600          39.000
 116511399.097 7  90788285.70545  22171381.844                    22171387.961
        45.200          35.100
                  91368782.937 7  21945119.492                    21945120.422
                        42.800
 112548590.499 7  87700383.92746  21417284.656                    21417286.238
        46.500          38.000
 18  3 15 14  8 19.0000000  0 15R02G25G12R10R11G14R20G17G22G01R19G24
                                G32R03G19
                  85528571.273 6  20607453.586                    20607454.727
                        41.900
 128485444.827 7 100118662.06643  24449993.750                    24450000.781
        45.300          22.600
 112712299.974 8  87827653.30746  21448406.836                    21448410.551
        49.300          37.100
                  84693915.526 6  20427895.867                    20427899.992
                        39.300
                  82615314.646 6  19877567.688                    19877568.805
                        41.900
 121630172.242 7  94776665.45944  23145432.086                    23145435.559
        44.700          29.100
                  87499984.671 6  21038061.133                    21038063.969
                        41.900
 116169794.396 8  90521955.99346  22106388.586                    22106392.340
        49.900          36.300
 123680215.836 7  96374170.77644  23535558.539                    23535559.824
        43.000          28.900
 122709303.615 7  95617727.73245  23350818.844                    23350825.898
        42.800          32.100
                  85795907.020 6  20621109.867                    20621110.730
                        41.000
 114729191.852 8  89399382.55046  21832240.828                    21832246.141
        50.200          39.000
 116511321.564 7  90788225.28146  22171366.859                    22171373.594
        45.500          36.100
                  91366639.155 7  21944604.609                    21944606.176
                        43.100
 112548538.006 7  87700343.00646  21417274.953                    21417276.355
        46.600          37.900
 18  3 15 14  8 20.0000000  0 16R01R02G25G12R10R11G14R20G17G22G01R19
                                G24G32R03G19
                  97900953.56415  23547079.336                    23547083.762
                        32.200
                  85529639.694 6  20607710.445                    20607712.020
                        41.600
 128481874.733 7 100115880.14344  24449314.250                    24449321.551
        44.600          25.600
 112710331.459 8  87826119.40746  21448032.508                    21448035.801
        49.400          36.200
                  84696417.238 6  20428500.117                    20428503.344
                        39.200
                  82614296.777 7  19877322.086                    19877324.336
                        42.500
 121628300.536 7  94775206.98544  23145076.367                    23145079.395
        44.100          27.300
                  87498020.778 6  21037589.180                    21037591.566
                        41.800
 116171193.738 8  90523046.40546  22106654.727                    22106658.695
        50.000          36.900
