% program   : RTKPOST ver.2.4.2
% inp file  : Z:\home\linda\Documents\Spring18\GitHub_Unis\data\processed_data\46250701.obs
% inp file  : Z:\home\linda\Documents\Spring18\GitHub_Unis\data\base_station_data\lyrs0700.18o
% inp file  : Z:\home\linda\Documents\Spring18\GitHub_Unis\data\processed_data\46250701.nav
% obs start : 2018/03/11 10:48:49.0 GPST (week1992  38929.0s)
% obs end   : 2018/03/11 11:09:39.0 GPST (week1992  40179.0s)
% pos mode  : static
% freqs     : L1+L2
% solution  : forward
% elev mask : 15.0 deg
% dynamics  : off
% tidecorr  : off
% ionos opt : off
% tropo opt : off
% ephemeris : broadcast
% navi sys  : gps glonass galileo qzss sbas
% amb res   : off
% amb glo   : off
% val thres : 3.0
% antenna1  :                       ( 0.0000  0.0000  0.0000)
% antenna2  :                       ( 0.0000  0.0000  0.0000)
% ref pos   : 90.000000000    0.000000000 -6335367.6285
%
% (lat/lon/height=WGS84/ellipsoidal,Q=1:fix,2:float,3:sbas,4:dgps,5:single,6:ppp,ns=# of satellites)
%  GPST                  latitude(deg) longitude(deg)  height(m)   Q  ns   sdn(m)   sde(m)   sdu(m)  sdne(m)  sdeu(m)  sdun(m) age(s)  ratio
2018/03/11 10:48:49.000   78.254762476   16.249384210   341.3904   5   9  30.0000  30.0000  30.0000  -0.0000  -0.0000  -0.0000   0.00    0.0
2018/03/11 10:48:50.000   78.254762476   16.249384210   341.3904   5   9  30.0000  30.0000  30.0000  -0.0000  -0.0000  -0.0000   0.00    0.0
2018/03/11 10:48:51.000   78.254762476   16.249384210   341.3904   5   9  30.0000  30.0000  30.0000  -0.0000  -0.0000  -0.0000   0.00    0.0
2018/03/11 10:48:52.000   78.254762476   16.249384210   341.3904   5   9  30.0000  30.0000  30.0000  -0.0000  -0.0000  -0.0000   0.00    0.0
2018/03/11 10:48:53.000   78.254762476   16.249384210   341.3904   5   9  30.0000  30.0000  30.0000  -0.0000  -0.0000  -0.0000   0.00    0.0
2018/03/11 10:48:54.000   78.254762476   16.249384210   341.3904   5   9  30.0000  30.0000  30.0000  -0.0000  -0.0000  -0.0000   0.00    0.0
2018/03/11 10:48:55.000   78.254762476   16.249384210   341.3904   5   9  30.0000  30.0000  30.0000  -0.0000  -0.0000  -0.0000   0.00    0.0
2018/03/11 10:48:56.000   78.254762476   16.249384210   341.3904   5   9  30.0000  30.0000  30.0000  -0.0000  -0.0000  -0.0000   0.00    0.0
2018/03/11 10:48:57.000   78.254762476   16.249384210   341.3904   5   9  30.0000  30.0000  30.0000  -0.0000  -0.0000  -0.0000   0.00    0.0
2018/03/11 10:48:58.000   78.254762476   16.249384210   341.3904   5   9  30.0000  30.0000  30.0000  -0.0000  -0.0000  -0.0000   0.00    0.0
2018/03/11 10:48:59.000   78.254762476   16.249384210   341.3904   5   9  30.0000  30.0000  30.0000  -0.0000  -0.0000  -0.0000   0.00    0.0
2018/03/11 10:49:00.000   78.254762476   16.249384210   341.3904   5   9  30.0000  30.0000  30.0000  -0.0000  -0.0000  -0.0000   0.00    0.0
2018/03/11 10:49:01.000   78.254762476   16.249384210   341.3904   5   9  30.0000  30.0000  30.0000  -0.0000  -0.0000  -0.0000   0.00    0.0
2018/03/11 10:49:02.000   78.254762476   16.249384210   341.3904   5   9  30.0000  30.0000  30.0000  -0.0000  -0.0000  -0.0000   0.00    0.0
2018/03/11 10:49:03.000   78.254762476   16.249384210   341.3904   5   9  30.0000  30.0000  30.0000  -0.0000  -0.0000  -0.0000   0.00    0.0
2018/03/11 10:49:04.000   78.254762476   16.249384210   341.3904   5   9  30.0000  30.0000  30.0000  -0.0000  -0.0000  -0.0000   0.00    0.0
2018/03/11 10:49:05.000   78.254762476   16.249384210   341.3904   5   9  30.0000  30.0000  30.0000  -0.0000  -0.0000  -0.0000   0.00    0.0
2018/03/11 10:49:06.000   78.254762476   16.249384210   341.3904   5   9  30.0000  30.0000  30.0000  -0.0000  -0.0000  -0.0000   0.00    0.0
2018/03/11 10:49:07.000   78.254762476   16.249384210   341.3904   5   9  30.0000  30.0000  30.0000  -0.0000  -0.0000  -0.0000   0.00    0.0
2018/03/11 10:49:08.000   78.254762476   16.249384210   341.3904   5   9  30.0000  30.0000  30.0000  -0.0000  -0.0000  -0.0000   0.00    0.0
2018/03/11 10:49:09.000   78.254762476   16.249384210   341.3904   5   9  30.0000  30.0000  30.0000  -0.0000  -0.0000  -0.0000   0.00    0.0
2018/03/11 10:49:10.000   78.254762476   16.249384210   341.3904   5   9  30.0000  30.0000  30.0000  -0.0000  -0.0000  -0.0000   0.00    0.0
2018/03/11 10:49:11.000   78.254762476   16.249384210   341.3904   5   9  30.0000  30.0000  30.0000  -0.0000  -0.0000  -0.0000   0.00    0.0
2018/03/11 10:49:12.000   78.254762476   16.249384210   341.3904   5   9  30.0000  30.0000  30.0000  -0.0000  -0.0000  -0.0000   0.00    0.0
2018/03/11 10:49:13.000   78.254762476   16.249384210   341.3904   5   9  30.0000  30.0000  30.0000  -0.0000  -0.0000  -0.0000   0.00    0.0
2018/03/11 10:49:14.000   78.254762476   16.249384210   341.3904   5   9  30.0000  30.0000  30.0000  -0.0000  -0.0000  -0.0000   0.00    0.0
2018/03/11 10:49:15.000   78.254762476   16.249384210   341.3904   5   9  30.0000  30.0000  30.0000  -0.0000  -0.0000  -0.0000   0.00    0.0
2018/03/11 10:49:16.000   78.254762476   16.249384210   341.3904   5   9  30.0000  30.0000  30.0000  -0.0000  -0.0000  -0.0000   0.00    0.0
2018/03/11 10:49:17.000   78.254762476   16.249384210   341.3904   5   9  30.0000  30.0000  30.0000  -0.0000  -0.0000  -0.0000   0.00    0.0
2018/03/11 10:49:18.000   78.254762476   16.249384210   341.3904   5   9  30.0000  30.0000  30.0000  -0.0000  -0.0000  -0.0000   0.00    0.0
2018/03/11 10:49:19.000   78.254762476   16.249384210   341.3904   5   9  30.0000  30.0000  30.0000  -0.0000  -0.0000  -0.0000   0.00    0.0
2018/03/11 10:49:20.000   78.254762476   16.249384210   341.3904   5   9  30.0000  30.0000  30.0000  -0.0000  -0.0000  -0.0000   0.00    0.0
2018/03/11 10:49:21.000   78.254762476   16.249384210   341.3904   5   9  30.0000  30.0000  30.0000  -0.0000  -0.0000  -0.0000   0.00    0.0
2018/03/11 10:49:22.000   78.254762476   16.249384210   341.3904   5   9  30.0000  30.0000  30.0000  -0.0000  -0.0000  -0.0000   0.00    0.0
2018/03/11 10:49:23.000   78.254762476   16.249384210   341.3904   5   9  30.0000  30.0000  30.0000  -0.0000  -0.0000  -0.0000   0.00    0.0
2018/03/11 10:49:24.000   78.254762476   16.249384210   341.3904   5   9  30.0000  30.0000  30.0000  -0.0000  -0.0000  -0.0000   0.00    0.0
2018/03/11 10:49:25.000   78.254762476   16.249384210   341.3904   5   9  30.0000  30.0000  30.0000  -0.0000  -0.0000  -0.0000   0.00    0.0
2018/03/11 10:49:26.000   78.254762476   16.249384210   341.3904   5   9  30.0000  30.0000  30.0000  -0.0000  -0.0000  -0.0000   0.00    0.0
2018/03/11 10:49:27.000   78.254762476   16.249384210   341.3904   5   9  30.0000  30.0000  30.0000  -0.0000  -0.0000  -0.0000   0.00    0.0
2018/03/11 10:49:28.000   78.254762476   16.249384210   341.3904   5   9  30.0000  30.0000  30.0000  -0.0000  -0.0000  -0.0000   0.00    0.0
2018/03/11 10:49:29.000   78.254762476   16.249384210   341.3904   5   9  30.0000  30.0000  30.0000  -0.0000  -0.0000  -0.0000   0.00    0.0
2018/03/11 10:49:30.000   78.254762476   16.249384210   341.3904   5   9  30.0000  30.0000  30.0000  -0.0000  -0.0000  -0.0000   0.00    0.0
2018/03/11 10:49:31.000   78.254762476   16.249384210   341.3904   5   9  30.0000  30.0000  30.0000  -0.0000  -0.0000  -0.0000   0.00    0.0
2018/03/11 10:49:32.000   78.254762476   16.249384210   341.3904   5   9  30.0000  30.0000  30.0000  -0.0000  -0.0000  -0.0000   0.00    0.0
2018/03/11 10:49:33.000   78.254762476   16.249384210   341.3904   5   9  30.0000  30.0000  30.0000  -0.0000  -0.0000  -0.0000   0.00    0.0
2018/03/11 10:49:34.000   78.254762476   16.249384210   341.3904   5   9  30.0000  30.0000  30.0000  -0.0000  -0.0000  -0.0000   0.00    0.0
2018/03/11 10:49:35.000   78.254762476   16.249384210   341.3904   5   9  30.0000  30.0000  30.0000  -0.0000  -0.0000  -0.0000   0.00    0.0
2018/03/11 10:49:36.000   78.254762476   16.249384210   341.3904   5   9  30.0000  30.0000  30.0000  -0.0000  -0.0000  -0.0000   0.00    0.0
2018/03/11 10:49:37.000   78.254762476   16.249384210   341.3904   5   9  30.0000  30.0000  30.0000  -0.0000  -0.0000  -0.0000   0.00    0.0
2018/03/11 10:49:38.000   78.254762476   16.249384210   341.3904   5   9  30.0000  30.0000  30.0000  -0.0000  -0.0000  -0.0000   0.00    0.0
2018/03/11 10:49:39.000   78.254762476   16.249384210   341.3904   5   9  30.0000  30.0000  30.0000  -0.0000  -0.0000  -0.0000   0.00    0.0
2018/03/11 10:49:40.000   78.254762476   16.249384210   341.3904   5   9  30.0000  30.0000  30.0000  -0.0000  -0.0000  -0.0000   0.00    0.0
2018/03/11 10:49:41.000   78.254762476   16.249384210   341.3904   5   9  30.0000  30.0000  30.0000  -0.0000  -0.0000  -0.0000   0.00    0.0
2018/03/11 10:49:42.000   78.254762476   16.249384210   341.3904   5   9  30.0000  30.0000  30.0000  -0.0000  -0.0000  -0.0000   0.00    0.0
2018/03/11 10:49:43.000   78.254762476   16.249384210   341.3904   5   9  30.0000  30.0000  30.0000  -0.0000  -0.0000  -0.0000   0.00    0.0
2018/03/11 10:49:44.000   78.254762476   16.249384210   341.3904   5   9  30.0000  30.0000  30.0000  -0.0000  -0.0000  -0.0000   0.00    0.0
2018/03/11 10:49:45.000   78.254762476   16.249384210   341.3904   5   9  30.0000  30.0000  30.0000  -0.0000  -0.0000  -0.0000   0.00    0.0
2018/03/11 10:49:46.000   78.254762476   16.249384210   341.3904   5   9  30.0000  30.0000  30.0000  -0.0000  -0.0000  -0.0000   0.00    0.0
2018/03/11 10:49:47.000   78.254762476   16.249384210   341.3904   5   9  30.0000  30.0000  30.0000  -0.0000  -0.0000  -0.0000   0.00    0.0
2018/03/11 10:49:48.000   78.254762476   16.249384210   341.3904   5   9  30.0000  30.0000  30.0000  -0.0000  -0.0000  -0.0000   0.00    0.0
2018/03/11 10:49:49.000   78.254762476   16.249384210   341.3904   5   9  30.0000  30.0000  30.0000  -0.0000  -0.0000  -0.0000   0.00    0.0
2018/03/11 10:49:50.000   78.254762476   16.249384210   341.3904   5   9  30.0000  30.0000  30.0000  -0.0000  -0.0000  -0.0000   0.00    0.0
2018/03/11 10:49:51.000   78.254762476   16.249384210   341.3904   5   9  30.0000  30.0000  30.0000  -0.0000  -0.0000  -0.0000   0.00    0.0
2018/03/11 10:49:52.000   78.254762476   16.249384210   341.3904   5   9  30.0000  30.0000  30.0000  -0.0000  -0.0000  -0.0000   0.00    0.0
2018/03/11 10:49:53.000   78.254762476   16.249384210   341.3904   5   9  30.0000  30.0000  30.0000  -0.0000  -0.0000  -0.0000   0.00    0.0
2018/03/11 10:49:54.000   78.254762476   16.249384210   341.3904   5   9  30.0000  30.0000  30.0000  -0.0000  -0.0000  -0.0000   0.00    0.0
2018/03/11 10:54:13.000   78.254762476   16.249384210   341.3904   5   9  30.0000  30.0000  30.0000  -0.0000  -0.0000  -0.0000   0.00    0.0
2018/03/11 10:54:14.000   78.254762476   16.249384210   341.3904   5   9  30.0000  30.0000  30.0000  -0.0000  -0.0000  -0.0000   0.00    0.0
2018/03/11 10:54:15.000   78.254762476   16.249384210   341.3904   5   9  30.0000  30.0000  30.0000  -0.0000  -0.0000  -0.0000   0.00    0.0
2018/03/11 10:54:16.000   78.254762476   16.249384210   341.3904   5   9  30.0000  30.0000  30.0000  -0.0000  -0.0000  -0.0000   0.00    0.0
2018/03/11 10:54:17.000   78.254762476   16.249384210   341.3904   5   9  30.0000  30.0000  30.0000  -0.0000  -0.0000  -0.0000   0.00    0.0
2018/03/11 10:54:18.000   78.254762476   16.249384210   341.3904   5   9  30.0000  30.0000  30.0000  -0.0000  -0.0000  -0.0000   0.00    0.0
2018/03/11 10:54:19.000   78.254762476   16.249384210   341.3904   5   9  30.0000  30.0000  30.0000  -0.0000  -0.0000  -0.0000   0.00    0.0
2018/03/11 10:54:20.000   78.254762476   16.249384210   341.3904   5   9  30.0000  30.0000  30.0000  -0.0000  -0.0000  -0.0000   0.00    0.0
2018/03/11 10:54:21.000   78.254762476   16.249384210   341.3904   5   9  30.0000  30.0000  30.0000  -0.0000  -0.0000  -0.0000   0.00    0.0
2018/03/11 10:54:22.000   78.254762476   16.249384210   341.3904   5   9  30.0000  30.0000  30.0000  -0.0000  -0.0000  -0.0000   0.00    0.0
2018/03/11 10:54:23.000   78.254762476   16.249384210   341.3904   5   9  30.0000  30.0000  30.0000  -0.0000  -0.0000  -0.0000   0.00    0.0
2018/03/11 10:54:24.000   78.254762476   16.249384210   341.3904   5   9  30.0000  30.0000  30.0000  -0.0000  -0.0000  -0.0000   0.00    0.0
2018/03/11 10:54:25.000   78.254762476   16.249384210   341.3904   5   9  30.0000  30.0000  30.0000  -0.0000  -0.0000  -0.0000   0.00    0.0
2018/03/11 10:54:26.000   78.254762476   16.249384210   341.3904   5   9  30.0000  30.0000  30.0000  -0.0000  -0.0000  -0.0000   0.00    0.0
2018/03/11 10:54:27.000   78.254762476   16.249384210   341.3904   5   9  30.0000  30.0000  30.0000  -0.0000  -0.0000  -0.0000   0.00    0.0
2018/03/11 10:54:28.000   78.254762476   16.249384210   341.3904   5   9  30.0000  30.0000  30.0000  -0.0000  -0.0000  -0.0000   0.00    0.0
2018/03/11 10:54:29.000   78.254762476   16.249384210   341.3904   5   9  30.0000  30.0000  30.0000  -0.0000  -0.0000  -0.0000   0.00    0.0
2018/03/11 10:54:30.000   78.254762476   16.249384210   341.3904   5   9  30.0000  30.0000  30.0000  -0.0000  -0.0000  -0.0000   0.00    0.0
2018/03/11 10:54:31.000   78.254762476   16.249384210   341.3904   5   9  30.0000  30.0000  30.0000  -0.0000  -0.0000  -0.0000   0.00    0.0
2018/03/11 10:54:32.000   78.254762476   16.249384210   341.3904   5   9  30.0000  30.0000  30.0000  -0.0000  -0.0000  -0.0000   0.00    0.0
2018/03/11 10:54:33.000   78.254762476   16.249384210   341.3904   5   9  30.0000  30.0000  30.0000  -0.0000  -0.0000  -0.0000   0.00    0.0
2018/03/11 10:54:34.000   78.254762476   16.249384210   341.3904   5   9  30.0000  30.0000  30.0000  -0.0000  -0.0000  -0.0000   0.00    0.0
2018/03/11 10:54:35.000   78.254762476   16.249384210   341.3904   5   9  30.0000  30.0000  30.0000  -0.0000  -0.0000  -0.0000   0.00    0.0
2018/03/11 10:54:36.000   78.254762476   16.249384210   341.3904   5   9  30.0000  30.0000  30.0000  -0.0000  -0.0000  -0.0000   0.00    0.0
2018/03/11 10:54:37.000   78.254762476   16.249384210   341.3904   5   9  30.0000  30.0000  30.0000  -0.0000  -0.0000  -0.0000   0.00    0.0
2018/03/11 10:54:38.000   78.254762476   16.249384210   341.3904   5   9  30.0000  30.0000  30.0000  -0.0000  -0.0000  -0.0000   0.00    0.0
2018/03/11 10:54:39.000   78.254762476   16.249384210   341.3904   5   8  30.0000  30.0000  30.0000  -0.0000  -0.0000  -0.0000   0.00    0.0
2018/03/11 10:54:40.000   78.254762476   16.249384210   341.3904   5   8  30.0000  30.0000  30.0000  -0.0000  -0.0000  -0.0000   0.00    0.0
2018/03/11 10:54:41.000   78.254762476   16.249384210   341.3904   5   8  30.0000  30.0000  30.0000  -0.0000  -0.0000  -0.0000   0.00    0.0
2018/03/11 10:54:42.000   78.254762476   16.249384210   341.3904   5   8  30.0000  30.0000  30.0000  -0.0000  -0.0000  -0.0000   0.00    0.0
2018/03/11 10:54:43.000   78.254762476   16.249384210   341.3904   5   8  30.0000  30.0000  30.0000  -0.0000  -0.0000  -0.0000   0.00    0.0
2018/03/11 10:54:44.000   78.254762476   16.249384210   341.3904   5   8  30.0000  30.0000  30.0000  -0.0000  -0.0000  -0.0000   0.00    0.0
2018/03/11 10:54:45.000   78.254762476   16.249384210   341.3904   5   8  30.0000  30.0000  30.0000  -0.0000  -0.0000  -0.0000   0.00    0.0
2018/03/11 10:54:46.000   78.254762476   16.249384210   341.3904   5   8  30.0000  30.0000  30.0000  -0.0000  -0.0000  -0.0000   0.00    0.0
2018/03/11 10:54:47.000   78.254762476   16.249384210   341.3904   5   8  30.0000  30.0000  30.0000  -0.0000  -0.0000  -0.0000   0.00    0.0
2018/03/11 10:54:48.000   78.254762476   16.249384210   341.3904   5   8  30.0000  30.0000  30.0000  -0.0000  -0.0000  -0.0000   0.00    0.0
2018/03/11 10:54:49.000   78.254762476   16.249384210   341.3904   5   8  30.0000  30.0000  30.0000  -0.0000  -0.0000  -0.0000   0.00    0.0
2018/03/11 10:54:50.000   78.254762476   16.249384210   341.3904   5   8  30.0000  30.0000  30.0000  -0.0000  -0.0000  -0.0000   0.00    0.0
2018/03/11 10:54:51.000   78.254762476   16.249384210   341.3904   5   8  30.0000  30.0000  30.0000  -0.0000  -0.0000  -0.0000   0.00    0.0
2018/03/11 10:54:52.000   78.254762476   16.249384210   341.3904   5   8  30.0000  30.0000  30.0000  -0.0000  -0.0000  -0.0000   0.00    0.0
2018/03/11 10:54:53.000   78.254762476   16.249384210   341.3904   5   8  30.0000  30.0000  30.0000  -0.0000  -0.0000  -0.0000   0.00    0.0
2018/03/11 10:54:54.000   78.254762476   16.249384210   341.3904   5   8  30.0000  30.0000  30.0000  -0.0000  -0.0000  -0.0000   0.00    0.0
2018/03/11 10:54:55.000   78.254762476   16.249384210   341.3904   5   8  30.0000  30.0000  30.0000  -0.0000  -0.0000  -0.0000   0.00    0.0
2018/03/11 10:54:56.000   78.254762476   16.249384210   341.3904   5   8  30.0000  30.0000  30.0000  -0.0000  -0.0000  -0.0000   0.00    0.0
2018/03/11 10:54:57.000   78.254762476   16.249384210   341.3904   5   8  30.0000  30.0000  30.0000  -0.0000  -0.0000  -0.0000   0.00    0.0
2018/03/11 10:54:58.000   78.254762476   16.249384210   341.3904   5   8  30.0000  30.0000  30.0000  -0.0000  -0.0000  -0.0000   0.00    0.0
2018/03/11 10:54:59.000   78.254762476   16.249384210   341.3904   5   8  30.0000  30.0000  30.0000  -0.0000  -0.0000  -0.0000   0.00    0.0
2018/03/11 10:55:00.000   78.254762476   16.249384210   341.3904   5   8  30.0000  30.0000  30.0000  -0.0000  -0.0000  -0.0000   0.00    0.0
2018/03/11 10:55:01.000   78.254762476   16.249384210   341.3904   5   8  30.0000  30.0000  30.0000  -0.0000  -0.0000  -0.0000   0.00    0.0
2018/03/11 10:55:02.000   78.254762476   16.249384210   341.3904   5   8  30.0000  30.0000  30.0000  -0.0000  -0.0000  -0.0000   0.00    0.0
2018/03/11 10:55:03.000   78.254762476   16.249384210   341.3904   5   8  30.0000  30.0000  30.0000  -0.0000  -0.0000  -0.0000   0.00    0.0
2018/03/11 10:55:04.000   78.254762476   16.249384210   341.3904   5   8  30.0000  30.0000  30.0000  -0.0000  -0.0000  -0.0000   0.00    0.0
2018/03/11 10:55:05.000   78.254762476   16.249384210   341.3904   5   8  30.0000  30.0000  30.0000  -0.0000  -0.0000  -0.0000   0.00    0.0
2018/03/11 10:55:06.000   78.254762476   16.249384210   341.3904   5   8  30.0000  30.0000  30.0000  -0.0000  -0.0000  -0.0000   0.00    0.0
2018/03/11 10:55:07.000   78.254762476   16.249384210   341.3904   5   8  30.0000  30.0000  30.0000  -0.0000  -0.0000  -0.0000   0.00    0.0
2018/03/11 10:55:08.000   78.254762476   16.249384210   341.3904   5   8  30.0000  30.0000  30.0000  -0.0000  -0.0000  -0.0000   0.00    0.0
2018/03/11 10:55:09.000   78.254762476   16.249384210   341.3904   5   8  30.0000  30.0000  30.0000  -0.0000  -0.0000  -0.0000   0.00    0.0
2018/03/11 10:55:10.000   78.254762476   16.249384210   341.3904   5   8  30.0000  30.0000  30.0000  -0.0000  -0.0000  -0.0000   0.00    0.0
2018/03/11 10:55:11.000   78.254762476   16.249384210   341.3904   5   8  30.0000  30.0000  30.0000  -0.0000  -0.0000  -0.0000   0.00    0.0
2018/03/11 10:55:12.000   78.254762476   16.249384210   341.3904   5   8  30.0000  30.0000  30.0000  -0.0000  -0.0000  -0.0000   0.00    0.0
2018/03/11 10:55:13.000   78.254762476   16.249384210   341.3904   5   8  30.0000  30.0000  30.0000  -0.0000  -0.0000  -0.0000   0.00    0.0
2018/03/11 10:55:14.000   78.254762476   16.249384210   341.3904   5   8  30.0000  30.0000  30.0000  -0.0000  -0.0000  -0.0000   0.00    0.0
2018/03/11 10:55:15.000   78.254762476   16.249384210   341.3904   5   8  30.0000  30.0000  30.0000  -0.0000  -0.0000  -0.0000   0.00    0.0
2018/03/11 10:55:16.000   78.254762476   16.249384210   341.3904   5   8  30.0000  30.0000  30.0000  -0.0000  -0.0000  -0.0000   0.00    0.0
2018/03/11 10:55:17.000   78.254762476   16.249384210   341.3904   5   8  30.0000  30.0000  30.0000  -0.0000  -0.0000  -0.0000   0.00    0.0
2018/03/11 10:55:18.000   78.254762476   16.249384210   341.3904   5   8  30.0000  30.0000  30.0000  -0.0000  -0.0000  -0.0000   0.00    0.0
2018/03/11 10:55:19.000   78.254762476   16.249384210   341.3904   5   8  30.0000  30.0000  30.0000  -0.0000  -0.0000  -0.0000   0.00    0.0
2018/03/11 10:55:20.000   78.254762476   16.249384210   341.3904   5   8  30.0000  30.0000  30.0000  -0.0000  -0.0000  -0.0000   0.00    0.0
2018/03/11 10:55:21.000   78.254762476   16.249384210   341.3904   5   8  30.0000  30.0000  30.0000  -0.0000  -0.0000  -0.0000   0.00    0.0
2018/03/11 10:55:22.000   78.254762476   16.249384210   341.3904   5   8  30.0000  30.0000  30.0000  -0.0000  -0.0000  -0.0000   0.00    0.0
2018/03/11 10:55:23.000   78.254762476   16.249384210   341.3904   5   8  30.0000  30.0000  30.0000  -0.0000  -0.0000  -0.0000   0.00    0.0
2018/03/11 10:55:24.000   78.254762476   16.249384210   341.3904   5   8  30.0000  30.0000  30.0000  -0.0000  -0.0000  -0.0000   0.00    0.0
2018/03/11 10:55:25.000   78.254762476   16.249384210   341.3904   5   8  30.0000  30.0000  30.0000  -0.0000  -0.0000  -0.0000   0.00    0.0
2018/03/11 10:55:26.000   78.254762476   16.249384210   341.3904   5   8  30.0000  30.0000  30.0000  -0.0000  -0.0000  -0.0000   0.00    0.0
2018/03/11 10:55:27.000   78.254762476   16.249384210   341.3904   5   8  30.0000  30.0000  30.0000  -0.0000  -0.0000  -0.0000   0.00    0.0
2018/03/11 10:55:28.000   78.254762476   16.249384210   341.3904   5   8  30.0000  30.0000  30.0000  -0.0000  -0.0000  -0.0000   0.00    0.0
2018/03/11 10:55:29.000   78.254762476   16.249384210   341.3904   5   8  30.0000  30.0000  30.0000  -0.0000  -0.0000  -0.0000   0.00    0.0
2018/03/11 10:55:30.000   78.254762476   16.249384210   341.3904   5   8  30.0000  30.0000  30.0000  -0.0000  -0.0000  -0.0000   0.00    0.0
2018/03/11 10:55:31.000   78.254762476   16.249384210   341.3904   5   8  30.0000  30.0000  30.0000  -0.0000  -0.0000  -0.0000   0.00    0.0
2018/03/11 10:55:32.000   78.254762476   16.249384210   341.3904   5   8  30.0000  30.0000  30.0000  -0.0000  -0.0000  -0.0000   0.00    0.0
2018/03/11 10:55:33.000   78.254762476   16.249384210   341.3904   5   8  30.0000  30.0000  30.0000  -0.0000  -0.0000  -0.0000   0.00    0.0
2018/03/11 10:55:34.000   78.254762476   16.249384210   341.3904   5   8  30.0000  30.0000  30.0000  -0.0000  -0.0000  -0.0000   0.00    0.0
2018/03/11 10:55:35.000   78.254762476   16.249384210   341.3904   5   8  30.0000  30.0000  30.0000  -0.0000  -0.0000  -0.0000   0.00    0.0
2018/03/11 10:55:36.000   78.254762476   16.249384210   341.3904   5   8  30.0000  30.0000  30.0000  -0.0000  -0.0000  -0.0000   0.00    0.0
2018/03/11 10:55:37.000   78.254762476   16.249384210   341.3904   5   8  30.0000  30.0000  30.0000  -0.0000  -0.0000  -0.0000   0.00    0.0
2018/03/11 10:55:38.000   78.254762476   16.249384210   341.3904   5   8  30.0000  30.0000  30.0000  -0.0000  -0.0000  -0.0000   0.00    0.0
2018/03/11 10:55:39.000   78.254762476   16.249384210   341.3904   5   8  30.0000  30.0000  30.0000  -0.0000  -0.0000  -0.0000   0.00    0.0
2018/03/11 10:55:40.000   78.254762476   16.249384210   341.3904   5   8  30.0000  30.0000  30.0000  -0.0000  -0.0000  -0.0000   0.00    0.0
2018/03/11 10:55:41.000   78.254762476   16.249384210   341.3904   5   8  30.0000  30.0000  30.0000  -0.0000  -0.0000  -0.0000   0.00    0.0
2018/03/11 10:55:42.000   78.254762476   16.249384210   341.3904   5   8  30.0000  30.0000  30.0000  -0.0000  -0.0000  -0.0000   0.00    0.0
2018/03/11 10:55:43.000   78.254762476   16.249384210   341.3904   5   8  30.0000  30.0000  30.0000  -0.0000  -0.0000  -0.0000   0.00    0.0
2018/03/11 10:55:44.000   78.254762476   16.249384210   341.3904   5   8  30.0000  30.0000  30.0000  -0.0000  -0.0000  -0.0000   0.00    0.0
2018/03/11 10:55:45.000   78.254762476   16.249384210   341.3904   5   8  30.0000  30.0000  30.0000  -0.0000  -0.0000  -0.0000   0.00    0.0
2018/03/11 10:55:46.000   78.254762476   16.249384210   341.3904   5   8  30.0000  30.0000  30.0000  -0.0000  -0.0000  -0.0000   0.00    0.0
2018/03/11 10:55:47.000   78.254762476   16.249384210   341.3904   5   8  30.0000  30.0000  30.0000  -0.0000  -0.0000  -0.0000   0.00    0.0
2018/03/11 10:55:48.000   78.254762476   16.249384210   341.3904   5   8  30.0000  30.0000  30.0000  -0.0000  -0.0000  -0.0000   0.00    0.0
2018/03/11 10:55:49.000   78.254762476   16.249384210   341.3904   5   8  30.0000  30.0000  30.0000  -0.0000  -0.0000  -0.0000   0.00    0.0
2018/03/11 10:55:50.000   78.254762476   16.249384210   341.3904   5   8  30.0000  30.0000  30.0000  -0.0000  -0.0000  -0.0000   0.00    0.0
2018/03/11 10:55:51.000   78.254762476   16.249384210   341.3904   5   8  30.0000  30.0000  30.0000  -0.0000  -0.0000  -0.0000   0.00    0.0
2018/03/11 10:55:52.000   78.254762476   16.249384210   341.3904   5   8  30.0000  30.0000  30.0000  -0.0000  -0.0000  -0.0000   0.00    0.0
2018/03/11 10:55:53.000   78.254762476   16.249384210   341.3904   5   8  30.0000  30.0000  30.0000  -0.0000  -0.0000  -0.0000   0.00    0.0
2018/03/11 10:55:54.000   78.254762476   16.249384210   341.3904   5   8  30.0000  30.0000  30.0000  -0.0000  -0.0000  -0.0000   0.00    0.0
2018/03/11 10:55:55.000   78.254762476   16.249384210   341.3904   5   8  30.0000  30.0000  30.0000  -0.0000  -0.0000  -0.0000   0.00    0.0
2018/03/11 10:55:56.000   78.254762476   16.249384210   341.3904   5   8  30.0000  30.0000  30.0000  -0.0000  -0.0000  -0.0000   0.00    0.0
2018/03/11 10:55:57.000   78.254762476   16.249384210   341.3904   5   8  30.0000  30.0000  30.0000  -0.0000  -0.0000  -0.0000   0.00    0.0
2018/03/11 10:55:58.000   78.254762476   16.249384210   341.3904   5   8  30.0000  30.0000  30.0000  -0.0000  -0.0000  -0.0000   0.00    0.0
2018/03/11 10:55:59.000   78.254762476   16.249384210   341.3904   5   8  30.0000  30.0000  30.0000  -0.0000  -0.0000  -0.0000   0.00    0.0
2018/03/11 10:56:00.000   78.254762476   16.249384210   341.3904   5   8  30.0000  30.0000  30.0000  -0.0000  -0.0000  -0.0000   0.00    0.0
2018/03/11 10:56:01.000   78.254762476   16.249384210   341.3904   5   8  30.0000  30.0000  30.0000  -0.0000  -0.0000  -0.0000   0.00    0.0
2018/03/11 10:56:02.000   78.254762476   16.249384210   341.3904   5   8  30.0000  30.0000  30.0000  -0.0000  -0.0000  -0.0000   0.00    0.0
2018/03/11 10:56:03.000   78.254762476   16.249384210   341.3904   5   8  30.0000  30.0000  30.0000  -0.0000  -0.0000  -0.0000   0.00    0.0
2018/03/11 10:56:04.000   78.254762476   16.249384210   341.3904   5   8  30.0000  30.0000  30.0000  -0.0000  -0.0000  -0.0000   0.00    0.0
2018/03/11 10:56:05.000   78.254762476   16.249384210   341.3904   5   8  30.0000  30.0000  30.0000  -0.0000  -0.0000  -0.0000   0.00    0.0
2018/03/11 10:56:06.000   78.254762476   16.249384210   341.3904   5   8  30.0000  30.0000  30.0000  -0.0000  -0.0000  -0.0000   0.00    0.0
2018/03/11 10:56:07.000   78.254762476   16.249384210   341.3904   5   8  30.0000  30.0000  30.0000  -0.0000  -0.0000  -0.0000   0.00    0.0
2018/03/11 10:56:08.000   78.254762476   16.249384210   341.3904   5   8  30.0000  30.0000  30.0000  -0.0000  -0.0000  -0.0000   0.00    0.0
2018/03/11 10:56:09.000   78.254762476   16.249384210   341.3904   5   8  30.0000  30.0000  30.0000  -0.0000  -0.0000  -0.0000   0.00    0.0
2018/03/11 10:56:10.000   78.254762476   16.249384210   341.3904   5   8  30.0000  30.0000  30.0000  -0.0000  -0.0000  -0.0000   0.00    0.0
2018/03/11 10:56:11.000   78.254762476   16.249384210   341.3904   5   8  30.0000  30.0000  30.0000  -0.0000  -0.0000  -0.0000   0.00    0.0
2018/03/11 10:56:12.000   78.254762476   16.249384210   341.3904   5   8  30.0000  30.0000  30.0000  -0.0000  -0.0000  -0.0000   0.00    0.0
2018/03/11 10:56:13.000   78.254762476   16.249384210   341.3904   5   8  30.0000  30.0000  30.0000  -0.0000  -0.0000  -0.0000   0.00    0.0
2018/03/11 10:56:14.000   78.254762476   16.249384210   341.3904   5   8  30.0000  30.0000  30.0000  -0.0000  -0.0000  -0.0000   0.00    0.0
2018/03/11 10:56:15.000   78.254762476   16.249384210   341.3904   5   8  30.0000  30.0000  30.0000  -0.0000  -0.0000  -0.0000   0.00    0.0
2018/03/11 10:56:16.000   78.254762476   16.249384210   341.3904   5   8  30.0000  30.0000  30.0000  -0.0000  -0.0000  -0.0000   0.00    0.0
2018/03/11 10:56:17.000   78.254762476   16.249384210   341.3904   5   8  30.0000  30.0000  30.0000  -0.0000  -0.0000  -0.0000   0.00    0.0
2018/03/11 10:56:18.000   78.254762476   16.249384210   341.3904   5   8  30.0000  30.0000  30.0000  -0.0000  -0.0000  -0.0000   0.00    0.0
2018/03/11 10:56:19.000   78.254762476   16.249384210   341.3904   5   8  30.0000  30.0000  30.0000  -0.0000  -0.0000  -0.0000   0.00    0.0
2018/03/11 10:56:20.000   78.254762476   16.249384210   341.3904   5   8  30.0000  30.0000  30.0000  -0.0000  -0.0000  -0.0000   0.00    0.0
2018/03/11 10:56:21.000   78.254762476   16.249384210   341.3904   5   8  30.0000  30.0000  30.0000  -0.0000  -0.0000  -0.0000   0.00    0.0
2018/03/11 10:56:22.000   78.254762476   16.249384210   341.3904   5   8  30.0000  30.0000  30.0000  -0.0000  -0.0000  -0.0000   0.00    0.0
2018/03/11 10:56:23.000   78.254762476   16.249384210   341.3904   5   8  30.0000  30.0000  30.0000  -0.0000  -0.0000  -0.0000   0.00    0.0
2018/03/11 10:56:24.000   78.254762476   16.249384210   341.3904   5   8  30.0000  30.0000  30.0000  -0.0000  -0.0000  -0.0000   0.00    0.0
2018/03/11 10:56:25.000   78.254762476   16.249384210   341.3904   5   8  30.0000  30.0000  30.0000  -0.0000  -0.0000  -0.0000   0.00    0.0
2018/03/11 10:56:26.000   78.254762476   16.249384210   341.3904   5   8  30.0000  30.0000  30.0000  -0.0000  -0.0000  -0.0000   0.00    0.0
2018/03/11 10:56:27.000   78.254762476   16.249384210   341.3904   5   8  30.0000  30.0000  30.0000  -0.0000  -0.0000  -0.0000   0.00    0.0
2018/03/11 10:56:28.000   78.254762476   16.249384210   341.3904   5   8  30.0000  30.0000  30.0000  -0.0000  -0.0000  -0.0000   0.00    0.0
2018/03/11 10:56:29.000   78.254762476   16.249384210   341.3904   5   8  30.0000  30.0000  30.0000  -0.0000  -0.0000  -0.0000   0.00    0.0
2018/03/11 10:56:30.000   78.254762476   16.249384210   341.3904   5   8  30.0000  30.0000  30.0000  -0.0000  -0.0000  -0.0000   0.00    0.0
2018/03/11 10:56:31.000   78.254762476   16.249384210   341.3904   5   8  30.0000  30.0000  30.0000  -0.0000  -0.0000  -0.0000   0.00    0.0
2018/03/11 10:56:32.000   78.254762476   16.249384210   341.3904   5   8  30.0000  30.0000  30.0000  -0.0000  -0.0000  -0.0000   0.00    0.0
2018/03/11 10:56:33.000   78.254762476   16.249384210   341.3904   5   8  30.0000  30.0000  30.0000  -0.0000  -0.0000  -0.0000   0.00    0.0
2018/03/11 10:56:34.000   78.254762476   16.249384210   341.3904   5   8  30.0000  30.0000  30.0000  -0.0000  -0.0000  -0.0000   0.00    0.0
2018/03/11 10:56:35.000   78.254762476   16.249384210   341.3904   5   8  30.0000  30.0000  30.0000  -0.0000  -0.0000  -0.0000   0.00    0.0
2018/03/11 10:56:36.000   78.254762476   16.249384210   341.3904   5   8  30.0000  30.0000  30.0000  -0.0000  -0.0000  -0.0000   0.00    0.0
2018/03/11 10:56:37.000   78.254762476   16.249384210   341.3904   5   8  30.0000  30.0000  30.0000  -0.0000  -0.0000  -0.0000   0.00    0.0
2018/03/11 10:56:38.000   78.254762476   16.249384210   341.3904   5   8  30.0000  30.0000  30.0000  -0.0000  -0.0000  -0.0000   0.00    0.0
2018/03/11 10:56:39.000   78.254762476   16.249384210   341.3904   5   8  30.0000  30.0000  30.0000  -0.0000  -0.0000  -0.0000   0.00    0.0
2018/03/11 10:56:40.000   78.254762476   16.249384210   341.3904   5   8  30.0000  30.0000  30.0000  -0.0000  -0.0000  -0.0000   0.00    0.0
2018/03/11 10:56:41.000   78.254762476   16.249384210   341.3904   5   8  30.0000  30.0000  30.0000  -0.0000  -0.0000  -0.0000   0.00    0.0
2018/03/11 10:56:42.000   78.254762476   16.249384210   341.3904   5   8  30.0000  30.0000  30.0000  -0.0000  -0.0000  -0.0000   0.00    0.0
2018/03/11 10:56:43.000   78.254762476   16.249384210   341.3904   5   8  30.0000  30.0000  30.0000  -0.0000  -0.0000  -0.0000   0.00    0.0
2018/03/11 10:56:44.000   78.254762476   16.249384210   341.3904   5   8  30.0000  30.0000  30.0000  -0.0000  -0.0000  -0.0000   0.00    0.0
2018/03/11 10:56:45.000   78.254762476   16.249384210   341.3904   5   8  30.0000  30.0000  30.0000  -0.0000  -0.0000  -0.0000   0.00    0.0
2018/03/11 10:56:46.000   78.254762476   16.249384210   341.3904   5   8  30.0000  30.0000  30.0000  -0.0000  -0.0000  -0.0000   0.00    0.0
2018/03/11 10:56:47.000   78.254762476   16.249384210   341.3904   5   8  30.0000  30.0000  30.0000  -0.0000  -0.0000  -0.0000   0.00    0.0
2018/03/11 10:56:48.000   78.254762476   16.249384210   341.3904   5   8  30.0000  30.0000  30.0000  -0.0000  -0.0000  -0.0000   0.00    0.0
2018/03/11 10:56:49.000   78.254762476   16.249384210   341.3904   5   8  30.0000  30.0000  30.0000  -0.0000  -0.0000  -0.0000   0.00    0.0
2018/03/11 10:56:50.000   78.254762476   16.249384210   341.3904   5   8  30.0000  30.0000  30.0000  -0.0000  -0.0000  -0.0000   0.00    0.0
2018/03/11 10:56:51.000   78.254762476   16.249384210   341.3904   5   8  30.0000  30.0000  30.0000  -0.0000  -0.0000  -0.0000   0.00    0.0
2018/03/11 10:56:52.000   78.254762476   16.249384210   341.3904   5   8  30.0000  30.0000  30.0000  -0.0000  -0.0000  -0.0000   0.00    0.0
2018/03/11 10:56:53.000   78.254762476   16.249384210   341.3904   5   8  30.0000  30.0000  30.0000  -0.0000  -0.0000  -0.0000   0.00    0.0
2018/03/11 10:56:54.000   78.254762476   16.249384210   341.3904   5   8  30.0000  30.0000  30.0000  -0.0000  -0.0000  -0.0000   0.00    0.0
2018/03/11 10:56:55.000   78.254762476   16.249384210   341.3904   5   8  30.0000  30.0000  30.0000  -0.0000  -0.0000  -0.0000   0.00    0.0
2018/03/11 10:56:56.000   78.254762476   16.249384210   341.3904   5   8  30.0000  30.0000  30.0000  -0.0000  -0.0000  -0.0000   0.00    0.0
2018/03/11 10:56:57.000   78.254762476   16.249384210   341.3904   5   8  30.0000  30.0000  30.0000  -0.0000  -0.0000  -0.0000   0.00    0.0
2018/03/11 10:56:58.000   78.254762476   16.249384210   341.3904   5   8  30.0000  30.0000  30.0000  -0.0000  -0.0000  -0.0000   0.00    0.0
2018/03/11 10:56:59.000   78.254762476   16.249384210   341.3904   5   8  30.0000  30.0000  30.0000  -0.0000  -0.0000  -0.0000   0.00    0.0
2018/03/11 10:57:00.000   78.254762476   16.249384210   341.3904   5   8  30.0000  30.0000  30.0000  -0.0000  -0.0000  -0.0000   0.00    0.0
2018/03/11 10:57:01.000   78.254762476   16.249384210   341.3904   5   8  30.0000  30.0000  30.0000  -0.0000  -0.0000  -0.0000   0.00    0.0
2018/03/11 10:57:02.000   78.254762476   16.249384210   341.3904   5   8  30.0000  30.0000  30.0000  -0.0000  -0.0000  -0.0000   0.00    0.0
2018/03/11 10:57:03.000   78.254762476   16.249384210   341.3904   5   8  30.0000  30.0000  30.0000  -0.0000  -0.0000  -0.0000   0.00    0.0
2018/03/11 10:57:04.000   78.254762476   16.249384210   341.3904   5   8  30.0000  30.0000  30.0000  -0.0000  -0.0000  -0.0000   0.00    0.0
2018/03/11 10:57:05.000   78.254762476   16.249384210   341.3904   5   8  30.0000  30.0000  30.0000  -0.0000  -0.0000  -0.0000   0.00    0.0
2018/03/11 10:57:06.000   78.254762476   16.249384210   341.3904   5   8  30.0000  30.0000  30.0000  -0.0000  -0.0000  -0.0000   0.00    0.0
2018/03/11 10:57:07.000   78.254762476   16.249384210   341.3904   5   8  30.0000  30.0000  30.0000  -0.0000  -0.0000  -0.0000   0.00    0.0
2018/03/11 10:57:08.000   78.254762476   16.249384210   341.3904   5   8  30.0000  30.0000  30.0000  -0.0000  -0.0000  -0.0000   0.00    0.0
2018/03/11 10:57:09.000   78.254762476   16.249384210   341.3904   5   8  30.0000  30.0000  30.0000  -0.0000  -0.0000  -0.0000   0.00    0.0
2018/03/11 10:57:10.000   78.254762476   16.249384210   341.3904   5   8  30.0000  30.0000  30.0000  -0.0000  -0.0000  -0.0000   0.00    0.0
2018/03/11 10:57:11.000   78.254762476   16.249384210   341.3904   5   8  30.0000  30.0000  30.0000  -0.0000  -0.0000  -0.0000   0.00    0.0
2018/03/11 10:57:12.000   78.254762476   16.249384210   341.3904   5   8  30.0000  30.0000  30.0000  -0.0000  -0.0000  -0.0000   0.00    0.0
2018/03/11 10:57:13.000   78.254762476   16.249384210   341.3904   5   8  30.0000  30.0000  30.0000  -0.0000  -0.0000  -0.0000   0.00    0.0
2018/03/11 10:57:14.000   78.254762476   16.249384210   341.3904   5   8  30.0000  30.0000  30.0000  -0.0000  -0.0000  -0.0000   0.00    0.0
2018/03/11 10:57:15.000   78.254762476   16.249384210   341.3904   5   8  30.0000  30.0000  30.0000  -0.0000  -0.0000  -0.0000   0.00    0.0
2018/03/11 10:57:16.000   78.254762476   16.249384210   341.3904   5   8  30.0000  30.0000  30.0000  -0.0000  -0.0000  -0.0000   0.00    0.0
2018/03/11 10:57:17.000   78.254762476   16.249384210   341.3904   5   8  30.0000  30.0000  30.0000  -0.0000  -0.0000  -0.0000   0.00    0.0
2018/03/11 10:57:18.000   78.254762476   16.249384210   341.3904   5   8  30.0000  30.0000  30.0000  -0.0000  -0.0000  -0.0000   0.00    0.0
2018/03/11 10:57:19.000   78.254762476   16.249384210   341.3904   5   8  30.0000  30.0000  30.0000  -0.0000  -0.0000  -0.0000   0.00    0.0
2018/03/11 10:57:20.000   78.254762476   16.249384210   341.3904   5   8  30.0000  30.0000  30.0000  -0.0000  -0.0000  -0.0000   0.00    0.0
2018/03/11 10:57:21.000   78.254762476   16.249384210   341.3904   5   8  30.0000  30.0000  30.0000  -0.0000  -0.0000  -0.0000   0.00    0.0
2018/03/11 10:57:22.000   78.254762476   16.249384210   341.3904   5   8  30.0000  30.0000  30.0000  -0.0000  -0.0000  -0.0000   0.00    0.0
2018/03/11 10:57:23.000   78.254762476   16.249384210   341.3904   5   8  30.0000  30.0000  30.0000  -0.0000  -0.0000  -0.0000   0.00    0.0
2018/03/11 10:57:24.000   78.254762476   16.249384210   341.3904   5   8  30.0000  30.0000  30.0000  -0.0000  -0.0000  -0.0000   0.00    0.0
2018/03/11 10:57:25.000   78.254762476   16.249384210   341.3904   5   8  30.0000  30.0000  30.0000  -0.0000  -0.0000  -0.0000   0.00    0.0
2018/03/11 10:57:26.000   78.254762476   16.249384210   341.3904   5   8  30.0000  30.0000  30.0000  -0.0000  -0.0000  -0.0000   0.00    0.0
2018/03/11 10:57:27.000   78.254762476   16.249384210   341.3904   5   8  30.0000  30.0000  30.0000  -0.0000  -0.0000  -0.0000   0.00    0.0
2018/03/11 10:57:28.000   78.254762476   16.249384210   341.3904   5   8  30.0000  30.0000  30.0000  -0.0000  -0.0000  -0.0000   0.00    0.0
2018/03/11 10:57:29.000   78.254762476   16.249384210   341.3904   5   8  30.0000  30.0000  30.0000  -0.0000  -0.0000  -0.0000   0.00    0.0
2018/03/11 10:57:30.000   78.254762476   16.249384210   341.3904   5   8  30.0000  30.0000  30.0000  -0.0000  -0.0000  -0.0000   0.00    0.0
2018/03/11 10:57:31.000   78.254762476   16.249384210   341.3904   5   8  30.0000  30.0000  30.0000  -0.0000  -0.0000  -0.0000   0.00    0.0
2018/03/11 10:57:32.000   78.254762476   16.249384210   341.3904   5   8  30.0000  30.0000  30.0000  -0.0000  -0.0000  -0.0000   0.00    0.0
2018/03/11 10:57:33.000   78.254762476   16.249384210   341.3904   5   8  30.0000  30.0000  30.0000  -0.0000  -0.0000  -0.0000   0.00    0.0
2018/03/11 10:57:34.000   78.254762476   16.249384210   341.3904   5   8  30.0000  30.0000  30.0000  -0.0000  -0.0000  -0.0000   0.00    0.0
2018/03/11 10:57:35.000   78.254762476   16.249384210   341.3904   5   8  30.0000  30.0000  30.0000  -0.0000  -0.0000  -0.0000   0.00    0.0
2018/03/11 10:57:36.000   78.254762476   16.249384210   341.3904   5   8  30.0000  30.0000  30.0000  -0.0000  -0.0000  -0.0000   0.00    0.0
2018/03/11 10:57:37.000   78.254762476   16.249384210   341.3904   5   8  30.0000  30.0000  30.0000  -0.0000  -0.0000  -0.0000   0.00    0.0
2018/03/11 10:57:38.000   78.254762476   16.249384210   341.3904   5   8  30.0000  30.0000  30.0000  -0.0000  -0.0000  -0.0000   0.00    0.0
2018/03/11 10:57:39.000   78.254762476   16.249384210   341.3904   5   8  30.0000  30.0000  30.0000  -0.0000  -0.0000  -0.0000   0.00    0.0
2018/03/11 10:57:40.000   78.254762476   16.249384210   341.3904   5   8  30.0000  30.0000  30.0000  -0.0000  -0.0000  -0.0000   0.00    0.0
2018/03/11 10:57:41.000   78.254762476   16.249384210   341.3904   5   8  30.0000  30.0000  30.0000  -0.0000  -0.0000  -0.0000   0.00    0.0
2018/03/11 10:57:42.000   78.254762476   16.249384210   341.3904   5   8  30.0000  30.0000  30.0000  -0.0000  -0.0000  -0.0000   0.00    0.0
2018/03/11 10:57:43.000   78.254762476   16.249384210   341.3904   5   8  30.0000  30.0000  30.0000  -0.0000  -0.0000  -0.0000   0.00    0.0
2018/03/11 10:57:44.000   78.254762476   16.249384210   341.3904   5   8  30.0000  30.0000  30.0000  -0.0000  -0.0000  -0.0000   0.00    0.0
2018/03/11 10:57:45.000   78.254762476   16.249384210   341.3904   5   8  30.0000  30.0000  30.0000  -0.0000  -0.0000  -0.0000   0.00    0.0
2018/03/11 10:57:46.000   78.254762476   16.249384210   341.3904   5   8  30.0000  30.0000  30.0000  -0.0000  -0.0000  -0.0000   0.00    0.0
2018/03/11 10:57:47.000   78.254762476   16.249384210   341.3904   5   8  30.0000  30.0000  30.0000  -0.0000  -0.0000  -0.0000   0.00    0.0
2018/03/11 10:57:48.000   78.254762476   16.249384210   341.3904   5   8  30.0000  30.0000  30.0000  -0.0000  -0.0000  -0.0000   0.00    0.0
2018/03/11 10:57:49.000   78.254762476   16.249384210   341.3904   5   8  30.0000  30.0000  30.0000  -0.0000  -0.0000  -0.0000   0.00    0.0
2018/03/11 10:57:50.000   78.254762476   16.249384210   341.3904   5   8  30.0000  30.0000  30.0000  -0.0000  -0.0000  -0.0000   0.00    0.0
2018/03/11 10:57:51.000   78.254762476   16.249384210   341.3904   5   8  30.0000  30.0000  30.0000  -0.0000  -0.0000  -0.0000   0.00    0.0
2018/03/11 10:57:52.000   78.254762476   16.249384210   341.3904   5   8  30.0000  30.0000  30.0000  -0.0000  -0.0000  -0.0000   0.00    0.0
2018/03/11 10:57:53.000   78.254762476   16.249384210   341.3904   5   8  30.0000  30.0000  30.0000  -0.0000  -0.0000  -0.0000   0.00    0.0
2018/03/11 10:57:54.000   78.254762476   16.249384210   341.3904   5   8  30.0000  30.0000  30.0000  -0.0000  -0.0000  -0.0000   0.00    0.0
2018/03/11 10:57:55.000   78.254762476   16.249384210   341.3904   5   8  30.0000  30.0000  30.0000  -0.0000  -0.0000  -0.0000   0.00    0.0
2018/03/11 10:57:56.000   78.254762476   16.249384210   341.3904   5   8  30.0000  30.0000  30.0000  -0.0000  -0.0000  -0.0000   0.00    0.0
2018/03/11 10:57:57.000   78.254762476   16.249384210   341.3904   5   8  30.0000  30.0000  30.0000  -0.0000  -0.0000  -0.0000   0.00    0.0
2018/03/11 10:57:58.000   78.254762476   16.249384210   341.3904   5   8  30.0000  30.0000  30.0000  -0.0000  -0.0000  -0.0000   0.00    0.0
2018/03/11 10:57:59.000   78.254762476   16.249384210   341.3904   5   8  30.0000  30.0000  30.0000  -0.0000  -0.0000  -0.0000   0.00    0.0
2018/03/11 10:58:00.000   78.254762476   16.249384210   341.3904   5   8  30.0000  30.0000  30.0000  -0.0000  -0.0000  -0.0000   0.00    0.0
2018/03/11 10:58:01.000   78.254762476   16.249384210   341.3904   5   8  30.0000  30.0000  30.0000  -0.0000  -0.0000  -0.0000   0.00    0.0
2018/03/11 10:58:02.000   78.254762476   16.249384210   341.3904   5   8  30.0000  30.0000  30.0000  -0.0000  -0.0000  -0.0000   0.00    0.0
2018/03/11 10:58:03.000   78.254762476   16.249384210   341.3904   5   8  30.0000  30.0000  30.0000  -0.0000  -0.0000  -0.0000   0.00    0.0
2018/03/11 10:58:04.000   78.254762476   16.249384210   341.3904   5   8  30.0000  30.0000  30.0000  -0.0000  -0.0000  -0.0000   0.00    0.0
2018/03/11 10:58:05.000   78.254762476   16.249384210   341.3904   5   8  30.0000  30.0000  30.0000  -0.0000  -0.0000  -0.0000   0.00    0.0
2018/03/11 10:58:06.000   78.254762476   16.249384210   341.3904   5   8  30.0000  30.0000  30.0000  -0.0000  -0.0000  -0.0000   0.00    0.0
2018/03/11 10:58:07.000   78.254762476   16.249384210   341.3904   5   8  30.0000  30.0000  30.0000  -0.0000  -0.0000  -0.0000   0.00    0.0
2018/03/11 10:58:08.000   78.254762476   16.249384210   341.3904   5   8  30.0000  30.0000  30.0000  -0.0000  -0.0000  -0.0000   0.00    0.0
2018/03/11 10:58:09.000   78.254762476   16.249384210   341.3904   5   8  30.0000  30.0000  30.0000  -0.0000  -0.0000  -0.0000   0.00    0.0
2018/03/11 10:58:10.000   78.254762476   16.249384210   341.3904   5   8  30.0000  30.0000  30.0000  -0.0000  -0.0000  -0.0000   0.00    0.0
2018/03/11 10:58:11.000   78.254762476   16.249384210   341.3904   5   8  30.0000  30.0000  30.0000  -0.0000  -0.0000  -0.0000   0.00    0.0
2018/03/11 10:58:12.000   78.254762476   16.249384210   341.3904   5   8  30.0000  30.0000  30.0000  -0.0000  -0.0000  -0.0000   0.00    0.0
2018/03/11 10:58:13.000   78.254762476   16.249384210   341.3904   5   8  30.0000  30.0000  30.0000  -0.0000  -0.0000  -0.0000   0.00    0.0
2018/03/11 10:58:14.000   78.254762476   16.249384210   341.3904   5   8  30.0000  30.0000  30.0000  -0.0000  -0.0000  -0.0000   0.00    0.0
2018/03/11 10:58:15.000   78.254762476   16.249384210   341.3904   5   8  30.0000  30.0000  30.0000  -0.0000  -0.0000  -0.0000   0.00    0.0
2018/03/11 10:58:16.000   78.254762476   16.249384210   341.3904   5   8  30.0000  30.0000  30.0000  -0.0000  -0.0000  -0.0000   0.00    0.0
2018/03/11 10:58:17.000   78.254762476   16.249384210   341.3904   5   8  30.0000  30.0000  30.0000  -0.0000  -0.0000  -0.0000   0.00    0.0
2018/03/11 10:58:18.000   78.254762476   16.249384210   341.3904   5   8  30.0000  30.0000  30.0000  -0.0000  -0.0000  -0.0000   0.00    0.0
2018/03/11 10:58:19.000   78.254762476   16.249384210   341.3904   5   8  30.0000  30.0000  30.0000  -0.0000  -0.0000  -0.0000   0.00    0.0
2018/03/11 10:58:20.000   78.254762476   16.249384210   341.3904   5   8  30.0000  30.0000  30.0000  -0.0000  -0.0000  -0.0000   0.00    0.0
2018/03/11 10:58:21.000   78.254762476   16.249384210   341.3904   5   8  30.0000  30.0000  30.0000  -0.0000  -0.0000  -0.0000   0.00    0.0
2018/03/11 10:58:22.000   78.254762476   16.249384210   341.3904   5   8  30.0000  30.0000  30.0000  -0.0000  -0.0000  -0.0000   0.00    0.0
2018/03/11 10:58:23.000   78.254762476   16.249384210   341.3904   5   8  30.0000  30.0000  30.0000  -0.0000  -0.0000  -0.0000   0.00    0.0
2018/03/11 10:58:24.000   78.254762476   16.249384210   341.3904   5   8  30.0000  30.0000  30.0000  -0.0000  -0.0000  -0.0000   0.00    0.0
2018/03/11 10:58:25.000   78.254762476   16.249384210   341.3904   5   8  30.0000  30.0000  30.0000  -0.0000  -0.0000  -0.0000   0.00    0.0
2018/03/11 10:58:26.000   78.254762476   16.249384210   341.3904   5   8  30.0000  30.0000  30.0000  -0.0000  -0.0000  -0.0000   0.00    0.0
2018/03/11 10:58:27.000   78.254762476   16.249384210   341.3904   5   8  30.0000  30.0000  30.0000  -0.0000  -0.0000  -0.0000   0.00    0.0
2018/03/11 10:58:28.000   78.254762476   16.249384210   341.3904   5   8  30.0000  30.0000  30.0000  -0.0000  -0.0000  -0.0000   0.00    0.0
2018/03/11 10:58:29.000   78.254762476   16.249384210   341.3904   5   8  30.0000  30.0000  30.0000  -0.0000  -0.0000  -0.0000   0.00    0.0
2018/03/11 10:58:30.000   78.254762476   16.249384210   341.3904   5   8  30.0000  30.0000  30.0000  -0.0000  -0.0000  -0.0000   0.00    0.0
2018/03/11 10:58:31.000   78.254762476   16.249384210   341.3904   5   8  30.0000  30.0000  30.0000  -0.0000  -0.0000  -0.0000   0.00    0.0
2018/03/11 10:58:32.000   78.254762476   16.249384210   341.3904   5   8  30.0000  30.0000  30.0000  -0.0000  -0.0000  -0.0000   0.00    0.0
2018/03/11 10:58:33.000   78.254762476   16.249384210   341.3904   5   8  30.0000  30.0000  30.0000  -0.0000  -0.0000  -0.0000   0.00    0.0
2018/03/11 10:58:34.000   78.254762476   16.249384210   341.3904   5   8  30.0000  30.0000  30.0000  -0.0000  -0.0000  -0.0000   0.00    0.0
2018/03/11 10:58:35.000   78.254762476   16.249384210   341.3904   5   8  30.0000  30.0000  30.0000  -0.0000  -0.0000  -0.0000   0.00    0.0
2018/03/11 10:58:36.000   78.254762476   16.249384210   341.3904   5   8  30.0000  30.0000  30.0000  -0.0000  -0.0000  -0.0000   0.00    0.0
2018/03/11 10:58:37.000   78.254762476   16.249384210   341.3904   5   8  30.0000  30.0000  30.0000  -0.0000  -0.0000  -0.0000   0.00    0.0
2018/03/11 10:58:38.000   78.254762476   16.249384210   341.3904   5   8  30.0000  30.0000  30.0000  -0.0000  -0.0000  -0.0000   0.00    0.0
2018/03/11 10:58:39.000   78.254762476   16.249384210   341.3904   5   8  30.0000  30.0000  30.0000  -0.0000  -0.0000  -0.0000   0.00    0.0
2018/03/11 10:58:40.000   78.254762476   16.249384210   341.3904   5   8  30.0000  30.0000  30.0000  -0.0000  -0.0000  -0.0000   0.00    0.0
2018/03/11 10:58:41.000   78.254762476   16.249384210   341.3904   5   8  30.0000  30.0000  30.0000  -0.0000  -0.0000  -0.0000   0.00    0.0
2018/03/11 10:58:42.000   78.254762476   16.249384210   341.3904   5   8  30.0000  30.0000  30.0000  -0.0000  -0.0000  -0.0000   0.00    0.0
2018/03/11 10:58:43.000   78.254762476   16.249384210   341.3904   5   8  30.0000  30.0000  30.0000  -0.0000  -0.0000  -0.0000   0.00    0.0
2018/03/11 10:58:44.000   78.254762476   16.249384210   341.3904   5   8  30.0000  30.0000  30.0000  -0.0000  -0.0000  -0.0000   0.00    0.0
2018/03/11 10:58:45.000   78.254762476   16.249384210   341.3904   5   8  30.0000  30.0000  30.0000  -0.0000  -0.0000  -0.0000   0.00    0.0
2018/03/11 10:58:46.000   78.254762476   16.249384210   341.3904   5   8  30.0000  30.0000  30.0000  -0.0000  -0.0000  -0.0000   0.00    0.0
2018/03/11 10:58:47.000   78.254762476   16.249384210   341.3904   5   8  30.0000  30.0000  30.0000  -0.0000  -0.0000  -0.0000   0.00    0.0
2018/03/11 10:58:48.000   78.254762476   16.249384210   341.3904   5   8  30.0000  30.0000  30.0000  -0.0000  -0.0000  -0.0000   0.00    0.0
2018/03/11 10:58:49.000   78.254762476   16.249384210   341.3904   5   8  30.0000  30.0000  30.0000  -0.0000  -0.0000  -0.0000   0.00    0.0
2018/03/11 10:58:50.000   78.254762476   16.249384210   341.3904   5   8  30.0000  30.0000  30.0000  -0.0000  -0.0000  -0.0000   0.00    0.0
2018/03/11 10:58:51.000   78.254762476   16.249384210   341.3904   5   8  30.0000  30.0000  30.0000  -0.0000  -0.0000  -0.0000   0.00    0.0
2018/03/11 10:58:52.000   78.254762476   16.249384210   341.3904   5   8  30.0000  30.0000  30.0000  -0.0000  -0.0000  -0.0000   0.00    0.0
2018/03/11 10:58:53.000   78.254762476   16.249384210   341.3904   5   8  30.0000  30.0000  30.0000  -0.0000  -0.0000  -0.0000   0.00    0.0
2018/03/11 10:58:54.000   78.254762476   16.249384210   341.3904   5   8  30.0000  30.0000  30.0000  -0.0000  -0.0000  -0.0000   0.00    0.0
2018/03/11 10:58:55.000   78.254762476   16.249384210   341.3904   5   8  30.0000  30.0000  30.0000  -0.0000  -0.0000  -0.0000   0.00    0.0
2018/03/11 10:58:56.000   78.254762476   16.249384210   341.3904   5   8  30.0000  30.0000  30.0000  -0.0000  -0.0000  -0.0000   0.00    0.0
2018/03/11 10:58:57.000   78.254762476   16.249384210   341.3904   5   8  30.0000  30.0000  30.0000  -0.0000  -0.0000  -0.0000   0.00    0.0
2018/03/11 10:58:58.000   78.254762476   16.249384210   341.3904   5   8  30.0000  30.0000  30.0000  -0.0000  -0.0000  -0.0000   0.00    0.0
2018/03/11 10:58:59.000   78.254762476   16.249384210   341.3904   5   8  30.0000  30.0000  30.0000  -0.0000  -0.0000  -0.0000   0.00    0.0
2018/03/11 10:59:00.000   78.254762476   16.249384210   341.3904   5   8  30.0000  30.0000  30.0000  -0.0000  -0.0000  -0.0000   0.00    0.0
2018/03/11 10:59:01.000   78.254762476   16.249384210   341.3904   5   8  30.0000  30.0000  30.0000  -0.0000  -0.0000  -0.0000   0.00    0.0
2018/03/11 10:59:02.000   78.254762476   16.249384210   341.3904   5   8  30.0000  30.0000  30.0000  -0.0000  -0.0000  -0.0000   0.00    0.0
2018/03/11 10:59:03.000   78.254762476   16.249384210   341.3904   5   8  30.0000  30.0000  30.0000  -0.0000  -0.0000  -0.0000   0.00    0.0
2018/03/11 10:59:04.000   78.254762476   16.249384210   341.3904   5   8  30.0000  30.0000  30.0000  -0.0000  -0.0000  -0.0000   0.00    0.0
2018/03/11 10:59:05.000   78.254762476   16.249384210   341.3904   5   8  30.0000  30.0000  30.0000  -0.0000  -0.0000  -0.0000   0.00    0.0
2018/03/11 10:59:06.000   78.254762476   16.249384210   341.3904   5   8  30.0000  30.0000  30.0000  -0.0000  -0.0000  -0.0000   0.00    0.0
2018/03/11 10:59:07.000   78.254762476   16.249384210   341.3904   5   8  30.0000  30.0000  30.0000  -0.0000  -0.0000  -0.0000   0.00    0.0
2018/03/11 10:59:08.000   78.254762476   16.249384210   341.3904   5   8  30.0000  30.0000  30.0000  -0.0000  -0.0000  -0.0000   0.00    0.0
2018/03/11 10:59:09.000   78.254762476   16.249384210   341.3904   5   8  30.0000  30.0000  30.0000  -0.0000  -0.0000  -0.0000   0.00    0.0
2018/03/11 10:59:10.000   78.254762476   16.249384210   341.3904   5   8  30.0000  30.0000  30.0000  -0.0000  -0.0000  -0.0000   0.00    0.0
2018/03/11 10:59:11.000   78.254762476   16.249384210   341.3904   5   8  30.0000  30.0000  30.0000  -0.0000  -0.0000  -0.0000   0.00    0.0
2018/03/11 10:59:12.000   78.254762476   16.249384210   341.3904   5   8  30.0000  30.0000  30.0000  -0.0000  -0.0000  -0.0000   0.00    0.0
2018/03/11 10:59:13.000   78.254762476   16.249384210   341.3904   5   8  30.0000  30.0000  30.0000  -0.0000  -0.0000  -0.0000   0.00    0.0
2018/03/11 10:59:14.000   78.254762476   16.249384210   341.3904   5   8  30.0000  30.0000  30.0000  -0.0000  -0.0000  -0.0000   0.00    0.0
2018/03/11 10:59:15.000   78.254762476   16.249384210   341.3904   5   8  30.0000  30.0000  30.0000  -0.0000  -0.0000  -0.0000   0.00    0.0
2018/03/11 10:59:16.000   78.254762476   16.249384210   341.3904   5   8  30.0000  30.0000  30.0000  -0.0000  -0.0000  -0.0000   0.00    0.0
2018/03/11 10:59:17.000   78.254762476   16.249384210   341.3904   5   8  30.0000  30.0000  30.0000  -0.0000  -0.0000  -0.0000   0.00    0.0
2018/03/11 10:59:18.000   78.254762476   16.249384210   341.3904   5   8  30.0000  30.0000  30.0000  -0.0000  -0.0000  -0.0000   0.00    0.0
2018/03/11 10:59:19.000   78.254762476   16.249384210   341.3904   5   8  30.0000  30.0000  30.0000  -0.0000  -0.0000  -0.0000   0.00    0.0
2018/03/11 10:59:20.000   78.254762476   16.249384210   341.3904   5   8  30.0000  30.0000  30.0000  -0.0000  -0.0000  -0.0000   0.00    0.0
2018/03/11 10:59:21.000   78.254762476   16.249384210   341.3904   5   8  30.0000  30.0000  30.0000  -0.0000  -0.0000  -0.0000   0.00    0.0
2018/03/11 10:59:22.000   78.254762476   16.249384210   341.3904   5   8  30.0000  30.0000  30.0000  -0.0000  -0.0000  -0.0000   0.00    0.0
2018/03/11 10:59:23.000   78.254762476   16.249384210   341.3904   5   8  30.0000  30.0000  30.0000  -0.0000  -0.0000  -0.0000   0.00    0.0
2018/03/11 10:59:24.000   78.254762476   16.249384210   341.3904   5   8  30.0000  30.0000  30.0000  -0.0000  -0.0000  -0.0000   0.00    0.0
2018/03/11 10:59:25.000   78.254762476   16.249384210   341.3904   5   8  30.0000  30.0000  30.0000  -0.0000  -0.0000  -0.0000   0.00    0.0
2018/03/11 10:59:26.000   78.254762476   16.249384210   341.3904   5   8  30.0000  30.0000  30.0000  -0.0000  -0.0000  -0.0000   0.00    0.0
2018/03/11 10:59:27.000   78.254762476   16.249384210   341.3904   5   8  30.0000  30.0000  30.0000  -0.0000  -0.0000  -0.0000   0.00    0.0
2018/03/11 10:59:28.000   78.254762476   16.249384210   341.3904   5   8  30.0000  30.0000  30.0000  -0.0000  -0.0000  -0.0000   0.00    0.0
2018/03/11 10:59:29.000   78.254762476   16.249384210   341.3904   5   8  30.0000  30.0000  30.0000  -0.0000  -0.0000  -0.0000   0.00    0.0
2018/03/11 10:59:30.000   78.254762476   16.249384210   341.3904   5   8  30.0000  30.0000  30.0000  -0.0000  -0.0000  -0.0000   0.00    0.0
2018/03/11 10:59:31.000   78.254762476   16.249384210   341.3904   5   8  30.0000  30.0000  30.0000  -0.0000  -0.0000  -0.0000   0.00    0.0
2018/03/11 10:59:32.000   78.254762476   16.249384210   341.3904   5   8  30.0000  30.0000  30.0000  -0.0000  -0.0000  -0.0000   0.00    0.0
2018/03/11 10:59:33.000   78.254762476   16.249384210   341.3904   5   8  30.0000  30.0000  30.0000  -0.0000  -0.0000  -0.0000   0.00    0.0
2018/03/11 10:59:34.000   78.254762476   16.249384210   341.3904   5   8  30.0000  30.0000  30.0000  -0.0000  -0.0000  -0.0000   0.00    0.0
2018/03/11 10:59:35.000   78.254762476   16.249384210   341.3904   5   8  30.0000  30.0000  30.0000  -0.0000  -0.0000  -0.0000   0.00    0.0
2018/03/11 10:59:36.000   78.254762476   16.249384210   341.3904   5   8  30.0000  30.0000  30.0000  -0.0000  -0.0000  -0.0000   0.00    0.0
2018/03/11 10:59:37.000   78.254762476   16.249384210   341.3904   5   8  30.0000  30.0000  30.0000  -0.0000  -0.0000  -0.0000   0.00    0.0
2018/03/11 10:59:38.000   78.254762476   16.249384210   341.3904   5   8  30.0000  30.0000  30.0000  -0.0000  -0.0000  -0.0000   0.00    0.0
2018/03/11 10:59:39.000   78.254762476   16.249384210   341.3904   5   8  30.0000  30.0000  30.0000  -0.0000  -0.0000  -0.0000   0.00    0.0
2018/03/11 10:59:40.000   78.254762476   16.249384210   341.3904   5   8  30.0000  30.0000  30.0000  -0.0000  -0.0000  -0.0000   0.00    0.0
2018/03/11 10:59:41.000   78.254762476   16.249384210   341.3904   5   8  30.0000  30.0000  30.0000  -0.0000  -0.0000  -0.0000   0.00    0.0
2018/03/11 10:59:42.000   78.254762476   16.249384210   341.3904   5   8  30.0000  30.0000  30.0000  -0.0000  -0.0000  -0.0000   0.00    0.0
2018/03/11 10:59:43.000   78.254762476   16.249384210   341.3904   5   8  30.0000  30.0000  30.0000  -0.0000  -0.0000  -0.0000   0.00    0.0
2018/03/11 10:59:44.000   78.254762476   16.249384210   341.3904   5   8  30.0000  30.0000  30.0000  -0.0000  -0.0000  -0.0000   0.00    0.0
2018/03/11 10:59:45.000   78.254762476   16.249384210   341.3904   5   8  30.0000  30.0000  30.0000  -0.0000  -0.0000  -0.0000   0.00    0.0
2018/03/11 10:59:46.000   78.254762476   16.249384210   341.3904   5   8  30.0000  30.0000  30.0000  -0.0000  -0.0000  -0.0000   0.00    0.0
2018/03/11 10:59:47.000   78.254762476   16.249384210   341.3904   5   8  30.0000  30.0000  30.0000  -0.0000  -0.0000  -0.0000   0.00    0.0
2018/03/11 10:59:48.000   78.254762476   16.249384210   341.3904   5   8  30.0000  30.0000  30.0000  -0.0000  -0.0000  -0.0000   0.00    0.0
2018/03/11 10:59:49.000   78.254762476   16.249384210   341.3904   5   8  30.0000  30.0000  30.0000  -0.0000  -0.0000  -0.0000   0.00    0.0
2018/03/11 10:59:50.000   78.254762476   16.249384210   341.3904   5   8  30.0000  30.0000  30.0000  -0.0000  -0.0000  -0.0000   0.00    0.0
2018/03/11 10:59:51.000   78.254762476   16.249384210   341.3904   5   8  30.0000  30.0000  30.0000  -0.0000  -0.0000  -0.0000   0.00    0.0
2018/03/11 10:59:52.000   78.254762476   16.249384210   341.3904   5   8  30.0000  30.0000  30.0000  -0.0000  -0.0000  -0.0000   0.00    0.0
2018/03/11 10:59:53.000   78.254762476   16.249384210   341.3904   5   8  30.0000  30.0000  30.0000  -0.0000  -0.0000  -0.0000   0.00    0.0
2018/03/11 10:59:54.000   78.254762476   16.249384210   341.3904   5   8  30.0000  30.0000  30.0000  -0.0000  -0.0000  -0.0000   0.00    0.0
2018/03/11 10:59:55.000   78.254762476   16.249384210   341.3904   5   8  30.0000  30.0000  30.0000  -0.0000  -0.0000  -0.0000   0.00    0.0
2018/03/11 10:59:56.000   78.254762476   16.249384210   341.3904   5   8  30.0000  30.0000  30.0000  -0.0000  -0.0000  -0.0000   0.00    0.0
2018/03/11 10:59:57.000   78.254762476   16.249384210   341.3904   5   8  30.0000  30.0000  30.0000  -0.0000  -0.0000  -0.0000   0.00    0.0
2018/03/11 10:59:58.000   78.254762476   16.249384210   341.3904   5   8  30.0000  30.0000  30.0000  -0.0000  -0.0000  -0.0000   0.00    0.0
2018/03/11 10:59:59.000   78.254762476   16.249384210   341.3904   5   8  30.0000  30.0000  30.0000  -0.0000  -0.0000  -0.0000   0.00    0.0
2018/03/11 11:00:00.000   78.254762476   16.249384210   341.3904   5   8  30.0000  30.0000  30.0000  -0.0000  -0.0000  -0.0000   0.00    0.0
