% program   : RTKPOST ver.2.4.2
% inp file  : Z:\home\linda\Documents\Spring18\GitHub_Unis\data\processed_data\4625070A.obs
% inp file  : Z:\home\linda\Documents\Spring18\GitHub_Unis\data\processed_data\4625070A.nav
% obs start : 2018/03/11 14:22:12.0 GPST (week1992  51732.0s)
% obs end   : 2018/03/11 14:37:48.0 GPST (week1992  52668.0s)
% pos mode  : single
% elev mask : 15.0 deg
% ionos opt : broadcast
% tropo opt : saastamoinen
% ephemeris : broadcast
% navi sys  : gps glonass galileo qzss sbas
%
% (lat/lon/height=WGS84/ellipsoidal,Q=1:fix,2:float,3:sbas,4:dgps,5:single,6:ppp,ns=# of satellites)
%  GPST                  latitude(deg) longitude(deg)  height(m)   Q  ns   sdn(m)   sde(m)   sdu(m)  sdne(m)  sdeu(m)  sdun(m) age(s)  ratio
2018/03/11 14:22:12.000   78.249610762   16.122792519   649.3667   5   9   3.0061   1.9329  11.9153  -0.7094  -1.4535   5.5182   0.00    0.0
2018/03/11 14:22:13.000   78.249610653   16.122794262   649.7890   5   9   3.0062   1.9329  11.9167  -0.7091  -1.4531   5.5187   0.00    0.0
2018/03/11 14:22:14.000   78.249613383   16.122793404   651.4429   5   9   3.0063   1.9329  11.9181  -0.7089  -1.4526   5.5191   0.00    0.0
2018/03/11 14:22:15.000   78.249611216   16.122798985   650.6363   5   9   3.0065   1.9329  11.9195  -0.7086  -1.4522   5.5196   0.00    0.0
2018/03/11 14:22:16.000   78.249610445   16.122796550   651.5184   5   9   3.0066   1.9329  11.9209  -0.7084  -1.4518   5.5200   0.00    0.0
2018/03/11 14:22:17.000   78.249608440   16.122815521   650.4610   5   9   3.0067   1.9329  11.9223  -0.7082  -1.4513   5.5205   0.00    0.0
2018/03/11 14:22:18.000   78.249610464   16.122806844   649.9523   5   9   3.0068   1.9328  11.9237  -0.7079  -1.4509   5.5209   0.00    0.0
2018/03/11 14:22:19.000   78.249606609   16.122823631   647.9607   5   9   3.0069   1.9328  11.9251  -0.7077  -1.4504   5.5214   0.00    0.0
2018/03/11 14:22:20.000   78.249609295   16.122820999   647.8724   5   9   3.0070   1.9328  11.9265  -0.7075  -1.4500   5.5218   0.00    0.0
2018/03/11 14:22:21.000   78.249602384   16.122818786   645.7249   5   9   3.0071   1.9328  11.9279  -0.7072  -1.4495   5.5223   0.00    0.0
2018/03/11 14:22:22.000   78.249604753   16.122813990   646.0084   5   9   3.0072   1.9328  11.9292  -0.7070  -1.4491   5.5227   0.00    0.0
2018/03/11 14:22:23.000   78.249604326   16.122812042   647.4343   5   9   3.0073   1.9328  11.9306  -0.7067  -1.4486   5.5231   0.00    0.0
2018/03/11 14:22:24.000   78.249608265   16.122793804   649.6512   5   9   3.0074   1.9328  11.9320  -0.7065  -1.4482   5.5236   0.00    0.0
2018/03/11 14:22:25.000   78.249607170   16.122793012   649.1863   5   9   3.0075   1.9328  11.9333  -0.7063  -1.4477   5.5240   0.00    0.0
2018/03/11 14:22:26.000   78.249608922   16.122800144   649.2306   5   9   3.0076   1.9328  11.9347  -0.7060  -1.4473   5.5244   0.00    0.0
2018/03/11 14:22:27.000   78.249610970   16.122798638   649.9749   5   9   3.0077   1.9327  11.9360  -0.7058  -1.4468   5.5248   0.00    0.0
2018/03/11 14:22:28.000   78.249613712   16.122808773   650.3258   5   9   3.0078   1.9327  11.9373  -0.7055  -1.4464   5.5253   0.00    0.0
2018/03/11 14:22:29.000   78.249611499   16.122810939   648.5791   5   9   3.0079   1.9327  11.9387  -0.7053  -1.4459   5.5257   0.00    0.0
2018/03/11 14:22:30.000   78.249607747   16.122799388   647.4394   5   9   3.0080   1.9327  11.9400  -0.7051  -1.4454   5.5261   0.00    0.0
2018/03/11 14:22:31.000   78.249608190   16.122807172   646.2079   5   9   3.0081   1.9327  11.9413  -0.7048  -1.4450   5.5265   0.00    0.0
2018/03/11 14:22:32.000   78.249610286   16.122792786   649.5596   5   9   3.0082   1.9327  11.9426  -0.7046  -1.4445   5.5269   0.00    0.0
2018/03/11 14:22:33.000   78.249610650   16.122788716   649.6667   5   9   3.0082   1.9327  11.9439  -0.7043  -1.4441   5.5273   0.00    0.0
2018/03/11 14:22:34.000   78.249610736   16.122795847   650.7476   5   9   3.0083   1.9327  11.9452  -0.7041  -1.4436   5.5277   0.00    0.0
2018/03/11 14:22:35.000   78.249608845   16.122811855   649.5778   5   9   3.0084   1.9327  11.9465  -0.7038  -1.4431   5.5281   0.00    0.0
2018/03/11 14:22:36.000   78.249603456   16.122807799   647.1252   5   9   3.0085   1.9326  11.9478  -0.7036  -1.4427   5.5285   0.00    0.0
2018/03/11 14:22:37.000   78.249604667   16.122820039   646.8125   5   9   3.0086   1.9326  11.9491  -0.7034  -1.4422   5.5289   0.00    0.0
2018/03/11 14:22:38.000   78.249604573   16.122833375   647.1488   5   9   3.0087   1.9326  11.9504  -0.7031  -1.4417   5.5293   0.00    0.0
2018/03/11 14:22:39.000   78.249605142   16.122827522   647.0579   5   9   3.0088   1.9326  11.9517  -0.7029  -1.4413   5.5297   0.00    0.0
2018/03/11 14:22:40.000   78.249600994   16.122827294   645.5768   5   9   3.0088   1.9326  11.9530  -0.7026  -1.4408   5.5301   0.00    0.0
2018/03/11 14:22:41.000   78.249604897   16.122808651   648.9454   5   9   3.0089   1.9326  11.9542  -0.7024  -1.4403   5.5305   0.00    0.0
2018/03/11 14:22:42.000   78.249606364   16.122810960   649.9421   5   9   3.0090   1.9326  11.9555  -0.7021  -1.4399   5.5309   0.00    0.0
2018/03/11 14:22:43.000   78.249607050   16.122807360   648.5378   5   9   3.0091   1.9326  11.9567  -0.7019  -1.4394   5.5313   0.00    0.0
2018/03/11 14:22:44.000   78.249605677   16.122807727   647.9427   5   9   3.0092   1.9326  11.9580  -0.7016  -1.4389   5.5316   0.00    0.0
2018/03/11 14:22:45.000   78.249605547   16.122796551   648.1340   5   9   3.0092   1.9325  11.9592  -0.7014  -1.4385   5.5320   0.00    0.0
2018/03/11 14:22:46.000   78.249608595   16.122803386   648.0128   5   9   3.0093   1.9325  11.9605  -0.7011  -1.4380   5.5324   0.00    0.0
2018/03/11 14:22:47.000   78.249608849   16.122802406   648.6592   5   9   3.0094   1.9325  11.9617  -0.7009  -1.4375   5.5328   0.00    0.0
2018/03/11 14:22:48.000   78.249612457   16.122802797   649.4926   5   9   3.0095   1.9325  11.9629  -0.7006  -1.4370   5.5331   0.00    0.0
2018/03/11 14:22:49.000   78.249610258   16.122801448   647.6331   5   9   3.0095   1.9325  11.9641  -0.7004  -1.4366   5.5335   0.00    0.0
2018/03/11 14:22:50.000   78.249610688   16.122795269   648.3375   5   9   3.0096   1.9325  11.9654  -0.7001  -1.4361   5.5338   0.00    0.0
2018/03/11 14:22:51.000   78.249616543   16.122803445   650.9090   5   9   3.0097   1.9325  11.9666  -0.6999  -1.4356   5.5342   0.00    0.0
2018/03/11 14:22:52.000   78.249612171   16.122795918   649.3741   5   9   3.0097   1.9325  11.9678  -0.6996  -1.4351   5.5346   0.00    0.0
2018/03/11 14:22:53.000   78.249615122   16.122807882   650.0045   5   9   3.0098   1.9325  11.9690  -0.6994  -1.4346   5.5349   0.00    0.0
2018/03/11 14:22:54.000   78.249610869   16.122814753   649.0272   5   9   3.0099   1.9324  11.9702  -0.6991  -1.4342   5.5353   0.00    0.0
2018/03/11 14:22:55.000   78.249607130   16.122828383   647.4287   5   9   3.0099   1.9324  11.9713  -0.6988  -1.4337   5.5356   0.00    0.0
2018/03/11 14:22:56.000   78.249602127   16.122828650   645.4199   5   9   3.0100   1.9324  11.9725  -0.6986  -1.4332   5.5360   0.00    0.0
2018/03/11 14:22:57.000   78.249602562   16.122818862   645.7974   5   9   3.0101   1.9324  11.9737  -0.6983  -1.4327   5.5363   0.00    0.0
2018/03/11 14:22:58.000   78.249599484   16.122819937   644.4566   5   9   3.0101   1.9324  11.9749  -0.6981  -1.4322   5.5366   0.00    0.0
2018/03/11 14:22:59.000   78.249604399   16.122813708   647.1837   5   9   3.0102   1.9324  11.9760  -0.6978  -1.4317   5.5370   0.00    0.0
2018/03/11 14:23:00.000   78.249608625   16.122796611   648.9540   5   9   3.0102   1.9324  11.9772  -0.6976  -1.4312   5.5373   0.00    0.0
2018/03/11 14:23:01.000   78.249610846   16.122812602   649.1918   5   9   3.0103   1.9324  11.9784  -0.6973  -1.4307   5.5376   0.00    0.0
2018/03/11 14:23:02.000   78.249615234   16.122811687   651.3008   5   9   3.0104   1.9324  11.9795  -0.6971  -1.4303   5.5380   0.00    0.0
2018/03/11 14:23:03.000   78.249615925   16.122805806   651.7506   5   9   3.0104   1.9323  11.9806  -0.6968  -1.4298   5.5383   0.00    0.0
2018/03/11 14:23:04.000   78.249612189   16.122809877   651.1841   5   9   3.0105   1.9323  11.9818  -0.6965  -1.4293   5.5386   0.00    0.0
2018/03/11 14:23:05.000   78.249610117   16.122804142   649.7474   5   9   3.0105   1.9323  11.9829  -0.6963  -1.4288   5.5389   0.00    0.0
2018/03/11 14:23:06.000   78.249610908   16.122808575   649.7049   5   9   3.0106   1.9323  11.9840  -0.6960  -1.4283   5.5393   0.00    0.0
2018/03/11 14:23:07.000   78.249611501   16.122813416   649.2732   5   9   3.0106   1.9323  11.9852  -0.6958  -1.4278   5.5396   0.00    0.0
2018/03/11 14:23:08.000   78.249613091   16.122815990   650.7766   5   9   3.0107   1.9323  11.9863  -0.6955  -1.4273   5.5399   0.00    0.0
2018/03/11 14:23:09.000   78.249610721   16.122806933   650.3325   5   9   3.0107   1.9323  11.9874  -0.6952  -1.4268   5.5402   0.00    0.0
2018/03/11 14:23:10.000   78.249607040   16.122805221   649.1956   5   9   3.0108   1.9323  11.9885  -0.6950  -1.4263   5.5405   0.00    0.0
2018/03/11 14:23:11.000   78.249604669   16.122806214   647.8911   5   9   3.0108   1.9322  11.9896  -0.6947  -1.4258   5.5408   0.00    0.0
2018/03/11 14:23:12.000   78.249602134   16.122807033   646.0904   5   9   3.0109   1.9322  11.9907  -0.6945  -1.4253   5.5411   0.00    0.0
2018/03/11 14:23:13.000   78.249605989   16.122803923   647.5674   5   9   3.0109   1.9322  11.9918  -0.6942  -1.4248   5.5414   0.00    0.0
2018/03/11 14:23:14.000   78.249606067   16.122828676   646.5075   5   9   3.0109   1.9322  11.9929  -0.6939  -1.4243   5.5417   0.00    0.0
2018/03/11 14:23:15.000   78.249609772   16.122803610   647.5571   5   9   3.0110   1.9322  11.9939  -0.6937  -1.4238   5.5420   0.00    0.0
2018/03/11 14:23:16.000   78.249610083   16.122809981   648.3384   5   9   3.0110   1.9322  11.9950  -0.6934  -1.4233   5.5423   0.00    0.0
2018/03/11 14:23:17.000   78.249611253   16.122804242   648.6889   5   9   3.0111   1.9322  11.9961  -0.6931  -1.4228   5.5426   0.00    0.0
2018/03/11 14:23:18.000   78.249611792   16.122804122   649.5187   5   9   3.0111   1.9322  11.9971  -0.6929  -1.4223   5.5428   0.00    0.0
2018/03/11 14:23:19.000   78.249615676   16.122789476   651.7012   5   9   3.0111   1.9322  11.9982  -0.6926  -1.4217   5.5431   0.00    0.0
2018/03/11 14:23:20.000   78.249612164   16.122798900   650.8744   5   9   3.0112   1.9321  11.9992  -0.6923  -1.4212   5.5434   0.00    0.0
2018/03/11 14:23:21.000   78.249608697   16.122797855   649.1602   5   9   3.0112   1.9321  12.0003  -0.6921  -1.4207   5.5437   0.00    0.0
2018/03/11 14:23:22.000   78.249605582   16.122804217   646.8065   5   9   3.0112   1.9321  12.0013  -0.6918  -1.4202   5.5440   0.00    0.0
2018/03/11 14:23:23.000   78.249606292   16.122806604   646.7379   5   9   3.0113   1.9321  12.0023  -0.6915  -1.4197   5.5442   0.00    0.0
2018/03/11 14:23:24.000   78.249610259   16.122809401   647.4196   5   9   3.0113   1.9321  12.0033  -0.6913  -1.4192   5.5445   0.00    0.0
2018/03/11 14:23:25.000   78.249606429   16.122808702   647.2430   5   9   3.0113   1.9321  12.0044  -0.6910  -1.4187   5.5448   0.00    0.0
2018/03/11 14:23:26.000   78.249608570   16.122810482   648.2133   5   9   3.0114   1.9321  12.0054  -0.6907  -1.4182   5.5450   0.00    0.0
2018/03/11 14:23:27.000   78.249607079   16.122823065   648.0641   5   9   3.0114   1.9321  12.0064  -0.6905  -1.4176   5.5453   0.00    0.0
2018/03/11 14:23:28.000   78.249608037   16.122824692   649.4777   5   9   3.0114   1.9321  12.0074  -0.6902  -1.4171   5.5455   0.00    0.0
2018/03/11 14:23:29.000   78.249609784   16.122816509   650.1765   5   9   3.0114   1.9320  12.0084  -0.6899  -1.4166   5.5458   0.00    0.0
2018/03/11 14:23:30.000   78.249610251   16.122812176   650.7575   5   9   3.0115   1.9320  12.0094  -0.6897  -1.4161   5.5460   0.00    0.0
2018/03/11 14:23:31.000   78.249608413   16.122816188   649.5429   5   9   3.0115   1.9320  12.0104  -0.6894  -1.4156   5.5463   0.00    0.0
2018/03/11 14:23:32.000   78.249601873   16.122829908   646.3315   5   9   3.0115   1.9320  12.0113  -0.6891  -1.4150   5.5465   0.00    0.0
2018/03/11 14:23:33.000   78.249599943   16.122823678   644.8941   5   9   3.0115   1.9320  12.0123  -0.6888  -1.4145   5.5468   0.00    0.0
2018/03/11 14:23:34.000   78.249602465   16.122824940   645.7299   5   9   3.0116   1.9320  12.0133  -0.6886  -1.4140   5.5470   0.00    0.0
2018/03/11 14:23:35.000   78.249601586   16.122827966   645.0779   5   9   3.0116   1.9320  12.0142  -0.6883  -1.4135   5.5472   0.00    0.0
2018/03/11 14:23:36.000   78.249605183   16.122816656   647.6859   5   9   3.0116   1.9320  12.0152  -0.6880  -1.4129   5.5475   0.00    0.0
2018/03/11 14:23:37.000   78.249610601   16.122811970   649.3847   5   9   3.0116   1.9319  12.0161  -0.6877  -1.4124   5.5477   0.00    0.0
2018/03/11 14:23:38.000   78.249612596   16.122808928   649.2713   5   9   3.0116   1.9319  12.0171  -0.6875  -1.4119   5.5479   0.00    0.0
2018/03/11 14:23:39.000   78.249613885   16.122809979   651.3391   5   9   3.0116   1.9319  12.0180  -0.6872  -1.4114   5.5482   0.00    0.0
2018/03/11 14:23:40.000   78.249614646   16.122801093   650.2325   5   9   3.0117   1.9319  12.0190  -0.6869  -1.4108   5.5484   0.00    0.0
2018/03/11 14:23:41.000   78.249612129   16.122805123   647.3303   5   9   3.0117   1.9319  12.0199  -0.6866  -1.4103   5.5486   0.00    0.0
2018/03/11 14:23:42.000   78.249611299   16.122792750   647.5872   5   9   3.0117   1.9319  12.0208  -0.6864  -1.4098   5.5488   0.00    0.0
2018/03/11 14:23:43.000   78.249608766   16.122807953   648.2354   5   9   3.0117   1.9319  12.0217  -0.6861  -1.4092   5.5490   0.00    0.0
2018/03/11 14:23:44.000   78.249612530   16.122806253   649.3573   5   9   3.0117   1.9319  12.0226  -0.6858  -1.4087   5.5492   0.00    0.0
2018/03/11 14:23:45.000   78.249612839   16.122804757   649.6729   5   9   3.0117   1.9319  12.0235  -0.6855  -1.4082   5.5494   0.00    0.0
2018/03/11 14:23:46.000   78.249610385   16.122816096   648.7379   5   9   3.0117   1.9318  12.0244  -0.6853  -1.4076   5.5497   0.00    0.0
2018/03/11 14:23:47.000   78.249607433   16.122810918   648.2247   5   9   3.0117   1.9318  12.0253  -0.6850  -1.4071   5.5499   0.00    0.0
2018/03/11 14:23:48.000   78.249607778   16.122814812   648.7211   5   9   3.0117   1.9318  12.0262  -0.6847  -1.4065   5.5501   0.00    0.0
2018/03/11 14:23:49.000   78.249602734   16.122822941   647.9073   5   9   3.0117   1.9318  12.0271  -0.6844  -1.4060   5.5503   0.00    0.0
2018/03/11 14:23:50.000   78.249603309   16.122830294   647.0072   5   9   3.0117   1.9318  12.0280  -0.6841  -1.4055   5.5504   0.00    0.0
2018/03/11 14:23:51.000   78.249600384   16.122841692   645.5366   5   9   3.0117   1.9318  12.0288  -0.6839  -1.4049   5.5506   0.00    0.0
2018/03/11 14:23:52.000   78.249599425   16.122833732   645.2446   5   9   3.0117   1.9318  12.0297  -0.6836  -1.4044   5.5508   0.00    0.0
2018/03/11 14:23:53.000   78.249604249   16.122821098   647.5581   5   9   3.0117   1.9318  12.0305  -0.6833  -1.4038   5.5510   0.00    0.0
2018/03/11 14:23:54.000   78.249606307   16.122816227   647.8577   5   9   3.0117   1.9317  12.0314  -0.6830  -1.4033   5.5512   0.00    0.0
2018/03/11 14:23:55.000   78.249609868   16.122808688   649.5830   5   9   3.0117   1.9317  12.0322  -0.6827  -1.4027   5.5514   0.00    0.0
2018/03/11 14:23:56.000   78.249614287   16.122799264   651.1253   5   9   3.0117   1.9317  12.0331  -0.6825  -1.4022   5.5515   0.00    0.0
2018/03/11 14:23:57.000   78.249615591   16.122808155   650.9384   5   9   3.0117   1.9317  12.0339  -0.6822  -1.4016   5.5517   0.00    0.0
2018/03/11 14:23:58.000   78.249613251   16.122794516   649.9915   5   9   3.0117   1.9317  12.0347  -0.6819  -1.4011   5.5519   0.00    0.0
2018/03/11 14:23:59.000   78.249612325   16.122798223   648.8938   5   9   3.0117   1.9317  12.0356  -0.6816  -1.4005   5.5521   0.00    0.0
2018/03/11 14:24:00.000   78.249611278   16.122796280   648.2770   5   9   3.0117   1.9317  12.0364  -0.6813  -1.4000   5.5522   0.00    0.0
2018/03/11 14:24:01.000   78.249613125   16.122797201   649.1751   5   9   3.0116   1.9317  12.0372  -0.6810  -1.3994   5.5524   0.00    0.0
2018/03/11 14:24:02.000   78.249608647   16.122799104   648.2298   5   9   3.0116   1.9317  12.0380  -0.6808  -1.3989   5.5525   0.00    0.0
2018/03/11 14:24:03.000   78.249610984   16.122797092   648.8570   5   9   3.0116   1.9316  12.0388  -0.6805  -1.3983   5.5527   0.00    0.0
2018/03/11 14:24:04.000   78.249609040   16.122804859   648.4476   5   9   3.0116   1.9316  12.0396  -0.6802  -1.3978   5.5529   0.00    0.0
2018/03/11 14:24:05.000   78.249609721   16.122813616   649.6420   5   9   3.0116   1.9316  12.0404  -0.6799  -1.3972   5.5530   0.00    0.0
2018/03/11 14:24:06.000   78.249606952   16.122812824   646.5142   5   9   3.0116   1.9316  12.0411  -0.6796  -1.3967   5.5532   0.00    0.0
2018/03/11 14:24:07.000   78.249606526   16.122822753   647.4639   5   9   3.0115   1.9316  12.0419  -0.6793  -1.3961   5.5533   0.00    0.0
2018/03/11 14:24:08.000   78.249603731   16.122835203   645.3939   5   9   3.0115   1.9316  12.0427  -0.6790  -1.3955   5.5534   0.00    0.0
2018/03/11 14:24:09.000   78.249603424   16.122824459   645.4666   5   9   3.0115   1.9316  12.0434  -0.6787  -1.3950   5.5536   0.00    0.0
2018/03/11 14:24:10.000   78.249605113   16.122832840   646.3718   5   9   3.0115   1.9316  12.0442  -0.6785  -1.3944   5.5537   0.00    0.0
2018/03/11 14:24:11.000   78.249603356   16.122813033   646.8990   5   9   3.0115   1.9315  12.0450  -0.6782  -1.3939   5.5538   0.00    0.0
2018/03/11 14:24:12.000   78.249603412   16.122818681   647.3229   5   9   3.0114   1.9315  12.0457  -0.6779  -1.3933   5.5540   0.00    0.0
2018/03/11 14:24:13.000   78.249605761   16.122795175   649.0205   5   9   3.0114   1.9315  12.0464  -0.6776  -1.3927   5.5541   0.00    0.0
2018/03/11 14:24:14.000   78.249609812   16.122803614   649.7014   5   9   3.0114   1.9315  12.0472  -0.6773  -1.3922   5.5542   0.00    0.0
2018/03/11 14:24:15.000   78.249614682   16.122797926   652.1070   5   9   3.0113   1.9315  12.0479  -0.6770  -1.3916   5.5543   0.00    0.0
2018/03/11 14:24:16.000   78.249610431   16.122808819   648.5626   5   9   3.0113   1.9315  12.0486  -0.6767  -1.3910   5.5545   0.00    0.0
2018/03/11 14:24:17.000   78.249614586   16.122816961   649.3338   5   9   3.0113   1.9315  12.0493  -0.6764  -1.3905   5.5546   0.00    0.0
2018/03/11 14:24:18.000   78.249615039   16.122813458   649.0051   5   9   3.0113   1.9315  12.0500  -0.6761  -1.3899   5.5547   0.00    0.0
2018/03/11 14:24:19.000   78.249612482   16.122812646   647.3894   5   9   3.0112   1.9314  12.0507  -0.6758  -1.3893   5.5548   0.00    0.0
2018/03/11 14:24:20.000   78.249612099   16.122792232   648.4513   5   9   3.0112   1.9314  12.0514  -0.6755  -1.3887   5.5549   0.00    0.0
2018/03/11 14:24:21.000   78.249607567   16.122801525   647.9067   5   9   3.0112   1.9314  12.0521  -0.6752  -1.3882   5.5550   0.00    0.0
2018/03/11 14:24:22.000   78.249610070   16.122795680   649.5311   5   9   3.0111   1.9314  12.0528  -0.6750  -1.3876   5.5551   0.00    0.0
2018/03/11 14:24:23.000   78.249604567   16.122790171   647.7780   5   9   3.0111   1.9314  12.0535  -0.6747  -1.3870   5.5552   0.00    0.0
2018/03/11 14:24:24.000   78.249604925   16.122790617   648.3008   5   9   3.0110   1.9314  12.0542  -0.6744  -1.3864   5.5553   0.00    0.0
2018/03/11 14:24:25.000   78.249604382   16.122798376   647.6328   5   9   3.0110   1.9314  12.0548  -0.6741  -1.3859   5.5554   0.00    0.0
2018/03/11 14:24:26.000   78.249604573   16.122801522   646.5845   5   9   3.0110   1.9314  12.0555  -0.6738  -1.3853   5.5555   0.00    0.0
2018/03/11 14:24:27.000   78.249606289   16.122821470   645.9492   5   9   3.0109   1.9313  12.0562  -0.6735  -1.3847   5.5556   0.00    0.0
2018/03/11 14:24:28.000   78.249610923   16.122816640   646.5746   5   9   3.0109   1.9313  12.0568  -0.6732  -1.3841   5.5557   0.00    0.0
2018/03/11 14:24:29.000   78.249610322   16.122812468   647.2261   5   9   3.0108   1.9313  12.0574  -0.6729  -1.3836   5.5558   0.00    0.0
2018/03/11 14:24:30.000   78.249612917   16.122811923   649.0316   5   9   3.0108   1.9313  12.0581  -0.6726  -1.3830   5.5558   0.00    0.0
2018/03/11 14:24:31.000   78.249610377   16.122807838   647.6306   5   9   3.0107   1.9313  12.0587  -0.6723  -1.3824   5.5559   0.00    0.0
2018/03/11 14:24:32.000   78.249610865   16.122816992   649.5371   5   9   3.0107   1.9313  12.0593  -0.6720  -1.3818   5.5560   0.00    0.0
2018/03/11 14:24:33.000   78.249613710   16.122802535   650.8410   5   9   3.0106   1.9313  12.0600  -0.6717  -1.3812   5.5560   0.00    0.0
2018/03/11 14:24:34.000   78.249610272   16.122807194   649.0909   5   9   3.0106   1.9313  12.0606  -0.6714  -1.3806   5.5561   0.00    0.0
2018/03/11 14:24:35.000   78.249606282   16.122801961   647.6008   5   9   3.0105   1.9312  12.0612  -0.6711  -1.3800   5.5562   0.00    0.0
2018/03/11 14:24:36.000   78.249603427   16.122805075   646.1995   5   9   3.0105   1.9312  12.0618  -0.6708  -1.3795   5.5562   0.00    0.0
2018/03/11 14:24:37.000   78.249602850   16.122809915   647.0749   5   9   3.0104   1.9312  12.0624  -0.6705  -1.3789   5.5563   0.00    0.0
2018/03/11 14:24:38.000   78.249607103   16.122804600   648.7755   5   9   3.0104   1.9312  12.0630  -0.6702  -1.3783   5.5564   0.00    0.0
2018/03/11 14:24:39.000   78.249611958   16.122808282   650.4959   5   9   3.0103   1.9312  12.0636  -0.6699  -1.3777   5.5564   0.00    0.0
2018/03/11 14:24:40.000   78.249612845   16.122809036   650.8173   5   9   3.0102   1.9312  12.0641  -0.6696  -1.3771   5.5565   0.00    0.0
2018/03/11 14:24:41.000   78.249611529   16.122809256   649.8020   5   9   3.0102   1.9312  12.0647  -0.6693  -1.3765   5.5565   0.00    0.0
2018/03/11 14:24:42.000   78.249608106   16.122805229   647.2009   5   9   3.0101   1.9312  12.0653  -0.6690  -1.3759   5.5565   0.00    0.0
2018/03/11 14:24:43.000   78.249612851   16.122816328   648.9112   5   9   3.0101   1.9312  12.0658  -0.6687  -1.3753   5.5566   0.00    0.0
2018/03/11 14:24:44.000   78.249610016   16.122823197   647.8859   5   9   3.0100   1.9311  12.0664  -0.6684  -1.3747   5.5566   0.00    0.0
2018/03/11 14:24:45.000   78.249603513   16.122819977   645.8810   5   9   3.0099   1.9311  12.0669  -0.6681  -1.3741   5.5567   0.00    0.0
2018/03/11 14:24:46.000   78.249602261   16.122806481   646.3921   5   9   3.0099   1.9311  12.0675  -0.6677  -1.3735   5.5567   0.00    0.0
2018/03/11 14:24:47.000   78.249605281   16.122803438   646.6643   5   9   3.0098   1.9311  12.0680  -0.6674  -1.3729   5.5567   0.00    0.0
2018/03/11 14:24:48.000   78.249607445   16.122802145   648.6702   5   9   3.0097   1.9311  12.0685  -0.6671  -1.3723   5.5567   0.00    0.0
2018/03/11 14:24:49.000   78.249611069   16.122801657   650.2366   5   9   3.0097   1.9311  12.0691  -0.6668  -1.3717   5.5568   0.00    0.0
2018/03/11 14:24:50.000   78.249613477   16.122795547   650.4050   5   9   3.0096   1.9311  12.0696  -0.6665  -1.3711   5.5568   0.00    0.0
2018/03/11 14:24:51.000   78.249618426   16.122802326   651.3283   5   9   3.0095   1.9311  12.0701  -0.6662  -1.3705   5.5568   0.00    0.0
2018/03/11 14:24:52.000   78.249617984   16.122806194   650.4112   5   9   3.0094   1.9310  12.0706  -0.6659  -1.3699   5.5568   0.00    0.0
2018/03/11 14:24:53.000   78.249612931   16.122808786   647.2743   5   9   3.0094   1.9310  12.0711  -0.6656  -1.3693   5.5568   0.00    0.0
2018/03/11 14:24:54.000   78.249610217   16.122825970   646.3868   5   9   3.0093   1.9310  12.0716  -0.6653  -1.3687   5.5568   0.00    0.0
2018/03/11 14:24:55.000   78.249606550   16.122820067   644.8419   5   9   3.0092   1.9310  12.0721  -0.6650  -1.3681   5.5568   0.00    0.0
2018/03/11 14:24:56.000   78.249607717   16.122819174   646.4851   5   9   3.0091   1.9310  12.0726  -0.6647  -1.3675   5.5568   0.00    0.0
2018/03/11 14:24:57.000   78.249608873   16.122811216   650.3821   5   9   3.0091   1.9310  12.0730  -0.6644  -1.3669   5.5568   0.00    0.0
2018/03/11 14:24:58.000   78.249610891   16.122813048   651.0748   5   9   3.0090   1.9310  12.0735  -0.6641  -1.3662   5.5568   0.00    0.0
2018/03/11 14:24:59.000   78.249607331   16.122800972   649.9539   5   9   3.0089   1.9310  12.0740  -0.6637  -1.3656   5.5568   0.00    0.0
2018/03/11 14:25:00.000   78.249603989   16.122811894   648.5411   5   9   3.0088   1.9309  12.0744  -0.6634  -1.3650   5.5568   0.00    0.0
2018/03/11 14:25:01.000   78.249603342   16.122824416   647.1637   5   9   3.0087   1.9309  12.0749  -0.6631  -1.3644   5.5568   0.00    0.0
2018/03/11 14:25:02.000   78.249603044   16.122831739   646.1580   5   9   3.0087   1.9309  12.0753  -0.6628  -1.3638   5.5568   0.00    0.0
2018/03/11 14:25:03.000   78.249606733   16.122808802   646.5102   5   9   3.0086   1.9309  12.0758  -0.6625  -1.3632   5.5568   0.00    0.0
2018/03/11 14:25:04.000   78.249608390   16.122824046   646.5619   5   9   3.0085   1.9309  12.0762  -0.6622  -1.3626   5.5568   0.00    0.0
2018/03/11 14:25:05.000   78.249612882   16.122805551   648.9810   5   9   3.0084   1.9309  12.0766  -0.6619  -1.3619   5.5567   0.00    0.0
2018/03/11 14:25:06.000   78.249616478   16.122795404   651.8010   5   9   3.0083   1.9309  12.0770  -0.6615  -1.3613   5.5567   0.00    0.0
2018/03/11 14:25:07.000   78.249614844   16.122805946   652.5686   5   9   3.0082   1.9309  12.0775  -0.6612  -1.3607   5.5567   0.00    0.0
2018/03/11 14:25:08.000   78.249610544   16.122799651   652.1121   5   9   3.0081   1.9308  12.0779  -0.6609  -1.3601   5.5566   0.00    0.0
2018/03/11 14:25:09.000   78.249606460   16.122789324   649.8528   5   9   3.0080   1.9308  12.0783  -0.6606  -1.3595   5.5566   0.00    0.0
2018/03/11 14:25:10.000   78.249606146   16.122795180   648.6215   5   9   3.0079   1.9308  12.0787  -0.6603  -1.3588   5.5566   0.00    0.0
2018/03/11 14:25:11.000   78.249608309   16.122806244   648.2504   5   9   3.0078   1.9308  12.0791  -0.6600  -1.3582   5.5565   0.00    0.0
2018/03/11 14:25:12.000   78.249605930   16.122794096   647.3723   5   9   3.0077   1.9308  12.0795  -0.6597  -1.3576   5.5565   0.00    0.0
2018/03/11 14:25:13.000   78.249609422   16.122808697   648.9438   5   9   3.0076   1.9308  12.0798  -0.6593  -1.3570   5.5564   0.00    0.0
2018/03/11 14:25:14.000   78.249614548   16.122807411   649.9741   5   9   3.0075   1.9308  12.0802  -0.6590  -1.3563   5.5564   0.00    0.0
2018/03/11 14:25:15.000   78.249612642   16.122811919   649.2878   5   9   3.0074   1.9308  12.0806  -0.6587  -1.3557   5.5563   0.00    0.0
2018/03/11 14:25:16.000   78.249611991   16.122813627   649.0894   5   9   3.0073   1.9307  12.0809  -0.6584  -1.3551   5.5563   0.00    0.0
2018/03/11 14:25:17.000   78.249614081   16.122825294   649.1693   5   9   3.0072   1.9307  12.0813  -0.6581  -1.3544   5.5562   0.00    0.0
2018/03/11 14:25:18.000   78.249611013   16.122826373   647.1199   5   9   3.0071   1.9307  12.0816  -0.6577  -1.3538   5.5562   0.00    0.0
2018/03/11 14:25:19.000   78.249608008   16.122828456   646.4314   5   9   3.0070   1.9307  12.0820  -0.6574  -1.3532   5.5561   0.00    0.0
2018/03/11 14:25:20.000   78.249609092   16.122832423   647.0166   5   9   3.0069   1.9307  12.0823  -0.6571  -1.3525   5.5560   0.00    0.0
2018/03/11 14:25:21.000   78.249604367   16.122821879   646.6931   5   9   3.0068   1.9307  12.0826  -0.6568  -1.3519   5.5560   0.00    0.0
2018/03/11 14:25:22.000   78.249607432   16.122803220   648.6260   5   9   3.0067   1.9307  12.0830  -0.6565  -1.3513   5.5559   0.00    0.0
2018/03/11 14:25:23.000   78.249605580   16.122798490   649.0982   5   9   3.0066   1.9307  12.0833  -0.6561  -1.3506   5.5558   0.00    0.0
2018/03/11 14:25:24.000   78.249611140   16.122795378   651.2069   5   9   3.0065   1.9306  12.0836  -0.6558  -1.3500   5.5557   0.00    0.0
2018/03/11 14:25:25.000   78.249612476   16.122794340   650.9085   5   9   3.0064   1.9306  12.0839  -0.6555  -1.3494   5.5556   0.00    0.0
2018/03/11 14:25:26.000   78.249611409   16.122807266   648.9520   5   9   3.0063   1.9306  12.0842  -0.6552  -1.3487   5.5556   0.00    0.0
2018/03/11 14:25:27.000   78.249611788   16.122805413   649.1783   5   9   3.0061   1.9306  12.0845  -0.6548  -1.3481   5.5555   0.00    0.0
2018/03/11 14:25:28.000   78.249614797   16.122808714   649.3798   5   9   3.0060   1.9306  12.0848  -0.6545  -1.3474   5.5554   0.00    0.0
2018/03/11 14:25:29.000   78.249611554   16.122820411   648.7716   5   9   3.0059   1.9306  12.0851  -0.6542  -1.3468   5.5553   0.00    0.0
2018/03/11 14:25:30.000   78.249609810   16.122808773   649.3261   5   9   3.0058   1.9306  12.0853  -0.6539  -1.3461   5.5552   0.00    0.0
2018/03/11 14:25:31.000   78.249611431   16.122797913   651.5328   5   9   3.0057   1.9305  12.0856  -0.6536  -1.3455   5.5551   0.00    0.0
2018/03/11 14:25:32.000   78.249613774   16.122791598   651.8290   5   9   3.0056   1.9305  12.0859  -0.6532  -1.3449   5.5550   0.00    0.0
2018/03/11 14:25:33.000   78.249612844   16.122799942   652.0006   5   9   3.0054   1.9305  12.0861  -0.6529  -1.3442   5.5549   0.00    0.0
2018/03/11 14:25:34.000   78.249615802   16.122796444   652.2763   5   9   3.0053   1.9305  12.0864  -0.6526  -1.3436   5.5548   0.00    0.0
2018/03/11 14:25:35.000   78.249612574   16.122804888   650.7108   5   9   3.0052   1.9305  12.0866  -0.6522  -1.3429   5.5546   0.00    0.0
2018/03/11 14:25:36.000   78.249609348   16.122809741   647.9925   5   9   3.0051   1.9305  12.0869  -0.6519  -1.3423   5.5545   0.00    0.0
2018/03/11 14:25:37.000   78.249609734   16.122803798   647.2032   5   9   3.0049   1.9305  12.0871  -0.6516  -1.3416   5.5544   0.00    0.0
2018/03/11 14:25:38.000   78.249607180   16.122811437   646.5280   5   9   3.0048   1.9305  12.0873  -0.6513  -1.3410   5.5543   0.00    0.0
2018/03/11 14:25:39.000   78.249605223   16.122817115   645.9797   5   9   3.0047   1.9304  12.0875  -0.6509  -1.3403   5.5542   0.00    0.0
2018/03/11 14:25:40.000   78.249611093   16.122814009   648.5989   5   9   3.0045   1.9304  12.0878  -0.6506  -1.3397   5.5540   0.00    0.0
2018/03/11 14:25:41.000   78.249611687   16.122814021   650.4668   5   9   3.0044   1.9304  12.0880  -0.6503  -1.3390   5.5539   0.00    0.0
2018/03/11 14:25:42.000   78.249613252   16.122822793   650.2591   5   9   3.0043   1.9304  12.0882  -0.6499  -1.3383   5.5538   0.00    0.0
2018/03/11 14:25:43.000   78.249613724   16.122809414   648.5748   5   9   3.0042   1.9304  12.0884  -0.6496  -1.3377   5.5536   0.00    0.0
2018/03/11 14:25:44.000   78.249611291   16.122808536   649.4764   5   9   3.0040   1.9304  12.0886  -0.6493  -1.3370   5.5535   0.00    0.0
2018/03/11 14:25:45.000   78.249611322   16.122797464   649.1915   5   9   3.0039   1.9304  12.0887  -0.6490  -1.3364   5.5534   0.00    0.0
2018/03/11 14:25:46.000   78.249609774   16.122806361   647.0966   5   9   3.0037   1.9304  12.0889  -0.6486  -1.3357   5.5532   0.00    0.0
2018/03/11 14:25:47.000   78.249608303   16.122807564   647.7513   5   9   3.0036   1.9303  12.0891  -0.6483  -1.3350   5.5531   0.00    0.0
2018/03/11 14:25:48.000   78.249611560   16.122802225   649.3457   5   9   3.0035   1.9303  12.0893  -0.6480  -1.3344   5.5529   0.00    0.0
2018/03/11 14:25:49.000   78.249612809   16.122793880   650.7397   5   9   3.0033   1.9303  12.0894  -0.6476  -1.3337   5.5528   0.00    0.0
2018/03/11 14:25:50.000   78.249613770   16.122803403   650.0384   5   9   3.0032   1.9303  12.0896  -0.6473  -1.3331   5.5526   0.00    0.0
2018/03/11 14:25:51.000   78.249617154   16.122796904   650.7550   5   9   3.0030   1.9303  12.0897  -0.6470  -1.3324   5.5525   0.00    0.0
2018/03/11 14:25:52.000   78.249614996   16.122802279   648.8339   5   9   3.0029   1.9303  12.0899  -0.6466  -1.3317   5.5523   0.00    0.0
2018/03/11 14:25:53.000   78.249609547   16.122812786   647.6233   5   9   3.0027   1.9303  12.0900  -0.6463  -1.3311   5.5521   0.00    0.0
2018/03/11 14:25:54.000   78.249607309   16.122809966   647.2856   5   9   3.0026   1.9303  12.0901  -0.6460  -1.3304   5.5520   0.00    0.0
2018/03/11 14:25:55.000   78.249605701   16.122821491   647.1440   5   9   3.0025   1.9302  12.0902  -0.6456  -1.3297   5.5518   0.00    0.0
2018/03/11 14:25:56.000   78.249608632   16.122807169   649.2301   5   9   3.0023   1.9302  12.0904  -0.6453  -1.3291   5.5516   0.00    0.0
2018/03/11 14:25:57.000   78.249606732   16.122807399   648.0770   5   9   3.0022   1.9302  12.0905  -0.6449  -1.3284   5.5514   0.00    0.0
2018/03/11 14:25:58.000   78.249611182   16.122801620   650.9161   5   9   3.0020   1.9302  12.0906  -0.6446  -1.3277   5.5513   0.00    0.0
2018/03/11 14:25:59.000   78.249614432   16.122806922   651.6118   5   9   3.0018   1.9302  12.0907  -0.6443  -1.3270   5.5511   0.00    0.0
2018/03/11 14:26:00.000   78.249617330   16.122800763   652.7995   5   9   3.0017   1.9302  12.0908  -0.6439  -1.3264   5.5509   0.00    0.0
2018/03/11 14:26:01.000   78.249612712   16.122804360   649.4277   5   9   3.0015   1.9302  12.0908  -0.6436  -1.3257   5.5507   0.00    0.0
2018/03/11 14:26:02.000   78.249608140   16.122819966   646.1687   5   9   3.0014   1.9302  12.0909  -0.6433  -1.3250   5.5505   0.00    0.0
2018/03/11 14:26:03.000   78.249604162   16.122822513   644.7950   5   9   3.0012   1.9301  12.0910  -0.6429  -1.3243   5.5503   0.00    0.0
2018/03/11 14:26:04.000   78.249601425   16.122821577   643.6153   5   9   3.0011   1.9301  12.0911  -0.6426  -1.3237   5.5501   0.00    0.0
2018/03/11 14:26:05.000   78.249603823   16.122821772   646.3686   5   9   3.0009   1.9301  12.0911  -0.6422  -1.3230   5.5499   0.00    0.0
2018/03/11 14:26:06.000   78.249609767   16.122813047   649.3538   5   9   3.0007   1.9301  12.0912  -0.6419  -1.3223   5.5497   0.00    0.0
2018/03/11 14:26:07.000   78.249608880   16.122811644   648.8355   5   9   3.0006   1.9301  12.0912  -0.6416  -1.3216   5.5495   0.00    0.0
2018/03/11 14:26:08.000   78.249611199   16.122805098   649.9975   5   9   3.0004   1.9301  12.0913  -0.6412  -1.3209   5.5493   0.00    0.0
2018/03/11 14:26:09.000   78.249609631   16.122799120   648.9493   5   9   3.0003   1.9301  12.0913  -0.6409  -1.3203   5.5491   0.00    0.0
2018/03/11 14:26:10.000   78.249609658   16.122814189   650.1023   5   9   3.0001   1.9300  12.0913  -0.6405  -1.3196   5.5489   0.00    0.0
2018/03/11 14:26:11.000   78.249605827   16.122810046   647.0253   5   9   2.9999   1.9300  12.0914  -0.6402  -1.3189   5.5487   0.00    0.0
2018/03/11 14:26:12.000   78.249610958   16.122799309   648.1073   5   9   2.9998   1.9300  12.0914  -0.6398  -1.3182   5.5484   0.00    0.0
2018/03/11 14:26:13.000   78.249612749   16.122794002   648.9496   5   9   2.9996   1.9300  12.0914  -0.6395  -1.3175   5.5482   0.00    0.0
2018/03/11 14:26:14.000   78.249611390   16.122801486   648.4428   5   9   2.9994   1.9300  12.0914  -0.6392  -1.3168   5.5480   0.00    0.0
2018/03/11 14:26:15.000   78.249611622   16.122807532   649.3194   5   9   2.9992   1.9300  12.0914  -0.6388  -1.3161   5.5478   0.00    0.0
2018/03/11 14:26:16.000   78.249610144   16.122797334   649.3285   5   9   2.9991   1.9300  12.0914  -0.6385  -1.3155   5.5475   0.00    0.0
2018/03/11 14:26:17.000   78.249606959   16.122804943   647.4015   5   9   2.9989   1.9300  12.0914  -0.6381  -1.3148   5.5473   0.00    0.0
2018/03/11 14:26:18.000   78.249606915   16.122804768   649.3138   5   9   2.9987   1.9299  12.0914  -0.6378  -1.3141   5.5470   0.00    0.0
2018/03/11 14:26:19.000   78.249599978   16.122826538   645.6721   5   9   2.9985   1.9299  12.0914  -0.6374  -1.3134   5.5468   0.00    0.0
2018/03/11 14:26:20.000   78.249607035   16.122823770   648.0262   5   9   2.9984   1.9299  12.0913  -0.6371  -1.3127   5.5466   0.00    0.0
2018/03/11 14:26:21.000   78.249606077   16.122832769   647.6184   5   9   2.9982   1.9299  12.0913  -0.6367  -1.3120   5.5463   0.00    0.0
2018/03/11 14:26:22.000   78.249611947   16.122820904   649.8327   5   9   2.9980   1.9299  12.0912  -0.6364  -1.3113   5.5461   0.00    0.0
2018/03/11 14:26:23.000   78.249614886   16.122810009   650.9870   5   9   2.9978   1.9299  12.0912  -0.6361  -1.3106   5.5458   0.00    0.0
2018/03/11 14:26:24.000   78.249609364   16.122823436   649.4380   5   9   2.9976   1.9299  12.0911  -0.6357  -1.3099   5.5456   0.00    0.0
2018/03/11 14:26:25.000   78.249605509   16.122825180   646.7532   5   9   2.9975   1.9299  12.0911  -0.6354  -1.3092   5.5453   0.00    0.0
2018/03/11 14:26:26.000   78.249603746   16.122818054   646.6412   5   9   2.9973   1.9298  12.0910  -0.6350  -1.3085   5.5450   0.00    0.0
2018/03/11 14:26:27.000   78.249602107   16.122823387   645.4130   5   9   2.9971   1.9298  12.0909  -0.6347  -1.3078   5.5448   0.00    0.0
2018/03/11 14:26:28.000   78.249600778   16.122828050   644.7297   5   9   2.9969   1.9298  12.0909  -0.6343  -1.3071   5.5445   0.00    0.0
2018/03/11 14:26:29.000   78.249604383   16.122815459   647.4929   5   9   2.9967   1.9298  12.0908  -0.6340  -1.3064   5.5442   0.00    0.0
2018/03/11 14:26:30.000   78.249611874   16.122810300   650.9724   5   9   2.9965   1.9298  12.0907  -0.6336  -1.3057   5.5440   0.00    0.0
2018/03/11 14:26:31.000   78.249617840   16.122808839   653.4074   5   9   2.9963   1.9298  12.0906  -0.6333  -1.3050   5.5437   0.00    0.0
2018/03/11 14:26:32.000   78.249617831   16.122792782   653.1893   5   9   2.9961   1.9298  12.0905  -0.6329  -1.3043   5.5434   0.00    0.0
2018/03/11 14:26:33.000   78.249618208   16.122789749   652.8110   5   9   2.9959   1.9298  12.0904  -0.6326  -1.3036   5.5431   0.00    0.0
2018/03/11 14:26:34.000   78.249615747   16.122789569   652.1152   5   9   2.9958   1.9297  12.0903  -0.6322  -1.3029   5.5428   0.00    0.0
2018/03/11 14:26:35.000   78.249613159   16.122803435   651.0317   5   9   2.9956   1.9297  12.0901  -0.6319  -1.3022   5.5425   0.00    0.0
2018/03/11 14:26:36.000   78.249608309   16.122806942   647.7277   5   9   2.9954   1.9297  12.0900  -0.6315  -1.3015   5.5423   0.00    0.0
2018/03/11 14:26:37.000   78.249601378   16.122819759   644.6815   5   9   2.9952   1.9297  12.0899  -0.6311  -1.3008   5.5420   0.00    0.0
2018/03/11 14:26:38.000   78.249601693   16.122829284   645.4302   5   9   2.9950   1.9297  12.0897  -0.6308  -1.3000   5.5417   0.00    0.0
2018/03/11 14:26:39.000   78.249603814   16.122814654   647.4646   5   9   2.9948   1.9297  12.0896  -0.6304  -1.2993   5.5414   0.00    0.0
2018/03/11 14:26:40.000   78.249605905   16.122813422   649.0156   5   9   2.9946   1.9297  12.0894  -0.6301  -1.2986   5.5411   0.00    0.0
2018/03/11 14:26:41.000   78.249607217   16.122829162   649.2075   5   9   2.9944   1.9296  12.0893  -0.6297  -1.2979   5.5408   0.00    0.0
2018/03/11 14:26:42.000   78.249606813   16.122823899   648.9679   5   9   2.9942   1.9296  12.0891  -0.6294  -1.2972   5.5404   0.00    0.0
2018/03/11 14:26:43.000   78.249607050   16.122831249   647.7235   5   9   2.9940   1.9296  12.0889  -0.6290  -1.2965   5.5401   0.00    0.0
2018/03/11 14:26:44.000   78.249608396   16.122829800   647.5013   5   9   2.9938   1.9296  12.0888  -0.6287  -1.2958   5.5398   0.00    0.0
2018/03/11 14:26:45.000   78.249611336   16.122837417   649.4025   5   9   2.9935   1.9296  12.0886  -0.6283  -1.2950   5.5395   0.00    0.0
2018/03/11 14:26:46.000   78.249609275   16.122809968   648.1227   5   9   2.9933   1.9296  12.0884  -0.6280  -1.2943   5.5392   0.00    0.0
2018/03/11 14:26:47.000   78.249608784   16.122818187   648.0614   5   9   2.9931   1.9296  12.0882  -0.6276  -1.2936   5.5389   0.00    0.0
2018/03/11 14:26:48.000   78.249611377   16.122812030   649.9551   5   9   2.9929   1.9296  12.0880  -0.6272  -1.2929   5.5385   0.00    0.0
2018/03/11 14:26:49.000   78.249610852   16.122808036   649.9418   5   9   2.9927   1.9295  12.0878  -0.6269  -1.2922   5.5382   0.00    0.0
2018/03/11 14:26:50.000   78.249606092   16.122819709   648.1079   5   9   2.9925   1.9295  12.0876  -0.6265  -1.2914   5.5379   0.00    0.0
2018/03/11 14:26:51.000   78.249609535   16.122806740   648.5497   5   9   2.9923   1.9295  12.0874  -0.6262  -1.2907   5.5375   0.00    0.0
2018/03/11 14:26:51.999   78.249603577   16.122810882   646.1007   5   9   2.9921   1.9295  12.0871  -0.6258  -1.2900   5.5372   0.00    0.0
2018/03/11 14:26:53.000   78.249609719   16.122803803   648.0394   5   9   2.9918   1.9295  12.0869  -0.6254  -1.2893   5.5369   0.00    0.0
2018/03/11 14:26:54.000   78.249614553   16.122807753   648.6040   5   9   2.9916   1.9295  12.0867  -0.6251  -1.2885   5.5365   0.00    0.0
2018/03/11 14:26:55.000   78.249615172   16.122800105   648.6347   5   9   2.9914   1.9295  12.0864  -0.6247  -1.2878   5.5362   0.00    0.0
2018/03/11 14:26:56.000   78.249614559   16.122796671   650.1325   5   9   2.9912   1.9294  12.0862  -0.6244  -1.2871   5.5358   0.00    0.0
2018/03/11 14:26:57.000   78.249607959   16.122798341   649.0077   5   9   2.9910   1.9294  12.0859  -0.6240  -1.2864   5.5355   0.00    0.0
2018/03/11 14:26:58.000   78.249605279   16.122810308   648.8847   5   9   2.9907   1.9294  12.0857  -0.6236  -1.2856   5.5351   0.00    0.0
2018/03/11 14:26:59.000   78.249598613   16.122807137   647.0278   5   9   2.9905   1.9294  12.0854  -0.6233  -1.2849   5.5348   0.00    0.0
2018/03/11 14:27:00.000   78.249594446   16.122815526   646.2708   5   9   2.9903   1.9294  12.0851  -0.6229  -1.2842   5.5344   0.00    0.0
2018/03/11 14:27:01.000   78.249601229   16.122820282   647.8196   5   9   2.9901   1.9294  12.0848  -0.6226  -1.2834   5.5340   0.00    0.0
2018/03/11 14:27:02.000   78.249606208   16.122817472   648.0587   5   9   2.9898   1.9294  12.0845  -0.6222  -1.2827   5.5337   0.00    0.0
2018/03/11 14:27:03.000   78.249611072   16.122812546   649.0243   5   9   2.9896   1.9294  12.0843  -0.6218  -1.2820   5.5333   0.00    0.0
2018/03/11 14:27:04.000   78.249612663   16.122812628   649.9106   5   9   2.9894   1.9293  12.0840  -0.6215  -1.2812   5.5329   0.00    0.0
2018/03/11 14:27:05.000   78.249610287   16.122814720   648.7726   5   9   2.9892   1.9293  12.0837  -0.6211  -1.2805   5.5325   0.00    0.0
2018/03/11 14:27:06.000   78.249607509   16.122815211   649.5650   5   9   2.9889   1.9293  12.0833  -0.6207  -1.2797   5.5322   0.00    0.0
2018/03/11 14:27:07.000   78.249608464   16.122813559   650.1376   5   9   2.9887   1.9293  12.0830  -0.6204  -1.2790   5.5318   0.00    0.0
2018/03/11 14:27:08.000   78.249602571   16.122817726   646.4930   5   9   2.9885   1.9293  12.0827  -0.6200  -1.2783   5.5314   0.00    0.0
2018/03/11 14:27:09.000   78.249603044   16.122819595   646.4417   5   9   2.9882   1.9293  12.0824  -0.6196  -1.2775   5.5310   0.00    0.0
2018/03/11 14:27:10.000   78.249604606   16.122824393   646.6876   5   9   2.9880   1.9293  12.0820  -0.6193  -1.2768   5.5306   0.00    0.0
2018/03/11 14:27:11.000   78.249608293   16.122812878   648.8362   5   9   2.9878   1.9293  12.0817  -0.6189  -1.2760   5.5302   0.00    0.0
2018/03/11 14:27:12.000   78.249614581   16.122817843   650.2515   5   9   2.9875   1.9292  12.0814  -0.6185  -1.2753   5.5298   0.00    0.0
2018/03/11 14:27:13.000   78.249613278   16.122815079   650.2745   5   9   2.9873   1.9292  12.0810  -0.6182  -1.2746   5.5294   0.00    0.0
2018/03/11 14:27:14.000   78.249608784   16.122813239   647.8025   5   9   2.9870   1.9292  12.0806  -0.6178  -1.2738   5.5290   0.00    0.0
2018/03/11 14:27:15.000   78.249601210   16.122801264   646.0923   5   9   2.9868   1.9292  12.0803  -0.6174  -1.2731   5.5286   0.00    0.0
2018/03/11 14:27:16.000   78.249594408   16.122809316   643.5840   5   9   2.9866   1.9292  12.0799  -0.6171  -1.2723   5.5282   0.00    0.0
2018/03/11 14:27:17.000   78.249594556   16.122820864   643.0181   5   9   2.9863   1.9292  12.0795  -0.6167  -1.2716   5.5278   0.00    0.0
2018/03/11 14:27:18.000   78.249599678   16.122818741   643.7442   5   9   2.9861   1.9292  12.0791  -0.6163  -1.2708   5.5274   0.00    0.0
2018/03/11 14:27:19.000   78.249605277   16.122825522   645.3932   5   9   2.9858   1.9291  12.0788  -0.6160  -1.2701   5.5270   0.00    0.0
2018/03/11 14:27:20.000   78.249615674   16.122798909   648.6961   5   9   2.9856   1.9291  12.0784  -0.6156  -1.2693   5.5266   0.00    0.0
2018/03/11 14:27:21.000   78.249619751   16.122805191   651.3439   5   9   2.9853   1.9291  12.0780  -0.6152  -1.2686   5.5261   0.00    0.0
2018/03/11 14:27:22.000   78.249616928   16.122801130   650.9468   5   9   2.9851   1.9291  12.0775  -0.6148  -1.2678   5.5257   0.00    0.0
2018/03/11 14:27:23.000   78.249611772   16.122796849   649.2526   5   9   2.9848   1.9291  12.0771  -0.6145  -1.2671   5.5253   0.00    0.0
2018/03/11 14:27:24.000   78.249612385   16.122809302   650.4964   5   9   2.9846   1.9291  12.0767  -0.6141  -1.2663   5.5249   0.00    0.0
2018/03/11 14:27:25.000   78.249606805   16.122817279   649.0886   5   9   2.9843   1.9291  12.0763  -0.6137  -1.2656   5.5244   0.00    0.0
2018/03/11 14:27:26.000   78.249601743   16.122818508   648.3108   5   9   2.9841   1.9291  12.0759  -0.6134  -1.2648   5.5240   0.00    0.0
2018/03/11 14:27:27.000   78.249599942   16.122824110   645.4445   5   9   2.9838   1.9290  12.0754  -0.6130  -1.2640   5.5235   0.00    0.0
2018/03/11 14:27:28.000   78.249604699   16.122819542   648.6360   5   9   2.9836   1.9290  12.0750  -0.6126  -1.2633   5.5231   0.00    0.0
2018/03/11 14:27:29.000   78.249600491   16.122814653   647.5021   5   9   2.9833   1.9290  12.0745  -0.6122  -1.2625   5.5227   0.00    0.0
2018/03/11 14:27:30.000   78.249603982   16.122820775   648.8401   5   9   2.9830   1.9290  12.0741  -0.6119  -1.2618   5.5222   0.00    0.0
2018/03/11 14:27:31.000   78.249604467   16.122816910   648.9144   5   9   2.9828   1.9290  12.0736  -0.6115  -1.2610   5.5218   0.00    0.0
2018/03/11 14:27:32.000   78.249605757   16.122818860   649.8809   5   9   2.9825   1.9290  12.0731  -0.6111  -1.2602   5.5213   0.00    0.0
2018/03/11 14:27:33.000   78.249604859   16.122830248   648.8656   5   9   2.9823   1.9290  12.0727  -0.6107  -1.2595   5.5209   0.00    0.0
2018/03/11 14:27:34.000   78.249606025   16.122828482   648.9860   5   9   2.9820   1.9289  12.0722  -0.6104  -1.2587   5.5204   0.00    0.0
2018/03/11 14:27:35.000   78.249608099   16.122821012   648.2462   5   9   2.9817   1.9289  12.0717  -0.6100  -1.2580   5.5199   0.00    0.0
2018/03/11 14:27:36.000   78.249612980   16.122819095   650.6006   5   9   2.9815   1.9289  12.0712  -0.6096  -1.2572   5.5195   0.00    0.0
2018/03/11 14:27:37.000   78.249608093   16.122812519   648.8536   5   9   2.9812   1.9289  12.0707  -0.6092  -1.2564   5.5190   0.00    0.0
2018/03/11 14:27:38.000   78.249607759   16.122822799   648.9393   5   9   2.9809   1.9289  12.0702  -0.6089  -1.2557   5.5185   0.00    0.0
2018/03/11 14:27:39.000   78.249603357   16.122800106   647.9927   5   9   2.9807   1.9289  12.0697  -0.6085  -1.2549   5.5181   0.00    0.0
2018/03/11 14:27:40.000   78.249604026   16.122812203   647.9930   5   9   2.9804   1.9289  12.0692  -0.6081  -1.2541   5.5176   0.00    0.0
2018/03/11 14:27:41.000   78.249604933   16.122796134   647.4421   5   9   2.9801   1.9289  12.0687  -0.6077  -1.2534   5.5171   0.00    0.0
2018/03/11 14:27:42.000   78.249614375   16.122783559   650.5473   5   9   2.9798   1.9288  12.0681  -0.6073  -1.2526   5.5166   0.00    0.0
2018/03/11 14:27:43.000   78.249619428   16.122797727   650.0162   5   9   2.9796   1.9288  12.0676  -0.6070  -1.2518   5.5161   0.00    0.0
2018/03/11 14:27:44.000   78.249615903   16.122819418   648.8288   5   9   2.9793   1.9288  12.0671  -0.6066  -1.2510   5.5156   0.00    0.0
2018/03/11 14:27:45.000   78.249610831   16.122826861   646.7507   5   9   2.9790   1.9288  12.0665  -0.6062  -1.2503   5.5152   0.00    0.0
2018/03/11 14:27:46.000   78.249610021   16.122844163   647.5805   5   9   2.9787   1.9288  12.0660  -0.6058  -1.2495   5.5147   0.00    0.0
2018/03/11 14:27:47.000   78.249607934   16.122830662   647.7049   5   9   2.9785   1.9288  12.0654  -0.6054  -1.2487   5.5142   0.00    0.0
2018/03/11 14:27:48.000   78.249602068   16.122833325   646.6407   5   9   2.9782   1.9288  12.0648  -0.6051  -1.2479   5.5137   0.00    0.0
2018/03/11 14:27:49.000   78.249592605   16.122822560   644.7983   5   9   2.9779   1.9287  12.0643  -0.6047  -1.2472   5.5132   0.00    0.0
2018/03/11 14:27:50.000   78.249594466   16.122824986   645.7485   5   9   2.9776   1.9287  12.0637  -0.6043  -1.2464   5.5127   0.00    0.0
2018/03/11 14:27:51.000   78.249599642   16.122831398   646.5622   5   9   2.9773   1.9287  12.0631  -0.6039  -1.2456   5.5122   0.00    0.0
2018/03/11 14:27:52.000   78.249609282   16.122819832   648.7579   5   9   2.9771   1.9287  12.0625  -0.6035  -1.2448   5.5116   0.00    0.0
2018/03/11 14:27:53.000   78.249611516   16.122835928   648.5659   5   9   2.9768   1.9287  12.0619  -0.6032  -1.2440   5.5111   0.00    0.0
2018/03/11 14:27:54.000   78.249607971   16.122816469   647.6918   5   9   2.9765   1.9287  12.0613  -0.6028  -1.2433   5.5106   0.00    0.0
2018/03/11 14:27:55.000   78.249603836   16.122820734   646.1338   5   9   2.9762   1.9287  12.0607  -0.6024  -1.2425   5.5101   0.00    0.0
2018/03/11 14:27:56.000   78.249607977   16.122822855   648.7553   5   9   2.9759   1.9287  12.0601  -0.6020  -1.2417   5.5096   0.00    0.0
2018/03/11 14:27:57.000   78.249605051   16.122814484   648.2194   5   9   2.9756   1.9286  12.0595  -0.6016  -1.2409   5.5090   0.00    0.0
2018/03/11 14:27:58.000   78.249606930   16.122814533   649.9417   5   9   2.9753   1.9286  12.0589  -0.6012  -1.2401   5.5085   0.00    0.0
2018/03/11 14:27:59.000   78.249606132   16.122799794   648.9858   5   9   2.9750   1.9286  12.0583  -0.6009  -1.2393   5.5080   0.00    0.0
2018/03/11 14:28:00.000   78.249607602   16.122808123   650.0845   5   9   2.9748   1.9286  12.0576  -0.6005  -1.2386   5.5075   0.00    0.0
2018/03/11 14:28:01.000   78.249610190   16.122792024   651.2218   5   9   2.9745   1.9286  12.0570  -0.6001  -1.2378   5.5069   0.00    0.0
2018/03/11 14:28:02.000   78.249610902   16.122796296   651.6464   5   9   2.9742   1.9286  12.0563  -0.5997  -1.2370   5.5064   0.00    0.0
2018/03/11 14:28:03.000   78.249604356   16.122783214   648.7607   5   9   2.9739   1.9286  12.0557  -0.5993  -1.2362   5.5058   0.00    0.0
2018/03/11 14:28:04.000   78.249608002   16.122791473   650.8206   5   9   2.9736   1.9285  12.0550  -0.5989  -1.2354   5.5053   0.00    0.0
2018/03/11 14:28:05.000   78.249606504   16.122804388   650.0897   5   9   2.9733   1.9285  12.0544  -0.5985  -1.2346   5.5048   0.00    0.0
2018/03/11 14:28:06.000   78.249608776   16.122809566   648.3808   5   9   2.9730   1.9285  12.0537  -0.5981  -1.2338   5.5042   0.00    0.0
2018/03/11 14:28:07.000   78.249613486   16.122812517   648.9940   5   9   2.9727   1.9285  12.0530  -0.5978  -1.2330   5.5036   0.00    0.0
2018/03/11 14:28:08.000   78.249617235   16.122825135   650.3108   5   9   2.9724   1.9285  12.0523  -0.5974  -1.2322   5.5031   0.00    0.0
2018/03/11 14:28:09.000   78.249612969   16.122816406   648.5500   5   9   2.9721   1.9285  12.0516  -0.5970  -1.2314   5.5025   0.00    0.0
2018/03/11 14:28:10.000   78.249608377   16.122827666   645.8619   5   9   2.9718   1.9285  12.0509  -0.5966  -1.2306   5.5020   0.00    0.0
2018/03/11 14:28:11.000   78.249607332   16.122815262   646.8476   5   9   2.9715   1.9285  12.0502  -0.5962  -1.2298   5.5014   0.00    0.0
2018/03/11 14:28:12.000   78.249599041   16.122817467   645.7937   5   9   2.9712   1.9284  12.0495  -0.5958  -1.2290   5.5008   0.00    0.0
2018/03/11 14:28:13.000   78.249593568   16.122802660   645.6010   5   9   2.9709   1.9284  12.0488  -0.5954  -1.2282   5.5003   0.00    0.0
2018/03/11 14:28:14.000   78.249591573   16.122811520   644.5757   5   9   2.9706   1.9284  12.0481  -0.5950  -1.2274   5.4997   0.00    0.0
2018/03/11 14:28:15.000   78.249601531   16.122809781   646.4741   5   9   2.9702   1.9284  12.0474  -0.5946  -1.2266   5.4991   0.00    0.0
2018/03/11 14:28:16.000   78.249616581   16.122810178   650.1434   5   9   2.9699   1.9284  12.0466  -0.5943  -1.2258   5.4985   0.00    0.0
2018/03/11 14:28:17.000   78.249619256   16.122802514   649.0799   5   9   2.9696   1.9284  12.0459  -0.5939  -1.2250   5.4980   0.00    0.0
2018/03/11 14:28:18.000   78.249614868   16.122822652   646.2238   5   9   2.9693   1.9284  12.0452  -0.5935  -1.2242   5.4974   0.00    0.0
2018/03/11 14:28:19.000   78.249611879   16.122796363   647.1148   5   9   2.9690   1.9283  12.0444  -0.5931  -1.2234   5.4968   0.00    0.0
2018/03/11 14:28:20.000   78.249613335   16.122790289   650.4630   5   9   2.9687   1.9283  12.0437  -0.5927  -1.2226   5.4962   0.00    0.0
2018/03/11 14:28:21.000   78.249609647   16.122801317   651.3768   5   9   2.9684   1.9283  12.0429  -0.5923  -1.2218   5.4956   0.00    0.0
2018/03/11 14:28:22.000   78.249603996   16.122791256   651.1082   5   9   2.9680   1.9283  12.0421  -0.5919  -1.2210   5.4950   0.00    0.0
2018/03/11 14:28:23.000   78.249603901   16.122793773   650.4563   5   9   2.9677   1.9283  12.0414  -0.5915  -1.2202   5.4944   0.00    0.0
2018/03/11 14:28:24.000   78.249603610   16.122794824   649.6781   5   9   2.9674   1.9283  12.0406  -0.5911  -1.2194   5.4938   0.00    0.0
2018/03/11 14:28:25.000   78.249603682   16.122799826   649.0761   5   9   2.9671   1.9283  12.0398  -0.5907  -1.2186   5.4932   0.00    0.0
2018/03/11 14:28:26.000   78.249605549   16.122801069   647.4845   5   9   2.9668   1.9283  12.0390  -0.5903  -1.2178   5.4926   0.00    0.0
2018/03/11 14:28:27.000   78.249614339   16.122813283   652.3505   5  10   1.8650   1.8933   6.8011  -1.0915  -2.2610   2.6922   0.00    0.0
2018/03/11 14:28:28.000   78.249614711   16.122804424   652.6482   5  10   1.8650   1.8932   6.8018  -1.0914  -2.2609   2.6924   0.00    0.0
2018/03/11 14:28:29.000   78.249617367   16.122798163   654.2206   5  10   1.8650   1.8932   6.8025  -1.0914  -2.2608   2.6925   0.00    0.0
2018/03/11 14:28:30.000   78.249618297   16.122801662   653.6958   5  10   1.8650   1.8931   6.8033  -1.0913  -2.2608   2.6927   0.00    0.0
2018/03/11 14:28:31.000   78.249619596   16.122804325   653.3160   5  10   1.8650   1.8930   6.8040  -1.0913  -2.2607   2.6929   0.00    0.0
2018/03/11 14:28:32.000   78.249617046   16.122806070   653.2648   5  10   1.8650   1.8930   6.8047  -1.0912  -2.2607   2.6930   0.00    0.0
2018/03/11 14:28:33.000   78.249617110   16.122817409   652.2084   5  10   1.8650   1.8929   6.8054  -1.0912  -2.2606   2.6932   0.00    0.0
2018/03/11 14:28:34.000   78.249613838   16.122823801   651.8618   5  10   1.8651   1.8929   6.8061  -1.0911  -2.2606   2.6934   0.00    0.0
2018/03/11 14:28:35.000   78.249610561   16.122828586   651.0679   5  10   1.8651   1.8928   6.8069  -1.0911  -2.2605   2.6935   0.00    0.0
2018/03/11 14:28:36.000   78.249610993   16.122822777   650.8157   5  10   1.8651   1.8927   6.8076  -1.0911  -2.2604   2.6937   0.00    0.0
2018/03/11 14:28:37.000   78.249610292   16.122809701   651.0340   5  10   1.8651   1.8927   6.8083  -1.0910  -2.2604   2.6939   0.00    0.0
2018/03/11 14:28:38.000   78.249613516   16.122789996   651.4774   5  10   1.8651   1.8926   6.8090  -1.0910  -2.2603   2.6940   0.00    0.0
2018/03/11 14:28:39.000   78.249612767   16.122783666   652.0796   5  10   1.8651   1.8926   6.8097  -1.0909  -2.2603   2.6942   0.00    0.0
2018/03/11 14:28:40.000   78.249614691   16.122794388   651.5254   5  10   1.8651   1.8925   6.8104  -1.0909  -2.2602   2.6944   0.00    0.0
2018/03/11 14:28:41.000   78.249614155   16.122802432   650.4959   5  10   1.8651   1.8925   6.8111  -1.0908  -2.2601   2.6945   0.00    0.0
2018/03/11 14:28:42.000   78.249615686   16.122821487   650.3201   5  10   1.8652   1.8924   6.8119  -1.0908  -2.2601   2.6947   0.00    0.0
2018/03/11 14:28:43.000   78.249617263   16.122837504   650.0983   5  10   1.8652   1.8923   6.8126  -1.0907  -2.2600   2.6948   0.00    0.0
2018/03/11 14:28:44.000   78.249616215   16.122834539   650.3454   5  10   1.8652   1.8923   6.8133  -1.0907  -2.2600   2.6950   0.00    0.0
2018/03/11 14:28:45.000   78.249617885   16.122825935   651.5844   5  10   1.8652   1.8922   6.8140  -1.0906  -2.2599   2.6952   0.00    0.0
2018/03/11 14:28:46.000   78.249619047   16.122816085   653.7550   5  10   1.8652   1.8922   6.8147  -1.0906  -2.2598   2.6953   0.00    0.0
2018/03/11 14:28:47.000   78.249614293   16.122815006   653.1801   5  10   1.8652   1.8921   6.8154  -1.0905  -2.2598   2.6955   0.00    0.0
2018/03/11 14:28:48.000   78.249617012   16.122808473   654.4608   5  10   1.8652   1.8920   6.8161  -1.0905  -2.2597   2.6957   0.00    0.0
2018/03/11 14:28:49.000   78.249615521   16.122804422   653.5872   5  10   1.8652   1.8920   6.8168  -1.0904  -2.2596   2.6958   0.00    0.0
2018/03/11 14:28:50.000   78.249615994   16.122822092   652.6966   5  10   1.8653   1.8919   6.8175  -1.0904  -2.2596   2.6960   0.00    0.0
2018/03/11 14:28:51.000   78.249617365   16.122818832   652.1473   5  10   1.8653   1.8919   6.8182  -1.0903  -2.2595   2.6961   0.00    0.0
2018/03/11 14:28:52.000   78.249615246   16.122814911   651.5354   5  10   1.8653   1.8918   6.8189  -1.0903  -2.2594   2.6963   0.00    0.0
2018/03/11 14:28:53.000   78.249615413   16.122817920   652.5237   5  10   1.8653   1.8917   6.8196  -1.0902  -2.2594   2.6965   0.00    0.0
2018/03/11 14:28:54.000   78.249616229   16.122807413   652.2549   5  10   1.8653   1.8917   6.8204  -1.0902  -2.2593   2.6966   0.00    0.0
2018/03/11 14:28:55.000   78.249615784   16.122804369   652.1178   5  10   1.8653   1.8916   6.8211  -1.0901  -2.2592   2.6968   0.00    0.0
2018/03/11 14:28:56.000   78.249611623   16.122798459   651.1003   5  10   1.8653   1.8916   6.8218  -1.0901  -2.2592   2.6969   0.00    0.0
2018/03/11 14:28:57.000   78.249609693   16.122817462   650.5919   5  10   1.8653   1.8915   6.8225  -1.0901  -2.2591   2.6971   0.00    0.0
2018/03/11 14:28:58.000   78.249610740   16.122819755   650.7552   5  10   1.8654   1.8915   6.8232  -1.0900  -2.2590   2.6973   0.00    0.0
2018/03/11 14:28:59.000   78.249608847   16.122827818   650.0798   5  10   1.8654   1.8914   6.8239  -1.0900  -2.2590   2.6974   0.00    0.0
2018/03/11 14:29:00.000   78.249607428   16.122832871   649.8536   5  10   1.8654   1.8913   6.8246  -1.0899  -2.2589   2.6976   0.00    0.0
2018/03/11 14:29:01.000   78.249610345   16.122828177   650.3699   5  10   1.8654   1.8913   6.8253  -1.0899  -2.2588   2.6977   0.00    0.0
2018/03/11 14:29:02.000   78.249613828   16.122814783   652.4630   5  10   1.8654   1.8912   6.8260  -1.0898  -2.2588   2.6979   0.00    0.0
2018/03/11 14:29:03.000   78.249617155   16.122796063   651.8020   5  10   1.8654   1.8912   6.8267  -1.0898  -2.2587   2.6980   0.00    0.0
2018/03/11 14:29:04.000   78.249618011   16.122789836   653.3478   5  10   1.8654   1.8911   6.8274  -1.0897  -2.2586   2.6982   0.00    0.0
2018/03/11 14:29:05.000   78.249615408   16.122812304   652.3715   5  10   1.8654   1.8910   6.8281  -1.0897  -2.2585   2.6984   0.00    0.0
2018/03/11 14:29:06.000   78.249616311   16.122812491   652.0628   5  10   1.8655   1.8910   6.8288  -1.0896  -2.2585   2.6985   0.00    0.0
2018/03/11 14:29:07.000   78.249614814   16.122822000   651.8105   5  10   1.8655   1.8909   6.8295  -1.0895  -2.2584   2.6987   0.00    0.0
2018/03/11 14:29:08.000   78.249614356   16.122826826   650.7510   5  10   1.8655   1.8909   6.8302  -1.0895  -2.2583   2.6988   0.00    0.0
