     2.11           OBSERVATION DATA    M (MIXED)           RINEX VERSION / TYPE
teqc  2018Mar15                         20180319 14:17:32UTCPGM / RUN BY / DATE
Linux 2.6.32-573.12.1.x86_64|x86_64|gcc -static|Linux 64|=+ COMMENT
END OF STATIC MODE OBSERVATION                              COMMENT
BIT 2 OF LLI FLAGS DATA COLLECTED UNDER A/S CONDITION       COMMENT
-Unknown-                                                   MARKER NAME
4625                                                        MARKER NUMBER
-Unknown-           -Unknown-                               OBSERVER / AGENCY
5127468778          TRIMBLE             4.63                REC # / TYPE / VERS
47477114                            NONE                    ANT # / TYPE
 -4078709.9211        0.0000  4887104.6879                  APPROX POSITION XYZ
        0.0000        0.0000        0.0000                  ANTENNA: DELTA H/E/N
     1     1                                                WAVELENGTH FACT L1/2
     7    L1    L2    C1    P1    P2    S1    S2            # / TYPES OF OBSERV
    18                                                      LEAP SECONDS
 SNR is mapped to RINEX snr flag value [0-9]                COMMENT
  L1 & L2: min(max(int(snr_dBHz/6), 0), 9)                  COMMENT
  2018     3    11    12    25    9.0000000     GPS         TIME OF FIRST OBS
                                                            END OF HEADER
 18  3 11 12 25  9.0000000  0 17R05R13R04G17R14R21R12R22R23R15G28G11
                                G01G10G24G15G13
                  84862971.205 5  20411194.828                    20411197.004
                        35.500
                  81545413.215 6  19633934.500                    19633935.055
                        40.600
                  87356680.275 7  20974174.867                    20974174.945
                        43.000
 124052429.291 7  96664266.51144  23606395.883                    23606399.680
        45.900          29.400
                  84154706.645 7  20297841.313                    20297842.621
                        42.400
                  91521821.520 7  21989625.352                    21989626.754
                        42.000
                                  23661639.297

                  84907300.265 7  20450570.172                    20450571.648
                        43.000
                  95907670.683 6  23051476.898                    23051481.707
                        37.100
                  97816522.454 6  23535032.570                    23535036.906
                        36.400
 115706642.814 7  90161028.92745  22018242.859                    22018245.207
        47.600          34.600
 118626708.845 7  92436407.78545  22573912.500                    22573915.453
        45.300          30.100
 122290907.620 7  95291634.06744  23271185.328                    23271191.871
        43.800          29.600
 116875482.420 7  91071822.31345  22240665.555                    22240670.965
        47.200          35.200
 114480072.525 8  89205273.27346  21784833.109                    21784839.277
        48.000          37.600
 118031482.476 7  91972593.53345  22460644.016                    22460647.848
        45.500          34.200
 124230933.260 6  96803342.45143  23640360.750                    23640364.492
        40.900          22.200
 18  3 11 12 25 10.0000000  0 17R05R13R04G17R14R21R12R22R23R15G28G11
                                G01G10G24G15G13
                  84862444.063 5  20411068.695                    20411070.109
                        35.600
                  81546878.790 6  19634286.563                    19634287.949
                        40.900
                  87359368.848 7  20974819.586                    20974820.836
                        42.800
 124049735.558 7  96662167.50245  23605883.594                    23605887.430
        45.700          30.000
                  84152869.749 7  20297397.164                    20297399.660
                        42.200
                  91524762.682 6  21990330.211                    21990333.086
                        41.600
                                  23662555.570

                  84906934.710 7  20450482.438                    20450483.750
                        43.200
                  95904491.383 6  23050711.578                    23050718.008
                        36.400
                  97813268.354 6  23534250.211                    23534254.324
                        36.700
 115708790.604 7  90162702.52545  22018650.984                    22018653.902
        47.600          34.100
 118626314.876 7  92436100.79045  22573837.641                    22573840.305
        45.600          30.100
 122288781.041 7  95289976.99444  23270779.555                    23270787.320
        42.400          28.600
 116875805.496 7  91072074.05945  22240727.273                    22240732.902
        47.100          35.100
 114478091.793 8  89203729.83846  21784456.406                    21784462.324
        48.200          37.500
 118034559.340 7  91974991.07445  22461230.648                    22461233.563
        46.000          34.400
 124235009.120 6  96806518.43543  23641136.375                    23641140.359
        40.600          21.500
 18  3 11 12 25 11.0000000  0 16R05R13R04G17R14R21R22R23R15G28G11G01
                                G10G24G15G13
                  84861917.649 5  20410942.547                    20410943.445
                        35.700
                  81548344.962 6  19634640.219                    19634641.266
                        40.700
                  87362057.978 7  20975466.180                    20975466.172
                        43.100
 124047042.189 7  96660068.79245  23605371.117                    23605374.754
        45.500          30.100
                  84151033.375 7  20296954.313                    20296956.293
                        42.400
                  91527704.305 6  21991037.695                    21991039.313
                        41.300
                  84906569.930 7  20450394.500                    20450395.555
                        42.700
                  95901312.332 6  23049947.117                    23049953.254
                        36.400
                  97810014.372 6  23533467.523                    23533470.820
                        37.200
 115710938.888 7  90164376.51345  22019059.875                    22019062.551
        47.800          34.200
 118625921.665 7  92435794.40045  22573763.031                    22573765.688
        45.800          30.900
 122286654.986 7  95288320.35544  23270376.055                    23270382.563
        43.700          27.900
 116876129.300 7  91072326.37545  22240788.867                    22240794.148
        47.200          35.300
 114476111.643 8  89202186.87346  21784079.008                    21784085.484
        48.000          37.300
 118037636.642 8  91977388.93145  22461818.281                    22461819.250
        49.100          34.800
 124239085.288 6  96809694.68943  23641911.656                    23641915.746
        40.600          21.100
 18  3 11 12 25 12.0000000  0 16R05R13R04G17R14R21R22R23R15G28G11G01
                                G10G24G15G13
                  84861391.975 6  20410815.406                    20410817.262
                        36.000
                  81549811.805 6  19634993.453                    19634994.340
                        40.900
                  87364747.600 7  20976111.023                    20976112.090
                        42.700
 124044349.184 7  96657970.35345  23604859.125                    23604862.168
        46.200          30.700
                  84149197.523 7  20296511.383                    20296513.469
                        42.400
                  91530646.413 6  21991744.188                    21991746.711
                        41.400
                  84906205.896 7  20450306.852                    20450307.035
                        43.100
                  95898133.523 6  23049182.734                    23049189.020
                        36.900
                  97806760.495 6  23532684.258                    23532688.652
                        37.500
 115713087.688 7  90166050.90745  22019468.930                    22019471.789
        47.600          34.700
 118625529.220 7  92435488.59145  22573687.938                    22573690.656
        45.800          30.200
 122284529.577 7  95286664.21844  23269972.602                    23269977.992
        45.300          28.600
 116876453.797 7  91072579.24245  22240850.125                    22240856.121
        47.200          35.400
 114474132.048 7  89200644.33746  21783702.719                    21783708.637
        47.700          37.500
 118040714.389 8  91979787.15445  22462404.016                    22462405.445
        50.700          35.700
 124243161.732 6  96812871.15443  23642687.391                    23642691.008
        40.100          21.800
 18  3 11 12 25 13.0000000  0 16R05R13R04G17R14R21R22R23R15G28G11G01
                                G10G24G15G13
                  84860867.081 5  20410688.852                    20410691.027
                        35.600
                  81551279.327 6  19635346.742                    19635347.867
                        40.600
                  87367437.847 7  20976757.633                    20976757.367
                        42.700
 124041656.631 7  96655872.26845  23604346.406                    23604349.664
        46.300          30.100
                  84147362.268 7  20296068.797                    20296070.688
                        42.400
                  91533589.079 7  21992451.781                    21992454.109
                        42.300
                  84905842.673 7  20450219.234                    20450220.219
                        42.900
                  95894955.028 6  23048419.914                    23048425.332
                        36.800
                  97803506.849 6  23531900.719                    23531905.730
                        38.000
 115715237.059 7  90167725.73645  22019877.875                    22019880.711
        47.000          34.700
 118625137.588 7  92435183.41945  22573613.227                    22573616.145
        45.400          30.300
 122282404.826 7  95285008.57044  23269568.023                    23269573.676
        45.700          29.100
 116876779.119 7  91072832.75046  22240911.953                    22240918.199
        46.900          36.000
 114472153.087 7  89199102.28946  21783326.313                    21783332.566
        46.900          37.600
 118043792.718 8  91982185.86546  22462988.695                    22462992.141
        49.100          36.000
 124247238.524 6  96816047.86843  23643463.336                    23643467.152
        40.600          22.500
 18  3 11 12 25 14.0000000  0 16R05R13R04G17R14R21R22R23R15G28G11G01
                                G10G24G15G13
                  84860342.919 5  20410563.922                    20410564.566
                        35.600
                  81552747.494 6  19635699.578                    19635701.340
                        40.400
                  87370128.623 7  20977403.547                    20977403.727
                        42.600
 124038964.437 7  96653774.45145  23603834.547                    23603837.496
        47.200          30.000
                  84145527.510 7  20295626.539                    20295628.578
                        42.400
                  91536532.199 7  21993160.891                    21993161.547
                        42.800
                  84905480.232 7  20450131.789                    20450132.805
                        42.800
                  95891776.760 6  23047655.477                    23047661.086
                        36.400
                  97800253.311 6  23531117.531                    23531122.754
                        38.000
 115717386.956 7  90169400.98145  22020286.953                    22020289.887
        46.900          34.500
 118624746.736 7  92434878.85445  22573538.930                    22573542.211
        45.600          30.700
 122280280.603 7  95283353.31644  23269163.438                    23269169.707
        45.000          29.400
 116877105.165 7  91073086.81945  22240973.594                    22240979.906
        46.400          35.000
 114470174.649 7  89197560.64846  21782949.578                    21782955.848
        47.100          37.900
 118046871.590 8  91984585.00945  22463572.914                    22463578.031
        48.100          35.500
 124251315.585 6  96819224.79443  23644239.398                    23644242.738
        41.000          22.600
 18  3 11 12 25 15.0000000  0 16R05R13R04G17R14R21R22R23R15G28G11G01
                                G10G24G15G13
                  84859819.486 5  20410438.008                    20410438.809
                        35.300
                  81554216.305 6  19636053.555                    19636054.605
                        40.600
                  87372819.974 7  20978049.211                    20978050.398
                        42.800
 124036272.645 7  96651676.95845  23603322.445                    23603325.438
        46.800          30.400
                  84143693.297 7  20295184.281                    20295186.316
                        42.600
                  91539475.810 7  21993869.297                    21993868.488
                        43.500
                  84905118.545 7  20450044.063                    20450045.758
                        43.200
                  95888598.774 5  23046893.008                    23046897.426
                        35.800
                  97796999.903 6  23530334.969                    23530340.215
                        37.700
 115719537.360 7  90171076.61945  22020696.414                    22020698.980
        46.700          33.800
 118624356.646 7  92434574.88844  22573465.344                    22573467.891
        45.800          29.800
 122278156.959 7  95281698.53044  23268758.969                    23268765.336
        45.700          29.600
 116877431.965 7  91073341.46845  22241036.445                    22241042.160
        46.500          35.400
 114468196.793 7  89196019.46446  21782573.203                    21782579.398
        47.300          37.900
 118049950.993 8  91986984.54145  22464160.297                    22464164.273
        49.100          35.800
 124255392.962 6  96822401.96643  23645015.289                    23645018.922
        40.600          21.800
 18  3 11 12 25 16.0000000  0 16R05R13R04G17R14R21R22R23R15G28G11G01
                                G10G24G15G13
                  84859296.762 6  20410311.898                    20410312.820
                        36.400
                  81555685.747 6  19636407.531                    19636408.727
                        40.500
                  87375511.854 7  20978695.602                    20978695.988
                        42.600
 124033581.195 7  96649579.72745  23602810.375                    23602813.219
        46.800          31.100
                  84141859.606 7  20294741.570                    20294743.691
                        42.500
                  91542419.903 7  21994576.578                    21994576.094
                        43.600
                  84904757.624 7  20449957.750                    20449959.301
                        43.000
                  95885421.002 5  23046127.734                    23046133.141
                        35.800
                  97793746.600 6  23529552.523                    23529557.543
                        37.900
 115721688.267 7  90172752.64845  22021105.805                    22021108.406
        46.800          34.100
 118623967.328 7  92434271.52545  22573391.664                    22573393.848
        46.000          30.600
 122276033.918 7  95280044.21744  23268355.758                    23268361.207
        46.800          29.100
 116877759.464 7  91073596.65145  22241099.141                    22241104.277
        46.900          35.500
 114466219.465 7  89194478.68146  21782197.070                    21782202.816
        47.600          38.100
 118053030.835 8  91989384.40645  22464747.234                    22464750.195
        51.200          35.200
 124259470.588 6  96825579.34343  23645791.078                    23645794.922
        39.900          21.800
 18  3 11 12 25 17.0000000  0 16R05R13R04G17R14R21R22R23R15G28G11G01
                                G10G24G15G13
                  84858774.768 5  20410185.922                    20410187.484
                        35.600
                  81557155.839 6  19636761.711                    19636762.836
                        40.700
                  87378204.276 7  20979341.883                    20979343.105
                        42.700
 124030890.148 7  96647482.80445  23602297.547                    23602301.242
        46.700          30.200
                  84140026.465 7  20294299.297                    20294301.539
                        42.700
                  91545364.500 7  21995283.953                    21995284.121
                        44.000
                  84904397.463 7  20449871.055                    20449872.066
                        43.100
                  95882243.468 6  23045364.516                    23045368.988
                        36.200
                  97790493.448 6  23528770.219                    23528774.598
                        37.900
 115723839.698 7  90174429.08445  22021514.695                    22021517.738
        47.100          33.400
 118623578.769 7  92433968.75545  22573317.617                    22573319.777
        45.800          30.400
 122273911.471 7  95278390.35444  23267951.789                    23267957.617
        46.600          28.900
 116878087.726 7  91073852.42945  22241161.344                    22241166.957
        47.700          35.900
 114464242.732 7  89192938.36746  21781820.797                    21781826.926
        47.800          37.700
 118056111.167 8  91991784.67245  22465333.891                    22465336.703
        51.600          34.800
 124263548.527 6  96828756.95843  23646566.672                    23646570.672
        39.900          21.800
 18  3 11 12 25 18.0000000  0 16R05R13R04G17R14R21R22R23R15G28G11G01
                                G10G24G15G13
                  84858253.429 5  20410059.609                    20410062.078
                        35.700
                  81558626.526 6  19637115.594                    19637116.367
                        40.500
                  87380897.198 7  20979988.211                    20979989.094
                        42.500
 124028199.402 7  96645386.10845  23601785.211                    23601789.219
        46.400          30.400
                  84138193.780 7  20293857.805                    20293859.383
                        42.700
                  91548309.567 7  21995991.000                    21995992.273
                        43.600
                  84904038.019 7  20449784.484                    20449785.652
                        42.800
                  95879066.153 6  23044601.352                    23044605.508
                        36.300
                  97787240.354 6  23527988.117                    23527991.711
                        37.800
 115725991.571 7  90176105.87145  22021924.570                    22021927.449
        47.200          34.000
 118623190.925 7  92433666.53345  22573243.500                    22573245.887
        46.000          30.500
 122271789.526 7  95276736.87044  23267547.219                    23267553.891
        45.500          28.100
 116878416.653 8  91074108.72946  22241224.305                    22241229.516
        48.300          36.100
 114462266.498 7  89191398.44746  21781444.539                    21781450.816
        47.600          37.400
 118059191.964 8  91994185.32045  22465917.453                    22465923.102
        49.500          33.200
 124267626.679 6  96831934.74543  23647343.164                    23647346.836
        40.100          22.900
 18  3 11 12 25 19.0000000  0 16R05R13R04G17R14R21R22R23R15G28G11G01
                                G10G24G15G13
                  84857732.924 5  20409934.344                    20409936.703
                        35.900
                  81560097.898 6  19637469.492                    19637470.926
                        40.600
                  87383590.680 7  20980635.164                    20980635.621
                        42.700
 124025509.078 7  96643289.74545  23601273.492                    23601276.785
        46.400          30.400
                  84136361.652 7  20293415.844                    20293417.203
                        42.400
                  91551255.168 7  21996698.578                    21996699.926
                        43.400
                  84903679.386 7  20449698.500                    20449699.461
                        42.700
                  95875889.110 6  23043837.234                    23043841.684
                        36.800
                  97783987.441 6  23527205.391                    23527209.383
                        38.400
 115728144.010 7  90177783.09145  22022334.203                    22022337.168
        47.000          33.600
 118622803.894 7  92433364.94744  22573169.297                    22573172.363
        45.400          29.700
 122269668.190 7  95275083.87944  23267142.445                    23267149.883
        45.400          29.400
 116878746.375 8  91074365.64646  22241287.180                    22241292.480
        48.500          36.100
 114460290.884 7  89189859.01346  21781069.063                    21781074.535
        47.900          37.300
 118062273.384 7  91996586.46045  22466501.250                    22466509.051
        46.400          33.800
 124271705.185 6  96835112.78844  23648119.055                    23648123.191
        40.400          24.900
 18  3 11 12 25 20.0000000  0 16R05R13R04G17R14R21R22R23R15G28G11G01
                                G10G24G15G13
                  84857213.143 6  20409810.055                    20409811.711
                        36.200
                  81561569.905 6  19637823.922                    19637825.348
                        40.600
                  87386284.728 7  20981281.078                    20981283.074
                        42.700
 124022819.127 7  96641193.67944  23600761.578                    23600765.277
        46.200          29.700
                  84134530.048 7  20292973.781                    20292975.992
                        42.400
                  91554201.253 7  21997405.898                    21997407.645
                        43.100
                  84903321.497 7  20449612.320                    20449612.586
                        42.800
                  95872712.340 6  23043075.883                    23043078.996
                        36.000
                  97780734.682 6  23526422.383                    23526426.590
                        38.400
 115730296.978 7  90179460.73445  22022743.820                    22022746.570
        47.400          34.000
 118622417.634 7  92433063.96845  22573096.445                    22573098.734
        45.900          30.400
 122267547.416 7  95273431.33544  23266740.172                    23266746.281
        46.000          29.300
 116879076.825 8  91074623.14046  22241349.781                    22241355.234
        48.900          36.400
 114458315.814 8  89188319.99746  21780693.016                    21780699.133
        48.200          37.500
 118065355.319 7  91998987.94945  22467089.313                    22467093.785
        47.900          34.600
 124275783.937 6  96838291.02243  23648895.875                    23648899.129
        40.500          22.300
 18  3 11 12 25 21.0000000  0 16R05R13R04G17R14R21R22R23R15G28G11G01
                                G10G24G15G13
                  84856694.099 6  20409685.008                    20409687.207
                        36.100
                  81563042.552 6  19638178.680                    19638179.945
                        40.400
                  87388979.304 7  20981929.750                    20981930.293
                        42.500
 124020129.547 7  96639097.89645  23600249.930                    23600253.305
        46.400          30.400
                  84132699.001 7  20292532.227                    20292534.219
                        42.200
                  91557147.842 7  21998112.523                    21998116.039
                        42.800
                  84902964.384 7  20449525.625                    20449527.211
                        43.100
                  95869535.774 6  23042310.188                    23042315.645
                        36.500
                  97777482.030 6  23525639.813                    23525644.004
                        39.100
 115732450.457 7  90181138.77145  22023153.203                    22023156.059
        47.600          34.000
 118622032.140 7  92432763.58245  22573022.898                    22573025.480
        46.000          30.500
 122265427.260 7  95271779.27544  23266337.164                    23266342.941
        47.400          29.700
 116879408.027 8  91074881.22346  22241412.422                    22241418.465
        48.600          36.100
 114456341.316 8  89186781.42646  21780317.445                    21780322.949
        48.400          37.400
 118068437.688 8  92001389.76745  22467678.203                    22467680.055
        50.100          34.200
 124279863.001 6  96841469.49043  23649672.047                    23649675.945
        40.700          22.900
 18  3 11 12 25 22.0000000  0 16R05R13R04G17R14R21R22R23R15G28G11G01
                                G10G24G15G13
                  84856175.792 5  20409560.555                    20409562.285
                        35.500
                  81564515.854 6  19638533.578                    19638534.793
                        40.200
                  87391674.469 7  20982575.953                    20982576.707
                        42.300
 124017440.355 7  96637002.41244  23599738.234                    23599741.309
        45.700          29.700
                  84130868.498 6  20292090.781                    20292092.273
                        41.900
                  91560094.949 7  21998820.305                    21998823.219
                        42.400
                  84902608.053 7  20449440.070                    20449441.305
                        42.900
                  95866359.529 6  23041546.633                    23041552.387
                        36.500
                  97774229.547 6  23524856.844                    23524860.844
                        38.300
 115734604.469 7  90182817.22145  22023563.672                    22023566.121
        47.100          34.200
 118621647.430 7  92432463.80644  22572949.250                    22572952.309
        46.200          29.800
 122263307.726 7  95270127.69144  23265933.844                    23265939.918
        46.800          29.600
 116879739.945 8  91075139.85845  22241475.844                    22241481.375
        48.300          35.800
 114454367.376 8  89185243.29246  21779942.039                    21779948.027
        48.600          37.500
 118071520.543 8  92003792.00445  22468264.398                    22468267.031
        48.500          33.800
 124283942.394 6  96844648.25043  23650447.516                    23650451.805
        40.300          22.900
 18  3 11 12 25 23.0000000  0 16R05R13R04G17R14R21R22R23R15G28G11G01
                                G10G24G15G13
                  84855658.187 5  20409436.203                    20409437.773
                        35.600
                  81565989.774 6  19638888.430                    19638889.770
                        40.400
                  87394370.141 7  20983223.828                    20983223.789
                        42.400
 124014751.483 7  96634907.18845  23599225.938                    23599229.867
        45.400          30.500
                  84129038.472 7  20291649.930                    20291651.508
                        42.400
                  91563042.543 7  21999528.219                    21999531.320
                        42.000
                  84902252.467 7  20449353.727                    20449355.125
                        43.100
                  95863183.525 5  23040783.484                    23040789.086
                        35.800
                  97770977.130 6  23524073.484                    23524078.742
                        38.600
 115736758.945 7  90184496.03845  22023973.734                    22023976.078
        46.900          33.800
 118621263.442 7  92432164.60645  22572875.641                    22572878.750
        45.900          30.900
 122261188.697 7  95268476.48444  23265530.414                    23265536.574
        45.800          29.800
 116880072.610 8  91075399.08346  22241538.867                    22241544.828
        48.100          36.600
 114452393.968 8  89183705.56546  21779566.391                    21779572.031
        49.000          37.600
 118074603.964 7  92006194.70645  22468848.422                    22468853.609
        43.200          34.000
 124288021.972 6  96847827.14343  23651224.539                    23651228.281
        39.600          22.900
 18  3 11 12 25 24.0000000  0 16R05R13R04G17R14R21R22R23R15G28G11G01
                                G10G24G15G13
                  84855141.303 5  20409312.250                    20409313.777
                        35.400
                  81567464.299 6  19639243.977                    19639244.320
                        40.400
                  87397066.326 7  20983870.805                    20983871.918
                        42.300
 124012062.974 7  96632812.26244  23598714.781                    23598718.176
        46.000          29.800
                  84127208.938 7  20291208.531                    20291209.719
                        42.300
                  91565990.581 6  22000236.578                    22000239.227
                        41.100
                  84901897.597 7  20449268.813                    20449270.051
                        42.900
                  95860007.787 6  23040019.969                    23040025.617
                        36.200
                  97767724.869 6  23523291.586                    23523296.078
                        38.700
 115738913.938 7  90186175.26045  22024383.641                    22024386.188
        47.500          34.600
 118620880.203 7  92431865.99145  22572803.914                    22572806.488
        45.400          30.400
 122259070.243 7  95266825.72244  23265126.938                    23265133.535
        44.900          29.400
 116880405.972 7  91075658.84846  22241601.992                    22241608.383
        47.900          36.200
 114450421.103 8  89182168.27046  21779190.758                    21779196.797
        48.500          37.400
 118077687.927 7  92008597.78345  22469437.250                    22469439.145
        43.900          33.400
 124292101.867 6  96851006.28543  23652000.070                    23652004.477
        39.600          22.500
 18  3 11 12 25 25.0000000  0 16R05R13R04G17R14R21R22R23R15G28G11G01
                                G10G24G15G13
                  84854625.194 5  20409188.313                    20409189.262
                        35.600
                  81568939.509 6  19639598.922                    19639599.496
                        40.400
                  87399763.116 7  20984518.148                    20984518.449
                        43.000
 124009374.907 7  96630717.67945  23598203.492                    23598206.980
        46.300          30.600
                  84125380.000 7  20290766.891                    20290768.699
                        42.300
                  91568939.162 6  22000946.070                    22000947.375
                        41.200
                  84901543.553 7  20449183.430                    20449184.422
                        43.000
                  95856832.366 6  23039256.555                    23039262.348
                        36.700
                  97764472.773 6  23522509.563                    23522514.000
                        38.900
 115741069.500 7  90187854.91545  22024793.570                    22024796.523
        47.400          34.000
 118620497.793 7  92431568.01245  22572730.867                    22572733.547
        45.900          30.400
 122256952.418 7  95265175.46644  23264722.930                    23264730.324
        43.900          28.500
 116880740.124 7  91075919.22845  22241665.461                    22241672.039
        47.400          35.800
 114448448.854 8  89180631.45046  21778815.359                    21778821.328
        48.000          37.800
 118080772.334 8  92011001.16345  22470028.023                    22470026.496
        48.800          35.200
 124296182.041 6  96854185.65443  23652776.633                    23652781.258
        39.700          22.300
 18  3 11 12 25 26.0000000  0 16R05R13R04G17R14R21R22R23R15G28G11G01
                                G10G24G15G13
                  84854109.771 5  20409064.773                    20409065.621
                        35.800
                  81570415.330 6  19639954.008                    19639954.879
                        40.200
                  87402460.434 7  20985165.969                    20985165.988
                        43.000
 124006687.175 7  96628623.34945  23597692.219                    23597695.344
        46.500          30.800
                  84123551.569 7  20290325.727                    20290327.293
                        42.100
                  91571888.201 6  22001654.563                    22001655.125
                        41.000
                  84901190.225 7  20449098.305                    20449099.566
                        42.800
                  95853657.130 6  23038493.398                    23038499.855
                        36.900
                  97761220.759 6  23521726.297                    23521731.547
                        38.900
 115743225.513 7  90189534.92045  22025204.070                    22025206.703
        47.600          33.900
 118620116.115 7  92431270.60344  22572658.523                    22572661.156
        45.700          29.400
 122254835.104 7  95263525.61244  23264320.797                    23264327.609
        44.000          29.900
 116881074.957 7  91076180.14645  22241728.945                    22241735.629
        47.300          35.700
 114446477.101 8  89179095.01946  21778440.242                    21778446.066
        48.300          37.900
 118083857.154 8  92013404.91045  22470613.484                    22470614.375
        49.800          35.100
 124300262.570 6  96857365.29343  23653553.570                    23653557.176
        39.300          22.200
 18  3 11 12 25 27.0000000  0 16R05R13R04G17R14R21R22R23R15G28G11G01
                                G10G24G15G13
                  84853595.123 5  20408940.039                    20408942.016
                        35.200
                  81571891.843 6  19640309.336                    19640310.375
                        40.500
                  87405158.341 7  20985813.508                    20985814.207
                        43.300
 124003999.880 7  96626529.35845  23597181.383                    23597184.094
        47.200          31.300
                  84121723.689 7  20289885.242                    20289886.852
                        42.100
                  91574837.810 6  22002364.273                    22002363.715
                        41.500
                  84900837.708 7  20449013.539                    20449014.773
                        43.000
                  95850482.193 6  23037731.656                    23037736.664
                        37.200
                  97757968.920 6  23520944.492                    23520948.418
                        38.600
 115745382.095 7  90191215.37345  22025614.336                    22025616.734
        47.800          33.600
 118619735.258 7  92430973.83345  22572586.430                    22572588.379
        46.200          30.200
 122252718.418 7  95261876.26244  23263917.406                    23263924.625
        43.600          29.900
 116881410.576 7  91076441.67645  22241793.031                    22241799.285
        47.300          35.400
 114444505.971 8  89177559.07746  21778065.188                    21778071.160
        48.200          37.300
 118086942.567 8  92015809.15646  22471198.711                    22471202.008
        48.200          36.100
 124304343.363 6  96860545.12943  23654330.695                    23654333.664
        39.900          22.200
 18  3 11 12 25 28.0000000  0 16R05R13R04G17R14R21R22R23R15G28G11G01
                                G10G24G15G13
                  84853081.190 5  20408816.023                    20408818.008
                        35.800
                  81573368.953 6  19640665.211                    19640666.348
                        40.500
                  87407856.770 7  20986462.563                    20986461.910
                        42.900
 124001312.927 7  96624435.64045  23596669.406                    23596672.914
        47.800          31.300
                  84119896.323 7  20289444.367                    20289446.457
                        42.400
                  91577787.910 7  22003074.430                    22003073.512
                        42.400
                  84900485.945 7  20448928.844                    20448930.109
                        43.000
                  95847307.471 6  23036967.875                    23036973.820
                        37.300
                  97754717.240 6  23520161.609                    23520166.102
                        38.200
 115747539.189 7  90192896.22145  22026024.883                    22026027.203
        47.700          34.100
 118619355.150 7  92430677.64444  22572514.133                    22572516.141
        46.200          29.700
 122250602.300 7  95260227.35044  23263514.641                    23263521.922
        43.700          29.400
 116881746.927 7  91076703.77445  22241857.539                    22241863.129
        47.500          35.700
 114442535.393 8  89176023.56246  21777689.766                    21777696.285
        48.100          37.500
 118090028.534 7  92018213.82846  22471784.859                    22471789.137
        47.200          36.000
 124308424.458 6  96863725.19143  23655106.727                    23655110.707
        40.200          22.300
 18  3 11 12 25 29.0000000  0 16R05R13R04G17R14R21R22R23R15G28G11G01
                                G10G24G15G13
                  84852568.017 5  20408693.680                    20408694.676
                        35.900
                  81574846.724 6  19641021.008                    19641021.582
                        40.400
                  87410555.734 7  20987109.289                    20987110.555
                        42.700
 123998626.350 8  96622342.20445  23596158.148                    23596162.035
        48.000          30.900
                  84118069.479 7  20289003.500                    20289005.715
                        42.600
                  91580738.465 7  22003783.531                    22003782.520
                        43.000
                  84900134.949 7  20448844.477                    20448845.723
                        42.800
                  95844133.002 6  23036205.023                    23036209.820
                        36.800
                  97751465.673 6  23519379.945                    23519384.477
                        38.200
 115749696.792 7  90194577.47145  22026435.828                    22026438.102
        47.000          34.200
 118618975.814 7  92430382.04644  22572441.477                    22572444.324
        45.800          29.700
 122248486.763 7  95258578.90144  23263112.602                    23263119.328
        43.900          28.500
 116882083.992 7  91076966.42646  22241922.172                    22241927.590
        47.700          36.100
 114440565.345 8  89174488.45646  21777315.297                    21777321.387
        48.100          37.700
 118093114.971 8  92020618.82946  22472374.570                    22472376.789
        50.000          36.200
 124312505.828 6  96866905.48143  23655883.695                    23655887.254
        40.100          22.300
 18  3 11 12 25 30.0000000  0 16R05R13R04G17R14R21R22R23R15G28G11G01
                                G10G24G15G13
                  84852055.566 5  20408569.992                    20408571.523
                        35.500
                  81576325.153 6  19641377.055                    19641378.332
                        40.400
                  87413255.265 7  20987757.531                    20987758.840
                        42.800
 123995940.179 7  96620249.07745  23595647.000                    23595650.926
        47.800          31.100
                  84116243.186 7  20288562.758                    20288565.332
                        42.300
                  91583689.489 7  22004491.586                    22004491.656
                        43.400
                  84899784.728 7  20448759.859                    20448761.336
                        42.600
                  95840958.773 6  23035442.109                    23035447.188
                        36.900
                  97748214.251 6  23518597.367                    23518601.777
                        38.200
 115751854.916 7  90196259.13145  22026846.000                    22026848.516
        46.300          35.000
 118618597.269 7  92430087.06145  22572368.484                    22572372.098
        45.200          30.200
 122246371.836 7  95256930.92544  23262710.914                    23262716.852
        44.600          29.500
 116882421.818 7  91077229.66745  22241986.313                    22241991.855
        47.700          35.700
 114438595.883 7  89172953.81346  21776940.508                    21776946.297
        47.900          37.200
 118096201.886 8  92023024.20846  22472962.492                    22472964.945
        50.900          36.200
 124316587.493 6  96870085.99143  23656660.070                    23656663.957
        40.500          23.000
 18  3 11 12 25 31.0000000  0 16R05R13R04G17R14R21R22R23R15G28G11G01
                                G10G24G15G13
                  84851543.877 5  20408447.305                    20408448.594
                        35.500
                  81577804.186 6  19641733.516                    19641734.504
                        40.400
                  87415955.332 7  20988405.828                    20988406.477
                        42.800
 123993254.370 7  96618156.23745  23595135.953                    23595139.652
        47.800          31.000
                  84114417.414 7  20288122.477                    20288124.426
                        42.600
                  91586641.013 7  22005201.133                    22005201.797
                        43.900
                  84899435.266 7  20448675.469                    20448677.223
                        43.000
                  95837784.781 6  23034678.172                    23034684.609
                        37.000
                  97744962.952 6  23517815.992                    23517819.688
                        38.100
 115754013.555 7  90197941.18645  22027256.992                    22027259.719
        46.700          34.100
 118618219.451 7  92429792.65245  22572297.406                    22572300.031
        45.500          30.300
 122244257.498 7  95255283.38144  23262308.539                    23262314.445
        44.300          28.900
 116882760.375 7  91077493.48645  22242050.586                    22242056.102
        47.400          35.900
 114436626.988 7  89171419.61446  21776565.938                    21776571.691
        47.500          37.400
 118099289.311 8  92025430.00445  22473547.961                    22473553.867
        49.500          35.900
 124320669.418 6  96873266.70643  23657436.648                    23657440.551
        40.400          22.000
 18  3 11 12 25 32.0000000  0 16R05R13R04G17R14R21R22R23R15G28G11G01
                                G10G24G15G13
                  84851032.887 5  20408324.453                    20408325.258
                        35.700
                  81579283.887 6  19642089.117                    19642090.531
                        40.300
                  87418655.951 7  20989054.719                    20989055.379
                        42.700
 123990568.910 7  96616063.66645  23594624.516                    23594628.461
        47.000          30.100
                  84112592.179 7  20287681.961                    20287684.223
                        42.700
                  91589593.055 7  22005909.289                    22005910.949
                        44.300
                  84899086.587 7  20448592.352                    20448592.996
                        42.800
                  95834611.084 5  23033916.609                    23033921.043
                        35.600
                  97741711.783 6  23517033.141                    23517037.746
                        37.900
 115756172.690 7  90199623.62645  22027667.547                    22027670.457
        47.400          34.300
 118617842.413 7  92429498.86745  22572225.672                    22572228.117
        45.600          30.100
 122242143.737 7  95253636.28044  23261905.656                    23261912.395
        43.800          28.700
 116883099.671 7  91077757.88245  22242114.758                    22242120.895
        47.200          35.800
 114434658.624 7  89169885.82046  21776191.234                    21776197.191
        47.200          37.300
 118102377.272 7  92027836.22345  22474133.891                    22474141.574
        46.800          35.500
 124324751.627 6  96876447.64543  23658213.641                    23658217.262
        40.300          22.300
 18  3 11 12 25 33.0000000  0 16R05R13R04G17R14R21R22R23R15G28G11G01
                                G10G24G15G13
                  84850522.634 5  20408201.375                    20408202.141
                        35.800
                  81580764.231 6  19642445.781                    19642446.699
                        40.600
                  87421357.122 7  20989702.609                    20989703.828
                        42.800
 123987883.865 7  96613971.40745  23594113.586                    23594117.914
        45.900          30.900
                  84110767.480 7  20287242.211                    20287244.262
                        42.600
                  91592545.612 7  22006618.164                    22006620.922
                        44.200
                  84898738.668 7  20448508.523                    20448508.988
                        42.600
                  95831437.663 5  23033153.336                    23033158.457
                        35.600
                  97738460.741 6  23516251.688                    23516255.590
                        37.400
 115758332.378 7  90201306.50045  22028079.234                    22028081.523
        47.000          34.600
 118617466.182 7  92429205.70544  22572153.547                    22572156.832
        45.200          29.600
 122240030.543 7  95251989.62645  23261504.133                    23261509.793
        45.000          30.000
 116883439.700 7  91078022.84045  22242179.602                    22242185.648
        47.800          35.900
 114432690.869 7  89168352.50346  21775816.969                    21775823.035
        47.800          37.700
 118105465.787 7  92030242.84145  22474722.727                    22474728.586
        47.500          35.900
 124328834.159 6  96879628.84043  23658990.859                    23658994.137
        40.600          22.800
 18  3 11 12 25 34.0000000  0 16R05R13R04G17R14R21R22R23R15G28G11G01
                                G10G24G15G13
                  84850013.075 5  20408078.000                    20408080.586
                        35.500
                  81582245.209 6  19642803.023                    19642803.039
                        40.900
                  87424058.820 7  20990351.828                    20990352.496
                        42.600
 123985199.144 7  96611879.43244  23593602.203                    23593606.566
        45.700          29.300
                  84108943.280 7  20286803.063                    20286804.219
                        42.400
                  91595498.618 7  22007327.609                    22007329.953
                        43.800
                  84898391.501 7  20448424.320                    20448425.727
                        42.600
                  95828264.445 5  23032390.508                    23032395.563
                        35.600
                  97735209.829 6  23515468.164                    23515473.238
                        37.100
 115760492.515 7  90202989.72745  22028490.000                    22028492.250
        47.000          34.000
 118617090.669 7  92428913.10344  22572081.906                    22572085.121
        45.200          29.100
 122237917.893 7  95250343.40844  23261101.602                    23261108.074
        45.000          29.500
 116883780.426 8  91078288.34045  22242244.172                    22242250.145
        48.100          35.700
 114430723.586 7  89166819.55246  21775442.609                    21775448.434
        47.600          37.900
 118108554.689 8  92032649.75245  22475311.836                    22475316.496
        48.500          35.700
 124332916.920 6  96882810.20643  23659767.336                    23659771.082
        40.800          22.000
 18  3 11 12 25 35.0000000  0 16R05R13R04G17R14R21R22R23R15G28G11G01
                                G10G24G15G13
                  84849504.275 5  20407956.539                    20407957.473
                        35.800
                  81583726.823 6  19643159.336                    19643160.305
                        40.800
                  87426761.064 7  20991001.008                    20991001.074
                        42.600
 123982514.810 7  96609787.74745  23593091.672                    23593095.895
        45.600          30.300
                  84107119.625 7  20286362.156                    20286364.320
                        42.400
                  91598452.096 7  22008036.336                    22008039.715
                        43.700
                  84898045.102 7  20448341.258                    20448342.422
                        42.800
                  95825091.539 5  23031628.352                    23031632.902
                        35.700
                  97731959.100 6  23514686.586                    23514691.336
                        37.700
 115762653.195 7  90204673.37645  22028901.359                    22028903.820
        46.700          33.800
 118616715.936 7  92428621.10344  22572011.313                    22572013.578
        45.600          29.700
 122235805.865 7  95248697.67645  23260700.031                    23260706.141
        45.300          30.000
 116884121.918 8  91078554.42645  22242309.375                    22242315.258
        48.100          35.400
 114428756.910 7  89165287.07546  21775068.094                    21775074.352
        47.700          37.300
 118111644.113 7  92035057.09345  22475898.898                    22475904.945
        47.300          35.100
 124336999.996 6  96885991.82243  23660544.203                    23660547.543
        40.500          23.800
 18  3 11 12 25 36.0000000  0 16R05R13R04G17R14R21R22R23R15G28G11G01
                                G10G24G15G13
                  84848996.235 5  20407833.336                    20407835.063
                        35.700
                  81585209.113 6  19643516.000                    19643516.988
                        40.800
                  87429463.888 7  20991649.039                    20991650.160
                        43.000
 123979830.848 7  96607696.35345  23592581.352                    23592584.676
        45.900          30.600
                  84105296.499 7  20285923.273                    20285924.930
                        42.600
                  91601406.091 7  22008746.461                    22008749.551
                        43.100
                  84897699.478 7  20448257.602                    20448258.934
                        42.700
                  95821918.888 5  23030865.438                    23030870.254
                        35.800
                  97728708.412 6  23513903.938                    23513908.949
                        36.300
 115764814.423 7  90206357.44845  22029312.352                    22029315.063
        47.400          34.100
 118616342.004 7  92428329.72745  22571940.633                    22571942.434
        45.600          30.500
 122233694.418 7  95247052.39644  23260298.242                    23260303.977
        44.700          29.800
 116884464.150 7  91078821.09646  22242374.406                    22242380.320
        47.800          36.100
 114426790.803 8  89163755.04746  21774693.719                    21774699.941
        48.200          37.500
 118114734.144 7  92037464.91945  22476484.617                    22476492.727
        43.900          33.700
 124341083.394 6  96889173.68543  23661321.570                    23661324.934
        41.000          23.600
 18  3 11 12 25 37.0000000  0 16R05R13R04G17R14R21R22R23R15G28G11G01
                                G10G24G15G13
                  84848488.919 5  20407712.570                    20407713.039
                        35.800
                  81586692.042 6  19643872.820                    19643873.902
                        40.600
                  87432167.241 7  20992298.703                    20992298.941
                        43.100
 123977147.322 7  96605605.29444  23592070.641                    23592073.617
        45.900          29.700
                  84103473.931 7  20285482.977                    20285485.281
                        42.500
                  91604360.625 7  22009455.859                    22009458.977
                        42.400
                  84897354.643 7  20448174.109                    20448175.590
                        42.700
                  95818746.529 5  23030103.516                    23030108.293
                        35.700
                  97725457.872 6  23513118.695                    23513126.465
                        36.500
 115766976.153 7  90208041.91145  22029724.070                    22029725.980
        47.300          34.100
 118615968.872 7  92428038.96244  22571868.953                    22571871.938
        45.100          29.900
 122231583.578 7  95245407.59844  23259896.930                    23259902.988
        45.000          29.800
 116884807.142 7  91079088.35445  22242439.359                    22242445.602
        47.500          35.500
 114424825.275 8  89162223.46546  21774320.195                    21774326.324
        48.400          37.600
 118117824.708 7  92039873.11645  22477075.789                    22477079.441
        46.800          33.600
 124345167.062 6  96892355.77143  23662098.680                    23662102.203
        40.800          23.000
 18  3 11 12 25 38.0000000  0 16R05R13R04G17R14R21R22R23R15G28G11G01
                                G10G24G15G13
                  84847982.385 6  20407590.383                    20407591.129
                        36.000
                  81588175.685 6  19644230.445                    19644231.063
                        40.600
                  87434871.190 7  20992947.109                    20992948.797
                        43.100
 123974464.229 7  96603514.58145  23591560.211                    23591563.734
        45.900          30.300
                  84101651.937 7  20285043.695                    20285045.871
                        42.600
                  91607315.700 6  22010166.820                    22010168.906
                        41.900
                  84897010.620 7  20448092.070                    20448093.027
                        42.800
                  95815574.477 6  23029341.906                    23029345.809
                        36.200
                  97722207.721 6  23512337.992                    23512345.367
                        37.300
 115769138.515 7  90209726.87045  22030135.039                    22030137.551
        47.000          33.900
 118615596.549 7  92427748.83545  22571797.586                    22571800.730
        44.500          30.000
 122229473.421 7  95243763.33245  23259494.992                    23259501.547
        45.800          30.300
 116885150.951 7  91079356.25645  22242504.992                    22242511.094
        47.500          35.600
 114422860.389 8  89160692.38246  21773946.258                    21773952.645
        48.800          37.700
 118120915.748 8  92042281.69145  22477665.797                    22477667.070
        49.300          33.700
 124349251.122 6  96895538.15743  23662875.930                    23662879.090
        40.500          23.600
 18  3 11 12 25 39.0000000  0 16R05R13R04G17R14R21R22R23R15G28G11G01
                                G10G24G15G13
                  84847476.550 6  20407468.555                    20407469.820
                        36.100
                  81589659.896 6  19644587.953                    19644588.223
                        40.700
                  87437575.676 7  20993596.609                    20993597.543
                        43.300
 123971781.500 7  96601424.15144  23591049.695                    23591052.910
        46.000          29.100
                  84099830.428 7  20284604.414                    20284606.891
                        42.600
                  91610271.227 6  22010877.492                    22010878.578
                        41.700
                  84896667.320 7  20448008.664                    20448010.508
                        43.000
                  95812402.617 6  23028578.234                    23028583.359
                        36.400
                  97718957.490 6  23511554.203                    23511562.883
                        36.700
 115771301.327 7  90211412.17545  22030546.977                    22030549.094
        47.000          34.200
 118615224.964 7  92427459.29745  22571727.375                    22571730.152
        45.200          30.600
 122227363.794 7  95242119.45745  23259093.281                    23259099.789
        44.800          30.500
 116885495.445 7  91079624.70346  22242571.078                    22242576.992
        47.900          36.200
 114420896.025 8  89159161.70946  21773572.188                    21773578.430
        48.300          38.200
 118124007.243 8  92044690.66945  22478252.227                    22478255.727
        48.600          33.500
 124353335.402 6  96898720.71744  23663652.766                    23663656.297
        41.000          25.300
 18  3 11 12 25 40.0000000  0 16R05R13R04G17R14R21R22R23R15G28G11G01
                                G10G24G15G13
                  84846971.469 6  20407347.383                    20407348.934
                        36.100
                  81591144.783 6  19644945.273                    19644946.117
                        40.400
