% program   : RTKPOST ver.2.4.2
% inp file  : Z:\home\linda\Documents\Spring18\GitHub_Unis\data\processed_data\46250753.obs
% inp file  : Z:\home\linda\Documents\Spring18\GitHub_Unis\data\base_station_data\lyrs0750.18o
% inp file  : Z:\home\linda\Documents\Spring18\GitHub_Unis\data\processed_data\46250753.nav
% obs start : 2018/03/16 10:02:44.0 GPST (week1992 468164.0s)
% obs end   : 2018/03/16 10:17:44.0 GPST (week1992 469064.0s)
% pos mode  : static
% freqs     : L1+L2
% solution  : forward
% elev mask : 15.0 deg
% dynamics  : on
% tidecorr  : off
% ionos opt : estimation
% tropo opt : saastamoinen
% ephemeris : broadcast
% navi sys  : gps glonass galileo qzss sbas
% amb res   : fix and hold
% amb glo   : on
% val thres : 3.0
% antenna1  :                       ( 0.0000  0.0000  0.0000)
% antenna2  :                       ( 0.0000  0.0000  0.0000)
% ref pos   : 78.228825638   15.397310064   495.6816
%
% (lat/lon/height=WGS84/ellipsoidal,Q=1:fix,2:float,3:sbas,4:dgps,5:single,6:ppp,ns=# of satellites)
%  GPST                  latitude(deg) longitude(deg)  height(m)   Q  ns   sdn(m)   sde(m)   sdu(m)  sdne(m)  sdeu(m)  sdun(m) age(s)  ratio
2018/03/16 10:02:44.000   78.246708235   16.083820048   629.8730   2   9   0.5896   0.3239   1.9981   0.1895   0.3948   0.8679   0.00    1.8
2018/03/16 10:02:45.000   78.246709039   16.083826409   630.4558   2   9   0.4244   0.2330   1.4372   0.1364   0.2842   0.6247   0.00    1.5
2018/03/16 10:02:46.000   78.246709223   16.083827711   630.6905   2   9   0.3514   0.1929   1.1888   0.1129   0.2352   0.5170   0.00    1.4
2018/03/16 10:02:47.000   78.246708682   16.083827640   630.5644   2   9   0.3082   0.1692   1.0416   0.0990   0.2061   0.4532   0.00    1.4
2018/03/16 10:02:48.000   78.246708798   16.083827219   630.3789   2   9   0.2789   0.1531   0.9418   0.0895   0.1864   0.4100   0.00    1.4
2018/03/16 10:02:49.000   78.246708823   16.083826666   630.4991   2   9   0.2576   0.1414   0.8687   0.0826   0.1720   0.3783   0.00    1.6
2018/03/16 10:02:50.000   78.246709499   16.083825305   630.7551   2   9   0.2411   0.1324   0.8124   0.0773   0.1608   0.3539   0.00    1.7
2018/03/16 10:02:51.000   78.246709612   16.083824089   630.9629   2   9   0.2280   0.1252   0.7674   0.0731   0.1519   0.3344   0.00    1.7
2018/03/16 10:02:52.000   78.246709607   16.083823084   630.9300   2   9   0.2172   0.1193   0.7304   0.0696   0.1446   0.3184   0.00    1.7
2018/03/16 10:02:53.000   78.246709729   16.083822711   630.9365   2   9   0.2081   0.1143   0.6993   0.0667   0.1385   0.3050   0.00    1.6
2018/03/16 10:02:54.000   78.246709382   16.083823385   630.8518   2   9   0.2004   0.1101   0.6728   0.0642   0.1333   0.2935   0.00    1.5
2018/03/16 10:02:55.000   78.246709445   16.083823052   630.7698   2   9   0.1938   0.1065   0.6498   0.0620   0.1287   0.2836   0.00    1.4
2018/03/16 10:02:56.000   78.246709048   16.083823174   630.6034   2   9   0.1879   0.1033   0.6297   0.0601   0.1247   0.2749   0.00    1.5
2018/03/16 10:02:57.000   78.246709055   16.083823234   630.5275   2   9   0.1827   0.1005   0.6119   0.0585   0.1212   0.2672   0.00    1.6
2018/03/16 10:02:58.000   78.246708684   16.083823289   630.3230   2   9   0.1781   0.0979   0.5960   0.0570   0.1181   0.2603   0.00    1.7
2018/03/16 10:02:59.000   78.246708790   16.083823547   630.2851   2   9   0.1740   0.0957   0.5816   0.0556   0.1152   0.2542   0.00    1.9
2018/03/16 10:03:00.000   78.246708454   16.083823066   630.2333   2   9   0.1703   0.0936   0.5686   0.0544   0.1127   0.2485   0.00    2.2
2018/03/16 10:03:01.000   78.246708218   16.083822119   630.0798   2   9   0.1668   0.0918   0.5568   0.0533   0.1103   0.2434   0.00    2.2
2018/03/16 10:03:02.000   78.246708013   16.083821916   629.9299   2   9   0.1637   0.0901   0.5459   0.0523   0.1082   0.2387   0.00    2.1
2018/03/16 10:03:03.000   78.246707907   16.083822148   629.8807   2   9   0.1608   0.0885   0.5359   0.0513   0.1062   0.2344   0.00    2.1
2018/03/16 10:03:04.000   78.246707826   16.083821928   629.8006   2   9   0.1582   0.0871   0.5266   0.0505   0.1043   0.2304   0.00    2.0
2018/03/16 10:03:05.000   78.246707903   16.083822216   629.8117   2   9   0.1557   0.0858   0.5179   0.0497   0.1026   0.2267   0.00    1.9
2018/03/16 10:03:06.000   78.246707948   16.083822250   629.7797   2   9   0.1534   0.0845   0.5099   0.0489   0.1010   0.2232   0.00    1.9
2018/03/16 10:03:07.000   78.246707945   16.083822299   629.7592   2   9   0.1513   0.0834   0.5023   0.0482   0.0995   0.2199   0.00    1.8
2018/03/16 10:03:08.000   78.246707916   16.083822446   629.7466   2   9   0.1493   0.0823   0.4952   0.0475   0.0981   0.2169   0.00    1.8
2018/03/16 10:03:09.000   78.246708084   16.083822851   629.8145   2   9   0.1474   0.0813   0.4885   0.0469   0.0968   0.2140   0.00    1.9
2018/03/16 10:03:10.000   78.246708329   16.083822845   629.9042   2   9   0.1456   0.0804   0.4822   0.0463   0.0956   0.2112   0.00    1.9
2018/03/16 10:03:11.000   78.246708596   16.083822727   629.9955   2   9   0.1440   0.0795   0.4762   0.0458   0.0944   0.2086   0.00    1.9
2018/03/16 10:03:12.000   78.246708796   16.083822930   630.0696   2   9   0.1424   0.0786   0.4705   0.0452   0.0932   0.2061   0.00    2.0
2018/03/16 10:03:13.000   78.246708991   16.083823267   630.1360   2   9   0.1409   0.0778   0.4650   0.0447   0.0921   0.2038   0.00    1.9
2018/03/16 10:03:14.000   78.246709009   16.083823441   630.1331   2   9   0.1394   0.0771   0.4598   0.0442   0.0911   0.2015   0.00    1.9
2018/03/16 10:03:15.000   78.246709013   16.083823739   630.1104   2   9   0.1381   0.0764   0.4548   0.0438   0.0901   0.1994   0.00    1.8
2018/03/16 10:03:16.000   78.246708959   16.083823886   630.0802   2   9   0.1368   0.0757   0.4500   0.0433   0.0892   0.1973   0.00    1.7
2018/03/16 10:03:17.000   78.246708938   16.083824143   630.0281   2   9   0.1355   0.0750   0.4454   0.0429   0.0883   0.1953   0.00    1.7
2018/03/16 10:03:18.000   78.246708966   16.083824125   630.0364   2   9   0.1343   0.0744   0.4410   0.0425   0.0874   0.1934   0.00    1.7
2018/03/16 10:03:19.000   78.246708982   16.083823853   630.0313   2   9   0.1332   0.0738   0.4367   0.0421   0.0865   0.1915   0.00    1.7
2018/03/16 10:03:20.000   78.246709067   16.083823696   630.0659   2   9   0.1320   0.0732   0.4326   0.0417   0.0857   0.1897   0.00    1.8
2018/03/16 10:03:21.000   78.246709104   16.083823599   630.0883   2   9   0.1310   0.0727   0.4286   0.0413   0.0849   0.1880   0.00    1.7
2018/03/16 10:03:22.000   78.246709139   16.083823325   630.0980   2   9   0.1299   0.0722   0.4247   0.0410   0.0841   0.1863   0.00    1.8
2018/03/16 10:03:23.000   78.246709127   16.083823151   630.1211   2   9   0.1289   0.0717   0.4209   0.0406   0.0834   0.1846   0.00    1.8
2018/03/16 10:03:24.000   78.246709114   16.083823352   630.1286   2   9   0.1280   0.0712   0.4173   0.0403   0.0826   0.1830   0.00    1.7
2018/03/16 10:03:25.000   78.246709058   16.083823539   630.1083   2   9   0.1271   0.0707   0.4137   0.0399   0.0819   0.1815   0.00    1.7
2018/03/16 10:03:26.000   78.246709004   16.083823852   630.0838   2   9   0.1262   0.0703   0.4102   0.0396   0.0812   0.1799   0.00    1.6
2018/03/16 10:03:27.000   78.246709004   16.083823965   630.0683   2   9   0.1253   0.0699   0.4068   0.0393   0.0805   0.1784   0.00    1.6
2018/03/16 10:03:28.000   78.246709048   16.083824240   630.0919   2   9   0.1244   0.0695   0.4035   0.0390   0.0799   0.1770   0.00    1.7
2018/03/16 10:03:29.000   78.246709090   16.083824518   630.1150   2   9   0.1236   0.0690   0.4002   0.0387   0.0792   0.1755   0.00    1.7
2018/03/16 10:03:30.000   78.246709179   16.083824741   630.1498   2   9   0.1228   0.0687   0.3970   0.0384   0.0786   0.1741   0.00    1.7
2018/03/16 10:03:31.000   78.246709220   16.083824727   630.1780   2   9   0.1220   0.0683   0.3939   0.0381   0.0779   0.1728   0.00    1.7
2018/03/16 10:03:32.000   78.246709199   16.083824827   630.1992   2   9   0.1212   0.0679   0.3908   0.0378   0.0773   0.1714   0.00    1.7
2018/03/16 10:03:33.000   78.246709175   16.083824809   630.2078   2   9   0.1205   0.0676   0.3878   0.0376   0.0767   0.1701   0.00    1.8
2018/03/16 10:03:34.000   78.246709051   16.083824649   630.1697   2   9   0.1197   0.0672   0.3848   0.0373   0.0761   0.1688   0.00    1.8
2018/03/16 10:03:35.000   78.246708993   16.083824667   630.1457   2   9   0.1190   0.0669   0.3819   0.0370   0.0755   0.1675   0.00    1.7
2018/03/16 10:03:36.000   78.246708932   16.083824711   630.1023   2   9   0.1183   0.0666   0.3791   0.0368   0.0750   0.1662   0.00    1.8
2018/03/16 10:03:37.000   78.246708920   16.083824571   630.0600   2   9   0.1176   0.0663   0.3762   0.0365   0.0744   0.1650   0.00    1.8
2018/03/16 10:03:38.000   78.246708861   16.083824274   630.0019   2   9   0.1169   0.0659   0.3734   0.0363   0.0738   0.1637   0.00    1.8
2018/03/16 10:03:39.000   78.246708872   16.083824042   629.9746   2   9   0.1163   0.0656   0.3707   0.0360   0.0733   0.1625   0.00    1.8
2018/03/16 10:03:40.000   78.246708897   16.083823944   629.9674   2   9   0.1156   0.0654   0.3680   0.0358   0.0727   0.1613   0.00    1.9
2018/03/16 10:03:41.000   78.246708860   16.083823788   629.9626   2   9   0.1150   0.0651   0.3653   0.0355   0.0722   0.1601   0.00    1.9
2018/03/16 10:03:42.000   78.246708930   16.083823940   630.0013   2   9   0.1144   0.0648   0.3626   0.0353   0.0716   0.1589   0.00    1.9
2018/03/16 10:03:43.000   78.246709034   16.083824233   630.0557   2   9   0.1137   0.0645   0.3600   0.0350   0.0711   0.1577   0.00    1.9
2018/03/16 10:03:44.000   78.246709091   16.083824438   630.1032   2   9   0.1131   0.0643   0.3574   0.0348   0.0706   0.1566   0.00    1.9
2018/03/16 10:03:45.000   78.246709134   16.083824721   630.1616   2   9   0.1125   0.0640   0.3548   0.0346   0.0701   0.1554   0.00    1.9
2018/03/16 10:03:46.000   78.246709154   16.083824996   630.2306   2   9   0.1119   0.0638   0.3523   0.0343   0.0695   0.1543   0.00    1.9
2018/03/16 10:03:47.000   78.246709165   16.083825385   630.2841   2   9   0.1114   0.0635   0.3498   0.0341   0.0690   0.1531   0.00    1.8
2018/03/16 10:03:48.000   78.246709205   16.083825621   630.3435   2   9   0.1108   0.0633   0.3473   0.0339   0.0685   0.1520   0.00    1.8
2018/03/16 10:03:49.000   78.246709246   16.083825854   630.4109   2   9   0.1102   0.0630   0.3448   0.0337   0.0680   0.1509   0.00    1.8
2018/03/16 10:03:50.000   78.246709243   16.083826026   630.4647   2   9   0.1097   0.0628   0.3423   0.0334   0.0675   0.1498   0.00    1.8
2018/03/16 10:03:51.000   78.246709275   16.083826105   630.5277   2   9   0.1091   0.0626   0.3399   0.0332   0.0670   0.1487   0.00    1.8
2018/03/16 10:03:52.000   78.246709308   16.083826358   630.5644   2   9   0.1086   0.0623   0.3375   0.0330   0.0665   0.1476   0.00    1.8
2018/03/16 10:03:53.000   78.246709261   16.083826533   630.5530   2   9   0.1080   0.0621   0.3351   0.0328   0.0660   0.1465   0.00    1.8
2018/03/16 10:03:54.000   78.246709137   16.083826661   630.5028   2   9   0.1075   0.0619   0.3327   0.0326   0.0656   0.1455   0.00    1.7
2018/03/16 10:03:55.000   78.246709012   16.083826762   630.4389   2   9   0.1070   0.0617   0.3304   0.0324   0.0651   0.1444   0.00    1.6
2018/03/16 10:03:56.000   78.246708960   16.083827029   630.4319   2   9   0.1065   0.0615   0.3280   0.0321   0.0646   0.1433   0.00    1.7
2018/03/16 10:03:57.000   78.246708951   16.083827041   630.4302   2   9   0.1059   0.0613   0.3257   0.0319   0.0641   0.1423   0.00    1.7
2018/03/16 10:03:58.000   78.246709044   16.083827178   630.4731   2   9   0.1054   0.0611   0.3234   0.0317   0.0636   0.1412   0.00    1.8
2018/03/16 10:03:59.000   78.246709134   16.083827222   630.5072   2   9   0.1049   0.0609   0.3211   0.0315   0.0632   0.1402   0.00    1.9
2018/03/16 10:04:00.000   78.246709151   16.083827263   630.5073   2   9   0.1044   0.0607   0.3189   0.0313   0.0627   0.1392   0.00    1.9
2018/03/16 10:04:01.000   78.246709137   16.083827282   630.4995   2   9   0.1039   0.0605   0.3166   0.0311   0.0622   0.1381   0.00    1.9
2018/03/16 10:04:02.000   78.246709178   16.083827345   630.4963   2   9   0.1035   0.0603   0.3144   0.0309   0.0618   0.1371   0.00    1.9
2018/03/16 10:04:03.000   78.246709159   16.083827451   630.4890   2   9   0.1030   0.0601   0.3121   0.0307   0.0613   0.1361   0.00    1.8
2018/03/16 10:04:04.000   78.246709146   16.083827468   630.4868   2   9   0.1025   0.0600   0.3099   0.0305   0.0609   0.1351   0.00    1.8
2018/03/16 10:04:05.000   78.246709137   16.083827567   630.4880   2   9   0.1020   0.0598   0.3077   0.0303   0.0604   0.1341   0.00    1.8
2018/03/16 10:04:06.000   78.246709206   16.083827701   630.5328   2   9   0.1016   0.0596   0.3055   0.0302   0.0600   0.1331   0.00    1.9
2018/03/16 10:04:07.000   78.246709227   16.083827621   630.5562   2   9   0.1011   0.0594   0.3034   0.0300   0.0595   0.1321   0.00    1.9
2018/03/16 10:04:08.000   78.246709249   16.083827522   630.5724   2   9   0.1006   0.0593   0.3012   0.0298   0.0591   0.1311   0.00    2.0
2018/03/16 10:04:09.000   78.246709252   16.083827514   630.5898   2   9   0.1002   0.0591   0.2991   0.0296   0.0586   0.1301   0.00    2.1
2018/03/16 10:04:10.000   78.246709213   16.083827515   630.5792   2   9   0.0997   0.0589   0.2969   0.0294   0.0582   0.1291   0.00    2.1
2018/03/16 10:04:11.000   78.246709150   16.083827527   630.5561   2   9   0.0993   0.0588   0.2948   0.0292   0.0578   0.1282   0.00    2.1
2018/03/16 10:04:12.000   78.246709072   16.083827543   630.5183   2   9   0.0988   0.0586   0.2927   0.0290   0.0573   0.1272   0.00    2.1
2018/03/16 10:04:13.000   78.246709027   16.083827574   630.4893   2   9   0.0984   0.0584   0.2906   0.0288   0.0569   0.1262   0.00    2.1
2018/03/16 10:04:14.000   78.246708964   16.083827668   630.4622   2   9   0.0980   0.0583   0.2886   0.0287   0.0565   0.1253   0.00    2.1
2018/03/16 10:04:15.000   78.246708929   16.083827822   630.4457   2   9   0.0975   0.0581   0.2865   0.0285   0.0560   0.1243   0.00    2.2
2018/03/16 10:04:16.000   78.246708914   16.083827822   630.4251   2   9   0.0971   0.0580   0.2845   0.0283   0.0556   0.1234   0.00    2.2
2018/03/16 10:04:17.000   78.246708893   16.083827843   630.4186   2   9   0.0967   0.0578   0.2824   0.0281   0.0552   0.1224   0.00    2.2
2018/03/16 10:04:18.000   78.246708907   16.083827846   630.4211   2   9   0.0963   0.0577   0.2804   0.0280   0.0548   0.1215   0.00    2.3
2018/03/16 10:04:19.000   78.246708947   16.083827797   630.4316   2   9   0.0959   0.0575   0.2784   0.0278   0.0544   0.1206   0.00    2.3
2018/03/16 10:04:20.000   78.246708987   16.083827683   630.4453   2   9   0.0954   0.0574   0.2764   0.0276   0.0539   0.1197   0.00    2.4
2018/03/16 10:04:21.000   78.246709011   16.083827691   630.4515   2   9   0.0950   0.0572   0.2744   0.0274   0.0535   0.1187   0.00    2.4
2018/03/16 10:04:22.000   78.246709022   16.083827678   630.4496   2   9   0.0946   0.0571   0.2725   0.0273   0.0531   0.1178   0.00    2.3
2018/03/16 10:04:23.000   78.246709006   16.083827590   630.4269   2   9   0.0942   0.0570   0.2705   0.0271   0.0527   0.1169   0.00    2.3
2018/03/16 10:04:24.000   78.246708996   16.083827579   630.4141   2   9   0.0938   0.0568   0.2686   0.0269   0.0523   0.1160   0.00    2.3
2018/03/16 10:04:25.000   78.246708994   16.083827595   630.4045   2   9   0.0934   0.0567   0.2667   0.0268   0.0519   0.1151   0.00    2.3
2018/03/16 10:04:26.000   78.246708985   16.083827511   630.4104   2   9   0.0930   0.0565   0.2648   0.0266   0.0515   0.1142   0.00    2.3
2018/03/16 10:04:27.000   78.246709021   16.083827549   630.4306   2   9   0.0926   0.0564   0.2629   0.0265   0.0511   0.1133   0.00    2.3
2018/03/16 10:04:28.000   78.246709063   16.083827563   630.4704   2   9   0.0923   0.0563   0.2610   0.0263   0.0507   0.1125   0.00    2.3
2018/03/16 10:04:29.000   78.246709081   16.083827545   630.4939   2   9   0.0919   0.0561   0.2591   0.0261   0.0503   0.1116   0.00    2.3
2018/03/16 10:04:30.000   78.246709096   16.083827607   630.5075   2   9   0.0915   0.0560   0.2572   0.0260   0.0499   0.1107   0.00    2.3
2018/03/16 10:04:31.000   78.246709083   16.083827632   630.5076   2   9   0.0911   0.0559   0.2554   0.0258   0.0496   0.1099   0.00    2.3
2018/03/16 10:04:32.000   78.246709061   16.083827615   630.5006   2   9   0.0907   0.0557   0.2536   0.0257   0.0492   0.1090   0.00    2.3
2018/03/16 10:04:33.000   78.246709073   16.083827695   630.4971   2   9   0.0904   0.0556   0.2517   0.0255   0.0488   0.1081   0.00    2.2
2018/03/16 10:04:34.000   78.246709054   16.083827705   630.4945   2   9   0.0900   0.0555   0.2499   0.0254   0.0484   0.1073   0.00    2.2
2018/03/16 10:04:35.000   78.246709051   16.083827606   630.4907   2   9   0.0896   0.0554   0.2481   0.0252   0.0480   0.1065   0.00    2.2
2018/03/16 10:04:36.000   78.246709074   16.083827613   630.4875   2   9   0.0893   0.0552   0.2464   0.0251   0.0477   0.1056   0.00    2.2
2018/03/16 10:04:37.000   78.246709102   16.083827723   630.4912   2   9   0.0889   0.0551   0.2446   0.0249   0.0473   0.1048   0.00    2.2
2018/03/16 10:04:38.000   78.246709142   16.083827753   630.5083   2   9   0.0886   0.0550   0.2429   0.0248   0.0469   0.1040   0.00    2.1
2018/03/16 10:04:39.000   78.246709174   16.083827720   630.5119   2   9   0.0882   0.0549   0.2411   0.0246   0.0466   0.1031   0.00    2.1
2018/03/16 10:04:40.000   78.246709195   16.083827639   630.5157   2   9   0.0878   0.0548   0.2394   0.0245   0.0462   0.1023   0.00    2.1
2018/03/16 10:04:41.000   78.246709196   16.083827611   630.4953   2   9   0.0875   0.0546   0.2377   0.0244   0.0458   0.1015   0.00    2.1
2018/03/16 10:04:42.000   78.246709156   16.083827544   630.4683   2   9   0.0872   0.0545   0.2360   0.0242   0.0455   0.1007   0.00    2.1
2018/03/16 10:04:43.000   78.246709127   16.083827499   630.4416   2   9   0.0868   0.0544   0.2343   0.0241   0.0451   0.0999   0.00    2.1
2018/03/16 10:04:44.000   78.246709083   16.083827462   630.4265   2   9   0.0865   0.0543   0.2326   0.0239   0.0448   0.0991   0.00    2.1
2018/03/16 10:04:45.000   78.246709014   16.083827393   630.4113   2   9   0.0861   0.0542   0.2310   0.0238   0.0444   0.0984   0.00    2.1
2018/03/16 10:04:46.000   78.246708988   16.083827422   630.4076   2   9   0.0858   0.0541   0.2293   0.0237   0.0441   0.0976   0.00    2.1
2018/03/16 10:04:47.000   78.246708937   16.083827408   630.3938   2   9   0.0855   0.0539   0.2277   0.0236   0.0437   0.0968   0.00    2.1
2018/03/16 10:04:48.000   78.246708922   16.083827391   630.3882   2   9   0.0851   0.0538   0.2261   0.0234   0.0434   0.0960   0.00    2.1
2018/03/16 10:04:49.000   78.246708919   16.083827360   630.3904   2   9   0.0848   0.0537   0.2245   0.0233   0.0430   0.0953   0.00    2.1
2018/03/16 10:04:50.000   78.246708914   16.083827316   630.3977   2   9   0.0845   0.0536   0.2229   0.0232   0.0427   0.0945   0.00    2.1
2018/03/16 10:04:51.000   78.246708910   16.083827275   630.3927   2   9   0.0842   0.0535   0.2213   0.0230   0.0424   0.0938   0.00    2.1
2018/03/16 10:04:52.000   78.246708899   16.083827305   630.3931   2   9   0.0838   0.0534   0.2197   0.0229   0.0420   0.0930   0.00    2.1
2018/03/16 10:04:53.000   78.246708881   16.083827278   630.3916   2   9   0.0835   0.0533   0.2182   0.0228   0.0417   0.0923   0.00    2.1
2018/03/16 10:04:54.000   78.246708874   16.083827318   630.3876   2   9   0.0832   0.0532   0.2166   0.0227   0.0414   0.0916   0.00    2.1
2018/03/16 10:04:55.000   78.246708899   16.083827303   630.3879   2   9   0.0829   0.0531   0.2151   0.0226   0.0411   0.0908   0.00    2.1
2018/03/16 10:04:56.000   78.246708906   16.083827214   630.3813   2   9   0.0826   0.0530   0.2136   0.0224   0.0407   0.0901   0.00    2.1
2018/03/16 10:04:57.000   78.246708886   16.083827214   630.3755   2   9   0.0823   0.0528   0.2121   0.0223   0.0404   0.0894   0.00    2.1
2018/03/16 10:04:58.000   78.246708893   16.083827094   630.3677   2   9   0.0820   0.0527   0.2106   0.0222   0.0401   0.0887   0.00    2.1
2018/03/16 10:04:59.000   78.246708881   16.083826921   630.3650   2   9   0.0817   0.0526   0.2091   0.0221   0.0398   0.0880   0.00    2.1
2018/03/16 10:05:00.000   78.246708882   16.083826839   630.3713   2   9   0.0814   0.0525   0.2077   0.0220   0.0395   0.0873   0.00    2.1
2018/03/16 10:05:01.000   78.246708902   16.083826707   630.3810   2   9   0.0811   0.0524   0.2062   0.0219   0.0392   0.0866   0.00    2.1
2018/03/16 10:05:02.000   78.246708947   16.083826725   630.3964   2   9   0.0808   0.0523   0.2048   0.0218   0.0388   0.0859   0.00    2.1
2018/03/16 10:05:03.000   78.246708970   16.083826659   630.3972   2   9   0.0805   0.0522   0.2033   0.0217   0.0385   0.0852   0.00    2.1
2018/03/16 10:05:04.000   78.246708988   16.083826672   630.3999   2   9   0.0802   0.0521   0.2019   0.0216   0.0382   0.0845   0.00    2.1
2018/03/16 10:05:05.000   78.246708988   16.083826659   630.3996   2   9   0.0799   0.0520   0.2005   0.0215   0.0379   0.0839   0.00    2.1
2018/03/16 10:05:06.000   78.246708980   16.083826650   630.4025   2   9   0.0796   0.0519   0.1991   0.0213   0.0376   0.0832   0.00    2.1
2018/03/16 10:05:07.000   78.246708954   16.083826681   630.4102   2   9   0.0793   0.0518   0.1978   0.0212   0.0373   0.0825   0.00    2.1
2018/03/16 10:05:08.000   78.246708907   16.083826659   630.4157   2   9   0.0790   0.0517   0.1964   0.0211   0.0371   0.0819   0.00    2.1
2018/03/16 10:05:09.000   78.246708917   16.083826679   630.4305   2   9   0.0787   0.0516   0.1950   0.0210   0.0368   0.0812   0.00    2.1
2018/03/16 10:05:10.000   78.246708933   16.083826665   630.4428   2   9   0.0784   0.0515   0.1937   0.0210   0.0365   0.0806   0.00    2.1
2018/03/16 10:05:11.000   78.246708923   16.083826733   630.4493   2   9   0.0782   0.0514   0.1924   0.0209   0.0362   0.0799   0.00    2.1
2018/03/16 10:05:12.000   78.246708934   16.083826737   630.4522   2   9   0.0779   0.0513   0.1910   0.0208   0.0359   0.0793   0.00    2.1
2018/03/16 10:05:13.000   78.246708909   16.083826777   630.4548   2   9   0.0776   0.0512   0.1897   0.0207   0.0356   0.0787   0.00    2.1
2018/03/16 10:05:14.000   78.246708887   16.083826721   630.4532   2   9   0.0773   0.0511   0.1884   0.0206   0.0353   0.0781   0.00    2.1
2018/03/16 10:05:15.000   78.246708879   16.083826761   630.4530   2   9   0.0771   0.0510   0.1872   0.0205   0.0351   0.0774   0.00    2.1
2018/03/16 10:05:16.000   78.246708882   16.083826807   630.4558   2   9   0.0768   0.0509   0.1859   0.0204   0.0348   0.0768   0.00    2.1
2018/03/16 10:05:17.000   78.246708912   16.083826893   630.4642   2   9   0.0765   0.0508   0.1846   0.0203   0.0345   0.0762   0.00    2.0
2018/03/16 10:05:18.000   78.246708944   16.083826878   630.4760   2   9   0.0763   0.0507   0.1834   0.0202   0.0342   0.0756   0.00    2.0
2018/03/16 10:05:19.000   78.246708961   16.083826956   630.4737   2   9   0.0760   0.0506   0.1822   0.0201   0.0340   0.0750   0.00    2.0
2018/03/16 10:05:20.000   78.246708972   16.083827073   630.4700   2   9   0.0757   0.0506   0.1809   0.0200   0.0337   0.0744   0.00    1.9
2018/03/16 10:05:21.000   78.246708981   16.083827150   630.4670   2   9   0.0755   0.0505   0.1797   0.0200   0.0334   0.0738   0.00    1.9
2018/03/16 10:05:22.000   78.246708991   16.083827144   630.4600   2   9   0.0752   0.0504   0.1785   0.0199   0.0332   0.0733   0.00    1.9
2018/03/16 10:05:23.000   78.246708980   16.083827101   630.4577   2   9   0.0750   0.0503   0.1773   0.0198   0.0329   0.0727   0.00    1.9
2018/03/16 10:05:24.000   78.246708971   16.083827130   630.4605   2   9   0.0747   0.0502   0.1761   0.0197   0.0327   0.0721   0.00    1.9
2018/03/16 10:05:25.000   78.246708984   16.083827128   630.4680   2   9   0.0745   0.0501   0.1750   0.0196   0.0324   0.0715   0.00    1.9
2018/03/16 10:05:26.000   78.246709018   16.083827137   630.4830   2   9   0.0742   0.0500   0.1738   0.0196   0.0322   0.0710   0.00    1.9
2018/03/16 10:05:27.000   78.246709023   16.083827063   630.4935   2   9   0.0739   0.0499   0.1726   0.0195   0.0319   0.0704   0.00    1.9
2018/03/16 10:05:28.000   78.246709047   16.083827063   630.5023   2   9   0.0737   0.0498   0.1715   0.0194   0.0317   0.0699   0.00    1.9
2018/03/16 10:05:29.000   78.246709055   16.083826964   630.5122   2   9   0.0735   0.0497   0.1704   0.0193   0.0314   0.0693   0.00    1.9
2018/03/16 10:05:30.000   78.246709048   16.083826893   630.5086   2   9   0.0732   0.0496   0.1693   0.0193   0.0312   0.0688   0.00    1.9
2018/03/16 10:05:31.000   78.246709048   16.083826876   630.5074   2   9   0.0730   0.0495   0.1682   0.0192   0.0309   0.0682   0.00    1.9
2018/03/16 10:05:32.000   78.246709046   16.083826954   630.5041   2   9   0.0727   0.0495   0.1671   0.0191   0.0307   0.0677   0.00    1.9
2018/03/16 10:05:33.000   78.246709041   16.083826977   630.5013   2   9   0.0725   0.0494   0.1660   0.0191   0.0304   0.0672   0.00    1.9
2018/03/16 10:05:34.000   78.246709019   16.083827000   630.4956   2   9   0.0722   0.0493   0.1649   0.0190   0.0302   0.0666   0.00    1.9
2018/03/16 10:05:35.000   78.246709000   16.083827018   630.4960   2   9   0.0720   0.0492   0.1638   0.0189   0.0300   0.0661   0.00    1.9
2018/03/16 10:05:36.000   78.246708993   16.083827098   630.4985   2   9   0.0718   0.0491   0.1628   0.0189   0.0297   0.0656   0.00    1.9
2018/03/16 10:05:37.000   78.246708984   16.083827069   630.5055   2   9   0.0715   0.0490   0.1617   0.0188   0.0295   0.0651   0.00    1.9
2018/03/16 10:05:38.000   78.246708959   16.083827080   630.5111   2   9   0.0713   0.0489   0.1607   0.0187   0.0293   0.0646   0.00    1.9
2018/03/16 10:05:39.000   78.246708969   16.083827152   630.5166   2   9   0.0711   0.0488   0.1596   0.0187   0.0290   0.0641   0.00    1.9
2018/03/16 10:05:40.000   78.246708971   16.083827151   630.5158   2   9   0.0708   0.0487   0.1586   0.0186   0.0288   0.0636   0.00    1.9
2018/03/16 10:05:41.000   78.246708951   16.083827183   630.5112   2   9   0.0706   0.0487   0.1576   0.0185   0.0286   0.0631   0.00    1.9
2018/03/16 10:05:42.000   78.246708936   16.083827216   630.5021   2   9   0.0704   0.0486   0.1566   0.0185   0.0284   0.0626   0.00    1.8
2018/03/16 10:05:43.000   78.246708938   16.083827248   630.5028   2   9   0.0701   0.0485   0.1556   0.0184   0.0281   0.0621   0.00    1.8
2018/03/16 10:05:44.000   78.246708941   16.083827286   630.5131   2   9   0.0699   0.0484   0.1546   0.0184   0.0279   0.0616   0.00    1.8
2018/03/16 10:05:45.000   78.246708912   16.083827230   630.5204   2   9   0.0697   0.0483   0.1537   0.0183   0.0277   0.0612   0.00    1.8
2018/03/16 10:05:46.000   78.246708898   16.083827225   630.5331   2   9   0.0695   0.0482   0.1527   0.0183   0.0275   0.0607   0.00    1.8
2018/03/16 10:05:47.000   78.246708868   16.083827222   630.5390   2   9   0.0692   0.0481   0.1517   0.0182   0.0273   0.0602   0.00    1.8
2018/03/16 10:05:48.000   78.246708838   16.083827170   630.5426   2   9   0.0690   0.0481   0.1508   0.0181   0.0271   0.0597   0.00    1.8
2018/03/16 10:05:49.000   78.246708805   16.083827108   630.5403   2   9   0.0688   0.0480   0.1498   0.0181   0.0268   0.0593   0.00    1.8
2018/03/16 10:05:50.000   78.246708776   16.083827107   630.5341   2   9   0.0686   0.0479   0.1489   0.0180   0.0266   0.0588   0.00    1.8
2018/03/16 10:05:51.000   78.246708770   16.083827053   630.5298   2   9   0.0684   0.0478   0.1480   0.0180   0.0264   0.0584   0.00    1.8
2018/03/16 10:05:52.000   78.246708799   16.083827140   630.5303   2   9   0.0681   0.0477   0.1471   0.0179   0.0262   0.0579   0.00    1.8
2018/03/16 10:05:53.000   78.246708802   16.083827223   630.5261   2   9   0.0679   0.0476   0.1462   0.0179   0.0260   0.0575   0.00    1.8
2018/03/16 10:05:54.000   78.246708787   16.083827229   630.5112   2   9   0.0677   0.0475   0.1453   0.0178   0.0258   0.0570   0.00    1.8
2018/03/16 10:05:55.000   78.246708790   16.083827251   630.5091   2   9   0.0675   0.0475   0.1444   0.0178   0.0256   0.0566   0.00    1.8
2018/03/16 10:05:56.000   78.246708776   16.083827209   630.5113   2   9   0.0673   0.0474   0.1435   0.0177   0.0254   0.0562   0.00    1.8
2018/03/16 10:05:57.000   78.246708774   16.083827144   630.5242   2   9   0.0671   0.0473   0.1426   0.0177   0.0252   0.0557   0.00    1.8
2018/03/16 10:05:58.000   78.246708770   16.083827127   630.5358   2   9   0.0669   0.0472   0.1418   0.0176   0.0250   0.0553   0.00    1.8
2018/03/16 10:05:59.000   78.246708755   16.083827096   630.5434   2   9   0.0667   0.0471   0.1409   0.0176   0.0248   0.0549   0.00    1.8
2018/03/16 10:06:00.000   78.246708743   16.083827015   630.5394   2   9   0.0665   0.0470   0.1401   0.0176   0.0246   0.0545   0.00    1.8
2018/03/16 10:06:01.000   78.246708748   16.083826939   630.5394   2   9   0.0662   0.0470   0.1392   0.0175   0.0244   0.0541   0.00    1.8
2018/03/16 10:06:02.000   78.246708731   16.083826935   630.5295   2   9   0.0660   0.0469   0.1384   0.0175   0.0242   0.0536   0.00    1.8
2018/03/16 10:06:03.000   78.246708720   16.083827010   630.5183   2   9   0.0658   0.0468   0.1376   0.0174   0.0241   0.0532   0.00    1.8
2018/03/16 10:06:04.000   78.246708690   16.083827105   630.5097   2   9   0.0656   0.0467   0.1367   0.0174   0.0239   0.0528   0.00    1.8
2018/03/16 10:06:05.000   78.246708685   16.083827159   630.5086   2   9   0.0654   0.0466   0.1359   0.0173   0.0237   0.0524   0.00    1.8
2018/03/16 10:06:06.000   78.246708666   16.083827202   630.5052   2   9   0.0652   0.0466   0.1351   0.0173   0.0235   0.0520   0.00    1.8
2018/03/16 10:06:07.000   78.246708648   16.083827222   630.5059   2   9   0.0650   0.0465   0.1343   0.0173   0.0233   0.0516   0.00    1.8
2018/03/16 10:06:08.000   78.246708637   16.083827254   630.5113   2   9   0.0648   0.0464   0.1335   0.0172   0.0231   0.0512   0.00    1.8
2018/03/16 10:06:09.000   78.246708640   16.083827265   630.5164   2   9   0.0646   0.0463   0.1327   0.0172   0.0230   0.0509   0.00    1.8
2018/03/16 10:06:10.000   78.246708628   16.083827264   630.5223   2   9   0.0644   0.0462   0.1320   0.0172   0.0228   0.0505   0.00    1.8
2018/03/16 10:06:11.000   78.246708605   16.083827222   630.5278   2   9   0.0642   0.0462   0.1312   0.0171   0.0226   0.0501   0.00    1.8
2018/03/16 10:06:12.000   78.246708568   16.083827098   630.5262   2   9   0.0640   0.0461   0.1304   0.0171   0.0224   0.0497   0.00    1.8
2018/03/16 10:06:13.000   78.246708544   16.083827064   630.5252   2   9   0.0638   0.0460   0.1297   0.0170   0.0222   0.0493   0.00    1.8
2018/03/16 10:06:14.000   78.246708511   16.083827048   630.5209   2   9   0.0637   0.0459   0.1289   0.0170   0.0221   0.0490   0.00    1.8
2018/03/16 10:06:15.000   78.246708494   16.083827060   630.5151   2   9   0.0635   0.0458   0.1282   0.0170   0.0219   0.0486   0.00    1.8
2018/03/16 10:06:16.000   78.246708465   16.083827103   630.5058   2   9   0.0633   0.0458   0.1275   0.0169   0.0217   0.0482   0.00    1.8
2018/03/16 10:06:17.000   78.246708443   16.083827148   630.4937   2   9   0.0631   0.0457   0.1267   0.0169   0.0216   0.0479   0.00    1.8
2018/03/16 10:06:18.000   78.246708422   16.083827144   630.4876   2   9   0.0629   0.0456   0.1260   0.0169   0.0214   0.0475   0.00    1.8
2018/03/16 10:06:19.000   78.246708411   16.083827114   630.4849   2   9   0.0627   0.0455   0.1253   0.0168   0.0212   0.0472   0.00    1.8
2018/03/16 10:06:20.000   78.246708419   16.083827094   630.4834   2   9   0.0625   0.0454   0.1246   0.0168   0.0210   0.0468   0.00    1.8
2018/03/16 10:06:21.000   78.246708425   16.083826990   630.4833   2   9   0.0623   0.0454   0.1239   0.0168   0.0209   0.0465   0.00    1.8
2018/03/16 10:06:22.000   78.246708421   16.083826939   630.4841   2   9   0.0621   0.0453   0.1232   0.0167   0.0207   0.0461   0.00    1.8
2018/03/16 10:06:23.000   78.246708423   16.083826908   630.4869   2   9   0.0620   0.0452   0.1225   0.0167   0.0206   0.0458   0.00    1.8
2018/03/16 10:06:24.000   78.246708401   16.083826870   630.4836   2   9   0.0618   0.0451   0.1218   0.0167   0.0204   0.0454   0.00    1.8
2018/03/16 10:06:25.000   78.246708379   16.083826806   630.4814   2   9   0.0616   0.0450   0.1211   0.0167   0.0202   0.0451   0.00    1.8
2018/03/16 10:06:26.000   78.246708334   16.083826808   630.4837   2   9   0.0614   0.0450   0.1204   0.0166   0.0201   0.0448   0.00    1.8
2018/03/16 10:06:27.000   78.246708310   16.083826817   630.4860   2   9   0.0612   0.0449   0.1198   0.0166   0.0199   0.0444   0.00    1.8
2018/03/16 10:06:28.000   78.246708285   16.083826894   630.4888   2   9   0.0610   0.0448   0.1191   0.0166   0.0198   0.0441   0.00    1.8
2018/03/16 10:06:29.000   78.246708278   16.083826946   630.4891   2   9   0.0609   0.0447   0.1185   0.0165   0.0196   0.0438   0.00    1.8
2018/03/16 10:06:30.000   78.246708276   16.083826989   630.4925   2   9   0.0607   0.0446   0.1178   0.0165   0.0194   0.0435   0.00    1.8
2018/03/16 10:06:31.000   78.246708266   16.083827050   630.4944   2   9   0.0605   0.0446   0.1172   0.0165   0.0193   0.0431   0.00    1.8
2018/03/16 10:06:32.000   78.246708267   16.083827073   630.5010   2   9   0.0603   0.0445   0.1165   0.0165   0.0191   0.0428   0.00    1.8
2018/03/16 10:06:33.000   78.246708255   16.083827079   630.5039   2   9   0.0601   0.0444   0.1159   0.0164   0.0190   0.0425   0.00    1.8
2018/03/16 10:06:34.000   78.246708226   16.083827069   630.5042   2   9   0.0600   0.0443   0.1153   0.0164   0.0188   0.0422   0.00    1.8
2018/03/16 10:06:35.000   78.246708187   16.083827017   630.5007   2   9   0.0598   0.0443   0.1146   0.0164   0.0187   0.0419   0.00    1.8
2018/03/16 10:06:36.000   78.246708151   16.083826971   630.5026   2   9   0.0596   0.0442   0.1140   0.0164   0.0185   0.0416   0.00    1.8
2018/03/16 10:06:37.000   78.246708129   16.083826890   630.5033   2   9   0.0594   0.0441   0.1134   0.0163   0.0184   0.0413   0.00    1.8
2018/03/16 10:06:38.000   78.246708098   16.083826887   630.5036   2   9   0.0593   0.0440   0.1128   0.0163   0.0182   0.0410   0.00    1.8
2018/03/16 10:06:39.000   78.246708081   16.083826830   630.5036   2   9   0.0591   0.0440   0.1122   0.0163   0.0181   0.0407   0.00    1.7
2018/03/16 10:06:40.000   78.246708073   16.083826794   630.5042   2   9   0.0589   0.0439   0.1116   0.0163   0.0179   0.0404   0.00    1.7
2018/03/16 10:06:41.000   78.246708061   16.083826701   630.4971   2   9   0.0588   0.0438   0.1110   0.0162   0.0178   0.0401   0.00    1.7
2018/03/16 10:06:42.000   78.246708054   16.083826642   630.4909   2   9   0.0586   0.0437   0.1104   0.0162   0.0177   0.0398   0.00    1.8
2018/03/16 10:06:43.000   78.246708052   16.083826585   630.4889   2   9   0.0584   0.0437   0.1098   0.0162   0.0175   0.0395   0.00    1.8
2018/03/16 10:06:44.000   78.246708045   16.083826495   630.4868   2   9   0.0582   0.0436   0.1093   0.0162   0.0174   0.0392   0.00    1.8
2018/03/16 10:06:45.000   78.246708033   16.083826429   630.4811   2   9   0.0581   0.0435   0.1087   0.0162   0.0172   0.0389   0.00    1.8
2018/03/16 10:06:46.000   78.246708022   16.083826361   630.4740   2   9   0.0579   0.0434   0.1081   0.0161   0.0171   0.0386   0.00    1.8
2018/03/16 10:06:47.000   78.246708012   16.083826193   630.4694   2   9   0.0577   0.0434   0.1076   0.0161   0.0170   0.0383   0.00    1.8
2018/03/16 10:06:48.000   78.246707988   16.083826050   630.4681   2   9   0.0576   0.0433   0.1070   0.0161   0.0168   0.0381   0.00    1.8
2018/03/16 10:06:49.000   78.246707963   16.083825987   630.4647   2   9   0.0574   0.0432   0.1065   0.0161   0.0167   0.0378   0.00    1.7
2018/03/16 10:06:50.000   78.246707937   16.083825934   630.4618   2   9   0.0572   0.0431   0.1059   0.0161   0.0165   0.0375   0.00    1.7
2018/03/16 10:06:51.000   78.246707916   16.083825854   630.4602   2   9   0.0571   0.0431   0.1054   0.0160   0.0164   0.0373   0.00    1.7
2018/03/16 10:06:52.000   78.246707907   16.083825760   630.4607   2   9   0.0569   0.0430   0.1048   0.0160   0.0163   0.0370   0.00    1.7
2018/03/16 10:06:53.000   78.246707914   16.083825687   630.4612   2   9   0.0568   0.0429   0.1043   0.0160   0.0161   0.0367   0.00    1.7
2018/03/16 10:06:54.000   78.246707917   16.083825695   630.4587   2   9   0.0566   0.0428   0.1038   0.0160   0.0160   0.0364   0.00    1.8
2018/03/16 10:06:55.000   78.246707918   16.083825705   630.4609   2   9   0.0564   0.0428   0.1032   0.0160   0.0159   0.0362   0.00    1.8
2018/03/16 10:06:56.000   78.246707922   16.083825694   630.4602   2   9   0.0563   0.0427   0.1027   0.0159   0.0157   0.0359   0.00    1.8
2018/03/16 10:06:57.000   78.246707933   16.083825735   630.4573   2   9   0.0561   0.0426   0.1022   0.0159   0.0156   0.0357   0.00    1.8
2018/03/16 10:06:58.000   78.246707930   16.083825773   630.4541   2   9   0.0560   0.0425   0.1017   0.0159   0.0155   0.0354   0.00    1.8
2018/03/16 10:06:59.000   78.246707923   16.083825752   630.4489   2   9   0.0558   0.0425   0.1012   0.0159   0.0154   0.0352   0.00    1.8
2018/03/16 10:07:00.000   78.246707922   16.083825774   630.4477   2   9   0.0556   0.0424   0.1007   0.0159   0.0152   0.0349   0.00    1.8
2018/03/16 10:07:01.000   78.246707933   16.083825773   630.4489   2   9   0.0555   0.0423   0.1002   0.0159   0.0151   0.0347   0.00    1.8
2018/03/16 10:07:02.000   78.246707938   16.083825840   630.4552   2   9   0.0553   0.0422   0.0997   0.0158   0.0150   0.0344   0.00    1.8
2018/03/16 10:07:03.000   78.246707940   16.083825869   630.4611   2   9   0.0552   0.0422   0.0992   0.0158   0.0148   0.0342   0.00    1.8
2018/03/16 10:07:04.000   78.246707955   16.083825918   630.4661   2   9   0.0550   0.0421   0.0987   0.0158   0.0147   0.0339   0.00    1.8
2018/03/16 10:07:05.000   78.246707953   16.083825914   630.4690   2   9   0.0549   0.0420   0.0982   0.0158   0.0146   0.0337   0.00    1.8
2018/03/16 10:07:06.000   78.246707952   16.083825912   630.4685   2   9   0.0547   0.0419   0.0977   0.0158   0.0145   0.0334   0.00    1.8
2018/03/16 10:07:07.000   78.246707943   16.083825884   630.4695   2   9   0.0545   0.0419   0.0972   0.0158   0.0143   0.0332   0.00    1.8
2018/03/16 10:07:08.000   78.246707938   16.083825846   630.4733   2   9   0.0544   0.0418   0.0968   0.0157   0.0142   0.0330   0.00    1.8
2018/03/16 10:07:09.000   78.246707940   16.083825814   630.4777   2   9   0.0542   0.0417   0.0963   0.0157   0.0141   0.0327   0.00    1.8
2018/03/16 10:07:10.000   78.246707942   16.083825827   630.4805   2   9   0.0541   0.0417   0.0958   0.0157   0.0140   0.0325   0.00    1.8
2018/03/16 10:07:11.000   78.246707934   16.083825739   630.4852   2   9   0.0539   0.0416   0.0954   0.0157   0.0139   0.0323   0.00    1.8
2018/03/16 10:07:12.000   78.246707919   16.083825627   630.4866   2   9   0.0538   0.0415   0.0949   0.0157   0.0137   0.0320   0.00    1.8
2018/03/16 10:07:13.000   78.246707901   16.083825595   630.4877   2   9   0.0536   0.0414   0.0945   0.0157   0.0136   0.0318   0.00    1.8
2018/03/16 10:07:14.000   78.246707885   16.083825566   630.4847   2   9   0.0535   0.0414   0.0940   0.0156   0.0135   0.0316   0.00    1.8
2018/03/16 10:07:15.000   78.246707869   16.083825525   630.4810   2   9   0.0533   0.0413   0.0936   0.0156   0.0134   0.0314   0.00    1.8
2018/03/16 10:07:16.000   78.246707860   16.083825503   630.4759   2   9   0.0532   0.0412   0.0931   0.0156   0.0133   0.0311   0.00    1.8
2018/03/16 10:07:17.000   78.246707848   16.083825493   630.4728   2   9   0.0530   0.0411   0.0927   0.0156   0.0131   0.0309   0.00    1.8
2018/03/16 10:07:18.000   78.246707863   16.083825483   630.4747   2   9   0.0529   0.0411   0.0922   0.0156   0.0130   0.0307   0.00    1.8
2018/03/16 10:07:19.000   78.246707872   16.083825465   630.4756   2   9   0.0527   0.0410   0.0918   0.0156   0.0129   0.0305   0.00    1.8
2018/03/16 10:07:20.000   78.246707872   16.083825406   630.4777   2   9   0.0526   0.0409   0.0914   0.0156   0.0128   0.0303   0.00    1.8
2018/03/16 10:07:21.000   78.246707888   16.083825281   630.4818   2   9   0.0525   0.0409   0.0910   0.0155   0.0127   0.0301   0.00    1.8
2018/03/16 10:07:22.000   78.246707888   16.083825150   630.4847   2   9   0.0523   0.0408   0.0905   0.0155   0.0126   0.0298   0.00    1.9
2018/03/16 10:07:23.000   78.246707884   16.083825064   630.4860   2   9   0.0522   0.0407   0.0901   0.0155   0.0125   0.0296   0.00    1.9
2018/03/16 10:07:24.000   78.246707883   16.083824959   630.4873   2   9   0.0520   0.0406   0.0897   0.0155   0.0123   0.0294   0.00    1.9
2018/03/16 10:07:25.000   78.246707889   16.083824953   630.4859   2   9   0.0519   0.0406   0.0893   0.0155   0.0122   0.0292   0.00    1.9
2018/03/16 10:07:26.000   78.246707882   16.083824982   630.4788   2   9   0.0517   0.0405   0.0889   0.0155   0.0121   0.0290   0.00    1.9
2018/03/16 10:07:27.000   78.246707878   16.083825007   630.4719   2   9   0.0516   0.0404   0.0885   0.0155   0.0120   0.0288   0.00    1.9
2018/03/16 10:07:28.000   78.246707875   16.083825089   630.4695   2   9   0.0515   0.0404   0.0881   0.0154   0.0119   0.0286   0.00    1.9
2018/03/16 10:07:29.000   78.246707880   16.083825164   630.4693   2   9   0.0513   0.0403   0.0877   0.0154   0.0118   0.0284   0.00    2.0
2018/03/16 10:07:30.000   78.246707895   16.083825233   630.4724   2   9   0.0512   0.0402   0.0873   0.0154   0.0117   0.0282   0.00    1.9
2018/03/16 10:07:31.000   78.246707907   16.083825260   630.4729   2   9   0.0510   0.0402   0.0869   0.0154   0.0116   0.0280   0.00    2.0
2018/03/16 10:07:32.000   78.246707920   16.083825303   630.4754   2   9   0.0509   0.0401   0.0865   0.0154   0.0115   0.0278   0.00    2.0
2018/03/16 10:07:33.000   78.246707930   16.083825353   630.4775   2   9   0.0508   0.0400   0.0861   0.0154   0.0113   0.0276   0.00    2.0
2018/03/16 10:07:34.000   78.246707921   16.083825360   630.4804   2   9   0.0506   0.0399   0.0857   0.0154   0.0112   0.0274   0.00    2.0
2018/03/16 10:07:35.000   78.246707918   16.083825396   630.4884   2   9   0.0505   0.0399   0.0853   0.0154   0.0111   0.0272   0.00    2.0
2018/03/16 10:07:36.000   78.246707906   16.083825400   630.4944   2   9   0.0503   0.0398   0.0849   0.0153   0.0110   0.0270   0.00    2.0
2018/03/16 10:07:37.000   78.246707888   16.083825408   630.4975   2   9   0.0502   0.0397   0.0845   0.0153   0.0109   0.0269   0.00    2.0
2018/03/16 10:07:38.000   78.246707891   16.083825425   630.5015   2   9   0.0501   0.0397   0.0842   0.0153   0.0108   0.0267   0.00    2.0
2018/03/16 10:07:39.000   78.246707891   16.083825444   630.5045   2   9   0.0499   0.0396   0.0838   0.0153   0.0107   0.0265   0.00    2.0
2018/03/16 10:07:40.000   78.246707891   16.083825447   630.5052   2   9   0.0498   0.0395   0.0834   0.0153   0.0106   0.0263   0.00    2.0
2018/03/16 10:07:41.000   78.246707904   16.083825437   630.5041   2   9   0.0497   0.0395   0.0831   0.0153   0.0105   0.0261   0.00    2.0
2018/03/16 10:07:42.000   78.246707900   16.083825481   630.5029   2   9   0.0495   0.0394   0.0827   0.0153   0.0104   0.0259   0.00    2.0
2018/03/16 10:07:43.000   78.246707901   16.083825477   630.5027   2   9   0.0494   0.0393   0.0823   0.0153   0.0103   0.0258   0.00    2.0
2018/03/16 10:07:44.000   78.246707898   16.083825466   630.5036   2   9   0.0493   0.0393   0.0820   0.0152   0.0102   0.0256   0.00    2.0
2018/03/16 10:07:45.000   78.246707899   16.083825446   630.5057   2   9   0.0491   0.0392   0.0816   0.0152   0.0101   0.0254   0.00    2.0
2018/03/16 10:07:46.000   78.246707900   16.083825451   630.5085   2   9   0.0490   0.0391   0.0813   0.0152   0.0100   0.0252   0.00    2.0
2018/03/16 10:07:47.000   78.246707896   16.083825396   630.5102   2   9   0.0489   0.0390   0.0809   0.0152   0.0099   0.0250   0.00    2.0
2018/03/16 10:07:48.000   78.246707895   16.083825299   630.5125   2   9   0.0487   0.0390   0.0806   0.0152   0.0098   0.0249   0.00    2.0
2018/03/16 10:07:49.000   78.246707891   16.083825258   630.5138   2   9   0.0486   0.0389   0.0802   0.0152   0.0097   0.0247   0.00    2.0
2018/03/16 10:07:50.000   78.246707885   16.083825212   630.5125   2   9   0.0485   0.0388   0.0799   0.0152   0.0096   0.0245   0.00    2.0
2018/03/16 10:07:51.000   78.246707884   16.083825172   630.5122   2   9   0.0483   0.0388   0.0795   0.0152   0.0095   0.0244   0.00    2.0
2018/03/16 10:07:52.000   78.246707878   16.083825096   630.5118   2   9   0.0482   0.0387   0.0792   0.0151   0.0094   0.0242   0.00    2.1
2018/03/16 10:07:53.000   78.246707865   16.083825064   630.5090   2   9   0.0481   0.0386   0.0789   0.0151   0.0093   0.0240   0.00    2.1
2018/03/16 10:07:54.000   78.246707863   16.083825062   630.5067   2   9   0.0480   0.0386   0.0785   0.0151   0.0092   0.0239   0.00    2.1
2018/03/16 10:07:55.000   78.246707866   16.083825039   630.5035   2   9   0.0478   0.0385   0.0782   0.0151   0.0091   0.0237   0.00    2.1
2018/03/16 10:07:56.000   78.246707846   16.083824988   630.5019   2   9   0.0477   0.0384   0.0779   0.0151   0.0090   0.0235   0.00    2.1
2018/03/16 10:07:57.000   78.246707835   16.083825004   630.5029   2   9   0.0476   0.0384   0.0775   0.0151   0.0089   0.0234   0.00    2.1
2018/03/16 10:07:58.000   78.246707819   16.083825029   630.5039   2   9   0.0474   0.0383   0.0772   0.0151   0.0088   0.0232   0.00    2.1
2018/03/16 10:07:59.000   78.246707801   16.083825098   630.5060   2   9   0.0473   0.0382   0.0769   0.0151   0.0087   0.0231   0.00    2.1
2018/03/16 10:08:00.000   78.246707795   16.083825224   630.5088   2   9   0.0472   0.0382   0.0766   0.0150   0.0086   0.0229   0.00    2.1
2018/03/16 10:08:01.000   78.246707791   16.083825326   630.5096   2   9   0.0471   0.0381   0.0763   0.0150   0.0085   0.0227   0.00    2.1
2018/03/16 10:08:02.000   78.246707787   16.083825400   630.5149   2   9   0.0469   0.0380   0.0760   0.0150   0.0084   0.0226   0.00    2.1
2018/03/16 10:08:03.000   78.246707782   16.083825471   630.5195   2   9   0.0468   0.0380   0.0756   0.0150   0.0083   0.0224   0.00    2.1
2018/03/16 10:08:04.000   78.246707786   16.083825521   630.5224   2   9   0.0467   0.0379   0.0753   0.0150   0.0082   0.0223   0.00    2.1
2018/03/16 10:08:05.000   78.246707786   16.083825549   630.5224   2   9   0.0466   0.0378   0.0750   0.0150   0.0081   0.0221   0.00    2.1
2018/03/16 10:08:06.000   78.246707792   16.083825605   630.5258   2   9   0.0465   0.0378   0.0747   0.0150   0.0080   0.0220   0.00    2.1
2018/03/16 10:08:07.000   78.246707792   16.083825614   630.5283   2   9   0.0463   0.0377   0.0744   0.0150   0.0079   0.0218   0.00    2.1
2018/03/16 10:08:08.000   78.246707786   16.083825601   630.5308   2   9   0.0462   0.0376   0.0741   0.0149   0.0078   0.0217   0.00    2.1
2018/03/16 10:08:09.000   78.246707772   16.083825579   630.5293   2   9   0.0461   0.0376   0.0738   0.0149   0.0077   0.0215   0.00    2.1
2018/03/16 10:08:10.000   78.246707767   16.083825562   630.5288   2   9   0.0460   0.0375   0.0735   0.0149   0.0076   0.0214   0.00    2.1
2018/03/16 10:08:11.000   78.246707770   16.083825566   630.5261   2   9   0.0458   0.0374   0.0732   0.0149   0.0075   0.0212   0.00    2.1
2018/03/16 10:08:12.000   78.246707762   16.083825523   630.5232   2   9   0.0457   0.0374   0.0729   0.0149   0.0074   0.0211   0.00    2.1
2018/03/16 10:08:13.000   78.246707740   16.083825497   630.5227   2   9   0.0456   0.0373   0.0726   0.0149   0.0073   0.0209   0.00    2.1
2018/03/16 10:08:14.000   78.246707729   16.083825478   630.5189   2   9   0.0455   0.0372   0.0723   0.0149   0.0072   0.0208   0.00    2.1
2018/03/16 10:08:15.000   78.246707724   16.083825475   630.5146   2   9   0.0454   0.0372   0.0721   0.0149   0.0071   0.0206   0.00    2.1
2018/03/16 10:08:16.000   78.246707721   16.083825403   630.5114   2   9   0.0453   0.0371   0.0718   0.0149   0.0070   0.0205   0.00    2.1
2018/03/16 10:08:17.000   78.246707718   16.083825332   630.5086   2   9   0.0451   0.0371   0.0715   0.0148   0.0069   0.0204   0.00    2.2
2018/03/16 10:08:18.000   78.246707717   16.083825272   630.5068   2   9   0.0450   0.0370   0.0712   0.0148   0.0068   0.0202   0.00    2.2
2018/03/16 10:08:19.000   78.246707709   16.083825190   630.5089   2   9   0.0449   0.0369   0.0709   0.0148   0.0067   0.0201   0.00    2.2
2018/03/16 10:08:20.000   78.246707700   16.083825118   630.5116   2   9   0.0448   0.0369   0.0706   0.0148   0.0066   0.0199   0.00    2.2
2018/03/16 10:08:21.000   78.246707695   16.083825034   630.5162   2   9   0.0447   0.0368   0.0704   0.0148   0.0065   0.0198   0.00    2.2
2018/03/16 10:08:22.000   78.246707685   16.083825008   630.5200   2   9   0.0446   0.0367   0.0701   0.0148   0.0064   0.0197   0.00    2.2
2018/03/16 10:08:23.000   78.246707676   16.083824975   630.5183   2   9   0.0444   0.0367   0.0698   0.0148   0.0063   0.0195   0.00    2.2
2018/03/16 10:08:24.000   78.246707668   16.083825004   630.5146   2   9   0.0443   0.0366   0.0695   0.0148   0.0062   0.0194   0.00    2.2
2018/03/16 10:08:25.000   78.246707667   16.083825060   630.5094   2   9   0.0442   0.0365   0.0693   0.0147   0.0061   0.0193   0.00    2.2
2018/03/16 10:08:26.000   78.246707663   16.083825115   630.5070   2   9   0.0441   0.0365   0.0690   0.0147   0.0060   0.0191   0.00    2.2
2018/03/16 10:08:27.000   78.246707667   16.083825138   630.5069   2   9   0.0440   0.0364   0.0687   0.0147   0.0059   0.0190   0.00    2.3
2018/03/16 10:08:28.000   78.246707667   16.083825172   630.5097   2   9   0.0439   0.0363   0.0685   0.0147   0.0058   0.0189   0.00    2.3
2018/03/16 10:08:29.000   78.246707665   16.083825158   630.5115   2   9   0.0438   0.0363   0.0682   0.0147   0.0057   0.0187   0.00    2.2
2018/03/16 10:08:30.000   78.246707659   16.083825103   630.5116   2   9   0.0436   0.0362   0.0680   0.0147   0.0056   0.0186   0.00    2.2
2018/03/16 10:08:31.000   78.246707653   16.083825064   630.5131   2   9   0.0435   0.0362   0.0677   0.0147   0.0055   0.0185   0.00    2.2
2018/03/16 10:08:32.000   78.246707656   16.083824998   630.5150   2   9   0.0434   0.0361   0.0674   0.0147   0.0054   0.0184   0.00    2.3
2018/03/16 10:08:33.000   78.246707657   16.083824948   630.5148   2   9   0.0433   0.0360   0.0672   0.0147   0.0053   0.0182   0.00    2.3
2018/03/16 10:08:34.000   78.246707653   16.083824875   630.5146   2   9   0.0432   0.0360   0.0669   0.0146   0.0052   0.0181   0.00    2.3
2018/03/16 10:08:35.000   78.246707641   16.083824857   630.5123   2   9   0.0431   0.0359   0.0667   0.0146   0.0051   0.0180   0.00    2.3
2018/03/16 10:08:36.000   78.246707630   16.083824873   630.5074   2   9   0.0430   0.0358   0.0664   0.0146   0.0049   0.0179   0.00    2.3
2018/03/16 10:08:37.000   78.246707610   16.083824888   630.5028   2   9   0.0429   0.0358   0.0662   0.0146   0.0048   0.0177   0.00    2.3
2018/03/16 10:08:38.000   78.246707601   16.083824915   630.4983   2   9   0.0428   0.0357   0.0659   0.0146   0.0047   0.0176   0.00    2.3
2018/03/16 10:08:39.000   78.246707591   16.083824894   630.4957   2   9   0.0427   0.0357   0.0657   0.0146   0.0046   0.0175   0.00    2.4
2018/03/16 10:08:40.000   78.246707601   16.083824876   630.4958   2   9   0.0425   0.0356   0.0655   0.0146   0.0045   0.0174   0.00    2.4
2018/03/16 10:08:41.000   78.246707599   16.083824823   630.4946   2   9   0.0424   0.0355   0.0652   0.0146   0.0044   0.0173   0.00    2.4
2018/03/16 10:08:42.000   78.246707596   16.083824760   630.4953   2   9   0.0423   0.0355   0.0650   0.0145   0.0043   0.0171   0.00    2.4
2018/03/16 10:08:43.000   78.246707592   16.083824684   630.4941   2   9   0.0422   0.0354   0.0647   0.0145   0.0042   0.0170   0.00    2.4
2018/03/16 10:08:44.000   78.246707593   16.083824627   630.4920   2   9   0.0421   0.0353   0.0645   0.0145   0.0041   0.0169   0.00    2.4
2018/03/16 10:08:45.000   78.246707589   16.083824556   630.4926   2   9   0.0420   0.0353   0.0643   0.0145   0.0039   0.0168   0.00    2.4
2018/03/16 10:08:46.000   78.246707589   16.083824566   630.4929   2   9   0.0419   0.0352   0.0640   0.0145   0.0038   0.0167   0.00    2.4
2018/03/16 10:08:47.000   78.246707589   16.083824573   630.4923   2   9   0.0418   0.0352   0.0638   0.0145   0.0037   0.0166   0.00    2.4
2018/03/16 10:08:48.000   78.246707591   16.083824598   630.4900   2   9   0.0417   0.0351   0.0636   0.0145   0.0036   0.0164   0.00    2.4
2018/03/16 10:08:49.000   78.246707593   16.083824596   630.4864   2   9   0.0416   0.0350   0.0633   0.0145   0.0035   0.0163   0.00    2.4
2018/03/16 10:08:50.000   78.246707595   16.083824579   630.4847   2   9   0.0415   0.0350   0.0631   0.0144   0.0033   0.0162   0.00    2.5
2018/03/16 10:08:51.000   78.246707594   16.083824580   630.4830   2   9   0.0414   0.0349   0.0629   0.0144   0.0032   0.0161   0.00    2.5
2018/03/16 10:08:52.000   78.246707609   16.083824572   630.4850   2   9   0.0413   0.0349   0.0627   0.0144   0.0031   0.0160   0.00    2.5
2018/03/16 10:08:53.000   78.246707604   16.083824571   630.4862   2   9   0.0412   0.0348   0.0624   0.0144   0.0029   0.0159   0.00    2.5
2018/03/16 10:08:54.000   78.246707588   16.083824508   630.4897   2   9   0.0411   0.0347   0.0622   0.0144   0.0028   0.0158   0.00    2.5
2018/03/16 10:08:55.000   78.246707575   16.083824485   630.4929   2   9   0.0410   0.0347   0.0620   0.0144   0.0026   0.0157   0.00    2.5
2018/03/16 10:08:56.000   78.246707571   16.083824454   630.4956   2   9   0.0409   0.0346   0.0618   0.0144   0.0024   0.0156   0.00    2.5
2018/03/16 10:08:57.000   78.246707560   16.083824468   630.4940   2   9   0.0408   0.0346   0.0615   0.0144   0.0023   0.0154   0.00    2.5
2018/03/16 10:08:58.000   78.246707552   16.083824452   630.4904   2   9   0.0407   0.0345   0.0613   0.0143   0.0021   0.0153   0.00    2.5
2018/03/16 10:08:59.000   78.246707545   16.083824467   630.4863   2   9   0.0406   0.0344   0.0611   0.0143   0.0019   0.0152   0.00    2.5
2018/03/16 10:09:00.000   78.246707534   16.083824490   630.4831   2   9   0.0405   0.0344   0.0609   0.0143   0.0017   0.0151   0.00    2.5
2018/03/16 10:09:01.000   78.246707531   16.083824503   630.4802   2   9   0.0404   0.0343   0.0607   0.0143   0.0014   0.0150   0.00    2.6
2018/03/16 10:09:02.000   78.246707532   16.083824484   630.4799   2   9   0.0403   0.0343   0.0605   0.0143   0.0012   0.0149   0.00    2.6
2018/03/16 10:09:03.000   78.246707528   16.083824436   630.4799   2   9   0.0402   0.0342   0.0603   0.0143   0.0008   0.0148   0.00    2.6
2018/03/16 10:09:04.000   78.246707519   16.083824364   630.4812   2   9   0.0401   0.0341   0.0601   0.0143  -0.0003   0.0147   0.00    2.6
2018/03/16 10:09:05.000   78.246707527   16.083824302   630.4839   2   9   0.0400   0.0341   0.0598   0.0143  -0.0009   0.0146   0.00    2.6
2018/03/16 10:09:06.000   78.246707530   16.083824248   630.4849   2   9   0.0399   0.0340   0.0596   0.0142  -0.0012   0.0145   0.00    2.6
2018/03/16 10:09:07.000   78.246707528   16.083824186   630.4852   2   9   0.0398   0.0340   0.0594   0.0142  -0.0015   0.0144   0.00    2.6
2018/03/16 10:09:08.000   78.246707522   16.083824158   630.4835   2   9   0.0397   0.0339   0.0592   0.0142  -0.0017   0.0143   0.00    2.6
2018/03/16 10:09:09.000   78.246707518   16.083824065   630.4827   2   9   0.0396   0.0338   0.0590   0.0142  -0.0019   0.0142   0.00    2.6
2018/03/16 10:09:10.000   78.246707513   16.083824038   630.4800   2   9   0.0395   0.0338   0.0588   0.0142  -0.0021   0.0141   0.00    2.6
2018/03/16 10:09:11.000   78.246707496   16.083823996   630.4783   2   9   0.0394   0.0337   0.0586   0.0142  -0.0022   0.0140   0.00    2.6
2018/03/16 10:09:12.000   78.246707485   16.083823963   630.4761   2   9   0.0393   0.0337   0.0584   0.0142  -0.0024   0.0139   0.00    2.6
2018/03/16 10:09:13.000   78.246707479   16.083823949   630.4740   2   9   0.0392   0.0336   0.0582   0.0142  -0.0025   0.0138   0.00    2.6
2018/03/16 10:09:14.000   78.246707472   16.083823943   630.4739   2   9   0.0391   0.0336   0.0580   0.0141  -0.0026   0.0137   0.00    2.6
2018/03/16 10:09:15.000   78.246707470   16.083823921   630.4759   2   9   0.0390   0.0335   0.0578   0.0141  -0.0027   0.0136   0.00    2.6
2018/03/16 10:09:16.000   78.246707471   16.083823933   630.4791   2   9   0.0389   0.0334   0.0576   0.0141  -0.0029   0.0135   0.00    2.6
2018/03/16 10:09:17.000   78.246707472   16.083823917   630.4835   2   9   0.0388   0.0334   0.0574   0.0141  -0.0030   0.0134   0.00    2.6
2018/03/16 10:09:18.000   78.246707471   16.083823914   630.4856   2   9   0.0387   0.0333   0.0573   0.0141  -0.0031   0.0133   0.00    2.6
2018/03/16 10:09:19.000   78.246707471   16.083823921   630.4871   2   9   0.0386   0.0333   0.0571   0.0141  -0.0032   0.0132   0.00    2.6
2018/03/16 10:09:20.000   78.246707465   16.083823941   630.4870   2   9   0.0385   0.0332   0.0569   0.0141  -0.0032   0.0131   0.00    2.6
2018/03/16 10:09:21.000   78.246707464   16.083823990   630.4854   2   9   0.0385   0.0332   0.0567   0.0141  -0.0033   0.0130   0.00    2.6
2018/03/16 10:09:22.000   78.246707458   16.083824032   630.4865   2   9   0.0384   0.0331   0.0565   0.0140  -0.0034   0.0130   0.00    2.6
2018/03/16 10:09:23.000   78.246707451   16.083824091   630.4861   2   9   0.0383   0.0330   0.0563   0.0140  -0.0035   0.0129   0.00    2.6
2018/03/16 10:09:24.000   78.246707445   16.083824133   630.4852   2   9   0.0382   0.0330   0.0561   0.0140  -0.0036   0.0128   0.00    2.6
2018/03/16 10:09:25.000   78.246707445   16.083824159   630.4845   2   9   0.0381   0.0329   0.0559   0.0140  -0.0037   0.0127   0.00    2.6
2018/03/16 10:09:26.000   78.246707444   16.083824163   630.4836   2   9   0.0380   0.0329   0.0558   0.0140  -0.0037   0.0126   0.00    2.6
2018/03/16 10:09:27.000   78.246707440   16.083824172   630.4830   2   9   0.0379   0.0328   0.0556   0.0140  -0.0038   0.0125   0.00    2.6
2018/03/16 10:09:28.000   78.246707452   16.083824163   630.4824   2   9   0.0378   0.0328   0.0554   0.0140  -0.0039   0.0124   0.00    2.7
2018/03/16 10:09:29.000   78.246707459   16.083824127   630.4830   2   9   0.0377   0.0327   0.0552   0.0139  -0.0039   0.0123   0.00    2.7
2018/03/16 10:09:30.000   78.246707455   16.083824106   630.4817   2   9   0.0376   0.0326   0.0550   0.0139  -0.0040   0.0122   0.00    2.7
2018/03/16 10:09:31.000   78.246707451   16.083824081   630.4812   2   9   0.0375   0.0326   0.0549   0.0139  -0.0041   0.0121   0.00    2.7
2018/03/16 10:09:32.000   78.246707453   16.083824102   630.4797   2   9   0.0375   0.0325   0.0547   0.0139  -0.0041   0.0121   0.00    2.7
2018/03/16 10:09:33.000   78.246707447   16.083824118   630.4780   2   9   0.0374   0.0325   0.0545   0.0139  -0.0042   0.0120   0.00    2.7
2018/03/16 10:09:34.000   78.246707453   16.083824114   630.4759   2   9   0.0373   0.0324   0.0543   0.0139  -0.0042   0.0119   0.00    2.7
2018/03/16 10:09:35.000   78.246707445   16.083824094   630.4745   2   9   0.0372   0.0324   0.0541   0.0139  -0.0043   0.0118   0.00    2.8
2018/03/16 10:09:36.000   78.246707443   16.083824074   630.4743   2   9   0.0371   0.0323   0.0540   0.0139  -0.0043   0.0117   0.00    2.8
2018/03/16 10:09:37.000   78.246707447   16.083824057   630.4749   2   9   0.0370   0.0323   0.0538   0.0138  -0.0044   0.0116   0.00    2.8
