% program   : RTKPOST ver.2.4.2
% inp file  : Z:\home\linda\Documents\Spring18\GitHub_Unis\data\processed_data\4625074B.obs
% inp file  : Z:\home\linda\Documents\Spring18\GitHub_Unis\data\base_station_data\lyrs0740.18o
% inp file  : Z:\home\linda\Documents\Spring18\GitHub_Unis\data\processed_data\4625074B.nav
% obs start : 2018/03/15 11:21:35.0 GPST (week1992 386495.0s)
% obs end   : 2018/03/15 11:38:20.0 GPST (week1992 387500.0s)
% pos mode  : static
% freqs     : L1+L2
% solution  : forward
% elev mask : 15.0 deg
% dynamics  : on
% tidecorr  : off
% ionos opt : iono-free
% tropo opt : saastamoinen
% ephemeris : broadcast
% navi sys  : gps glonass galileo qzss sbas
% amb res   : fix and hold
% amb glo   : on
% val thres : 3.0
% antenna1  :                       ( 0.0000  0.0000  0.0000)
% antenna2  :                       ( 0.0000  0.0000  0.0000)
% ref pos   : 78.228825638   15.397310064   495.6816
%
% (lat/lon/height=WGS84/ellipsoidal,Q=1:fix,2:float,3:sbas,4:dgps,5:single,6:ppp,ns=# of satellites)
%  GPST                  latitude(deg) longitude(deg)  height(m)   Q  ns   sdn(m)   sde(m)   sdu(m)  sdne(m)  sdeu(m)  sdun(m) age(s)  ratio
2018/03/15 11:21:35.000   78.246564661   16.035358373   496.2938   2   5   1.5634   1.5577   7.2830  -0.8256  -1.9549   2.8993   0.00    1.0
2018/03/15 11:21:36.000   78.246554715   16.035421649   495.4361   2   5   1.1154   1.1046   5.2286  -0.5922  -1.4045   2.0818   0.00    1.0
2018/03/15 11:21:37.000   78.246547415   16.035435063   494.0214   2   5   0.9129   0.9026   4.2877  -0.4854  -1.1518   1.7071   0.00    1.0
2018/03/15 11:21:38.000   78.246540789   16.035454578   492.6391   2   5   0.7911   0.7819   3.7180  -0.4208  -0.9987   1.4801   0.00    1.4
2018/03/15 11:21:39.000   78.246533799   16.035467339   490.3018   2   5   0.7073   0.6993   3.3250  -0.3761  -0.8928   1.3234   0.00    1.6
2018/03/15 11:21:40.000   78.246527921   16.035492457   487.5005   2   5   0.6452   0.6382   3.0321  -0.3428  -0.8139   1.2065   0.00    1.9
2018/03/15 11:21:41.000   78.246526089   16.035499337   486.4954   2   5   0.5965   0.5906   2.8024  -0.3166  -0.7518   1.1148   0.00    1.7
2018/03/15 11:21:42.000   78.246529239   16.035491914   486.1217   2   5   0.5571   0.5522   2.6155  -0.2953  -0.7012   1.0401   0.00    1.7
2018/03/15 11:21:43.000   78.246531340   16.035485495   486.0753   2   5   0.5242   0.5204   2.4592  -0.2775  -0.6589   0.9776   0.00    1.6
2018/03/15 11:21:44.000   78.246532707   16.035478367   487.4494   2   5   0.4962   0.4933   2.3257  -0.2622  -0.6226   0.9242   0.00    1.8
2018/03/15 11:21:45.000   78.246533320   16.035482806   488.6868   2   5   0.4719   0.4700   2.2096  -0.2489  -0.5910   0.8777   0.00    1.8
2018/03/15 11:21:46.000   78.246531806   16.035490422   488.2747   2   5   0.4506   0.4497   2.1073  -0.2371  -0.5630   0.8367   0.00    1.7
2018/03/15 11:21:47.000   78.246531224   16.035495322   488.4527   2   4   0.4483   0.4334   2.0715  -0.2368  -0.5553   0.8351   0.00    1.6
2018/03/15 11:21:48.000   78.246530910   16.035496800   488.4465   2   4   0.4459   0.4190   2.0384  -0.2363  -0.5480   0.8327   0.00    1.8
2018/03/15 11:21:49.000   78.246531244   16.035494395   488.2696   2   4   0.4433   0.4060   2.0074  -0.2355  -0.5410   0.8297   0.00    1.6
2018/03/15 11:21:50.000   78.246531850   16.035488923   487.9939   2   4   0.4406   0.3942   1.9780  -0.2345  -0.5342   0.8259   0.00    1.0
2018/03/15 11:21:51.000   78.246531796   16.035487549   487.7114   2   4   0.4378   0.3834   1.9498  -0.2334  -0.5275   0.8216   0.00    1.1
2018/03/15 11:21:52.000   78.246531100   16.035492246   487.2549   2   4   0.4348   0.3734   1.9225  -0.2320  -0.5210   0.8167   0.00    1.2
2018/03/15 11:21:53.000   78.246531336   16.035493160   487.3084   2   4   0.4317   0.3642   1.8958  -0.2305  -0.5144   0.8113   0.00    1.2
2018/03/15 11:21:54.000   78.246532211   16.035498083   487.2572   2   4   0.4284   0.3557   1.8697  -0.2288  -0.5079   0.8053   0.00    1.7
2018/03/15 11:21:55.000   78.246532415   16.035496814   487.1560   2   4   0.4250   0.3477   1.8438  -0.2270  -0.5014   0.7990   0.00    1.5
2018/03/15 11:21:56.000   78.246532513   16.035498994   486.8611   2   4   0.4214   0.3402   1.8182  -0.2251  -0.4948   0.7921   0.00    1.6
2018/03/15 11:21:57.000   78.246533099   16.035497465   487.2331   2   5   0.4047   0.3316   1.7503  -0.2155  -0.4754   0.7589   0.00    1.1
2018/03/15 11:21:58.000   78.246532814   16.035498385   487.2346   2   5   0.3896   0.3237   1.6886  -0.2069  -0.4578   0.7290   0.00    1.0
2018/03/15 11:21:59.000   78.246532968   16.035497140   487.3078   2   5   0.3760   0.3163   1.6322  -0.1991  -0.4417   0.7018   0.00    1.3
2018/03/15 11:22:00.000   78.246533678   16.035490736   487.5926   2   4   0.3728   0.3103   1.6100  -0.1973  -0.4358   0.6955   0.00    1.3
2018/03/15 11:22:01.000   78.246535414   16.035486202   487.9411   2   4   0.3695   0.3047   1.5878  -0.1953  -0.4300   0.6889   0.00    1.3
2018/03/15 11:22:02.000   78.246536029   16.035485897   488.7511   2   4   0.3661   0.2993   1.5657  -0.1933  -0.4240   0.6820   0.00    1.4
2018/03/15 11:22:03.000   78.246536813   16.035481679   489.6553   5   3   0.3629   0.2951   1.5520  -0.1916  -0.4219   0.6762   0.00    0.0
2018/03/15 11:22:04.000   78.246539556   16.035476997   491.0341   2   4   0.3514   0.2898   1.5071  -0.1841  -0.4093   0.6524   0.00    1.8
2018/03/15 11:22:05.000   78.246540475   16.035477205   491.4081   2   4   0.3408   0.2847   1.4654  -0.1772  -0.3977   0.6305   0.00    1.0
2018/03/15 11:22:06.000   78.246540817   16.035478839   491.4284   2   4   0.3310   0.2799   1.4266  -0.1708  -0.3869   0.6101   0.00    1.1
2018/03/15 11:22:07.000   78.246540403   16.035477589   491.0467   2   4   0.3218   0.2754   1.3902  -0.1647  -0.3767   0.5911   0.00    1.2
2018/03/15 11:22:08.000   78.246539039   16.035477043   490.3848   2   4   0.3133   0.2710   1.3559  -0.1591  -0.3671   0.5732   0.00    2.6
2018/03/15 11:22:09.000   78.246538315   16.035476123   490.3668   5   3   0.3106   0.2677   1.3432  -0.1574  -0.3645   0.5681   0.00    0.0
2018/03/15 11:22:10.000   78.246538433   16.035471332   490.3841   5   3   0.3078   0.2644   1.3301  -0.1558  -0.3617   0.5627   0.00    0.0
2018/03/15 11:22:11.000   78.246540856   16.035461954   492.0580   1   4   0.0147   0.0076   0.0705  -0.0101  -0.0225   0.0319   0.00   22.5
2018/03/15 11:22:12.000   78.246540836   16.035462106   492.0483   1   4   0.0104   0.0057   0.0502  -0.0071  -0.0160   0.0225   0.00    7.2
2018/03/15 11:22:13.000   78.246545177   16.035461680   493.0900   2   4   0.2859   0.2531   1.2404  -0.1409  -0.3361   0.5164   0.00    2.7
2018/03/15 11:22:14.000   78.246546001   16.035463698   493.2560   2   4   0.2794   0.2496   1.2135  -0.1364  -0.3284   0.5026   0.00    1.8
2018/03/15 11:22:15.000   78.246545776   16.035465127   493.0503   2   4   0.2732   0.2463   1.1877  -0.1322  -0.3210   0.4894   0.00    1.9
2018/03/15 11:22:16.000   78.246545051   16.035467772   492.5484   2   4   0.2674   0.2431   1.1631  -0.1281  -0.3139   0.4769   0.00    1.8
2018/03/15 11:22:17.000   78.246545000   16.035469442   492.4365   2   4   0.2618   0.2400   1.1395  -0.1242  -0.3070   0.4650   0.00    1.6
2018/03/15 11:22:18.000   78.246545260   16.035469342   492.5505   2   4   0.2565   0.2369   1.1168  -0.1205  -0.3004   0.4535   0.00    1.5
2018/03/15 11:22:19.000   78.246546067   16.035468343   492.9014   2   4   0.2515   0.2340   1.0949  -0.1169  -0.2940   0.4426   0.00    1.4
2018/03/15 11:22:20.000   78.246547000   16.035468151   493.1286   2   4   0.2466   0.2312   1.0738  -0.1134  -0.2879   0.4321   0.00    1.1
2018/03/15 11:22:21.000   78.246547522   16.035468029   493.3175   2   4   0.2420   0.2285   1.0535  -0.1101  -0.2819   0.4220   0.00    1.2
2018/03/15 11:22:22.000   78.246547489   16.035468716   493.3664   2   4   0.2375   0.2258   1.0338  -0.1068  -0.2760   0.4122   0.00    1.3
2018/03/15 11:22:23.000   78.246547267   16.035469956   493.1989   2   4   0.2332   0.2232   1.0147  -0.1037  -0.2704   0.4028   0.00    1.4
2018/03/15 11:22:24.000   78.246546741   16.035473439   492.9094   2   4   0.2291   0.2207   0.9962  -0.1007  -0.2648   0.3938   0.00    1.6
2018/03/15 11:22:25.000   78.246546828   16.035475461   492.8441   2   4   0.2252   0.2183   0.9782  -0.0977  -0.2595   0.3850   0.00    1.9
2018/03/15 11:22:26.000   78.246546582   16.035475219   492.7807   2   4   0.2213   0.2159   0.9608  -0.0949  -0.2542   0.3765   0.00    1.7
2018/03/15 11:22:27.000   78.246546133   16.035476553   492.5704   5   3   0.2186   0.2145   0.9471  -0.0909  -0.2466   0.3704   0.00    0.0
2018/03/15 11:22:28.000   78.246545808   16.035476924   492.5092   5   3   0.2160   0.2132   0.9338  -0.0870  -0.2390   0.3644   0.00    0.0
2018/03/15 11:22:29.000   78.246545284   16.035478008   492.3351   5   3   0.2134   0.2120   0.9207  -0.0830  -0.2316   0.3586   0.00    0.0
2018/03/15 11:22:30.000   78.246544778   16.035478471   492.2090   2   4   0.2106   0.2098   0.9057  -0.0805  -0.2270   0.3520   0.00    1.3
2018/03/15 11:22:31.000   78.246544454   16.035478567   492.0486   5   3   0.2094   0.2078   0.8969  -0.0793  -0.2243   0.3490   0.00    0.0
2018/03/15 11:22:32.000   78.246544020   16.035478273   491.8182   5   3   0.2082   0.2059   0.8880  -0.0781  -0.2216   0.3461   0.00    0.0
2018/03/15 11:22:33.000   78.246543647   16.035478877   491.6803   5   3   0.2070   0.2040   0.8792  -0.0768  -0.2189   0.3431   0.00    0.0
2018/03/15 11:22:34.000   78.246543260   16.035479715   491.5562   5   3   0.2058   0.2021   0.8704  -0.0755  -0.2161   0.3401   0.00    0.0
2018/03/15 11:22:35.000   78.246542934   16.035480442   491.4619   5   3   0.2046   0.2003   0.8616  -0.0743  -0.2133   0.3371   0.00    0.0
2018/03/15 11:22:36.000   78.246542544   16.035480233   491.3637   5   3   0.2034   0.1985   0.8528  -0.0730  -0.2105   0.3341   0.00    0.0
2018/03/15 11:22:37.000   78.246542198   16.035479944   491.3196   5   3   0.2022   0.1967   0.8440  -0.0716  -0.2077   0.3311   0.00    0.0
2018/03/15 11:22:38.000   78.246542043   16.035481042   491.2113   5   3   0.2010   0.1950   0.8353  -0.0703  -0.2048   0.3280   0.00    0.0
2018/03/15 11:22:39.000   78.246541888   16.035481063   491.0788   5   3   0.1997   0.1933   0.8265  -0.0690  -0.2019   0.3249   0.00    0.0
2018/03/15 11:22:40.000   78.246541834   16.035481619   491.0525   5   3   0.1985   0.1917   0.8179  -0.0676  -0.1990   0.3219   0.00    0.0
2018/03/15 11:22:41.000   78.246541672   16.035481191   490.9618   5   3   0.1973   0.1900   0.8092  -0.0662  -0.1961   0.3188   0.00    0.0
2018/03/15 11:22:42.000   78.246541460   16.035481006   490.8912   5   3   0.1961   0.1884   0.8006  -0.0648  -0.1932   0.3157   0.00    0.0
2018/03/15 11:22:43.000   78.246541370   16.035481176   490.8316   2   4   0.1937   0.1868   0.7886  -0.0626  -0.1893   0.3101   0.00    1.6
2018/03/15 11:22:44.000   78.246541200   16.035481427   490.7742   2   4   0.1914   0.1852   0.7769  -0.0603  -0.1854   0.3047   0.00    1.7
2018/03/15 11:22:45.000   78.246540979   16.035481617   490.7188   2   4   0.1892   0.1836   0.7655  -0.0581  -0.1817   0.2994   0.00    1.9
2018/03/15 11:22:46.000   78.246540264   16.035482402   490.4706   2   4   0.1871   0.1821   0.7544  -0.0560  -0.1780   0.2943   0.00    2.6
2018/03/15 11:22:47.000   78.246535744   16.035477775   489.3600   1   4   0.0065   0.0048   0.0316  -0.0044  -0.0100   0.0140   0.00    3.2
2018/03/15 11:22:48.000   78.246535771   16.035477722   489.3743   1   4   0.0060   0.0045   0.0290  -0.0040  -0.0091   0.0128   0.00    3.5
2018/03/15 11:22:49.000   78.246535787   16.035477685   489.3838   1   4   0.0055   0.0043   0.0269  -0.0037  -0.0085   0.0118   0.00    3.8
2018/03/15 11:22:50.000   78.246535795   16.035477686   489.3887   1   4   0.0052   0.0042   0.0253  -0.0034  -0.0079   0.0110   0.00    3.8
2018/03/15 11:22:51.000   78.246535799   16.035477701   489.3912   1   4   0.0049   0.0040   0.0239  -0.0032  -0.0075   0.0104   0.00    3.7
2018/03/15 11:22:52.000   78.246535802   16.035477703   489.3918   1   4   0.0047   0.0039   0.0227  -0.0030  -0.0071   0.0098   0.00    4.1
2018/03/15 11:22:53.000   78.246535799   16.035477715   489.3896   1   4   0.0045   0.0038   0.0217  -0.0029  -0.0068   0.0094   0.00    4.7
2018/03/15 11:22:54.000   78.246535795   16.035477732   489.3864   1   4   0.0043   0.0037   0.0209  -0.0027  -0.0065   0.0090   0.00    5.3
2018/03/15 11:22:55.000   78.246535794   16.035477751   489.3850   1   4   0.0041   0.0036   0.0201  -0.0026  -0.0063   0.0086   0.00    5.7
2018/03/15 11:22:56.000   78.246535793   16.035477777   489.3848   1   4   0.0040   0.0035   0.0194  -0.0025  -0.0061   0.0083   0.00    5.7
2018/03/15 11:22:57.000   78.246535797   16.035477797   489.3880   1   4   0.0038   0.0035   0.0188  -0.0024  -0.0059   0.0079   0.00  999.9
2018/03/15 11:22:58.000   78.246535800   16.035477808   489.3899   1   4   0.0037   0.0034   0.0183  -0.0023  -0.0057   0.0077   0.00  999.9
2018/03/15 11:22:59.000   78.246535805   16.035477808   489.3925   1   4   0.0036   0.0033   0.0178  -0.0022  -0.0056   0.0074   0.00  999.9
2018/03/15 11:23:00.000   78.246535809   16.035477802   489.3937   1   4   0.0035   0.0033   0.0173  -0.0022  -0.0054   0.0072   0.00  999.9
2018/03/15 11:23:01.000   78.246535811   16.035477795   489.3936   1   4   0.0034   0.0032   0.0169  -0.0021  -0.0053   0.0070   0.00  999.9
2018/03/15 11:23:02.000   78.246535814   16.035477784   489.3948   1   4   0.0033   0.0032   0.0165  -0.0020  -0.0052   0.0068   0.00  999.9
2018/03/15 11:23:03.000   78.246535811   16.035477804   489.3933   1   4   0.0032   0.0031   0.0162  -0.0020  -0.0051   0.0066   0.00  999.9
2018/03/15 11:23:04.000   78.246535805   16.035477835   489.3904   1   4   0.0032   0.0031   0.0158  -0.0019  -0.0050   0.0065   0.00  999.9
2018/03/15 11:23:05.000   78.246535800   16.035477858   489.3889   1   4   0.0031   0.0030   0.0155  -0.0019  -0.0049   0.0063   0.00  999.9
2018/03/15 11:23:06.000   78.246535796   16.035477868   489.3881   1   4   0.0030   0.0030   0.0152  -0.0018  -0.0048   0.0062   0.00  999.9
2018/03/15 11:23:07.000   78.246535796   16.035477869   489.3891   1   4   0.0030   0.0029   0.0150  -0.0018  -0.0047   0.0061   0.00  999.9
2018/03/15 11:23:08.000   78.246535797   16.035477868   489.3905   1   4   0.0029   0.0029   0.0147  -0.0017  -0.0046   0.0059   0.00  999.9
2018/03/15 11:23:09.000   78.246535796   16.035477870   489.3897   1   4   0.0029   0.0029   0.0145  -0.0017  -0.0046   0.0058   0.00  999.9
2018/03/15 11:23:10.000   78.246535793   16.035477888   489.3877   1   4   0.0028   0.0028   0.0142  -0.0017  -0.0045   0.0057   0.00  999.9
2018/03/15 11:23:11.000   78.246535788   16.035477906   489.3849   1   4   0.0028   0.0028   0.0140  -0.0016  -0.0044   0.0056   0.00  999.9
2018/03/15 11:23:12.000   78.246535782   16.035477920   489.3818   1   4   0.0027   0.0028   0.0138  -0.0016  -0.0044   0.0055   0.00  999.9
2018/03/15 11:23:13.000   78.246535777   16.035477930   489.3803   1   4   0.0027   0.0027   0.0136  -0.0016  -0.0043   0.0054   0.00  999.9
2018/03/15 11:23:14.000   78.246535776   16.035477936   489.3805   1   4   0.0027   0.0027   0.0134  -0.0015  -0.0042   0.0053   0.00  999.9
2018/03/15 11:23:15.000   78.246535776   16.035477942   489.3815   1   4   0.0026   0.0027   0.0133  -0.0015  -0.0042   0.0052   0.00  999.9
2018/03/15 11:23:16.000   78.246535781   16.035477932   489.3836   1   4   0.0026   0.0026   0.0131  -0.0015  -0.0041   0.0051   0.00  999.9
2018/03/15 11:23:17.000   78.246535787   16.035477908   489.3865   1   4   0.0025   0.0026   0.0129  -0.0015  -0.0041   0.0051   0.00  999.9
2018/03/15 11:23:18.000   78.246535792   16.035477886   489.3889   1   4   0.0025   0.0026   0.0128  -0.0014  -0.0040   0.0050   0.00  999.9
2018/03/15 11:23:19.000   78.246535796   16.035477873   489.3899   1   4   0.0025   0.0026   0.0126  -0.0014  -0.0040   0.0049   0.00  999.9
2018/03/15 11:23:20.000   78.246535798   16.035477865   489.3903   1   4   0.0025   0.0025   0.0125  -0.0014  -0.0040   0.0048   0.00  999.9
2018/03/15 11:23:21.000   78.246535798   16.035477866   489.3901   1   4   0.0024   0.0025   0.0124  -0.0014  -0.0039   0.0048   0.00  999.9
2018/03/15 11:23:22.000   78.246535799   16.035477862   489.3897   1   4   0.0024   0.0025   0.0122  -0.0013  -0.0039   0.0047   0.00  999.9
2018/03/15 11:23:23.000   78.246535800   16.035477858   489.3895   1   4   0.0024   0.0025   0.0121  -0.0013  -0.0038   0.0047   0.00  999.9
2018/03/15 11:23:24.000   78.246535802   16.035477853   489.3897   1   4   0.0023   0.0025   0.0120  -0.0013  -0.0038   0.0046   0.00  999.9
2018/03/15 11:23:25.000   78.246535805   16.035477849   489.3904   1   4   0.0023   0.0024   0.0119  -0.0013  -0.0038   0.0045   0.00  999.9
2018/03/15 11:23:26.000   78.246535806   16.035477850   489.3915   1   4   0.0023   0.0024   0.0118  -0.0013  -0.0037   0.0045   0.00  999.9
2018/03/15 11:23:27.000   78.246535807   16.035477850   489.3924   1   4   0.0023   0.0024   0.0117  -0.0013  -0.0037   0.0044   0.00  999.9
2018/03/15 11:23:28.000   78.246535809   16.035477847   489.3930   1   4   0.0022   0.0024   0.0116  -0.0012  -0.0037   0.0044   0.00  999.9
2018/03/15 11:23:29.000   78.246535811   16.035477841   489.3934   1   4   0.0022   0.0024   0.0115  -0.0012  -0.0037   0.0043   0.00  999.9
2018/03/15 11:23:30.000   78.246535811   16.035477841   489.3932   1   4   0.0022   0.0024   0.0114  -0.0012  -0.0036   0.0043   0.00  999.9
2018/03/15 11:23:31.000   78.246535810   16.035477837   489.3930   1   4   0.0022   0.0023   0.0113  -0.0012  -0.0036   0.0042   0.00  999.9
2018/03/15 11:23:32.000   78.246535810   16.035477843   489.3931   1   4   0.0022   0.0023   0.0112  -0.0012  -0.0036   0.0042   0.00  999.9
2018/03/15 11:23:33.000   78.246535811   16.035477846   489.3936   1   4   0.0021   0.0023   0.0111  -0.0012  -0.0035   0.0041   0.00  999.9
2018/03/15 11:23:34.000   78.246535812   16.035477847   489.3947   1   4   0.0021   0.0023   0.0110  -0.0011  -0.0035   0.0041   0.00  999.9
2018/03/15 11:23:35.000   78.246535813   16.035477846   489.3952   1   4   0.0021   0.0023   0.0109  -0.0011  -0.0035   0.0041   0.00  999.9
2018/03/15 11:23:36.000   78.246535814   16.035477844   489.3958   1   4   0.0021   0.0023   0.0108  -0.0011  -0.0035   0.0040   0.00  999.9
2018/03/15 11:23:37.000   78.246535814   16.035477843   489.3957   1   4   0.0021   0.0023   0.0108  -0.0011  -0.0034   0.0040   0.00  999.9
2018/03/15 11:23:38.000   78.246535813   16.035477845   489.3957   1   4   0.0021   0.0022   0.0107  -0.0011  -0.0034   0.0039   0.00  999.9
2018/03/15 11:23:39.000   78.246535814   16.035477841   489.3964   1   4   0.0020   0.0022   0.0106  -0.0011  -0.0034   0.0039   0.00  999.9
2018/03/15 11:23:40.000   78.246535815   16.035477840   489.3970   1   4   0.0020   0.0022   0.0105  -0.0011  -0.0034   0.0039   0.00  999.9
2018/03/15 11:23:41.000   78.246535816   16.035477836   489.3981   1   4   0.0020   0.0022   0.0105  -0.0011  -0.0034   0.0038   0.00  999.9
2018/03/15 11:23:42.000   78.246535818   16.035477828   489.3990   1   4   0.0020   0.0022   0.0104  -0.0010  -0.0033   0.0038   0.00  999.9
2018/03/15 11:23:43.000   78.246535819   16.035477823   489.4003   1   4   0.0020   0.0022   0.0103  -0.0010  -0.0033   0.0038   0.00  999.9
2018/03/15 11:23:44.000   78.246535820   16.035477818   489.4008   1   4   0.0020   0.0022   0.0103  -0.0010  -0.0033   0.0037   0.00  999.9
2018/03/15 11:23:45.000   78.246535822   16.035477811   489.4015   1   4   0.0020   0.0022   0.0102  -0.0010  -0.0033   0.0037   0.00  999.9
2018/03/15 11:23:46.000   78.246535823   16.035477804   489.4016   1   4   0.0019   0.0021   0.0102  -0.0010  -0.0033   0.0037   0.00  999.9
2018/03/15 11:23:47.000   78.246535823   16.035477799   489.4014   1   4   0.0019   0.0021   0.0101  -0.0010  -0.0033   0.0037   0.00  999.9
2018/03/15 11:23:48.000   78.246535823   16.035477796   489.4017   1   4   0.0019   0.0021   0.0100  -0.0010  -0.0032   0.0036   0.00  999.9
2018/03/15 11:23:49.000   78.246535823   16.035477789   489.4023   1   4   0.0019   0.0021   0.0100  -0.0010  -0.0032   0.0036   0.00  999.9
2018/03/15 11:23:50.000   78.246535823   16.035477785   489.4029   1   4   0.0019   0.0021   0.0099  -0.0010  -0.0032   0.0036   0.00  999.9
2018/03/15 11:23:51.000   78.246535824   16.035477780   489.4035   1   4   0.0019   0.0021   0.0099  -0.0010  -0.0032   0.0035   0.00  999.9
2018/03/15 11:23:52.000   78.246535826   16.035477774   489.4039   1   4   0.0019   0.0021   0.0098  -0.0009  -0.0032   0.0035   0.00  999.9
2018/03/15 11:23:53.000   78.246535828   16.035477767   489.4040   1   4   0.0019   0.0021   0.0098  -0.0009  -0.0032   0.0035   0.00  999.9
2018/03/15 11:23:54.000   78.246535830   16.035477762   489.4040   1   4   0.0019   0.0021   0.0097  -0.0009  -0.0031   0.0035   0.00  999.9
2018/03/15 11:23:55.000   78.246535830   16.035477758   489.4038   1   4   0.0018   0.0021   0.0097  -0.0009  -0.0031   0.0035   0.00  999.9
2018/03/15 11:23:56.000   78.246535831   16.035477755   489.4041   1   4   0.0018   0.0021   0.0096  -0.0009  -0.0031   0.0034   0.00  999.9
2018/03/15 11:23:57.000   78.246535831   16.035477751   489.4048   1   4   0.0018   0.0020   0.0096  -0.0009  -0.0031   0.0034   0.00  999.9
2018/03/15 11:23:58.000   78.246535831   16.035477748   489.4056   1   4   0.0018   0.0020   0.0096  -0.0009  -0.0031   0.0034   0.00  999.9
2018/03/15 11:23:59.000   78.246535832   16.035477743   489.4063   1   4   0.0018   0.0020   0.0095  -0.0009  -0.0031   0.0034   0.00  999.9
2018/03/15 11:24:00.000   78.246535833   16.035477739   489.4067   1   4   0.0018   0.0020   0.0095  -0.0009  -0.0031   0.0033   0.00  999.9
2018/03/15 11:24:01.000   78.246535835   16.035477732   489.4070   1   4   0.0018   0.0020   0.0094  -0.0009  -0.0031   0.0033   0.00  999.9
2018/03/15 11:24:02.000   78.246535837   16.035477725   489.4074   1   4   0.0018   0.0020   0.0094  -0.0009  -0.0030   0.0033   0.00  999.9
2018/03/15 11:24:03.000   78.246535839   16.035477722   489.4080   1   4   0.0018   0.0020   0.0093  -0.0009  -0.0030   0.0033   0.00  999.9
2018/03/15 11:24:04.000   78.246535840   16.035477722   489.4082   1   4   0.0018   0.0020   0.0093  -0.0009  -0.0030   0.0033   0.00  999.9
2018/03/15 11:24:05.000   78.246535840   16.035477721   489.4080   1   4   0.0017   0.0020   0.0093  -0.0008  -0.0030   0.0032   0.00  999.9
2018/03/15 11:24:06.000   78.246535839   16.035477718   489.4079   1   4   0.0017   0.0020   0.0092  -0.0008  -0.0030   0.0032   0.00  999.9
2018/03/15 11:24:07.000   78.246535840   16.035477712   489.4085   1   4   0.0017   0.0020   0.0092  -0.0008  -0.0030   0.0032   0.00  999.9
2018/03/15 11:24:08.000   78.246535842   16.035477702   489.4094   1   4   0.0017   0.0020   0.0092  -0.0008  -0.0030   0.0032   0.00  999.9
2018/03/15 11:24:09.000   78.246535844   16.035477688   489.4103   1   4   0.0017   0.0020   0.0091  -0.0008  -0.0030   0.0032   0.00  999.9
2018/03/15 11:24:10.000   78.246535847   16.035477675   489.4116   1   4   0.0017   0.0020   0.0091  -0.0008  -0.0030   0.0032   0.00  999.9
2018/03/15 11:24:11.000   78.246535850   16.035477661   489.4130   1   4   0.0017   0.0019   0.0091  -0.0008  -0.0030   0.0031   0.00  999.9
2018/03/15 11:24:12.000   78.246535851   16.035477653   489.4138   1   4   0.0017   0.0019   0.0090  -0.0008  -0.0029   0.0031   0.00  999.9
2018/03/15 11:24:13.000   78.246535853   16.035477648   489.4149   1   4   0.0017   0.0019   0.0090  -0.0008  -0.0029   0.0031   0.00  999.9
2018/03/15 11:24:14.000   78.246535854   16.035477641   489.4155   1   4   0.0017   0.0019   0.0090  -0.0008  -0.0029   0.0031   0.00  999.9
2018/03/15 11:24:15.000   78.246535855   16.035477632   489.4158   1   4   0.0017   0.0019   0.0089  -0.0008  -0.0029   0.0031   0.00  999.9
2018/03/15 11:24:16.000   78.246535856   16.035477627   489.4158   1   4   0.0017   0.0019   0.0089  -0.0008  -0.0029   0.0031   0.00  999.9
2018/03/15 11:24:17.000   78.246535857   16.035477621   489.4163   1   4   0.0017   0.0019   0.0089  -0.0008  -0.0029   0.0030   0.00  999.9
2018/03/15 11:24:18.000   78.246535859   16.035477612   489.4174   1   4   0.0017   0.0019   0.0088  -0.0008  -0.0029   0.0030   0.00  999.9
2018/03/15 11:24:19.000   78.246535861   16.035477603   489.4191   1   4   0.0016   0.0019   0.0088  -0.0008  -0.0029   0.0030   0.00  999.9
2018/03/15 11:24:20.000   78.246535863   16.035477594   489.4208   1   4   0.0016   0.0019   0.0088  -0.0008  -0.0029   0.0030   0.00  999.9
2018/03/15 11:24:21.000   78.246535866   16.035477583   489.4221   1   4   0.0016   0.0019   0.0088  -0.0008  -0.0029   0.0030   0.00  999.9
2018/03/15 11:24:22.000   78.246535868   16.035477573   489.4228   1   4   0.0016   0.0019   0.0087  -0.0008  -0.0029   0.0030   0.00  999.9
2018/03/15 11:24:23.000   78.246535870   16.035477565   489.4228   1   4   0.0016   0.0019   0.0087  -0.0007  -0.0029   0.0030   0.00  999.9
2018/03/15 11:24:24.000   78.246535871   16.035477560   489.4228   1   4   0.0016   0.0019   0.0087  -0.0007  -0.0028   0.0029   0.00  999.9
2018/03/15 11:24:25.000   78.246535871   16.035477555   489.4231   1   4   0.0016   0.0019   0.0087  -0.0007  -0.0028   0.0029   0.00  999.9
2018/03/15 11:24:26.000   78.246535873   16.035477552   489.4240   1   4   0.0016   0.0019   0.0086  -0.0007  -0.0028   0.0029   0.00  999.9
2018/03/15 11:24:27.000   78.246535875   16.035477545   489.4254   1   4   0.0016   0.0019   0.0086  -0.0007  -0.0028   0.0029   0.00  999.9
2018/03/15 11:24:28.000   78.246535879   16.035477538   489.4269   1   4   0.0016   0.0019   0.0086  -0.0007  -0.0028   0.0029   0.00  999.9
2018/03/15 11:24:29.000   78.246535882   16.035477532   489.4274   1   4   0.0016   0.0019   0.0086  -0.0007  -0.0028   0.0029   0.00  999.9
2018/03/15 11:24:30.000   78.246535884   16.035477527   489.4278   1   4   0.0016   0.0018   0.0085  -0.0007  -0.0028   0.0029   0.00  999.9
2018/03/15 11:24:31.000   78.246535885   16.035477528   489.4273   1   4   0.0016   0.0018   0.0085  -0.0007  -0.0028   0.0029   0.00  999.9
2018/03/15 11:24:32.000   78.246535885   16.035477528   489.4271   1   4   0.0016   0.0018   0.0085  -0.0007  -0.0028   0.0029   0.00  999.9
2018/03/15 11:24:33.000   78.246535885   16.035477526   489.4270   1   4   0.0016   0.0018   0.0085  -0.0007  -0.0028   0.0028   0.00  999.9
2018/03/15 11:24:34.000   78.246535885   16.035477521   489.4277   1   4   0.0016   0.0018   0.0084  -0.0007  -0.0028   0.0028   0.00  999.9
2018/03/15 11:24:35.000   78.246535888   16.035477513   489.4286   1   4   0.0016   0.0018   0.0084  -0.0007  -0.0028   0.0028   0.00  999.9
2018/03/15 11:24:36.000   78.246535891   16.035477505   489.4296   1   4   0.0016   0.0018   0.0084  -0.0007  -0.0028   0.0028   0.00  999.9
2018/03/15 11:24:37.000   78.246535895   16.035477499   489.4301   1   4   0.0015   0.0018   0.0084  -0.0007  -0.0028   0.0028   0.00  999.9
2018/03/15 11:24:38.000   78.246535897   16.035477494   489.4304   1   4   0.0015   0.0018   0.0084  -0.0007  -0.0028   0.0028   0.00  999.9
2018/03/15 11:24:39.000   78.246535898   16.035477491   489.4307   1   4   0.0015   0.0018   0.0083  -0.0007  -0.0027   0.0028   0.00  999.9
2018/03/15 11:24:40.000   78.246535900   16.035477490   489.4313   1   4   0.0015   0.0018   0.0083  -0.0007  -0.0027   0.0028   0.00  999.9
2018/03/15 11:24:41.000   78.246535901   16.035477487   489.4325   1   4   0.0015   0.0018   0.0083  -0.0007  -0.0027   0.0028   0.00  999.9
2018/03/15 11:24:42.000   78.246535902   16.035477481   489.4334   1   4   0.0015   0.0018   0.0083  -0.0007  -0.0027   0.0028   0.00  999.9
2018/03/15 11:24:43.000   78.246535904   16.035477475   489.4337   1   4   0.0015   0.0018   0.0083  -0.0007  -0.0027   0.0027   0.00  999.9
2018/03/15 11:24:44.000   78.246535906   16.035477471   489.4337   1   4   0.0015   0.0018   0.0082  -0.0007  -0.0027   0.0027   0.00  999.9
2018/03/15 11:24:45.000   78.246535907   16.035477463   489.4335   1   4   0.0015   0.0018   0.0082  -0.0007  -0.0027   0.0027   0.00  999.9
2018/03/15 11:24:46.000   78.246535910   16.035477457   489.4333   1   4   0.0015   0.0018   0.0082  -0.0007  -0.0027   0.0027   0.00  999.9
2018/03/15 11:24:47.000   78.246535911   16.035477451   489.4336   1   4   0.0015   0.0018   0.0082  -0.0007  -0.0027   0.0027   0.00  999.9
2018/03/15 11:24:48.000   78.246535912   16.035477446   489.4342   1   4   0.0015   0.0018   0.0082  -0.0006  -0.0027   0.0027   0.00  999.9
2018/03/15 11:24:49.000   78.246535913   16.035477442   489.4349   1   4   0.0015   0.0018   0.0082  -0.0006  -0.0027   0.0027   0.00  999.9
2018/03/15 11:24:50.000   78.246535915   16.035477437   489.4357   1   4   0.0015   0.0018   0.0081  -0.0006  -0.0027   0.0027   0.00  999.9
2018/03/15 11:24:51.000   78.246535917   16.035477431   489.4360   1   4   0.0015   0.0018   0.0081  -0.0006  -0.0027   0.0027   0.00  999.9
2018/03/15 11:24:52.000   78.246535919   16.035477425   489.4357   1   4   0.0015   0.0018   0.0081  -0.0006  -0.0027   0.0027   0.00  999.9
2018/03/15 11:24:53.000   78.246535920   16.035477423   489.4353   1   4   0.0015   0.0018   0.0081  -0.0006  -0.0027   0.0027   0.00  999.9
2018/03/15 11:24:54.000   78.246535922   16.035477418   489.4350   1   4   0.0015   0.0018   0.0081  -0.0006  -0.0027   0.0026   0.00  999.9
2018/03/15 11:24:55.000   78.246535923   16.035477416   489.4349   1   4   0.0015   0.0018   0.0081  -0.0006  -0.0027   0.0026   0.00  999.9
2018/03/15 11:24:56.000   78.246535924   16.035477412   489.4352   1   4   0.0015   0.0018   0.0080  -0.0006  -0.0027   0.0026   0.00  999.9
2018/03/15 11:24:57.000   78.246535926   16.035477410   489.4356   1   4   0.0015   0.0018   0.0080  -0.0006  -0.0027   0.0026   0.00  999.9
2018/03/15 11:24:58.000   78.246535929   16.035477405   489.4361   1   4   0.0015   0.0018   0.0080  -0.0006  -0.0027   0.0026   0.00  999.9
2018/03/15 11:24:59.000   78.246535930   16.035477399   489.4364   1   4   0.0015   0.0018   0.0080  -0.0006  -0.0027   0.0026   0.00  999.9
2018/03/15 11:25:00.000   78.246535932   16.035477396   489.4364   1   4   0.0015   0.0017   0.0080  -0.0006  -0.0026   0.0026   0.00  999.9
2018/03/15 11:25:01.000   78.246535933   16.035477392   489.4366   1   4   0.0015   0.0017   0.0080  -0.0006  -0.0026   0.0026   0.00  999.9
2018/03/15 11:25:02.000   78.246535935   16.035477389   489.4365   1   4   0.0015   0.0017   0.0079  -0.0006  -0.0026   0.0026   0.00  999.9
2018/03/15 11:25:03.000   78.246535936   16.035477387   489.4363   1   4   0.0014   0.0017   0.0079  -0.0006  -0.0026   0.0026   0.00  999.9
2018/03/15 11:25:04.000   78.246535937   16.035477384   489.4362   1   4   0.0014   0.0017   0.0079  -0.0006  -0.0026   0.0026   0.00  999.9
2018/03/15 11:25:05.000   78.246535939   16.035477382   489.4364   1   4   0.0014   0.0017   0.0079  -0.0006  -0.0026   0.0026   0.00  999.9
2018/03/15 11:25:06.000   78.246535941   16.035477377   489.4367   1   4   0.0014   0.0017   0.0079  -0.0006  -0.0026   0.0026   0.00  999.9
2018/03/15 11:25:07.000   78.246535943   16.035477373   489.4368   1   4   0.0014   0.0017   0.0079  -0.0006  -0.0026   0.0026   0.00  999.9
2018/03/15 11:25:08.000   78.246535945   16.035477374   489.4367   1   4   0.0014   0.0017   0.0079  -0.0006  -0.0026   0.0026   0.00  999.9
2018/03/15 11:25:09.000   78.246535946   16.035477376   489.4366   1   4   0.0014   0.0017   0.0079  -0.0006  -0.0026   0.0025   0.00  999.9
2018/03/15 11:25:10.000   78.246535945   16.035477379   489.4364   1   4   0.0014   0.0017   0.0078  -0.0006  -0.0026   0.0025   0.00  999.9
2018/03/15 11:25:11.000   78.246535945   16.035477383   489.4362   1   4   0.0014   0.0017   0.0078  -0.0006  -0.0026   0.0025   0.00  999.9
2018/03/15 11:25:12.000   78.246535946   16.035477383   489.4366   1   4   0.0014   0.0017   0.0078  -0.0006  -0.0026   0.0025   0.00  999.9
2018/03/15 11:25:13.000   78.246535948   16.035477381   489.4366   1   4   0.0014   0.0017   0.0078  -0.0006  -0.0026   0.0025   0.00  999.9
2018/03/15 11:25:14.000   78.246535951   16.035477378   489.4367   1   4   0.0014   0.0017   0.0078  -0.0006  -0.0026   0.0025   0.00  999.9
2018/03/15 11:25:15.000   78.246535953   16.035477377   489.4367   1   4   0.0014   0.0017   0.0078  -0.0006  -0.0026   0.0025   0.00  999.9
2018/03/15 11:25:16.000   78.246535955   16.035477374   489.4367   1   4   0.0014   0.0017   0.0078  -0.0006  -0.0026   0.0025   0.00  999.9
2018/03/15 11:25:17.000   78.246535956   16.035477376   489.4365   1   4   0.0014   0.0017   0.0078  -0.0006  -0.0026   0.0025   0.00  999.9
2018/03/15 11:25:18.000   78.246535956   16.035477376   489.4367   1   4   0.0014   0.0017   0.0077  -0.0006  -0.0026   0.0025   0.00  999.9
2018/03/15 11:25:19.000   78.246535957   16.035477374   489.4371   1   4   0.0014   0.0017   0.0077  -0.0006  -0.0026   0.0025   0.00  999.9
2018/03/15 11:25:20.000   78.246535958   16.035477369   489.4375   1   4   0.0014   0.0017   0.0077  -0.0006  -0.0026   0.0025   0.00  999.9
2018/03/15 11:25:21.000   78.246535960   16.035477367   489.4378   1   4   0.0014   0.0017   0.0077  -0.0006  -0.0026   0.0025   0.00  999.9
2018/03/15 11:25:22.000   78.246535962   16.035477364   489.4380   1   4   0.0014   0.0017   0.0077  -0.0006  -0.0026   0.0025   0.00  999.9
2018/03/15 11:25:23.000   78.246535963   16.035477361   489.4379   1   4   0.0014   0.0017   0.0077  -0.0006  -0.0026   0.0025   0.00  999.9
2018/03/15 11:25:24.000   78.246535964   16.035477358   489.4378   1   4   0.0014   0.0017   0.0077  -0.0006  -0.0026   0.0025   0.00  999.9
2018/03/15 11:25:25.000   78.246535965   16.035477355   489.4380   1   4   0.0014   0.0017   0.0077  -0.0006  -0.0026   0.0025   0.00  999.9
2018/03/15 11:25:26.000   78.246535967   16.035477351   489.4383   1   4   0.0014   0.0017   0.0077  -0.0005  -0.0026   0.0024   0.00  999.9
2018/03/15 11:25:27.000   78.246535968   16.035477348   489.4386   1   4   0.0014   0.0017   0.0076  -0.0005  -0.0026   0.0024   0.00  999.9
2018/03/15 11:25:28.000   78.246535969   16.035477346   489.4389   1   4   0.0014   0.0017   0.0076  -0.0005  -0.0026   0.0024   0.00  999.9
2018/03/15 11:25:29.000   78.246535971   16.035477346   489.4393   1   4   0.0014   0.0017   0.0076  -0.0005  -0.0026   0.0024   0.00  999.9
2018/03/15 11:25:30.000   78.246535972   16.035477343   489.4394   1   4   0.0014   0.0017   0.0076  -0.0005  -0.0025   0.0024   0.00  999.9
2018/03/15 11:25:31.000   78.246535974   16.035477341   489.4389   1   4   0.0014   0.0017   0.0076  -0.0005  -0.0025   0.0024   0.00  999.9
2018/03/15 11:25:32.000   78.246535975   16.035477340   489.4386   1   4   0.0014   0.0017   0.0076  -0.0005  -0.0025   0.0024   0.00  999.9
2018/03/15 11:25:33.000   78.246535977   16.035477337   489.4385   1   4   0.0014   0.0017   0.0076  -0.0005  -0.0025   0.0024   0.00  999.9
2018/03/15 11:25:34.000   78.246535979   16.035477334   489.4386   1   4   0.0014   0.0017   0.0076  -0.0005  -0.0025   0.0024   0.00  999.9
2018/03/15 11:25:35.000   78.246535981   16.035477330   489.4390   1   4   0.0014   0.0017   0.0076  -0.0005  -0.0025   0.0024   0.00  999.9
2018/03/15 11:25:36.000   78.246535983   16.035477327   489.4394   1   4   0.0014   0.0017   0.0076  -0.0005  -0.0025   0.0024   0.00  999.9
2018/03/15 11:25:37.000   78.246535984   16.035477323   489.4395   1   4   0.0014   0.0017   0.0075  -0.0005  -0.0025   0.0024   0.00  999.9
2018/03/15 11:25:38.000   78.246535986   16.035477321   489.4394   1   4   0.0014   0.0017   0.0075  -0.0005  -0.0025   0.0024   0.00  999.9
2018/03/15 11:25:39.000   78.246535986   16.035477319   489.4393   1   4   0.0013   0.0017   0.0075  -0.0005  -0.0025   0.0024   0.00  999.9
2018/03/15 11:25:40.000   78.246535987   16.035477317   489.4392   1   4   0.0013   0.0017   0.0075  -0.0005  -0.0025   0.0024   0.00  999.9
2018/03/15 11:25:41.000   78.246535988   16.035477314   489.4393   1   4   0.0013   0.0017   0.0075  -0.0005  -0.0025   0.0024   0.00  999.9
2018/03/15 11:25:42.000   78.246535990   16.035477311   489.4392   1   4   0.0013   0.0017   0.0075  -0.0005  -0.0025   0.0024   0.00  999.9
2018/03/15 11:25:43.000   78.246535993   16.035477309   489.4394   1   4   0.0013   0.0017   0.0075  -0.0005  -0.0025   0.0024   0.00  999.9
2018/03/15 11:25:44.000   78.246535995   16.035477305   489.4398   1   4   0.0013   0.0017   0.0075  -0.0005  -0.0025   0.0024   0.00  999.9
2018/03/15 11:25:45.000   78.246535995   16.035477302   489.4398   1   4   0.0013   0.0017   0.0075  -0.0005  -0.0025   0.0024   0.00  999.9
2018/03/15 11:25:46.000   78.246535995   16.035477301   489.4399   1   4   0.0013   0.0017   0.0075  -0.0005  -0.0025   0.0024   0.00  999.9
2018/03/15 11:25:47.000   78.246535995   16.035477303   489.4395   1   4   0.0013   0.0017   0.0075  -0.0005  -0.0025   0.0024   0.00  999.9
2018/03/15 11:25:48.000   78.246535997   16.035477301   489.4394   1   4   0.0013   0.0017   0.0074  -0.0005  -0.0025   0.0024   0.00  999.9
2018/03/15 11:25:49.000   78.246535999   16.035477298   489.4391   1   4   0.0013   0.0017   0.0074  -0.0005  -0.0025   0.0023   0.00  999.9
2018/03/15 11:25:50.000   78.246536001   16.035477293   489.4390   1   4   0.0013   0.0017   0.0074  -0.0005  -0.0025   0.0023   0.00  999.9
2018/03/15 11:25:51.000   78.246536003   16.035477286   489.4395   1   4   0.0013   0.0017   0.0074  -0.0005  -0.0025   0.0023   0.00  999.9
2018/03/15 11:25:52.000   78.246536005   16.035477277   489.4407   1   4   0.0013   0.0017   0.0074  -0.0005  -0.0025   0.0023   0.00  999.9
2018/03/15 11:25:53.000   78.246536007   16.035477269   489.4416   1   4   0.0013   0.0016   0.0074  -0.0005  -0.0025   0.0023   0.00  999.9
2018/03/15 11:25:54.000   78.246536008   16.035477264   489.4423   1   4   0.0013   0.0016   0.0074  -0.0005  -0.0025   0.0023   0.00  999.9
2018/03/15 11:25:55.000   78.246536008   16.035477263   489.4423   1   4   0.0013   0.0016   0.0074  -0.0005  -0.0025   0.0023   0.00  999.9
2018/03/15 11:25:56.000   78.246536009   16.035477262   489.4417   1   4   0.0013   0.0016   0.0074  -0.0005  -0.0025   0.0023   0.00  999.9
2018/03/15 11:25:57.000   78.246536011   16.035477259   489.4413   1   4   0.0013   0.0016   0.0074  -0.0005  -0.0025   0.0023   0.00  999.9
2018/03/15 11:25:58.000   78.246536012   16.035477257   489.4411   1   4   0.0013   0.0016   0.0074  -0.0005  -0.0025   0.0023   0.00  999.9
2018/03/15 11:25:59.000   78.246536015   16.035477251   489.4416   1   4   0.0013   0.0016   0.0074  -0.0005  -0.0025   0.0023   0.00  999.9
2018/03/15 11:26:00.000   78.246536018   16.035477246   489.4423   1   4   0.0013   0.0016   0.0073  -0.0005  -0.0025   0.0023   0.00  999.9
2018/03/15 11:26:01.000   78.246536020   16.035477241   489.4430   1   4   0.0013   0.0016   0.0073  -0.0005  -0.0025   0.0023   0.00  999.9
2018/03/15 11:26:02.000   78.246536021   16.035477236   489.4436   1   4   0.0013   0.0016   0.0073  -0.0005  -0.0025   0.0023   0.00  999.9
2018/03/15 11:26:03.000   78.246536023   16.035477233   489.4438   1   4   0.0013   0.0016   0.0073  -0.0005  -0.0025   0.0023   0.00  999.9
2018/03/15 11:26:04.000   78.246536024   16.035477231   489.4438   1   4   0.0013   0.0016   0.0073  -0.0005  -0.0025   0.0023   0.00  999.9
2018/03/15 11:26:05.000   78.246536026   16.035477228   489.4437   1   4   0.0013   0.0016   0.0073  -0.0005  -0.0025   0.0023   0.00  999.9
2018/03/15 11:26:06.000   78.246536028   16.035477225   489.4438   1   4   0.0013   0.0016   0.0073  -0.0005  -0.0025   0.0023   0.00  999.9
2018/03/15 11:26:07.000   78.246536031   16.035477220   489.4442   1   4   0.0013   0.0016   0.0073  -0.0005  -0.0025   0.0023   0.00  999.9
2018/03/15 11:26:08.000   78.246536033   16.035477214   489.4448   1   4   0.0013   0.0016   0.0073  -0.0005  -0.0025   0.0023   0.00  999.9
2018/03/15 11:26:09.000   78.246536035   16.035477209   489.4454   1   4   0.0013   0.0016   0.0073  -0.0005  -0.0025   0.0023   0.00  999.9
2018/03/15 11:26:10.000   78.246536036   16.035477208   489.4457   1   4   0.0013   0.0016   0.0073  -0.0005  -0.0025   0.0023   0.00  999.9
2018/03/15 11:26:11.000   78.246536036   16.035477209   489.4456   1   4   0.0013   0.0016   0.0073  -0.0005  -0.0025   0.0023   0.00  999.9
2018/03/15 11:26:12.000   78.246536037   16.035477209   489.4454   1   4   0.0013   0.0016   0.0073  -0.0005  -0.0025   0.0023   0.00  999.9
2018/03/15 11:26:13.000   78.246536038   16.035477208   489.4457   1   4   0.0013   0.0016   0.0073  -0.0005  -0.0025   0.0023   0.00  999.9
2018/03/15 11:26:14.000   78.246536039   16.035477207   489.4461   1   4   0.0013   0.0016   0.0072  -0.0005  -0.0025   0.0023   0.00  999.9
2018/03/15 11:26:15.000   78.246536041   16.035477202   489.4467   1   4   0.0013   0.0016   0.0072  -0.0005  -0.0025   0.0023   0.00  999.9
2018/03/15 11:26:16.000   78.246536043   16.035477198   489.4472   1   4   0.0013   0.0016   0.0072  -0.0005  -0.0024   0.0023   0.00  999.9
2018/03/15 11:26:17.000   78.246536045   16.035477193   489.4475   1   4   0.0013   0.0016   0.0072  -0.0005  -0.0024   0.0023   0.00  999.9
2018/03/15 11:26:18.000   78.246536048   16.035477189   489.4476   1   4   0.0013   0.0016   0.0072  -0.0005  -0.0024   0.0023   0.00  999.9
2018/03/15 11:26:19.000   78.246536049   16.035477186   489.4478   1   4   0.0013   0.0016   0.0072  -0.0005  -0.0024   0.0022   0.00  999.9
2018/03/15 11:26:20.000   78.246536050   16.035477186   489.4479   1   4   0.0013   0.0016   0.0072  -0.0005  -0.0024   0.0022   0.00  999.9
2018/03/15 11:26:21.000   78.246536051   16.035477184   489.4482   1   4   0.0013   0.0016   0.0072  -0.0005  -0.0024   0.0022   0.00  999.9
2018/03/15 11:26:22.000   78.246536052   16.035477183   489.4486   1   4   0.0013   0.0016   0.0072  -0.0005  -0.0024   0.0022   0.00  999.9
2018/03/15 11:26:23.000   78.246536054   16.035477181   489.4491   1   4   0.0013   0.0016   0.0072  -0.0005  -0.0024   0.0022   0.00  999.9
2018/03/15 11:26:24.000   78.246536056   16.035477175   489.4495   1   4   0.0013   0.0016   0.0072  -0.0005  -0.0024   0.0022   0.00  999.9
2018/03/15 11:26:25.000   78.246536057   16.035477173   489.4495   1   4   0.0013   0.0016   0.0072  -0.0005  -0.0024   0.0022   0.00  999.9
2018/03/15 11:26:26.000   78.246536059   16.035477168   489.4498   1   4   0.0013   0.0016   0.0072  -0.0005  -0.0024   0.0022   0.00  999.9
2018/03/15 11:26:27.000   78.246536060   16.035477163   489.4499   1   4   0.0013   0.0016   0.0072  -0.0004  -0.0024   0.0022   0.00  999.9
2018/03/15 11:26:28.000   78.246536061   16.035477158   489.4501   1   4   0.0013   0.0016   0.0072  -0.0004  -0.0024   0.0022   0.00  999.9
2018/03/15 11:26:29.000   78.246536062   16.035477152   489.4502   1   4   0.0013   0.0016   0.0071  -0.0004  -0.0024   0.0022   0.00  999.9
2018/03/15 11:26:30.000   78.246536064   16.035477147   489.4505   1   4   0.0013   0.0016   0.0071  -0.0004  -0.0024   0.0022   0.00  999.9
2018/03/15 11:26:31.000   78.246536065   16.035477141   489.4508   1   4   0.0013   0.0016   0.0071  -0.0004  -0.0024   0.0022   0.00  999.9
2018/03/15 11:26:32.000   78.246536066   16.035477136   489.4511   1   4   0.0013   0.0016   0.0071  -0.0004  -0.0024   0.0022   0.00  999.9
2018/03/15 11:26:33.000   78.246536068   16.035477132   489.4513   1   4   0.0012   0.0016   0.0071  -0.0004  -0.0024   0.0022   0.00  999.9
2018/03/15 11:26:34.000   78.246536069   16.035477129   489.4515   1   4   0.0012   0.0016   0.0071  -0.0004  -0.0024   0.0022   0.00  999.9
2018/03/15 11:26:35.000   78.246536071   16.035477125   489.4518   1   4   0.0012   0.0016   0.0071  -0.0004  -0.0024   0.0022   0.00  999.9
2018/03/15 11:26:36.000   78.246536072   16.035477122   489.4519   1   4   0.0012   0.0016   0.0071  -0.0004  -0.0024   0.0022   0.00  999.9
2018/03/15 11:26:37.000   78.246536073   16.035477117   489.4522   1   4   0.0012   0.0016   0.0071  -0.0004  -0.0024   0.0022   0.00  999.9
2018/03/15 11:26:38.000   78.246536074   16.035477111   489.4524   1   4   0.0012   0.0016   0.0071  -0.0004  -0.0024   0.0022   0.00  999.9
2018/03/15 11:26:39.000   78.246536075   16.035477104   489.4529   1   4   0.0012   0.0016   0.0071  -0.0004  -0.0024   0.0022   0.00  999.9
2018/03/15 11:26:40.000   78.246536077   16.035477098   489.4531   1   4   0.0012   0.0016   0.0071  -0.0004  -0.0024   0.0022   0.00  999.9
2018/03/15 11:26:41.000   78.246536078   16.035477093   489.4536   1   4   0.0012   0.0016   0.0071  -0.0004  -0.0024   0.0022   0.00  999.9
2018/03/15 11:26:42.000   78.246536080   16.035477089   489.4540   1   4   0.0012   0.0016   0.0071  -0.0004  -0.0024   0.0022   0.00  999.9
2018/03/15 11:26:43.000   78.246536081   16.035477083   489.4545   1   4   0.0012   0.0016   0.0071  -0.0004  -0.0024   0.0022   0.00  999.9
2018/03/15 11:26:44.000   78.246536082   16.035477078   489.4552   1   4   0.0012   0.0016   0.0071  -0.0004  -0.0024   0.0022   0.00  999.9
2018/03/15 11:26:45.000   78.246536083   16.035477077   489.4554   1   4   0.0012   0.0016   0.0071  -0.0004  -0.0024   0.0022   0.00  999.9
2018/03/15 11:26:46.000   78.246536084   16.035477074   489.4553   1   4   0.0012   0.0016   0.0070  -0.0004  -0.0024   0.0022   0.00  999.9
2018/03/15 11:26:47.000   78.246536086   16.035477069   489.4556   1   4   0.0012   0.0016   0.0070  -0.0004  -0.0024   0.0022   0.00  999.9
2018/03/15 11:26:48.000   78.246536088   16.035477063   489.4560   1   4   0.0012   0.0016   0.0070  -0.0004  -0.0024   0.0022   0.00  999.9
2018/03/15 11:26:49.000   78.246536090   16.035477055   489.4567   1   4   0.0012   0.0016   0.0070  -0.0004  -0.0024   0.0022   0.00  999.9
2018/03/15 11:26:50.000   78.246536091   16.035477049   489.4574   1   4   0.0012   0.0016   0.0070  -0.0004  -0.0024   0.0022   0.00  999.9
2018/03/15 11:26:51.000   78.246536092   16.035477046   489.4580   1   4   0.0012   0.0016   0.0070  -0.0004  -0.0024   0.0022   0.00  999.9
2018/03/15 11:26:52.000   78.246536093   16.035477043   489.4584   1   4   0.0012   0.0016   0.0070  -0.0004  -0.0024   0.0022   0.00  999.9
2018/03/15 11:26:53.000   78.246536094   16.035477040   489.4587   1   4   0.0012   0.0016   0.0070  -0.0004  -0.0024   0.0022   0.00  999.9
2018/03/15 11:26:54.000   78.246536094   16.035477038   489.4586   1   4   0.0012   0.0016   0.0070  -0.0004  -0.0024   0.0022   0.00  999.9
2018/03/15 11:26:55.000   78.246536095   16.035477036   489.4586   1   4   0.0012   0.0016   0.0070  -0.0004  -0.0024   0.0022   0.00  999.9
2018/03/15 11:26:56.000   78.246536096   16.035477033   489.4586   1   4   0.0012   0.0016   0.0070  -0.0004  -0.0024   0.0021   0.00  999.9
2018/03/15 11:26:57.000   78.246536098   16.035477029   489.4587   1   4   0.0012   0.0016   0.0070  -0.0004  -0.0024   0.0021   0.00  999.9
2018/03/15 11:26:58.000   78.246536101   16.035477023   489.4592   1   4   0.0012   0.0016   0.0070  -0.0004  -0.0024   0.0021   0.00  999.9
2018/03/15 11:26:59.000   78.246536102   16.035477018   489.4598   1   4   0.0012   0.0016   0.0070  -0.0004  -0.0024   0.0021   0.00  999.9
2018/03/15 11:27:00.000   78.246536104   16.035477015   489.4605   1   4   0.0012   0.0016   0.0070  -0.0004  -0.0024   0.0021   0.00  999.9
2018/03/15 11:27:01.000   78.246536105   16.035477013   489.4611   1   4   0.0012   0.0016   0.0070  -0.0004  -0.0024   0.0021   0.00  999.9
2018/03/15 11:27:02.000   78.246536106   16.035477010   489.4614   1   4   0.0012   0.0016   0.0070  -0.0004  -0.0024   0.0021   0.00  999.9
2018/03/15 11:27:03.000   78.246536107   16.035477013   489.4611   1   4   0.0012   0.0016   0.0070  -0.0004  -0.0024   0.0021   0.00  999.9
2018/03/15 11:27:04.000   78.246536107   16.035477017   489.4605   1   4   0.0012   0.0016   0.0069  -0.0004  -0.0024   0.0021   0.00  999.9
2018/03/15 11:27:05.000   78.246536108   16.035477020   489.4599   1   4   0.0012   0.0016   0.0069  -0.0004  -0.0024   0.0021   0.00  999.9
2018/03/15 11:27:06.000   78.246536109   16.035477021   489.4602   1   4   0.0012   0.0016   0.0069  -0.0004  -0.0024   0.0021   0.00  999.9
2018/03/15 11:27:07.000   78.246536109   16.035477019   489.4602   1   4   0.0012   0.0016   0.0069  -0.0004  -0.0024   0.0021   0.00  999.9
2018/03/15 11:27:08.000   78.246536111   16.035477017   489.4609   1   4   0.0012   0.0016   0.0069  -0.0004  -0.0024   0.0021   0.00  999.9
2018/03/15 11:27:09.000   78.246536114   16.035477018   489.4615   1   4   0.0012   0.0016   0.0069  -0.0004  -0.0024   0.0021   0.00  999.9
2018/03/15 11:27:10.000   78.246536116   16.035477018   489.4621   1   4   0.0012   0.0016   0.0069  -0.0004  -0.0024   0.0021   0.00  999.9
2018/03/15 11:27:11.000   78.246536118   16.035477018   489.4627   1   4   0.0012   0.0016   0.0069  -0.0004  -0.0024   0.0021   0.00  999.9
2018/03/15 11:27:12.000   78.246536120   16.035477022   489.4630   1   4   0.0012   0.0016   0.0069  -0.0004  -0.0024   0.0021   0.00  999.9
2018/03/15 11:27:13.000   78.246536121   16.035477027   489.4632   1   4   0.0012   0.0016   0.0069  -0.0004  -0.0024   0.0021   0.00  999.9
2018/03/15 11:27:14.000   78.246536123   16.035477031   489.4635   1   4   0.0012   0.0016   0.0069  -0.0004  -0.0024   0.0021   0.00  999.9
2018/03/15 11:27:15.000   78.246536124   16.035477031   489.4640   1   4   0.0012   0.0016   0.0069  -0.0004  -0.0024   0.0021   0.00  999.9
2018/03/15 11:27:16.000   78.246536126   16.035477030   489.4644   1   4   0.0012   0.0016   0.0069  -0.0004  -0.0024   0.0021   0.00  999.9
2018/03/15 11:27:17.000   78.246536129   16.035477029   489.4650   1   4   0.0012   0.0016   0.0069  -0.0004  -0.0024   0.0021   0.00  999.9
2018/03/15 11:27:18.000   78.246536131   16.035477031   489.4656   1   4   0.0012   0.0016   0.0069  -0.0004  -0.0024   0.0021   0.00  999.9
2018/03/15 11:27:19.000   78.246536132   16.035477031   489.4657   1   4   0.0012   0.0016   0.0069  -0.0004  -0.0024   0.0021   0.00  999.9
2018/03/15 11:27:20.000   78.246536132   16.035477028   489.4657   1   4   0.0012   0.0016   0.0069  -0.0004  -0.0024   0.0021   0.00  999.9
2018/03/15 11:27:21.000   78.246536132   16.035477023   489.4658   1   4   0.0012   0.0016   0.0069  -0.0004  -0.0024   0.0021   0.00  999.9
2018/03/15 11:27:22.000   78.246536134   16.035477016   489.4660   1   4   0.0012   0.0016   0.0069  -0.0004  -0.0024   0.0021   0.00  999.9
2018/03/15 11:27:23.000   78.246536135   16.035477009   489.4661   1   4   0.0012   0.0016   0.0068  -0.0004  -0.0024   0.0021   0.00  999.9
2018/03/15 11:27:24.000   78.246536136   16.035477004   489.4664   1   4   0.0012   0.0016   0.0068  -0.0004  -0.0024   0.0021   0.00  999.9
2018/03/15 11:27:25.000   78.246536137   16.035476999   489.4666   1   4   0.0012   0.0016   0.0068  -0.0004  -0.0023   0.0021   0.00  999.9
2018/03/15 11:27:26.000   78.246536139   16.035476996   489.4670   1   4   0.0012   0.0016   0.0068  -0.0004  -0.0023   0.0021   0.00  999.9
2018/03/15 11:27:27.000   78.246536141   16.035476993   489.4673   1   4   0.0012   0.0016   0.0068  -0.0004  -0.0023   0.0021   0.00  999.9
2018/03/15 11:27:28.000   78.246536142   16.035476990   489.4674   1   4   0.0012   0.0016   0.0068  -0.0004  -0.0023   0.0021   0.00  999.9
2018/03/15 11:27:29.000   78.246536144   16.035476985   489.4677   1   4   0.0012   0.0016   0.0068  -0.0004  -0.0023   0.0021   0.00  999.9
2018/03/15 11:27:30.000   78.246536145   16.035476980   489.4680   1   4   0.0012   0.0015   0.0068  -0.0004  -0.0023   0.0021   0.00  999.9
2018/03/15 11:27:31.000   78.246536147   16.035476975   489.4683   1   4   0.0012   0.0015   0.0068  -0.0004  -0.0023   0.0021   0.00  999.9
2018/03/15 11:27:32.000   78.246536148   16.035476971   489.4686   1   4   0.0012   0.0015   0.0068  -0.0004  -0.0023   0.0021   0.00  999.9
2018/03/15 11:27:33.000   78.246536150   16.035476966   489.4691   1   4   0.0012   0.0015   0.0068  -0.0004  -0.0023   0.0021   0.00  999.9
2018/03/15 11:27:34.000   78.246536152   16.035476960   489.4697   1   4   0.0012   0.0015   0.0068  -0.0004  -0.0023   0.0021   0.00  999.9
2018/03/15 11:27:35.000   78.246536153   16.035476957   489.4703   1   4   0.0012   0.0015   0.0068  -0.0004  -0.0023   0.0021   0.00  999.9
2018/03/15 11:27:36.000   78.246536155   16.035476952   489.4708   1   4   0.0012   0.0015   0.0068  -0.0004  -0.0023   0.0021   0.00  999.9
2018/03/15 11:27:37.000   78.246536156   16.035476949   489.4709   1   4   0.0012   0.0015   0.0068  -0.0004  -0.0023   0.0021   0.00  999.9
2018/03/15 11:27:38.000   78.246536157   16.035476945   489.4710   1   4   0.0012   0.0015   0.0068  -0.0004  -0.0023   0.0021   0.00  999.9
2018/03/15 11:27:39.000   78.246536159   16.035476939   489.4712   1   4   0.0012   0.0015   0.0068  -0.0004  -0.0023   0.0021   0.00  999.9
2018/03/15 11:27:40.000   78.246536161   16.035476933   489.4716   1   4   0.0012   0.0015   0.0068  -0.0004  -0.0023   0.0021   0.00  999.9
2018/03/15 11:27:41.000   78.246536162   16.035476927   489.4723   1   4   0.0012   0.0015   0.0068  -0.0004  -0.0023   0.0021   0.00  999.9
2018/03/15 11:27:42.000   78.246536164   16.035476922   489.4729   1   4   0.0012   0.0015   0.0068  -0.0004  -0.0023   0.0021   0.00  999.9
2018/03/15 11:27:43.000   78.246536165   16.035476917   489.4735   1   4   0.0012   0.0015   0.0068  -0.0004  -0.0023   0.0020   0.00  999.9
2018/03/15 11:27:44.000   78.246536167   16.035476915   489.4736   1   4   0.0012   0.0015   0.0067  -0.0004  -0.0023   0.0020   0.00  999.9
2018/03/15 11:27:45.000   78.246536168   16.035476914   489.4733   1   4   0.0012   0.0015   0.0067  -0.0004  -0.0023   0.0020   0.00  999.9
2018/03/15 11:27:46.000   78.246536169   16.035476912   489.4732   1   4   0.0012   0.0015   0.0067  -0.0004  -0.0023   0.0020   0.00  999.9
2018/03/15 11:27:47.000   78.246536171   16.035476905   489.4733   1   4   0.0011   0.0015   0.0067  -0.0004  -0.0023   0.0020   0.00  999.9
2018/03/15 11:27:48.000   78.246536172   16.035476899   489.4736   1   4   0.0011   0.0015   0.0067  -0.0004  -0.0023   0.0020   0.00  999.9
2018/03/15 11:27:49.000   78.246536173   16.035476892   489.4743   1   4   0.0011   0.0015   0.0067  -0.0004  -0.0023   0.0020   0.00  999.9
2018/03/15 11:27:50.000   78.246536175   16.035476885   489.4749   1   4   0.0011   0.0015   0.0067  -0.0004  -0.0023   0.0020   0.00  999.9
2018/03/15 11:27:51.000   78.246536176   16.035476881   489.4753   1   4   0.0011   0.0015   0.0067  -0.0004  -0.0023   0.0020   0.00  999.9
2018/03/15 11:27:52.000   78.246536178   16.035476877   489.4757   1   4   0.0011   0.0015   0.0067  -0.0004  -0.0023   0.0020   0.00  999.9
2018/03/15 11:27:53.000   78.246536178   16.035476875   489.4758   1   4   0.0011   0.0015   0.0067  -0.0004  -0.0023   0.0020   0.00  999.9
2018/03/15 11:27:54.000   78.246536179   16.035476870   489.4759   1   4   0.0011   0.0015   0.0067  -0.0004  -0.0023   0.0020   0.00  999.9
2018/03/15 11:27:55.000   78.246536180   16.035476867   489.4758   1   4   0.0011   0.0015   0.0067  -0.0004  -0.0023   0.0020   0.00  999.9
2018/03/15 11:27:56.000   78.246536181   16.035476864   489.4758   1   4   0.0011   0.0015   0.0067  -0.0003  -0.0023   0.0020   0.00  999.9
2018/03/15 11:27:57.000   78.246536183   16.035476858   489.4762   1   4   0.0011   0.0015   0.0067  -0.0003  -0.0023   0.0020   0.00  999.9
2018/03/15 11:27:58.000   78.246536184   16.035476851   489.4765   1   4   0.0011   0.0015   0.0067  -0.0003  -0.0023   0.0020   0.00  999.9
2018/03/15 11:27:59.000   78.246536186   16.035476843   489.4772   1   4   0.0011   0.0015   0.0067  -0.0003  -0.0023   0.0020   0.00  999.9
2018/03/15 11:28:00.000   78.246536188   16.035476838   489.4776   1   4   0.0011   0.0015   0.0067  -0.0003  -0.0023   0.0020   0.00  999.9
2018/03/15 11:28:01.000   78.246536189   16.035476833   489.4778   1   4   0.0011   0.0015   0.0067  -0.0003  -0.0023   0.0020   0.00  999.9
2018/03/15 11:28:02.000   78.246536191   16.035476828   489.4782   1   4   0.0011   0.0015   0.0067  -0.0003  -0.0023   0.0020   0.00  999.9
2018/03/15 11:28:03.000   78.246536192   16.035476820   489.4786   1   4   0.0011   0.0015   0.0067  -0.0003  -0.0023   0.0020   0.00  999.9
2018/03/15 11:28:04.000   78.246536193   16.035476815   489.4789   1   4   0.0011   0.0015   0.0067  -0.0003  -0.0023   0.0020   0.00  999.9
2018/03/15 11:28:05.000   78.246536194   16.035476809   489.4789   1   4   0.0011   0.0015   0.0067  -0.0003  -0.0023   0.0020   0.00  999.9
2018/03/15 11:28:06.000   78.246536195   16.035476804   489.4792   1   4   0.0011   0.0015   0.0066  -0.0003  -0.0023   0.0020   0.00  999.9
2018/03/15 11:28:07.000   78.246536197   16.035476796   489.4798   1   4   0.0011   0.0015   0.0066  -0.0003  -0.0023   0.0020   0.00  999.9
2018/03/15 11:28:08.000   78.246536199   16.035476789   489.4805   1   4   0.0011   0.0015   0.0066  -0.0003  -0.0023   0.0020   0.00  999.9
2018/03/15 11:28:09.000   78.246536200   16.035476782   489.4814   1   4   0.0011   0.0015   0.0066  -0.0003  -0.0023   0.0020   0.00  999.9
2018/03/15 11:28:10.000   78.246536202   16.035476775   489.4822   1   4   0.0011   0.0015   0.0066  -0.0003  -0.0023   0.0020   0.00  999.9
2018/03/15 11:28:11.000   78.246536204   16.035476767   489.4830   1   4   0.0011   0.0015   0.0066  -0.0003  -0.0023   0.0020   0.00  999.9
2018/03/15 11:28:12.000   78.246536205   16.035476762   489.4832   1   4   0.0011   0.0015   0.0066  -0.0003  -0.0023   0.0020   0.00  999.9
2018/03/15 11:28:13.000   78.246536207   16.035476761   489.4829   1   4   0.0011   0.0015   0.0066  -0.0003  -0.0023   0.0020   0.00  999.9
2018/03/15 11:28:14.000   78.246536207   16.035476759   489.4827   1   4   0.0011   0.0015   0.0066  -0.0003  -0.0023   0.0020   0.00  999.9
2018/03/15 11:28:15.000   78.246536208   16.035476756   489.4829   1   4   0.0011   0.0015   0.0066  -0.0003  -0.0023   0.0020   0.00  999.9
2018/03/15 11:28:16.000   78.246536210   16.035476751   489.4834   1   4   0.0011   0.0015   0.0066  -0.0003  -0.0023   0.0020   0.00  999.9
2018/03/15 11:28:17.000   78.246536211   16.035476747   489.4838   1   4   0.0011   0.0015   0.0066  -0.0003  -0.0023   0.0020   0.00  999.9
2018/03/15 11:28:18.000   78.246536213   16.035476741   489.4842   1   4   0.0011   0.0015   0.0066  -0.0003  -0.0023   0.0020   0.00  999.9
2018/03/15 11:28:19.000   78.246536216   16.035476735   489.4845   1   4   0.0011   0.0015   0.0066  -0.0003  -0.0023   0.0020   0.00  999.9
2018/03/15 11:28:20.000   78.246536217   16.035476730   489.4847   1   4   0.0011   0.0015   0.0066  -0.0003  -0.0023   0.0020   0.00  999.9
2018/03/15 11:28:21.000   78.246536218   16.035476726   489.4848   1   4   0.0011   0.0015   0.0066  -0.0003  -0.0023   0.0020   0.00  999.9
2018/03/15 11:28:22.000   78.246536219   16.035476721   489.4849   1   4   0.0011   0.0015   0.0066  -0.0003  -0.0023   0.0020   0.00  999.9
2018/03/15 11:28:23.000   78.246536220   16.035476717   489.4853   1   4   0.0011   0.0015   0.0066  -0.0003  -0.0023   0.0020   0.00  999.9
2018/03/15 11:28:24.000   78.246536222   16.035476711   489.4858   1   4   0.0011   0.0015   0.0066  -0.0003  -0.0023   0.0020   0.00  999.9
2018/03/15 11:28:25.000   78.246536224   16.035476704   489.4863   1   4   0.0011   0.0015   0.0066  -0.0003  -0.0023   0.0020   0.00  999.9
2018/03/15 11:28:26.000   78.246536227   16.035476697   489.4869   1   4   0.0011   0.0015   0.0066  -0.0003  -0.0023   0.0020   0.00  999.9
2018/03/15 11:28:27.000   78.246536229   16.035476687   489.4874   1   4   0.0011   0.0015   0.0066  -0.0003  -0.0023   0.0020   0.00  999.9
2018/03/15 11:28:28.000   78.246536232   16.035476678   489.4878   1   4   0.0011   0.0015   0.0066  -0.0003  -0.0023   0.0020   0.00  999.9
