% program   : RTKPOST ver.2.4.2
% inp file  : Z:\home\linda\Documents\Spring18\GitHub_Unis\data\processed_data\46250722.obs
% inp file  : Z:\home\linda\Documents\Spring18\GitHub_Unis\data\processed_data\46250722.nav
% obs start : 2018/03/13 12:37:03.0 GPST (week1992 218223.0s)
% obs end   : 2018/03/13 12:52:04.0 GPST (week1992 219124.0s)
% pos mode  : single
% elev mask : 15.0 deg
% ionos opt : broadcast
% tropo opt : saastamoinen
% ephemeris : broadcast
% navi sys  : gps glonass galileo qzss sbas
%
% (lat/lon/height=WGS84/ellipsoidal,Q=1:fix,2:float,3:sbas,4:dgps,5:single,6:ppp,ns=# of satellites)
%  GPST                  latitude(deg) longitude(deg)  height(m)   Q  ns   sdn(m)   sde(m)   sdu(m)  sdne(m)  sdeu(m)  sdun(m) age(s)  ratio
2018/03/13 12:37:03.000   78.254779538   16.249352359   344.5748   5   8   1.9454   2.2839  10.8482  -1.1040   3.8157  -2.4553   0.00    0.0
2018/03/13 12:37:04.000   78.254779703   16.249352344   345.6936   5   8   1.9453   2.2835  10.8457  -1.1036   3.8142  -2.4543   0.00    0.0
2018/03/13 12:37:05.000   78.254780293   16.249366081   345.7492   5   8   1.9451   2.2831  10.8431  -1.1032   3.8127  -2.4533   0.00    0.0
2018/03/13 12:37:06.000   78.254782871   16.249367300   346.2387   5   8   1.9449   2.2827  10.8406  -1.1028   3.8112  -2.4522   0.00    0.0
2018/03/13 12:37:07.000   78.254782411   16.249365847   345.3381   5   8   1.9447   2.2823  10.8381  -1.1023   3.8097  -2.4512   0.00    0.0
2018/03/13 12:37:08.000   78.254780393   16.249383864   346.3955   5   8   1.9446   2.2819  10.8356  -1.1019   3.8082  -2.4501   0.00    0.0
2018/03/13 12:37:09.000   78.254781378   16.249369014   346.6251   5   8   1.9444   2.2815  10.8330  -1.1015   3.8067  -2.4491   0.00    0.0
2018/03/13 12:37:10.000   78.254780403   16.249368472   346.1738   5   8   1.9442   2.2811  10.8305  -1.1011   3.8052  -2.4480   0.00    0.0
2018/03/13 12:37:11.000   78.254780414   16.249370118   345.1616   5   8   1.9440   2.2807  10.8280  -1.1007   3.8036  -2.4470   0.00    0.0
2018/03/13 12:37:12.000   78.254779445   16.249365801   344.4447   5   8   1.9438   2.2803  10.8254  -1.1003   3.8021  -2.4459   0.00    0.0
2018/03/13 12:37:13.000   78.254781097   16.249362103   343.3637   5   8   1.9437   2.2799  10.8229  -1.0999   3.8006  -2.4449   0.00    0.0
2018/03/13 12:37:14.000   78.254780174   16.249354722   344.7503   5   8   1.9435   2.2795  10.8204  -1.0995   3.7991  -2.4438   0.00    0.0
2018/03/13 12:37:15.000   78.254780067   16.249366399   346.2461   5   8   1.9433   2.2791  10.8178  -1.0991   3.7976  -2.4428   0.00    0.0
2018/03/13 12:37:16.000   78.254779455   16.249357845   344.3670   5   8   1.9431   2.2787  10.8153  -1.0986   3.7961  -2.4417   0.00    0.0
2018/03/13 12:37:17.000   78.254779370   16.249363827   344.9267   5   8   1.9429   2.2783  10.8128  -1.0982   3.7945  -2.4407   0.00    0.0
2018/03/13 12:37:18.000   78.254773530   16.249363722   346.6112   5   8   1.9428   2.2779  10.8102  -1.0978   3.7930  -2.4396   0.00    0.0
2018/03/13 12:37:19.000   78.254776320   16.249354982   344.1511   5   8   1.9426   2.2775  10.8077  -1.0974   3.7915  -2.4386   0.00    0.0
2018/03/13 12:37:20.000   78.254781061   16.249357949   343.3883   5   8   1.9424   2.2771  10.8051  -1.0970   3.7900  -2.4375   0.00    0.0
2018/03/13 12:37:21.000   78.254780075   16.249363385   344.4743   5   8   1.9422   2.2767  10.8026  -1.0966   3.7885  -2.4365   0.00    0.0
2018/03/13 12:37:22.000   78.254780089   16.249374969   345.6777   5   8   1.9421   2.2763  10.8000  -1.0962   3.7869  -2.4354   0.00    0.0
2018/03/13 12:37:23.000   78.254780940   16.249364383   345.6453   5   8   1.9419   2.2759  10.7975  -1.0958   3.7854  -2.4343   0.00    0.0
2018/03/13 12:37:24.000   78.254780697   16.249373518   346.3331   5   8   1.9417   2.2755  10.7949  -1.0953   3.7839  -2.4333   0.00    0.0
2018/03/13 12:37:25.000   78.254778921   16.249376534   346.0785   5   8   1.9415   2.2751  10.7923  -1.0949   3.7823  -2.4322   0.00    0.0
2018/03/13 12:37:26.000   78.254781203   16.249352836   345.7797   5   8   1.9413   2.2747  10.7898  -1.0945   3.7808  -2.4312   0.00    0.0
2018/03/13 12:37:27.000   78.254779832   16.249379511   346.8234   5   8   1.9412   2.2743  10.7872  -1.0941   3.7793  -2.4301   0.00    0.0
2018/03/13 12:37:28.000   78.254777642   16.249368489   344.5526   5   8   1.9410   2.2739  10.7847  -1.0937   3.7778  -2.4290   0.00    0.0
2018/03/13 12:37:29.000   78.254778275   16.249376489   345.5313   5   8   1.9408   2.2735  10.7821  -1.0933   3.7762  -2.4280   0.00    0.0
2018/03/13 12:37:30.000   78.254780999   16.249355694   342.6414   5   8   1.9406   2.2731  10.7795  -1.0929   3.7747  -2.4269   0.00    0.0
2018/03/13 12:37:31.000   78.254780851   16.249359173   344.8611   5   8   1.9405   2.2726  10.7769  -1.0924   3.7732  -2.4259   0.00    0.0
2018/03/13 12:37:32.000   78.254779914   16.249372853   345.9419   5   8   1.9403   2.2722  10.7744  -1.0920   3.7716  -2.4248   0.00    0.0
2018/03/13 12:37:33.000   78.254779211   16.249369979   346.3100   5   8   1.9401   2.2718  10.7718  -1.0916   3.7701  -2.4237   0.00    0.0
2018/03/13 12:37:34.000   78.254777617   16.249377044   345.7971   5   8   1.9399   2.2714  10.7692  -1.0912   3.7686  -2.4227   0.00    0.0
2018/03/13 12:37:35.000   78.254779573   16.249362915   345.6121   5   8   1.9397   2.2710  10.7666  -1.0908   3.7670  -2.4216   0.00    0.0
2018/03/13 12:37:36.000   78.254779540   16.249368483   345.2763   5   8   1.9396   2.2706  10.7641  -1.0904   3.7655  -2.4205   0.00    0.0
2018/03/13 12:37:37.000   78.254781019   16.249362778   344.8175   5   8   1.9394   2.2702  10.7615  -1.0900   3.7640  -2.4195   0.00    0.0
2018/03/13 12:37:38.000   78.254780582   16.249365009   344.1191   5   8   1.9392   2.2698  10.7589  -1.0895   3.7624  -2.4184   0.00    0.0
2018/03/13 12:37:39.000   78.254782840   16.249364135   345.1846   5   8   1.9390   2.2694  10.7563  -1.0891   3.7609  -2.4173   0.00    0.0
2018/03/13 12:37:40.000   78.254779827   16.249379251   345.6806   5   8   1.9389   2.2690  10.7537  -1.0887   3.7593  -2.4163   0.00    0.0
2018/03/13 12:37:41.000   78.254780909   16.249371796   345.0394   5   8   1.9387   2.2686  10.7511  -1.0883   3.7578  -2.4152   0.00    0.0
2018/03/13 12:37:42.000   78.254778033   16.249373093   346.7663   5   8   1.9385   2.2682  10.7486  -1.0879   3.7563  -2.4141   0.00    0.0
2018/03/13 12:37:43.000   78.254783496   16.249363987   346.0009   5   8   1.9383   2.2678  10.7460  -1.0875   3.7547  -2.4130   0.00    0.0
2018/03/13 12:37:44.000   78.254778328   16.249374766   345.6011   5   8   1.9381   2.2674  10.7434  -1.0871   3.7532  -2.4120   0.00    0.0
2018/03/13 12:37:45.000   78.254780659   16.249369483   345.4222   5   8   1.9380   2.2670  10.7408  -1.0866   3.7516  -2.4109   0.00    0.0
2018/03/13 12:37:46.000   78.254778564   16.249365685   345.6883   5   8   1.9378   2.2666  10.7382  -1.0862   3.7501  -2.4098   0.00    0.0
2018/03/13 12:37:47.000   78.254776569   16.249382206   346.8925   5   8   1.9376   2.2662  10.7356  -1.0858   3.7485  -2.4087   0.00    0.0
2018/03/13 12:37:48.000   78.254778674   16.249360973   345.7327   5   8   1.9374   2.2658  10.7330  -1.0854   3.7470  -2.4077   0.00    0.0
2018/03/13 12:37:49.000   78.254779026   16.249356831   344.6533   5   8   1.9373   2.2654  10.7304  -1.0850   3.7455  -2.4066   0.00    0.0
2018/03/13 12:37:50.000   78.254779108   16.249356736   344.0178   5   8   1.9371   2.2650  10.7278  -1.0846   3.7439  -2.4055   0.00    0.0
2018/03/13 12:37:51.000   78.254777153   16.249367298   346.5861   5   8   1.9369   2.2646  10.7252  -1.0842   3.7424  -2.4044   0.00    0.0
2018/03/13 12:37:52.000   78.254780777   16.249358279   345.5992   5   8   1.9367   2.2642  10.7226  -1.0837   3.7408  -2.4034   0.00    0.0
2018/03/13 12:37:53.000   78.254779798   16.249368112   345.2196   5   8   1.9365   2.2638  10.7200  -1.0833   3.7393  -2.4023   0.00    0.0
2018/03/13 12:37:54.000   78.254778239   16.249361047   346.2892   5   8   1.9364   2.2634  10.7173  -1.0829   3.7377  -2.4012   0.00    0.0
2018/03/13 12:37:55.000   78.254780656   16.249364326   345.6101   5   8   1.9362   2.2630  10.7147  -1.0825   3.7362  -2.4001   0.00    0.0
2018/03/13 12:37:56.000   78.254780195   16.249364199   346.7423   5   8   1.9360   2.2626  10.7121  -1.0821   3.7346  -2.3990   0.00    0.0
2018/03/13 12:37:57.000   78.254779409   16.249373149   347.0134   5   8   1.9358   2.2622  10.7095  -1.0817   3.7331  -2.3980   0.00    0.0
2018/03/13 12:37:58.000   78.254780392   16.249368459   345.0248   5   8   1.9357   2.2618  10.7069  -1.0812   3.7315  -2.3969   0.00    0.0
2018/03/13 12:37:59.000   78.254778999   16.249371680   345.5803   5   8   1.9355   2.2614  10.7043  -1.0808   3.7300  -2.3958   0.00    0.0
2018/03/13 12:38:00.000   78.254778456   16.249385916   345.8788   5   8   1.9353   2.2610  10.7016  -1.0804   3.7284  -2.3947   0.00    0.0
2018/03/13 12:38:01.000   78.254781162   16.249354287   345.3668   5   8   1.9351   2.2606  10.6990  -1.0800   3.7268  -2.3936   0.00    0.0
2018/03/13 12:38:02.000   78.254779164   16.249372815   345.7784   5   8   1.9350   2.2602  10.6964  -1.0796   3.7253  -2.3925   0.00    0.0
2018/03/13 12:38:03.000   78.254781271   16.249363454   344.5911   5   8   1.9348   2.2598  10.6938  -1.0792   3.7237  -2.3915   0.00    0.0
2018/03/13 12:38:04.000   78.254775143   16.249364986   345.3153   5   8   1.9346   2.2594  10.6911  -1.0788   3.7222  -2.3904   0.00    0.0
2018/03/13 12:38:05.000   78.254776884   16.249361327   347.1252   5   8   1.9344   2.2590  10.6885  -1.0783   3.7206  -2.3893   0.00    0.0
2018/03/13 12:38:06.000   78.254779248   16.249335802   345.2958   5   8   1.9342   2.2586  10.6859  -1.0779   3.7191  -2.3882   0.00    0.0
2018/03/13 12:38:07.000   78.254777734   16.249372150   345.8417   5   8   1.9341   2.2582  10.6832  -1.0775   3.7175  -2.3871   0.00    0.0
2018/03/13 12:38:08.000   78.254777710   16.249371003   346.0060   5   8   1.9339   2.2578  10.6806  -1.0771   3.7159  -2.3860   0.00    0.0
2018/03/13 12:38:09.000   78.254781414   16.249366388   345.8528   5   8   1.9337   2.2574  10.6780  -1.0767   3.7144  -2.3849   0.00    0.0
2018/03/13 12:38:10.000   78.254781623   16.249367054   345.6920   5   8   1.9335   2.2570  10.6753  -1.0763   3.7128  -2.3838   0.00    0.0
2018/03/13 12:38:11.000   78.254781335   16.249377992   347.0435   5   8   1.9334   2.2566  10.6727  -1.0758   3.7112  -2.3828   0.00    0.0
2018/03/13 12:38:12.000   78.254782508   16.249378696   346.0682   5   8   1.9332   2.2562  10.6701  -1.0754   3.7097  -2.3817   0.00    0.0
2018/03/13 12:38:13.000   78.254780369   16.249368066   345.7133   5   8   1.9330   2.2558  10.6674  -1.0750   3.7081  -2.3806   0.00    0.0
2018/03/13 12:38:14.000   78.254780162   16.249372317   345.2322   5   8   1.9328   2.2554  10.6648  -1.0746   3.7066  -2.3795   0.00    0.0
2018/03/13 12:38:15.000   78.254779532   16.249374675   346.4202   5   8   1.9327   2.2550  10.6621  -1.0742   3.7050  -2.3784   0.00    0.0
2018/03/13 12:38:16.000   78.254780453   16.249348573   346.3250   5   8   1.9325   2.2546  10.6595  -1.0738   3.7034  -2.3773   0.00    0.0
2018/03/13 12:38:17.000   78.254780149   16.249355825   346.6219   5   8   1.9323   2.2542  10.6568  -1.0733   3.7019  -2.3762   0.00    0.0
2018/03/13 12:38:18.000   78.254780955   16.249358471   345.4719   5   8   1.9321   2.2538  10.6542  -1.0729   3.7003  -2.3751   0.00    0.0
2018/03/13 12:38:19.000   78.254780515   16.249367263   345.7548   5   8   1.9320   2.2534  10.6515  -1.0725   3.6987  -2.3740   0.00    0.0
2018/03/13 12:38:20.000   78.254780294   16.249362011   344.3669   5   8   1.9318   2.2530  10.6489  -1.0721   3.6972  -2.3729   0.00    0.0
2018/03/13 12:38:21.000   78.254779313   16.249368675   346.1677   5   8   1.9316   2.2527  10.6462  -1.0717   3.6956  -2.3718   0.00    0.0
2018/03/13 12:38:22.000   78.254779583   16.249361950   345.4722   5   8   1.9314   2.2523  10.6436  -1.0713   3.6940  -2.3707   0.00    0.0
2018/03/13 12:38:23.000   78.254778487   16.249367304   345.3017   5   8   1.9313   2.2519  10.6409  -1.0708   3.6924  -2.3696   0.00    0.0
2018/03/13 12:38:24.000   78.254779472   16.249359312   346.3665   5   8   1.9311   2.2515  10.6382  -1.0704   3.6909  -2.3685   0.00    0.0
2018/03/13 12:38:25.000   78.254777617   16.249360377   346.4820   5   8   1.9309   2.2511  10.6356  -1.0700   3.6893  -2.3674   0.00    0.0
2018/03/13 12:38:26.000   78.254781759   16.249380903   347.8672   5   8   1.9307   2.2507  10.6329  -1.0696   3.6877  -2.3663   0.00    0.0
2018/03/13 12:38:27.000   78.254781090   16.249370345   346.8816   5   8   1.9306   2.2503  10.6303  -1.0692   3.6862  -2.3652   0.00    0.0
2018/03/13 12:38:28.000   78.254780377   16.249359766   345.1567   5   8   1.9304   2.2499  10.6276  -1.0687   3.6846  -2.3641   0.00    0.0
2018/03/13 12:38:29.000   78.254780110   16.249363265   344.9653   5   8   1.9302   2.2495  10.6249  -1.0683   3.6830  -2.3630   0.00    0.0
2018/03/13 12:38:30.000   78.254782016   16.249365858   346.1404   5   8   1.9300   2.2491  10.6223  -1.0679   3.6814  -2.3619   0.00    0.0
2018/03/13 12:38:31.000   78.254780149   16.249355753   346.0577   5   8   1.9299   2.2487  10.6196  -1.0675   3.6798  -2.3608   0.00    0.0
2018/03/13 12:38:32.000   78.254779428   16.249366917   344.0474   5   8   1.9297   2.2483  10.6169  -1.0671   3.6783  -2.3597   0.00    0.0
2018/03/13 12:38:33.000   78.254776928   16.249369938   344.7380   5   8   1.9295   2.2479  10.6142  -1.0667   3.6767  -2.3586   0.00    0.0
2018/03/13 12:38:34.000   78.254778645   16.249364712   347.0682   5   8   1.9293   2.2475  10.6116  -1.0662   3.6751  -2.3575   0.00    0.0
2018/03/13 12:38:35.000   78.254781380   16.249366914   346.5508   5   8   1.9292   2.2471  10.6089  -1.0658   3.6735  -2.3564   0.00    0.0
2018/03/13 12:38:36.000   78.254778994   16.249372310   346.5878   5   8   1.9290   2.2467  10.6062  -1.0654   3.6720  -2.3553   0.00    0.0
2018/03/13 12:38:37.000   78.254780159   16.249382096   348.5200   5   8   1.9288   2.2463  10.6035  -1.0650   3.6704  -2.3542   0.00    0.0
2018/03/13 12:38:38.000   78.254779192   16.249362194   347.1995   5   8   1.9286   2.2459  10.6009  -1.0646   3.6688  -2.3531   0.00    0.0
2018/03/13 12:38:39.000   78.254780601   16.249376786   349.4216   5   8   1.9285   2.2455  10.5982  -1.0642   3.6672  -2.3520   0.00    0.0
2018/03/13 12:38:40.000   78.254780386   16.249369192   347.0738   5   8   1.9283   2.2451  10.5955  -1.0637   3.6656  -2.3509   0.00    0.0
2018/03/13 12:38:41.000   78.254781804   16.249362900   346.8642   5   8   1.9281   2.2447  10.5928  -1.0633   3.6640  -2.3498   0.00    0.0
2018/03/13 12:38:42.000   78.254779774   16.249370784   344.7920   5   8   1.9279   2.2443  10.5901  -1.0629   3.6625  -2.3486   0.00    0.0
2018/03/13 12:38:43.000   78.254783506   16.249372236   345.1215   5   8   1.9278   2.2439  10.5874  -1.0625   3.6609  -2.3475   0.00    0.0
2018/03/13 12:38:44.000   78.254781068   16.249367343   345.9782   5   8   1.9276   2.2435  10.5847  -1.0621   3.6593  -2.3464   0.00    0.0
2018/03/13 12:38:45.000   78.254779308   16.249373984   346.5108   5   8   1.9274   2.2431  10.5821  -1.0616   3.6577  -2.3453   0.00    0.0
2018/03/13 12:38:46.000   78.254777526   16.249358438   346.0594   5   8   1.9272   2.2427  10.5794  -1.0612   3.6561  -2.3442   0.00    0.0
2018/03/13 12:38:47.000   78.254778398   16.249361598   346.2522   5   8   1.9271   2.2423  10.5767  -1.0608   3.6545  -2.3431   0.00    0.0
2018/03/13 12:38:48.000   78.254779508   16.249363717   346.9358   5   8   1.9269   2.2419  10.5740  -1.0604   3.6529  -2.3420   0.00    0.0
2018/03/13 12:38:49.000   78.254780483   16.249357978   345.7980   5   8   1.9267   2.2415  10.5713  -1.0600   3.6514  -2.3409   0.00    0.0
2018/03/13 12:38:50.000   78.254780326   16.249365981   345.2718   5   8   1.9265   2.2411  10.5686  -1.0596   3.6498  -2.3397   0.00    0.0
2018/03/13 12:38:51.000   78.254781045   16.249365204   344.7692   5   8   1.9264   2.2407  10.5659  -1.0591   3.6482  -2.3386   0.00    0.0
2018/03/13 12:38:52.000   78.254779186   16.249369887   343.1733   5   8   1.9262   2.2403  10.5632  -1.0587   3.6466  -2.3375   0.00    0.0
2018/03/13 12:38:53.000   78.254783111   16.249362805   344.3614   5   8   1.9260   2.2400  10.5605  -1.0583   3.6450  -2.3364   0.00    0.0
2018/03/13 12:38:54.000   78.254779814   16.249367623   345.7368   5   8   1.9258   2.2396  10.5578  -1.0579   3.6434  -2.3353   0.00    0.0
2018/03/13 12:38:55.000   78.254782273   16.249369059   346.6326   5   8   1.9257   2.2392  10.5551  -1.0575   3.6418  -2.3342   0.00    0.0
2018/03/13 12:38:56.000   78.254783325   16.249383923   346.0185   5   8   1.9255   2.2388  10.5524  -1.0570   3.6402  -2.3331   0.00    0.0
2018/03/13 12:38:57.000   78.254781839   16.249371994   346.0649   5   8   1.9253   2.2384  10.5497  -1.0566   3.6386  -2.3319   0.00    0.0
2018/03/13 12:38:58.000   78.254781091   16.249374875   348.5777   5   8   1.9251   2.2380  10.5470  -1.0562   3.6370  -2.3308   0.00    0.0
2018/03/13 12:38:59.000   78.254780496   16.249377189   347.7209   5   8   1.9250   2.2376  10.5442  -1.0558   3.6354  -2.3297   0.00    0.0
2018/03/13 12:39:00.000   78.254780920   16.249375714   346.2795   5   8   1.9248   2.2372  10.5415  -1.0554   3.6338  -2.3286   0.00    0.0
2018/03/13 12:39:01.000   78.254776856   16.249369459   344.0372   5   8   1.9246   2.2368  10.5388  -1.0550   3.6322  -2.3275   0.00    0.0
2018/03/13 12:39:02.000   78.254780485   16.249359967   343.4487   5   8   1.9244   2.2364  10.5361  -1.0545   3.6307  -2.3263   0.00    0.0
2018/03/13 12:39:03.000   78.254778467   16.249381154   345.0317   5   8   1.9243   2.2360  10.5334  -1.0541   3.6291  -2.3252   0.00    0.0
2018/03/13 12:39:04.000   78.254778579   16.249376754   345.3285   5   8   1.9241   2.2356  10.5307  -1.0537   3.6275  -2.3241   0.00    0.0
2018/03/13 12:39:05.000   78.254777846   16.249366097   344.8225   5   8   1.9239   2.2352  10.5280  -1.0533   3.6259  -2.3230   0.00    0.0
2018/03/13 12:39:06.000   78.254778746   16.249380866   345.9957   5   8   1.9238   2.2348  10.5252  -1.0529   3.6243  -2.3218   0.00    0.0
2018/03/13 12:39:07.000   78.254778728   16.249360739   345.4401   5   8   1.9236   2.2344  10.5225  -1.0524   3.6227  -2.3207   0.00    0.0
2018/03/13 12:39:08.000   78.254779515   16.249366321   345.2544   5   8   1.9234   2.2340  10.5198  -1.0520   3.6211  -2.3196   0.00    0.0
2018/03/13 12:39:09.000   78.254783540   16.249359095   344.5820   5   8   1.9232   2.2336  10.5171  -1.0516   3.6195  -2.3185   0.00    0.0
2018/03/13 12:39:10.000   78.254781812   16.249374498   343.9049   5   8   1.9231   2.2333  10.5144  -1.0512   3.6179  -2.3174   0.00    0.0
2018/03/13 12:39:11.000   78.254779760   16.249385669   346.5576   5   8   1.9229   2.2329  10.5116  -1.0508   3.6163  -2.3162   0.00    0.0
2018/03/13 12:39:12.000   78.254777712   16.249373905   346.2672   5   8   1.9227   2.2325  10.5089  -1.0504   3.6147  -2.3151   0.00    0.0
2018/03/13 12:39:13.000   78.254781098   16.249385025   345.5243   5   8   1.9225   2.2321  10.5062  -1.0499   3.6131  -2.3140   0.00    0.0
2018/03/13 12:39:14.000   78.254780005   16.249365845   345.8337   5   8   1.9224   2.2317  10.5034  -1.0495   3.6115  -2.3128   0.00    0.0
2018/03/13 12:39:15.000   78.254780496   16.249359553   346.1949   5   8   1.9222   2.2313  10.5007  -1.0491   3.6099  -2.3117   0.00    0.0
2018/03/13 12:39:16.000   78.254782094   16.249363575   344.9706   5   8   1.9220   2.2309  10.4980  -1.0487   3.6082  -2.3106   0.00    0.0
2018/03/13 12:39:17.000   78.254781526   16.249362736   346.4622   5   8   1.9219   2.2305  10.4953  -1.0483   3.6066  -2.3095   0.00    0.0
2018/03/13 12:39:18.000   78.254779353   16.249365245   346.7477   5   8   1.9217   2.2301  10.4925  -1.0478   3.6050  -2.3083   0.00    0.0
2018/03/13 12:39:19.000   78.254782235   16.249367423   347.0232   5   8   1.9215   2.2297  10.4898  -1.0474   3.6034  -2.3072   0.00    0.0
2018/03/13 12:39:20.000   78.254780755   16.249364561   346.6393   5   8   1.9213   2.2293  10.4871  -1.0470   3.6018  -2.3061   0.00    0.0
2018/03/13 12:39:21.000   78.254780054   16.249364475   345.7880   5   8   1.9212   2.2289  10.4843  -1.0466   3.6002  -2.3049   0.00    0.0
2018/03/13 12:39:22.000   78.254778361   16.249365713   345.8303   5   8   1.9210   2.2285  10.4816  -1.0462   3.5986  -2.3038   0.00    0.0
2018/03/13 12:39:23.000   78.254779535   16.249362105   344.0500   5   8   1.9208   2.2282  10.4788  -1.0458   3.5970  -2.3027   0.00    0.0
2018/03/13 12:39:24.000   78.254779723   16.249361695   343.1752   5   8   1.9206   2.2278  10.4761  -1.0453   3.5954  -2.3015   0.00    0.0
2018/03/13 12:39:25.000   78.254779512   16.249367693   345.3299   5   8   1.9205   2.2274  10.4734  -1.0449   3.5938  -2.3004   0.00    0.0
2018/03/13 12:39:26.000   78.254780038   16.249365365   343.8680   5   8   1.9203   2.2270  10.4706  -1.0445   3.5922  -2.2993   0.00    0.0
2018/03/13 12:39:27.000   78.254778522   16.249370141   346.3885   5   8   1.9201   2.2266  10.4679  -1.0441   3.5906  -2.2981   0.00    0.0
2018/03/13 12:39:28.000   78.254778429   16.249370794   346.3425   5   8   1.9200   2.2262  10.4651  -1.0437   3.5889  -2.2970   0.00    0.0
2018/03/13 12:39:29.000   78.254778016   16.249369445   346.1641   5   8   1.9198   2.2258  10.4624  -1.0432   3.5873  -2.2959   0.00    0.0
2018/03/13 12:39:30.000   78.254780115   16.249351664   345.7513   5   8   1.9196   2.2254  10.4596  -1.0428   3.5857  -2.2947   0.00    0.0
2018/03/13 12:39:31.000   78.254778912   16.249372981   344.6972   5   8   1.9194   2.2250  10.4569  -1.0424   3.5841  -2.2936   0.00    0.0
2018/03/13 12:39:32.000   78.254780910   16.249373372   344.7326   5   8   1.9193   2.2246  10.4541  -1.0420   3.5825  -2.2925   0.00    0.0
2018/03/13 12:39:33.000   78.254780022   16.249366707   343.8791   5   8   1.9191   2.2242  10.4514  -1.0416   3.5809  -2.2913   0.00    0.0
2018/03/13 12:39:34.000   78.254781355   16.249360656   343.3026   5   8   1.9189   2.2239  10.4486  -1.0412   3.5793  -2.2902   0.00    0.0
2018/03/13 12:39:35.000   78.254778432   16.249374957   345.5537   5   8   1.9188   2.2235  10.4459  -1.0407   3.5777  -2.2891   0.00    0.0
2018/03/13 12:39:36.000   78.254779880   16.249378416   347.8359   5   8   1.9186   2.2231  10.4431  -1.0403   3.5760  -2.2879   0.00    0.0
2018/03/13 12:39:37.000   78.254780026   16.249385545   348.6573   5   8   1.9184   2.2227  10.4404  -1.0399   3.5744  -2.2868   0.00    0.0
2018/03/13 12:39:38.000   78.254781548   16.249371522   346.9066   5   8   1.9182   2.2223  10.4376  -1.0395   3.5728  -2.2856   0.00    0.0
2018/03/13 12:39:39.000   78.254779251   16.249377272   346.3732   5   8   1.9181   2.2219  10.4348  -1.0391   3.5712  -2.2845   0.00    0.0
2018/03/13 12:39:40.000   78.254782719   16.249378105   343.9718   5   8   1.9179   2.2215  10.4321  -1.0386   3.5696  -2.2834   0.00    0.0
2018/03/13 12:39:41.000   78.254781076   16.249374722   344.8348   5   8   1.9177   2.2211  10.4293  -1.0382   3.5680  -2.2822   0.00    0.0
2018/03/13 12:39:42.000   78.254782337   16.249383822   345.4040   5   8   1.9176   2.2207  10.4266  -1.0378   3.5663  -2.2811   0.00    0.0
2018/03/13 12:39:43.000   78.254782376   16.249369631   344.2177   5   8   1.9174   2.2204  10.4238  -1.0374   3.5647  -2.2799   0.00    0.0
2018/03/13 12:39:44.000   78.254778481   16.249384010   346.6621   5   8   1.9172   2.2200  10.4210  -1.0370   3.5631  -2.2788   0.00    0.0
2018/03/13 12:39:45.000   78.254778890   16.249362683   344.8453   5   8   1.9170   2.2196  10.4183  -1.0366   3.5615  -2.2776   0.00    0.0
2018/03/13 12:39:46.000   78.254778333   16.249375712   346.1003   5   8   1.9169   2.2192  10.4155  -1.0361   3.5599  -2.2765   0.00    0.0
2018/03/13 12:39:47.000   78.254777994   16.249353064   344.2958   5   8   1.9167   2.2188  10.4128  -1.0357   3.5582  -2.2754   0.00    0.0
2018/03/13 12:39:48.000   78.254778832   16.249364845   343.7747   5   8   1.9165   2.2184  10.4100  -1.0353   3.5566  -2.2742   0.00    0.0
2018/03/13 12:39:49.000   78.254777269   16.249379213   346.0258   5   8   1.9164   2.2180  10.4072  -1.0349   3.5550  -2.2731   0.00    0.0
2018/03/13 12:39:50.000   78.254780919   16.249353712   344.6346   5   8   1.9162   2.2176  10.4044  -1.0345   3.5534  -2.2719   0.00    0.0
2018/03/13 12:39:51.000   78.254780051   16.249367992   344.5546   5   8   1.9160   2.2172  10.4017  -1.0340   3.5518  -2.2708   0.00    0.0
2018/03/13 12:39:52.000   78.254778082   16.249356935   345.1921   5   8   1.9158   2.2169  10.3989  -1.0336   3.5501  -2.2696   0.00    0.0
2018/03/13 12:39:53.000   78.254779669   16.249372489   345.4977   5   8   1.9157   2.2165  10.3961  -1.0332   3.5485  -2.2685   0.00    0.0
2018/03/13 12:39:54.000   78.254782315   16.249365658   344.1858   5   8   1.9155   2.2161  10.3934  -1.0328   3.5469  -2.2673   0.00    0.0
2018/03/13 12:39:55.000   78.254781846   16.249366783   345.4133   5   8   1.9153   2.2157  10.3906  -1.0324   3.5453  -2.2662   0.00    0.0
2018/03/13 12:39:56.000   78.254781927   16.249374751   346.3740   5   8   1.9152   2.2153  10.3878  -1.0320   3.5436  -2.2650   0.00    0.0
2018/03/13 12:39:57.000   78.254781435   16.249380672   346.9536   5   8   1.9150   2.2149  10.3850  -1.0315   3.5420  -2.2639   0.00    0.0
2018/03/13 12:39:58.000   78.254784230   16.249375337   347.4733   5   8   1.9148   2.2145  10.3823  -1.0311   3.5404  -2.2627   0.00    0.0
2018/03/13 12:39:59.000   78.254779505   16.249377717   347.5532   5   8   1.9147   2.2142  10.3795  -1.0307   3.5388  -2.2616   0.00    0.0
2018/03/13 12:40:00.000   78.254777798   16.249377462   346.8912   5   8   1.9145   2.2138  10.3767  -1.0303   3.5371  -2.2604   0.00    0.0
2018/03/13 12:40:01.000   78.254780393   16.249375788   345.7421   5   8   1.9143   2.2134  10.3739  -1.0299   3.5355  -2.2593   0.00    0.0
2018/03/13 12:40:02.000   78.254779726   16.249384660   346.6278   5   8   1.9141   2.2130  10.3711  -1.0295   3.5339  -2.2581   0.00    0.0
2018/03/13 12:40:03.000   78.254781238   16.249393116   345.4250   5   8   1.9140   2.2126  10.3684  -1.0290   3.5322  -2.2570   0.00    0.0
2018/03/13 12:40:04.000   78.254781185   16.249376388   344.7943   5   8   1.9138   2.2122  10.3656  -1.0286   3.5306  -2.2558   0.00    0.0
2018/03/13 12:40:05.000   78.254783704   16.249375421   343.9995   5   8   1.9136   2.2118  10.3628  -1.0282   3.5290  -2.2547   0.00    0.0
2018/03/13 12:40:06.000   78.254781222   16.249370069   345.3639   5   8   1.9135   2.2115  10.3600  -1.0278   3.5274  -2.2535   0.00    0.0
2018/03/13 12:40:07.000   78.254778177   16.249371450   346.4387   5   8   1.9133   2.2111  10.3572  -1.0274   3.5257  -2.2524   0.00    0.0
2018/03/13 12:40:08.000   78.254782063   16.249355391   344.5900   5   8   1.9131   2.2107  10.3544  -1.0269   3.5241  -2.2512   0.00    0.0
2018/03/13 12:40:09.000   78.254779350   16.249362054   345.9016   5   8   1.9130   2.2103  10.3516  -1.0265   3.5225  -2.2501   0.00    0.0
2018/03/13 12:40:10.000   78.254779653   16.249376895   345.4236   5   8   1.9128   2.2099  10.3489  -1.0261   3.5208  -2.2489   0.00    0.0
2018/03/13 12:40:11.000   78.254780294   16.249370726   345.0450   5   8   1.9126   2.2095  10.3461  -1.0257   3.5192  -2.2478   0.00    0.0
2018/03/13 12:40:12.000   78.254780193   16.249365766   345.1309   5   8   1.9125   2.2091  10.3433  -1.0253   3.5176  -2.2466   0.00    0.0
2018/03/13 12:40:13.000   78.254778953   16.249386773   344.6017   5   8   1.9123   2.2088  10.3405  -1.0249   3.5159  -2.2455   0.00    0.0
2018/03/13 12:40:14.000   78.254777889   16.249383150   345.4632   5   8   1.9121   2.2084  10.3377  -1.0244   3.5143  -2.2443   0.00    0.0
2018/03/13 12:40:15.000   78.254782519   16.249367008   344.1861   5   8   1.9120   2.2080  10.3349  -1.0240   3.5127  -2.2431   0.00    0.0
2018/03/13 12:40:16.000   78.254777785   16.249404718   348.7591   5   8   1.9118   2.2076  10.3321  -1.0236   3.5110  -2.2420   0.00    0.0
2018/03/13 12:40:17.000   78.254781782   16.249385421   349.7731   5   8   1.9116   2.2072  10.3293  -1.0232   3.5094  -2.2408   0.00    0.0
2018/03/13 12:40:18.000   78.254777170   16.249388909   347.2927   5   8   1.9114   2.2068  10.3265  -1.0228   3.5078  -2.2397   0.00    0.0
2018/03/13 12:40:19.000   78.254776650   16.249402154   347.2607   5   8   1.9113   2.2065  10.3237  -1.0224   3.5061  -2.2385   0.00    0.0
2018/03/13 12:40:20.000   78.254779159   16.249381048   344.8806   5   8   1.9111   2.2061  10.3209  -1.0219   3.5045  -2.2373   0.00    0.0
2018/03/13 12:40:21.000   78.254781601   16.249390445   346.8584   5   8   1.9109   2.2057  10.3181  -1.0215   3.5029  -2.2362   0.00    0.0
2018/03/13 12:40:22.000   78.254779420   16.249380467   345.6534   5   8   1.9108   2.2053  10.3153  -1.0211   3.5012  -2.2350   0.00    0.0
2018/03/13 12:40:23.000   78.254778002   16.249384737   345.4890   5   8   1.9106   2.2049  10.3125  -1.0207   3.4996  -2.2339   0.00    0.0
2018/03/13 12:40:24.000   78.254779065   16.249364719   344.1658   5   8   1.9104   2.2046  10.3097  -1.0203   3.4980  -2.2327   0.00    0.0
2018/03/13 12:40:25.000   78.254779511   16.249368977   346.7773   5   8   1.9103   2.2042  10.3069  -1.0199   3.4963  -2.2315   0.00    0.0
2018/03/13 12:40:26.000   78.254780613   16.249360660   345.1316   5   8   1.9101   2.2038  10.3041  -1.0194   3.4947  -2.2304   0.00    0.0
2018/03/13 12:40:27.000   78.254780410   16.249362349   345.9320   5   8   1.9099   2.2034  10.3013  -1.0190   3.4930  -2.2292   0.00    0.0
2018/03/13 12:40:28.000   78.254778269   16.249361158   343.8756   5   8   1.9098   2.2030  10.2985  -1.0186   3.4914  -2.2281   0.00    0.0
2018/03/13 12:40:29.000   78.254778266   16.249366701   344.4029   5   8   1.9096   2.2026  10.2957  -1.0182   3.4898  -2.2269   0.00    0.0
2018/03/13 12:40:30.000   78.254778338   16.249380808   347.3535   5   8   1.9094   2.2023  10.2929  -1.0178   3.4881  -2.2257   0.00    0.0
2018/03/13 12:40:31.000   78.254777946   16.249369415   345.3719   5   8   1.9093   2.2019  10.2901  -1.0174   3.4865  -2.2246   0.00    0.0
2018/03/13 12:40:32.000   78.254778708   16.249373944   344.9537   5   8   1.9091   2.2015  10.2873  -1.0169   3.4848  -2.2234   0.00    0.0
2018/03/13 12:40:33.000   78.254777236   16.249378357   344.5783   5   8   1.9089   2.2011  10.2845  -1.0165   3.4832  -2.2222   0.00    0.0
2018/03/13 12:40:34.000   78.254778872   16.249373905   345.7509   5   8   1.9088   2.2007  10.2817  -1.0161   3.4816  -2.2211   0.00    0.0
2018/03/13 12:40:35.000   78.254783824   16.249376533   347.3014   5   8   1.9086   2.2004  10.2789  -1.0157   3.4799  -2.2199   0.00    0.0
2018/03/13 12:40:36.000   78.254779654   16.249369127   344.7516   5   8   1.9084   2.2000  10.2760  -1.0153   3.4783  -2.2187   0.00    0.0
2018/03/13 12:40:37.000   78.254779641   16.249382819   346.0304   5   8   1.9083   2.1996  10.2732  -1.0149   3.4766  -2.2176   0.00    0.0
2018/03/13 12:40:38.000   78.254783052   16.249367062   345.5252   5   8   1.9081   2.1992  10.2704  -1.0144   3.4750  -2.2164   0.00    0.0
2018/03/13 12:40:39.000   78.254778525   16.249384555   346.6236   5   8   1.9079   2.1988  10.2676  -1.0140   3.4733  -2.2152   0.00    0.0
2018/03/13 12:40:40.000   78.254779348   16.249397630   348.9130   5   8   1.9078   2.1985  10.2648  -1.0136   3.4717  -2.2141   0.00    0.0
2018/03/13 12:40:41.000   78.254778038   16.249400529   347.3111   5   8   1.9076   2.1981  10.2620  -1.0132   3.4701  -2.2129   0.00    0.0
2018/03/13 12:40:42.000   78.254779034   16.249386894   346.4673   5   8   1.9074   2.1977  10.2592  -1.0128   3.4684  -2.2117   0.00    0.0
2018/03/13 12:40:43.000   78.254778886   16.249394164   347.2483   5   8   1.9073   2.1973  10.2564  -1.0124   3.4668  -2.2106   0.00    0.0
2018/03/13 12:40:44.000   78.254781991   16.249373595   346.9937   5   8   1.9071   2.1970  10.2535  -1.0120   3.4651  -2.2094   0.00    0.0
2018/03/13 12:40:45.000   78.254787889   16.249367457   346.0086   5   8   1.9069   2.1966  10.2507  -1.0115   3.4635  -2.2082   0.00    0.0
2018/03/13 12:40:46.000   78.254782808   16.249384744   345.7288   5   8   1.9068   2.1962  10.2479  -1.0111   3.4618  -2.2071   0.00    0.0
2018/03/13 12:40:47.000   78.254780458   16.249382904   344.1956   5   8   1.9066   2.1958  10.2451  -1.0107   3.4602  -2.2059   0.00    0.0
2018/03/13 12:40:48.000   78.254781289   16.249372029   346.0442   5   8   1.9064   2.1954  10.2423  -1.0103   3.4585  -2.2047   0.00    0.0
2018/03/13 12:40:49.000   78.254779103   16.249385834   346.0729   5   8   1.9063   2.1951  10.2394  -1.0099   3.4569  -2.2036   0.00    0.0
2018/03/13 12:40:50.000   78.254777562   16.249392683   346.7738   5   8   1.9061   2.1947  10.2366  -1.0095   3.4552  -2.2024   0.00    0.0
2018/03/13 12:40:51.000   78.254778101   16.249357978   344.6578   5   8   1.9059   2.1943  10.2338  -1.0090   3.4536  -2.2012   0.00    0.0
2018/03/13 12:40:52.000   78.254779782   16.249362844   344.2512   5   8   1.9058   2.1939  10.2310  -1.0086   3.4519  -2.2000   0.00    0.0
2018/03/13 12:40:53.000   78.254781318   16.249369769   346.3372   5   8   1.9056   2.1936  10.2282  -1.0082   3.4503  -2.1989   0.00    0.0
2018/03/13 12:40:54.000   78.254782701   16.249380518   345.9389   5   8   1.9054   2.1932  10.2253  -1.0078   3.4486  -2.1977   0.00    0.0
2018/03/13 12:40:55.000   78.254781684   16.249368304   344.6418   5   8   1.9053   2.1928  10.2225  -1.0074   3.4470  -2.1965   0.00    0.0
2018/03/13 12:40:56.000   78.254781650   16.249363938   344.4203   5   8   1.9051   2.1924  10.2197  -1.0070   3.4453  -2.1954   0.00    0.0
2018/03/13 12:40:57.000   78.254777605   16.249381098   346.2022   5   8   1.9049   2.1921  10.2169  -1.0066   3.4437  -2.1942   0.00    0.0
2018/03/13 12:40:58.000   78.254779966   16.249368372   347.0459   5   8   1.9048   2.1917  10.2140  -1.0061   3.4420  -2.1930   0.00    0.0
2018/03/13 12:40:59.000   78.254781493   16.249366489   345.2995   5   8   1.9046   2.1913  10.2112  -1.0057   3.4404  -2.1918   0.00    0.0
2018/03/13 12:41:00.000   78.254780513   16.249377218   344.8323   5   8   1.9044   2.1909  10.2084  -1.0053   3.4387  -2.1907   0.00    0.0
2018/03/13 12:41:01.000   78.254782118   16.249377994   346.1195   5   8   1.9043   2.1906  10.2055  -1.0049   3.4371  -2.1895   0.00    0.0
2018/03/13 12:41:02.000   78.254781535   16.249373825   345.4476   5   8   1.9041   2.1902  10.2027  -1.0045   3.4354  -2.1883   0.00    0.0
2018/03/13 12:41:03.000   78.254782981   16.249385698   347.2328   5   8   1.9039   2.1898  10.1999  -1.0041   3.4338  -2.1871   0.00    0.0
2018/03/13 12:41:04.000   78.254782330   16.249387352   346.2860   5   8   1.9038   2.1894  10.1971  -1.0037   3.4321  -2.1860   0.00    0.0
2018/03/13 12:41:05.000   78.254777991   16.249397178   345.7877   5   8   1.9036   2.1891  10.1942  -1.0032   3.4305  -2.1848   0.00    0.0
2018/03/13 12:41:06.000   78.254782201   16.249381260   346.4395   5   8   1.9035   2.1887  10.1914  -1.0028   3.4288  -2.1836   0.00    0.0
2018/03/13 12:41:07.000   78.254783893   16.249373918   346.3214   5   8   1.9033   2.1883  10.1886  -1.0024   3.4272  -2.1824   0.00    0.0
2018/03/13 12:41:08.000   78.254782456   16.249360618   344.2458   5   8   1.9031   2.1879  10.1857  -1.0020   3.4255  -2.1812   0.00    0.0
2018/03/13 12:41:09.000   78.254778239   16.249367988   344.2162   5   8   1.9030   2.1876  10.1829  -1.0016   3.4239  -2.1801   0.00    0.0
2018/03/13 12:41:10.000   78.254777988   16.249402647   346.8402   5   8   1.9028   2.1872  10.1801  -1.0012   3.4222  -2.1789   0.00    0.0
2018/03/13 12:41:11.000   78.254781499   16.249387133   347.5849   5   8   1.9026   2.1868  10.1772  -1.0008   3.4206  -2.1777   0.00    0.0
2018/03/13 12:41:12.000   78.254781963   16.249375166   346.5475   5   8   1.9025   2.1864  10.1744  -1.0004   3.4189  -2.1765   0.00    0.0
2018/03/13 12:41:13.000   78.254780390   16.249357530   344.0713   5   8   1.9023   2.1861  10.1716  -0.9999   3.4173  -2.1753   0.00    0.0
2018/03/13 12:41:14.000   78.254779908   16.249379116   344.9293   5   8   1.9021   2.1857  10.1687  -0.9995   3.4156  -2.1742   0.00    0.0
2018/03/13 12:41:15.000   78.254779116   16.249368654   345.8040   5   8   1.9020   2.1853  10.1659  -0.9991   3.4139  -2.1730   0.00    0.0
2018/03/13 12:41:16.000   78.254781019   16.249363816   345.0053   5   8   1.9018   2.1850  10.1630  -0.9987   3.4123  -2.1718   0.00    0.0
2018/03/13 12:41:17.000   78.254781646   16.249365417   344.1626   5   8   1.9016   2.1846  10.1602  -0.9983   3.4106  -2.1706   0.00    0.0
2018/03/13 12:41:18.000   78.254779953   16.249363421   344.6932   5   8   1.9015   2.1842  10.1574  -0.9979   3.4090  -2.1694   0.00    0.0
2018/03/13 12:41:19.000   78.254781925   16.249356005   344.6658   5   8   1.9013   2.1838  10.1545  -0.9975   3.4073  -2.1683   0.00    0.0
2018/03/13 12:41:20.000   78.254781125   16.249379377   346.5428   5   8   1.9012   2.1835  10.1517  -0.9970   3.4057  -2.1671   0.00    0.0
2018/03/13 12:41:21.000   78.254783749   16.249381623   347.2546   5   8   1.9010   2.1831  10.1488  -0.9966   3.4040  -2.1659   0.00    0.0
2018/03/13 12:41:22.000   78.254783115   16.249372250   346.0706   5   8   1.9008   2.1827  10.1460  -0.9962   3.4023  -2.1647   0.00    0.0
2018/03/13 12:41:23.000   78.254782224   16.249386283   346.9852   5   8   1.9007   2.1824  10.1432  -0.9958   3.4007  -2.1635   0.00    0.0
2018/03/13 12:41:24.000   78.254783670   16.249381671   345.7489   5   8   1.9005   2.1820  10.1403  -0.9954   3.3990  -2.1623   0.00    0.0
2018/03/13 12:41:25.000   78.254778620   16.249403348   347.3422   5   7   2.4223   3.4305  11.5840  -2.2286   5.1364  -3.6181   0.00    0.0
2018/03/13 12:41:26.000   78.254782591   16.249370994   346.2967   5   8   1.9002   2.1813  10.1346  -0.9946   3.3957  -2.1600   0.00    0.0
2018/03/13 12:41:27.000   78.254782294   16.249368263   345.3902   5   8   1.9000   2.1809  10.1318  -0.9942   3.3940  -2.1588   0.00    0.0
2018/03/13 12:41:28.000   78.254782122   16.249390803   346.8548   5   8   1.8999   2.1805  10.1290  -0.9937   3.3924  -2.1576   0.00    0.0
2018/03/13 12:41:29.000   78.254778502   16.249385325   346.5590   5   8   1.8997   2.1801  10.1261  -0.9933   3.3907  -2.1564   0.00    0.0
2018/03/13 12:41:30.000   78.254782304   16.249361638   344.8450   5   8   1.8995   2.1798  10.1233  -0.9929   3.3891  -2.1552   0.00    0.0
2018/03/13 12:41:31.000   78.254775420   16.249393030   346.9085   5   8   1.8994   2.1794  10.1204  -0.9925   3.3874  -2.1540   0.00    0.0
2018/03/13 12:41:32.000   78.254776748   16.249399357   345.9088   5   8   1.8992   2.1790  10.1176  -0.9921   3.3857  -2.1529   0.00    0.0
2018/03/13 12:41:33.000   78.254773219   16.249366130   345.3044   5   6   2.1297   2.4335  10.4097  -0.4812   3.6183  -2.2090   0.00    0.0
2018/03/13 12:41:34.000   78.254774446   16.249364179   345.3303   5   8   1.8989   2.1783  10.1119  -0.9913   3.3824  -2.1505   0.00    0.0
2018/03/13 12:41:35.000   78.254776613   16.249380691   346.5752   5   8   1.8987   2.1779  10.1090  -0.9909   3.3808  -2.1493   0.00    0.0
2018/03/13 12:41:36.000   78.254776978   16.249377808   346.5849   5   8   1.8986   2.1776  10.1062  -0.9905   3.3791  -2.1481   0.00    0.0
2018/03/13 12:41:37.000   78.254779679   16.249366689   346.5028   5   8   1.8984   2.1772  10.1033  -0.9900   3.3774  -2.1469   0.00    0.0
2018/03/13 12:41:38.000   78.254780948   16.249356228   345.4342   5   8   1.8982   2.1768  10.1005  -0.9896   3.3758  -2.1457   0.00    0.0
2018/03/13 12:41:39.000   78.254781120   16.249377569   347.4155   5   8   1.8981   2.1765  10.0976  -0.9892   3.3741  -2.1446   0.00    0.0
2018/03/13 12:41:40.000   78.254782728   16.249397911   345.1431   5   8   1.8979   2.1761  10.0948  -0.9888   3.3724  -2.1434   0.00    0.0
2018/03/13 12:41:41.000   78.254784983   16.249373804   344.9379   5   8   1.8977   2.1757  10.0919  -0.9884   3.3708  -2.1422   0.00    0.0
2018/03/13 12:41:42.000   78.254786362   16.249378005   345.1420   5   8   1.8976   2.1754  10.0891  -0.9880   3.3691  -2.1410   0.00    0.0
2018/03/13 12:41:43.000   78.254785799   16.249356614   345.2720   5   8   1.8974   2.1750  10.0862  -0.9876   3.3675  -2.1398   0.00    0.0
2018/03/13 12:41:44.000   78.254782366   16.249345270   345.0234   5   8   1.8973   2.1746  10.0834  -0.9872   3.3658  -2.1386   0.00    0.0
2018/03/13 12:41:45.000   78.254783420   16.249372137   344.8236   5   8   1.8971   2.1743  10.0805  -0.9868   3.3641  -2.1374   0.00    0.0
2018/03/13 12:41:46.000   78.254778553   16.249365824   346.0082   5   7   2.2223   2.2065  10.1100  -0.7319   3.3168  -2.3449   0.00    0.0
2018/03/13 12:41:47.000   78.254778257   16.249382122   346.8943   5   8   1.8968   2.1735  10.0748  -0.9859   3.3608  -2.1350   0.00    0.0
2018/03/13 12:41:48.000   78.254781994   16.249372233   345.9353   5   8   1.8966   2.1732  10.0720  -0.9855   3.3591  -2.1338   0.00    0.0
2018/03/13 12:41:49.000   78.254780619   16.249389933   346.7243   5   8   1.8965   2.1728  10.0691  -0.9851   3.3575  -2.1326   0.00    0.0
2018/03/13 12:41:50.000   78.254781971   16.249371804   345.6554   5   8   1.8963   2.1724  10.0663  -0.9847   3.3558  -2.1315   0.00    0.0
2018/03/13 12:41:51.000   78.254784090   16.249376641   344.5164   5   8   1.8961   2.1721  10.0634  -0.9843   3.3541  -2.1303   0.00    0.0
2018/03/13 12:41:52.000   78.254780454   16.249376770   346.1718   5   8   1.8960   2.1717  10.0606  -0.9839   3.3525  -2.1291   0.00    0.0
2018/03/13 12:41:53.000   78.254783384   16.249370572   346.3100   5   8   1.8958   2.1714  10.0577  -0.9835   3.3508  -2.1279   0.00    0.0
2018/03/13 12:41:54.000   78.254782269   16.249364212   345.4345   5   8   1.8957   2.1710  10.0548  -0.9831   3.3491  -2.1267   0.00    0.0
2018/03/13 12:41:55.000   78.254779836   16.249367058   345.0387   5   8   1.8955   2.1706  10.0520  -0.9827   3.3475  -2.1255   0.00    0.0
2018/03/13 12:41:56.000   78.254783216   16.249371473   345.4725   5   8   1.8953   2.1703  10.0491  -0.9823   3.3458  -2.1243   0.00    0.0
2018/03/13 12:41:57.000   78.254782040   16.249354868   345.6118   5   8   1.8952   2.1699  10.0463  -0.9818   3.3441  -2.1231   0.00    0.0
2018/03/13 12:41:58.000   78.254779944   16.249372397   346.1324   5   8   1.8950   2.1695  10.0434  -0.9814   3.3425  -2.1219   0.00    0.0
2018/03/13 12:41:59.000   78.254778653   16.249364843   345.1470   5   8   1.8949   2.1692  10.0406  -0.9810   3.3408  -2.1207   0.00    0.0
2018/03/13 12:42:00.000   78.254781947   16.249357169   344.1662   5   8   1.8947   2.1688  10.0377  -0.9806   3.3391  -2.1195   0.00    0.0
2018/03/13 12:42:01.000   78.254779608   16.249367068   344.0173   5   8   1.8945   2.1685  10.0348  -0.9802   3.3375  -2.1183   0.00    0.0
2018/03/13 12:42:02.000   78.254780994   16.249371461   344.6458   5   8   1.8944   2.1681  10.0320  -0.9798   3.3358  -2.1171   0.00    0.0
2018/03/13 12:42:03.000   78.254781804   16.249386008   345.9792   5   8   1.8942   2.1677  10.0291  -0.9794   3.3341  -2.1159   0.00    0.0
2018/03/13 12:42:04.000   78.254783865   16.249365182   345.0003   5   8   1.8941   2.1674  10.0263  -0.9790   3.3325  -2.1147   0.00    0.0
2018/03/13 12:42:05.000   78.254782471   16.249371767   345.1490   5   8   1.8939   2.1670  10.0234  -0.9786   3.3308  -2.1135   0.00    0.0
2018/03/13 12:42:06.000   78.254782328   16.249373803   345.8541   5   8   1.8937   2.1667  10.0205  -0.9782   3.3291  -2.1123   0.00    0.0
2018/03/13 12:42:07.000   78.254780844   16.249363582   345.8659   5   8   1.8936   2.1663  10.0177  -0.9778   3.3274  -2.1111   0.00    0.0
2018/03/13 12:42:08.000   78.254783873   16.249376283   344.1907   5   8   1.8934   2.1659  10.0148  -0.9774   3.3258  -2.1099   0.00    0.0
2018/03/13 12:42:09.000   78.254780415   16.249382223   345.4630   5   8   1.8933   2.1656  10.0120  -0.9769   3.3241  -2.1088   0.00    0.0
2018/03/13 12:42:10.000   78.254784217   16.249362596   345.0119   5   8   1.8931   2.1652  10.0091  -0.9765   3.3224  -2.1076   0.00    0.0
2018/03/13 12:42:11.000   78.254783112   16.249369189   344.7283   5   8   1.8929   2.1649  10.0062  -0.9761   3.3208  -2.1064   0.00    0.0
2018/03/13 12:42:12.000   78.254779811   16.249363221   344.8449   5   8   1.8928   2.1645  10.0034  -0.9757   3.3191  -2.1052   0.00    0.0
2018/03/13 12:42:13.000   78.254782067   16.249351420   342.4444   5   8   1.8926   2.1641  10.0005  -0.9753   3.3174  -2.1040   0.00    0.0
2018/03/13 12:42:14.000   78.254782080   16.249364372   345.0283   5   8   1.8925   2.1638   9.9977  -0.9749   3.3158  -2.1028   0.00    0.0
2018/03/13 12:42:15.000   78.254782569   16.249368336   345.1513   5   8   1.8923   2.1634   9.9948  -0.9745   3.3141  -2.1016   0.00    0.0
2018/03/13 12:42:16.000   78.254782668   16.249374420   345.2870   5   8   1.8921   2.1631   9.9919  -0.9741   3.3124  -2.1004   0.00    0.0
2018/03/13 12:42:17.000   78.254780770   16.249377872   345.3389   5   8   1.8920   2.1627   9.9891  -0.9737   3.3107  -2.0992   0.00    0.0
2018/03/13 12:42:18.000   78.254782819   16.249365137   344.7956   5   8   1.8918   2.1623   9.9862  -0.9733   3.3091  -2.0980   0.00    0.0
2018/03/13 12:42:19.000   78.254783365   16.249388004   346.5106   5   8   1.8917   2.1620   9.9833  -0.9729   3.3074  -2.0968   0.00    0.0
2018/03/13 12:42:20.000   78.254782093   16.249388449   345.9135   5   8   1.8915   2.1616   9.9805  -0.9725   3.3057  -2.0956   0.00    0.0
2018/03/13 12:42:21.000   78.254785407   16.249365446   344.3769   5   8   1.8914   2.1613   9.9776  -0.9721   3.3041  -2.0944   0.00    0.0
2018/03/13 12:42:22.000   78.254781811   16.249381451   345.0412   5   8   1.8912   2.1609   9.9747  -0.9717   3.3024  -2.0932   0.00    0.0
2018/03/13 12:42:23.000   78.254782797   16.249392303   346.1081   5   8   1.8910   2.1606   9.9719  -0.9712   3.3007  -2.0920   0.00    0.0
2018/03/13 12:42:24.000   78.254783582   16.249369603   344.4123   5   8   1.8909   2.1602   9.9690  -0.9708   3.2990  -2.0908   0.00    0.0
2018/03/13 12:42:25.000   78.254780935   16.249367819   343.8661   5   8   1.8907   2.1599   9.9661  -0.9704   3.2974  -2.0895   0.00    0.0
2018/03/13 12:42:26.000   78.254777757   16.249367294   343.4462   5   8   1.8906   2.1595   9.9633  -0.9700   3.2957  -2.0883   0.00    0.0
2018/03/13 12:42:27.000   78.254782109   16.249349895   344.0524   5   8   1.8904   2.1591   9.9604  -0.9696   3.2940  -2.0871   0.00    0.0
2018/03/13 12:42:28.000   78.254782967   16.249356572   344.2187   5   8   1.8903   2.1588   9.9575  -0.9692   3.2923  -2.0859   0.00    0.0
2018/03/13 12:42:29.000   78.254781432   16.249352366   343.5299   5   8   1.8901   2.1584   9.9547  -0.9688   3.2907  -2.0847   0.00    0.0
2018/03/13 12:42:30.000   78.254776905   16.249351940   343.5639   5   8   1.8899   2.1581   9.9518  -0.9684   3.2890  -2.0835   0.00    0.0
2018/03/13 12:42:31.000   78.254779479   16.249351704   344.2377   5   8   1.8898   2.1577   9.9489  -0.9680   3.2873  -2.0823   0.00    0.0
2018/03/13 12:42:32.000   78.254780283   16.249351943   343.3147   5   8   1.8896   2.1574   9.9461  -0.9676   3.2856  -2.0811   0.00    0.0
2018/03/13 12:42:33.000   78.254779854   16.249401207   347.2482   5   8   1.8895   2.1570   9.9432  -0.9672   3.2840  -2.0799   0.00    0.0
2018/03/13 12:42:34.000   78.254782360   16.249384552   345.6789   5   8   1.8893   2.1567   9.9403  -0.9668   3.2823  -2.0787   0.00    0.0
2018/03/13 12:42:35.000   78.254782191   16.249360184   343.7517   5   8   1.8892   2.1563   9.9375  -0.9664   3.2806  -2.0775   0.00    0.0
2018/03/13 12:42:36.000   78.254785943   16.249379951   346.3296   5   8   1.8890   2.1560   9.9346  -0.9660   3.2789  -2.0763   0.00    0.0
2018/03/13 12:42:37.000   78.254783240   16.249363570   347.1254   5   8   1.8888   2.1556   9.9317  -0.9656   3.2773  -2.0751   0.00    0.0
2018/03/13 12:42:38.000   78.254784903   16.249375367   345.6548   5   8   1.8887   2.1552   9.9289  -0.9652   3.2756  -2.0739   0.00    0.0
2018/03/13 12:42:39.000   78.254785782   16.249383138   344.9491   5   8   1.8885   2.1549   9.9260  -0.9648   3.2739  -2.0727   0.00    0.0
2018/03/13 12:42:40.000   78.254786801   16.249374419   347.1002   5   8   1.8884   2.1545   9.9231  -0.9644   3.2722  -2.0715   0.00    0.0
2018/03/13 12:42:41.000   78.254786403   16.249379514   345.5729   5   8   1.8882   2.1542   9.9203  -0.9640   3.2706  -2.0703   0.00    0.0
2018/03/13 12:42:42.000   78.254778818   16.249377467   344.7923   5   8   1.8881   2.1538   9.9174  -0.9636   3.2689  -2.0691   0.00    0.0
2018/03/13 12:42:43.000   78.254780506   16.249379660   344.7408   5   8   1.8879   2.1535   9.9145  -0.9632   3.2672  -2.0679   0.00    0.0
2018/03/13 12:42:44.000   78.254782623   16.249373775   344.9648   5   8   1.8878   2.1531   9.9117  -0.9628   3.2655  -2.0667   0.00    0.0
2018/03/13 12:42:45.000   78.254782449   16.249364698   344.2130   5   8   1.8876   2.1528   9.9088  -0.9624   3.2639  -2.0654   0.00    0.0
2018/03/13 12:42:46.000   78.254776579   16.249358723   343.0233   5   8   1.8874   2.1524   9.9059  -0.9619   3.2622  -2.0642   0.00    0.0
2018/03/13 12:42:47.000   78.254779103   16.249353387   342.7070   5   8   1.8873   2.1521   9.9030  -0.9615   3.2605  -2.0630   0.00    0.0
2018/03/13 12:42:48.000   78.254780511   16.249333184   342.0768   5   8   1.8871   2.1517   9.9002  -0.9611   3.2588  -2.0618   0.00    0.0
2018/03/13 12:42:49.000   78.254780860   16.249355045   343.6782   5   8   1.8870   2.1514   9.8973  -0.9607   3.2571  -2.0606   0.00    0.0
2018/03/13 12:42:50.000   78.254782614   16.249366899   345.2209   5   8   1.8868   2.1510   9.8944  -0.9603   3.2555  -2.0594   0.00    0.0
2018/03/13 12:42:51.000   78.254782780   16.249372272   345.6510   5   8   1.8867   2.1507   9.8916  -0.9599   3.2538  -2.0582   0.00    0.0
2018/03/13 12:42:52.000   78.254779505   16.249378968   346.0754   5   8   1.8865   2.1503   9.8887  -0.9595   3.2521  -2.0570   0.00    0.0
2018/03/13 12:42:53.000   78.254782998   16.249376864   347.3374   5   8   1.8864   2.1500   9.8858  -0.9591   3.2504  -2.0558   0.00    0.0
2018/03/13 12:42:54.000   78.254783593   16.249371190   346.0519   5   8   1.8862   2.1496   9.8830  -0.9587   3.2488  -2.0546   0.00    0.0
2018/03/13 12:42:55.000   78.254781528   16.249369425   344.6084   5   8   1.8860   2.1493   9.8801  -0.9583   3.2471  -2.0534   0.00    0.0
2018/03/13 12:42:56.000   78.254782689   16.249384145   344.6789   5   8   1.8859   2.1489   9.8772  -0.9579   3.2454  -2.0522   0.00    0.0
2018/03/13 12:42:57.000   78.254784671   16.249390647   348.2364   5   8   1.8857   2.1486   9.8743  -0.9575   3.2437  -2.0509   0.00    0.0
2018/03/13 12:42:58.000   78.254784459   16.249367059   346.0476   5   8   1.8856   2.1483   9.8715  -0.9571   3.2420  -2.0497   0.00    0.0
2018/03/13 12:42:59.000   78.254782344   16.249368108   345.5533   5   8   1.8854   2.1479   9.8686  -0.9567   3.2404  -2.0485   0.00    0.0
2018/03/13 12:43:00.000   78.254780277   16.249364792   343.3471   5   8   1.8853   2.1476   9.8657  -0.9563   3.2387  -2.0473   0.00    0.0
2018/03/13 12:43:01.000   78.254782044   16.249370218   344.6053   5   8   1.8851   2.1472   9.8629  -0.9559   3.2370  -2.0461   0.00    0.0
2018/03/13 12:43:02.000   78.254781054   16.249338874   342.5319   5   8   1.8850   2.1469   9.8600  -0.9555   3.2353  -2.0449   0.00    0.0
2018/03/13 12:43:03.000   78.254781052   16.249351829   341.7827   5   8   1.8848   2.1465   9.8571  -0.9551   3.2336  -2.0437   0.00    0.0
2018/03/13 12:43:04.000   78.254777229   16.249360381   341.6780   5   8   1.8847   2.1462   9.8542  -0.9547   3.2320  -2.0425   0.00    0.0
2018/03/13 12:43:05.000   78.254782755   16.249363216   343.1060   5   8   1.8845   2.1458   9.8514  -0.9543   3.2303  -2.0413   0.00    0.0
2018/03/13 12:43:06.000   78.254782666   16.249358614   343.6899   5   8   1.8843   2.1455   9.8485  -0.9539   3.2286  -2.0400   0.00    0.0
2018/03/13 12:43:07.000   78.254779611   16.249359804   342.8523   5   8   1.8842   2.1451   9.8456  -0.9535   3.2269  -2.0388   0.00    0.0
2018/03/13 12:43:08.000   78.254781712   16.249360111   344.0263   5   8   1.8840   2.1448   9.8427  -0.9531   3.2252  -2.0376   0.00    0.0
2018/03/13 12:43:09.000   78.254778204   16.249368143   345.5040   5   8   1.8839   2.1445   9.8399  -0.9527   3.2236  -2.0364   0.00    0.0
2018/03/13 12:43:10.000   78.254783763   16.249362500   346.1533   5   8   1.8837   2.1441   9.8370  -0.9523   3.2219  -2.0352   0.00    0.0
2018/03/13 12:43:11.000   78.254785418   16.249362432   344.9679   5   8   1.8836   2.1438   9.8341  -0.9519   3.2202  -2.0340   0.00    0.0
2018/03/13 12:43:12.000   78.254785197   16.249373698   345.3511   5   8   1.8834   2.1434   9.8313  -0.9515   3.2185  -2.0328   0.00    0.0
2018/03/13 12:43:13.000   78.254780755   16.249377490   346.0786   5   8   1.8833   2.1431   9.8284  -0.9511   3.2168  -2.0315   0.00    0.0
2018/03/13 12:43:14.000   78.254780621   16.249366099   344.9427   5   8   1.8831   2.1427   9.8255  -0.9507   3.2152  -2.0303   0.00    0.0
2018/03/13 12:43:15.000   78.254780677   16.249365800   344.6409   5   8   1.8830   2.1424   9.8226  -0.9503   3.2135  -2.0291   0.00    0.0
2018/03/13 12:43:16.000   78.254780773   16.249389080   344.7216   5   8   1.8828   2.1420   9.8198  -0.9499   3.2118  -2.0279   0.00    0.0
2018/03/13 12:43:17.000   78.254779798   16.249368626   344.5902   5   8   1.8827   2.1417   9.8169  -0.9495   3.2101  -2.0267   0.00    0.0
2018/03/13 12:43:18.000   78.254783000   16.249361021   344.5556   5   8   1.8825   2.1414   9.8140  -0.9491   3.2084  -2.0255   0.00    0.0
2018/03/13 12:43:19.000   78.254781006   16.249354204   345.1275   5   8   1.8824   2.1410   9.8111  -0.9487   3.2068  -2.0243   0.00    0.0
2018/03/13 12:43:20.000   78.254776513   16.249353713   342.0338   5   8   1.8822   2.1407   9.8083  -0.9483   3.2051  -2.0230   0.00    0.0
2018/03/13 12:43:21.000   78.254778370   16.249362409   342.9227   5   8   1.8821   2.1403   9.8054  -0.9479   3.2034  -2.0218   0.00    0.0
2018/03/13 12:43:22.000   78.254781226   16.249351342   342.5346   5   8   1.8819   2.1400   9.8025  -0.9475   3.2017  -2.0206   0.00    0.0
2018/03/13 12:43:23.000   78.254781372   16.249360621   344.7056   5   8   1.8818   2.1397   9.7997  -0.9471   3.2000  -2.0194   0.00    0.0
2018/03/13 12:43:24.000   78.254780814   16.249359277   344.0432   5   8   1.8816   2.1393   9.7968  -0.9468   3.1983  -2.0182   0.00    0.0
2018/03/13 12:43:25.000   78.254781069   16.249365005   344.0677   5   8   1.8815   2.1390   9.7939  -0.9464   3.1967  -2.0170   0.00    0.0
2018/03/13 12:43:26.000   78.254780669   16.249364219   344.8972   5   8   1.8813   2.1386   9.7910  -0.9460   3.1950  -2.0157   0.00    0.0
2018/03/13 12:43:27.000   78.254782744   16.249372335   346.8166   5   8   1.8811   2.1383   9.7882  -0.9456   3.1933  -2.0145   0.00    0.0
2018/03/13 12:43:28.000   78.254780066   16.249379485   344.8437   5   8   1.8810   2.1380   9.7853  -0.9452   3.1916  -2.0133   0.00    0.0
2018/03/13 12:43:29.000   78.254780698   16.249357822   343.6044   5   8   1.8808   2.1376   9.7824  -0.9448   3.1899  -2.0121   0.00    0.0
2018/03/13 12:43:30.000   78.254780895   16.249369537   344.8611   5   8   1.8807   2.1373   9.7795  -0.9444   3.1883  -2.0109   0.00    0.0
2018/03/13 12:43:31.000   78.254782049   16.249380250   346.2138   5   8   1.8805   2.1369   9.7767  -0.9440   3.1866  -2.0097   0.00    0.0
2018/03/13 12:43:32.000   78.254781133   16.249368318   344.7063   5   8   1.8804   2.1366   9.7738  -0.9436   3.1849  -2.0084   0.00    0.0
2018/03/13 12:43:33.000   78.254780366   16.249383088   344.9281   5   8   1.8802   2.1363   9.7709  -0.9432   3.1832  -2.0072   0.00    0.0
2018/03/13 12:43:34.000   78.254780828   16.249383916   344.2301   5   8   1.8801   2.1359   9.7681  -0.9428   3.1815  -2.0060   0.00    0.0
2018/03/13 12:43:35.000   78.254780924   16.249371448   345.1354   5   8   1.8799   2.1356   9.7652  -0.9424   3.1798  -2.0048   0.00    0.0
2018/03/13 12:43:36.000   78.254779869   16.249367870   345.6930   5   8   1.8798   2.1353   9.7623  -0.9420   3.1782  -2.0036   0.00    0.0
2018/03/13 12:43:37.000   78.254779569   16.249350743   342.5807   5   8   1.8796   2.1349   9.7594  -0.9416   3.1765  -2.0023   0.00    0.0
2018/03/13 12:43:38.000   78.254777865   16.249365238   343.4750   5   8   1.8795   2.1346   9.7566  -0.9412   3.1748  -2.0011   0.00    0.0
2018/03/13 12:43:39.000   78.254779775   16.249356350   343.3873   5   8   1.8793   2.1342   9.7537  -0.9408   3.1731  -1.9999   0.00    0.0
2018/03/13 12:43:40.000   78.254782232   16.249352629   344.0785   5   8   1.8792   2.1339   9.7508  -0.9404   3.1714  -1.9987   0.00    0.0
2018/03/13 12:43:41.000   78.254780345   16.249368601   343.3074   5   8   1.8790   2.1336   9.7479  -0.9400   3.1697  -1.9975   0.00    0.0
2018/03/13 12:43:42.000   78.254778870   16.249386402   344.7975   5   8   1.8789   2.1332   9.7451  -0.9396   3.1681  -1.9962   0.00    0.0
2018/03/13 12:43:43.000   78.254780606   16.249371218   345.3279   5   8   1.8787   2.1329   9.7422  -0.9392   3.1664  -1.9950   0.00    0.0
2018/03/13 12:43:44.000   78.254782843   16.249375021   345.0416   5   8   1.8786   2.1326   9.7393  -0.9388   3.1647  -1.9938   0.00    0.0
2018/03/13 12:43:45.000   78.254779977   16.249352362   343.9088   5   8   1.8784   2.1322   9.7365  -0.9384   3.1630  -1.9926   0.00    0.0
2018/03/13 12:43:46.000   78.254778716   16.249366945   342.1984   5   8   1.8783   2.1319   9.7336  -0.9381   3.1613  -1.9914   0.00    0.0
2018/03/13 12:43:47.000   78.254779838   16.249362705   342.8519   5   8   1.8781   2.1316   9.7307  -0.9377   3.1596  -1.9901   0.00    0.0
2018/03/13 12:43:48.000   78.254778221   16.249355071   343.3632   5   8   1.8780   2.1312   9.7278  -0.9373   3.1580  -1.9889   0.00    0.0
2018/03/13 12:43:49.000   78.254780252   16.249348016   343.4446   5   8   1.8778   2.1309   9.7250  -0.9369   3.1563  -1.9877   0.00    0.0
2018/03/13 12:43:50.000   78.254777437   16.249368473   344.4908   5   8   1.8777   2.1306   9.7221  -0.9365   3.1546  -1.9865   0.00    0.0
2018/03/13 12:43:51.000   78.254780315   16.249356702   345.0765   5   8   1.8775   2.1302   9.7192  -0.9361   3.1529  -1.9853   0.00    0.0
2018/03/13 12:43:52.000   78.254779833   16.249372081   346.6302   5   8   1.8774   2.1299   9.7163  -0.9357   3.1512  -1.9840   0.00    0.0
2018/03/13 12:43:53.000   78.254779097   16.249367104   345.1177   5   8   1.8772   2.1296   9.7135  -0.9353   3.1495  -1.9828   0.00    0.0
2018/03/13 12:43:54.000   78.254778634   16.249377715   344.4661   5   8   1.8771   2.1292   9.7106  -0.9349   3.1478  -1.9816   0.00    0.0
2018/03/13 12:43:55.000   78.254778355   16.249386150   345.4590   5   8   1.8770   2.1289   9.7077  -0.9345   3.1462  -1.9804   0.00    0.0
2018/03/13 12:43:56.000   78.254778999   16.249392358   346.1956   5   8   1.8768   2.1286   9.7049  -0.9341   3.1445  -1.9791   0.00    0.0
2018/03/13 12:43:57.000   78.254782637   16.249378658   345.6054   5   8   1.8767   2.1282   9.7020  -0.9337   3.1428  -1.9779   0.00    0.0
2018/03/13 12:43:58.000   78.254782975   16.249366474   343.2120   5   8   1.8765   2.1279   9.6991  -0.9333   3.1411  -1.9767   0.00    0.0
2018/03/13 12:43:59.000   78.254785075   16.249367504   343.7622   5   8   1.8764   2.1276   9.6962  -0.9330   3.1394  -1.9755   0.00    0.0
