% program   : RTKPOST ver.2.4.2
% inp file  : Z:\home\linda\Documents\Spring18\GitHub_Unis\data\processed_data\4625074A.obs
% inp file  : Z:\home\linda\Documents\Spring18\GitHub_Unis\data\base_station_data\lyrs0740.18o
% inp file  : Z:\home\linda\Documents\Spring18\GitHub_Unis\data\processed_data\4625074A.nav
% obs start : 2018/03/15 10:48:19.0 GPST (week1992 384499.0s)
% obs end   : 2018/03/15 11:19:49.0 GPST (week1992 386389.0s)
% pos mode  : static
% freqs     : L1+L2
% solution  : forward
% elev mask : 15.0 deg
% dynamics  : on
% tidecorr  : off
% ionos opt : iono-free
% tropo opt : saastamoinen
% ephemeris : broadcast
% navi sys  : gps glonass galileo qzss sbas
% amb res   : fix and hold
% amb glo   : on
% val thres : 3.0
% antenna1  :                       ( 0.0000  0.0000  0.0000)
% antenna2  :                       ( 0.0000  0.0000  0.0000)
% ref pos   : 78.228825638   15.397310064   495.6816
%
% (lat/lon/height=WGS84/ellipsoidal,Q=1:fix,2:float,3:sbas,4:dgps,5:single,6:ppp,ns=# of satellites)
%  GPST                  latitude(deg) longitude(deg)  height(m)   Q  ns   sdn(m)   sde(m)   sdu(m)  sdne(m)  sdeu(m)  sdun(m) age(s)  ratio
2018/03/15 10:48:19.000   78.246542212   16.035401363   481.5953   1   6   0.0171   0.0105   0.0526  -0.0067   0.0026   0.0208   0.00    3.1
2018/03/15 10:48:20.000   78.246532648   16.035415454   490.1639   2   6   1.2054   0.7384   3.6846  -0.4732   0.1851   1.4593   0.00    1.4
2018/03/15 10:48:21.000   78.246543974   16.035446747   504.3705   1   6   0.0099   0.0060   0.0303  -0.0039   0.0015   0.0120   0.00    3.4
2018/03/15 10:48:22.000   78.246543954   16.035446869   504.3774   1   6   0.0086   0.0052   0.0263  -0.0034   0.0013   0.0104   0.00    3.1
2018/03/15 10:48:23.000   78.246543922   16.035446874   504.3694   1   6   0.0076   0.0047   0.0235  -0.0030   0.0012   0.0093   0.00    3.6
2018/03/15 10:48:24.000   78.246537144   16.035467919   498.0398   2   6   0.6956   0.4266   2.1296  -0.2730   0.1092   0.8423   0.00    2.7
2018/03/15 10:48:25.000   78.246530433   16.035447404   494.6446   2   6   0.6434   0.3949   1.9690  -0.2525   0.1019   0.7783   0.00    1.2
2018/03/15 10:48:26.000   78.246527951   16.035451242   495.5110   2   6   0.6012   0.3694   1.8387  -0.2360   0.0962   0.7262   0.00    1.3
2018/03/15 10:48:27.000   78.246526057   16.035459736   496.8158   2   6   0.5661   0.3482   1.7301  -0.2223   0.0916   0.6827   0.00    1.5
2018/03/15 10:48:28.000   78.246524754   16.035459531   496.8157   2   6   0.5363   0.3303   1.6376  -0.2106   0.0879   0.6455   0.00    1.4
2018/03/15 10:48:29.000   78.246523515   16.035451092   495.7633   2   6   0.5105   0.3149   1.5575  -0.2006   0.0848   0.6132   0.00    1.1
2018/03/15 10:48:30.000   78.246523890   16.035439890   495.0585   2   6   0.4880   0.3015   1.4870  -0.1918   0.0822   0.5847   0.00    1.0
2018/03/15 10:48:31.000   78.246525360   16.035434350   495.0103   2   6   0.4679   0.2896   1.4244  -0.1839   0.0800   0.5593   0.00    1.0
2018/03/15 10:48:32.000   78.246527997   16.035439250   496.0680   2   6   0.4500   0.2790   1.3681  -0.1770   0.0782   0.5364   0.00    1.3
2018/03/15 10:48:33.000   78.246528834   16.035444118   496.7306   2   6   0.4338   0.2695   1.3172  -0.1706   0.0766   0.5156   0.00    1.5
2018/03/15 10:48:34.000   78.246530086   16.035441016   496.5948   2   6   0.4191   0.2608   1.2706  -0.1649   0.0753   0.4965   0.00    1.6
2018/03/15 10:48:35.000   78.246530076   16.035434410   495.4031   2   6   0.4056   0.2530   1.2279  -0.1596   0.0741   0.4789   0.00    1.3
2018/03/15 10:48:36.000   78.246531738   16.035429326   495.1325   2   6   0.3932   0.2458   1.1885  -0.1548   0.0731   0.4626   0.00    1.3
2018/03/15 10:48:37.000   78.246534138   16.035430038   495.6147   2   6   0.3817   0.2392   1.1518  -0.1503   0.0722   0.4474   0.00    1.5
2018/03/15 10:48:38.000   78.246535006   16.035432046   495.9621   2   6   0.3710   0.2330   1.1176  -0.1462   0.0714   0.4332   0.00    1.7
2018/03/15 10:48:39.000   78.246535341   16.035429066   495.5935   2   6   0.3611   0.2273   1.0857  -0.1423   0.0708   0.4199   0.00    1.6
2018/03/15 10:48:40.000   78.246535199   16.035426540   495.1398   2   6   0.3517   0.2220   1.0556  -0.1386   0.0702   0.4073   0.00    1.4
2018/03/15 10:48:41.000   78.246535709   16.035426066   495.2955   2   6   0.3430   0.2171   1.0273  -0.1352   0.0696   0.3954   0.00    1.5
2018/03/15 10:48:42.000   78.246535649   16.035426573   495.3762   2   6   0.3347   0.2124   1.0005  -0.1320   0.0692   0.3840   0.00    1.5
2018/03/15 10:48:43.000   78.246535231   16.035428083   495.2656   2   6   0.3269   0.2080   0.9751  -0.1290   0.0687   0.3733   0.00    1.4
2018/03/15 10:48:44.000   78.246534454   16.035427313   495.0411   2   6   0.3195   0.2039   0.9510  -0.1261   0.0683   0.3630   0.00    1.4
2018/03/15 10:48:45.000   78.246533598   16.035424545   494.5431   2   6   0.3125   0.2000   0.9280  -0.1233   0.0680   0.3532   0.00    1.2
2018/03/15 10:48:46.000   78.246532656   16.035424078   494.2804   2   6   0.3058   0.1963   0.9061  -0.1207   0.0676   0.3438   0.00    1.2
2018/03/15 10:48:47.000   78.246532601   16.035424299   494.3834   2   6   0.2994   0.1928   0.8852  -0.1182   0.0673   0.3348   0.00    1.2
2018/03/15 10:48:48.000   78.246532205   16.035424974   494.3106   2   6   0.2933   0.1895   0.8651  -0.1158   0.0670   0.3262   0.00    1.2
2018/03/15 10:48:49.000   78.246532693   16.035424330   494.1388   2   6   0.2875   0.1863   0.8459  -0.1135   0.0667   0.3179   0.00    1.1
2018/03/15 10:48:50.000   78.246533167   16.035422882   493.9735   2   6   0.2819   0.1833   0.8275  -0.1113   0.0665   0.3099   0.00    1.1
2018/03/15 10:48:51.000   78.246533246   16.035422287   493.7179   2   6   0.2766   0.1804   0.8098  -0.1092   0.0662   0.3022   0.00    1.1
2018/03/15 10:48:52.000   78.246532742   16.035421928   493.4148   2   6   0.2714   0.1776   0.7927  -0.1072   0.0660   0.2947   0.00    1.0
2018/03/15 10:48:53.000   78.246532738   16.035421379   493.2707   2   6   0.2665   0.1750   0.7763  -0.1052   0.0657   0.2875   0.00    1.0
2018/03/15 10:48:54.000   78.246533120   16.035421525   493.3021   2   6   0.2617   0.1724   0.7605  -0.1034   0.0655   0.2806   0.00    1.0
2018/03/15 10:48:55.000   78.246533904   16.035421944   493.6236   2   6   0.2572   0.1700   0.7452  -0.1015   0.0652   0.2738   0.00    1.1
2018/03/15 10:48:56.000   78.246534314   16.035423136   493.8137   2   6   0.2527   0.1676   0.7304  -0.0998   0.0650   0.2673   0.00    1.1
2018/03/15 10:48:57.000   78.246534906   16.035421570   493.8223   2   6   0.2485   0.1654   0.7162  -0.0981   0.0647   0.2610   0.00    1.2
2018/03/15 10:48:58.000   78.246535372   16.035418937   493.5480   2   6   0.2444   0.1632   0.7024  -0.0964   0.0645   0.2549   0.00    1.1
2018/03/15 10:48:59.000   78.246535520   16.035418019   493.2999   2   6   0.2404   0.1611   0.6890  -0.0948   0.0642   0.2489   0.00    1.1
2018/03/15 10:49:00.000   78.246535515   16.035416416   493.1878   2   6   0.2365   0.1590   0.6761  -0.0933   0.0640   0.2431   0.00    1.1
2018/03/15 10:49:01.000   78.246535539   16.035417257   493.1532   2   6   0.2328   0.1571   0.6635  -0.0918   0.0637   0.2375   0.00    1.0
2018/03/15 10:49:02.000   78.246535534   16.035418271   493.3761   2   6   0.2292   0.1552   0.6514  -0.0903   0.0635   0.2321   0.00    1.1
2018/03/15 10:49:03.000   78.246535323   16.035418367   493.4692   2   6   0.2257   0.1533   0.6396  -0.0889   0.0632   0.2268   0.00    1.1
2018/03/15 10:49:04.000   78.246535299   16.035418183   493.3896   2   6   0.2223   0.1516   0.6281  -0.0875   0.0629   0.2216   0.00    1.1
2018/03/15 10:49:05.000   78.246534998   16.035418295   493.2020   2   6   0.2190   0.1498   0.6170  -0.0862   0.0627   0.2166   0.00    1.0
2018/03/15 10:49:06.000   78.246535102   16.035417469   493.0998   2   6   0.2158   0.1481   0.6062  -0.0849   0.0624   0.2117   0.00    1.0
2018/03/15 10:49:07.000   78.246535208   16.035417459   493.0237   2   6   0.2127   0.1465   0.5957  -0.0836   0.0621   0.2070   0.00    1.0
2018/03/15 10:49:08.000   78.246534978   16.035417179   492.8981   2   6   0.2096   0.1449   0.5855  -0.0823   0.0618   0.2023   0.00    1.0
2018/03/15 10:49:09.000   78.246535016   16.035417584   492.9116   2   6   0.2067   0.1434   0.5756  -0.0811   0.0615   0.1978   0.00    1.0
2018/03/15 10:49:10.000   78.246535363   16.035417704   492.9693   2   6   0.2038   0.1419   0.5660  -0.0799   0.0612   0.1934   0.00    1.0
2018/03/15 10:49:11.000   78.246535852   16.035417421   493.0707   2   6   0.2010   0.1405   0.5566  -0.0788   0.0609   0.1892   0.00    1.0
2018/03/15 10:49:12.000   78.246536533   16.035416939   493.0174   2   6   0.1983   0.1390   0.5475  -0.0776   0.0606   0.1850   0.00    1.0
2018/03/15 10:49:13.000   78.246536801   16.035415782   492.9425   2   6   0.1957   0.1377   0.5386  -0.0765   0.0603   0.1809   0.00    1.0
2018/03/15 10:49:14.000   78.246536846   16.035414804   492.8367   2   6   0.1931   0.1363   0.5299  -0.0754   0.0600   0.1769   0.00    1.0
2018/03/15 10:49:15.000   78.246536947   16.035414397   492.9192   2   6   0.1906   0.1350   0.5215  -0.0744   0.0597   0.1731   0.00    1.0
2018/03/15 10:49:16.000   78.246536918   16.035414852   492.9541   2   6   0.1881   0.1337   0.5132  -0.0733   0.0593   0.1693   0.00    1.0
2018/03/15 10:49:17.000   78.246537066   16.035414223   493.0046   2   6   0.1857   0.1325   0.5052  -0.0723   0.0590   0.1656   0.00    1.0
2018/03/15 10:49:18.000   78.246537029   16.035413712   493.1275   2   6   0.1834   0.1313   0.4974  -0.0713   0.0587   0.1620   0.00    1.0
2018/03/15 10:49:19.000   78.246536885   16.035413582   493.1751   2   6   0.1811   0.1301   0.4898  -0.0703   0.0584   0.1585   0.00    1.0
2018/03/15 10:49:20.000   78.246536553   16.035413774   493.0975   2   6   0.1789   0.1289   0.4823  -0.0693   0.0580   0.1550   0.00    1.0
2018/03/15 10:49:21.000   78.246536148   16.035412536   492.9119   2   6   0.1767   0.1278   0.4751  -0.0684   0.0577   0.1517   0.00    1.0
2018/03/15 10:49:22.000   78.246535906   16.035411254   492.8589   2   6   0.1746   0.1267   0.4680  -0.0675   0.0573   0.1484   0.00    1.0
2018/03/15 10:49:23.000   78.246535878   16.035411861   493.0227   2   6   0.1725   0.1256   0.4611  -0.0666   0.0570   0.1452   0.00    1.0
2018/03/15 10:49:24.000   78.246535831   16.035413326   493.1503   2   6   0.1705   0.1245   0.4544  -0.0657   0.0567   0.1420   0.00    1.0
2018/03/15 10:49:25.000   78.246535920   16.035413911   493.2132   2   6   0.1685   0.1235   0.4478  -0.0648   0.0563   0.1390   0.00    1.0
2018/03/15 10:49:26.000   78.246535986   16.035411778   493.0822   2   6   0.1666   0.1225   0.4413  -0.0639   0.0560   0.1360   0.00    1.0
2018/03/15 10:49:27.000   78.246536315   16.035410747   493.0231   2   6   0.1647   0.1215   0.4351  -0.0631   0.0556   0.1331   0.00    1.0
2018/03/15 10:49:28.000   78.246536682   16.035409920   493.0418   2   6   0.1628   0.1205   0.4289  -0.0622   0.0552   0.1302   0.00    1.1
2018/03/15 10:49:29.000   78.246537034   16.035410017   493.0923   2   6   0.1610   0.1195   0.4229  -0.0614   0.0549   0.1274   0.00    1.1
2018/03/15 10:49:30.000   78.246537086   16.035409596   493.0784   2   6   0.1592   0.1186   0.4171  -0.0606   0.0545   0.1247   0.00    1.1
2018/03/15 10:49:31.000   78.246537489   16.035409749   493.0900   2   6   0.1575   0.1176   0.4113  -0.0598   0.0542   0.1220   0.00    1.0
2018/03/15 10:49:32.000   78.246537996   16.035410137   493.1485   2   6   0.1557   0.1167   0.4057  -0.0590   0.0538   0.1194   0.00    1.0
2018/03/15 10:49:33.000   78.246538262   16.035409770   493.1858   2   6   0.1541   0.1159   0.4003  -0.0583   0.0534   0.1168   0.00    1.0
2018/03/15 10:49:34.000   78.246538401   16.035409269   493.1741   2   6   0.1524   0.1150   0.3949  -0.0575   0.0531   0.1143   0.00    1.0
2018/03/15 10:49:35.000   78.246538274   16.035409345   493.1858   2   6   0.1508   0.1141   0.3897  -0.0568   0.0527   0.1118   0.00    1.0
2018/03/15 10:49:36.000   78.246538032   16.035409211   493.1833   2   6   0.1492   0.1133   0.3845  -0.0560   0.0523   0.1094   0.00    1.0
2018/03/15 10:49:37.000   78.246537863   16.035408361   493.1427   2   6   0.1477   0.1125   0.3795  -0.0553   0.0520   0.1070   0.00    1.0
2018/03/15 10:49:38.000   78.246537776   16.035408622   493.1695   2   6   0.1462   0.1116   0.3746  -0.0546   0.0516   0.1047   0.00    1.0
2018/03/15 10:49:39.000   78.246537675   16.035409479   493.2901   2   6   0.1447   0.1109   0.3698  -0.0539   0.0512   0.1025   0.00    1.1
2018/03/15 10:49:40.000   78.246537543   16.035410669   493.4122   2   6   0.1432   0.1101   0.3651  -0.0532   0.0509   0.1003   0.00    1.1
2018/03/15 10:49:41.000   78.246537305   16.035410598   493.4255   2   6   0.1418   0.1093   0.3605  -0.0525   0.0505   0.0981   0.00    1.1
2018/03/15 10:49:42.000   78.246537060   16.035409708   493.3691   2   6   0.1404   0.1085   0.3560  -0.0518   0.0501   0.0959   0.00    1.1
2018/03/15 10:49:43.000   78.246537157   16.035409201   493.3452   2   6   0.1390   0.1078   0.3516  -0.0512   0.0498   0.0939   0.00    1.1
2018/03/15 10:49:44.000   78.246537355   16.035409712   493.3937   2   6   0.1377   0.1071   0.3473  -0.0505   0.0494   0.0918   0.00    1.1
2018/03/15 10:49:45.000   78.246537362   16.035410605   493.4378   2   6   0.1363   0.1063   0.3430  -0.0499   0.0490   0.0898   0.00    1.1
2018/03/15 10:49:46.000   78.246537402   16.035410536   493.4552   2   6   0.1350   0.1056   0.3389  -0.0492   0.0487   0.0878   0.00    1.1
2018/03/15 10:49:47.000   78.246537518   16.035410079   493.4271   2   6   0.1338   0.1049   0.3348  -0.0486   0.0483   0.0859   0.00    1.1
2018/03/15 10:49:48.000   78.246537731   16.035409464   493.3934   2   6   0.1325   0.1042   0.3308  -0.0480   0.0480   0.0840   0.00    1.1
2018/03/15 10:49:49.000   78.246537927   16.035409403   493.3978   2   6   0.1313   0.1036   0.3269  -0.0474   0.0476   0.0821   0.00    1.1
2018/03/15 10:49:50.000   78.246538123   16.035409223   493.4472   2   6   0.1300   0.1029   0.3231  -0.0467   0.0472   0.0803   0.00    1.1
2018/03/15 10:49:51.000   78.246538395   16.035409290   493.4266   2   6   0.1288   0.1022   0.3193  -0.0461   0.0469   0.0785   0.00    1.0
2018/03/15 10:49:52.000   78.246538530   16.035409314   493.3975   2   6   0.1277   0.1016   0.3157  -0.0456   0.0465   0.0768   0.00    1.0
2018/03/15 10:49:53.000   78.246538706   16.035408958   493.3861   2   6   0.1265   0.1010   0.3121  -0.0450   0.0461   0.0750   0.00    1.0
2018/03/15 10:49:54.000   78.246538706   16.035409728   493.3900   2   6   0.1254   0.1003   0.3085  -0.0444   0.0458   0.0733   0.00    1.0
2018/03/15 10:49:55.000   78.246538755   16.035410170   493.4201   2   6   0.1243   0.0997   0.3051  -0.0438   0.0454   0.0717   0.00    1.0
2018/03/15 10:49:56.000   78.246538644   16.035410356   493.4354   2   6   0.1232   0.0991   0.3017  -0.0433   0.0451   0.0700   0.00    1.0
2018/03/15 10:49:57.000   78.246538542   16.035409891   493.4401   2   6   0.1221   0.0985   0.2983  -0.0427   0.0447   0.0684   0.00    1.0
2018/03/15 10:49:58.000   78.246538426   16.035409587   493.4332   2   6   0.1210   0.0979   0.2950  -0.0422   0.0443   0.0668   0.00    1.0
2018/03/15 10:49:59.000   78.246538271   16.035409367   493.4388   2   6   0.1200   0.0973   0.2918  -0.0416   0.0440   0.0653   0.00    1.0
2018/03/15 10:50:00.000   78.246538115   16.035409200   493.4421   2   6   0.1190   0.0968   0.2887  -0.0411   0.0436   0.0638   0.00    1.1
2018/03/15 10:50:01.000   78.246538093   16.035408932   493.4708   2   6   0.1179   0.0962   0.2856  -0.0405   0.0433   0.0622   0.00    1.1
2018/03/15 10:50:02.000   78.246538073   16.035409440   493.5152   2   6   0.1169   0.0956   0.2825  -0.0400   0.0429   0.0608   0.00    1.1
2018/03/15 10:50:03.000   78.246537968   16.035409836   493.5238   2   6   0.1160   0.0951   0.2795  -0.0395   0.0426   0.0593   0.00    1.1
2018/03/15 10:50:04.000   78.246537793   16.035409549   493.4963   2   6   0.1150   0.0945   0.2766  -0.0390   0.0422   0.0579   0.00    1.1
2018/03/15 10:50:05.000   78.246537582   16.035409239   493.4955   2   6   0.1140   0.0940   0.2737  -0.0385   0.0419   0.0564   0.00    1.1
2018/03/15 10:50:06.000   78.246537464   16.035409947   493.5106   2   6   0.1131   0.0935   0.2709  -0.0380   0.0416   0.0550   0.00    1.1
2018/03/15 10:50:07.000   78.246537431   16.035410319   493.5663   2   6   0.1122   0.0929   0.2681  -0.0375   0.0412   0.0537   0.00    1.1
2018/03/15 10:50:08.000   78.246537501   16.035409909   493.5978   2   6   0.1113   0.0924   0.2654  -0.0370   0.0409   0.0523   0.00    1.1
2018/03/15 10:50:09.000   78.246537750   16.035409566   493.6011   2   6   0.1104   0.0919   0.2627  -0.0365   0.0405   0.0510   0.00    1.1
2018/03/15 10:50:10.000   78.246538066   16.035409440   493.5668   2   6   0.1095   0.0914   0.2601  -0.0360   0.0402   0.0497   0.00    1.1
2018/03/15 10:50:11.000   78.246538265   16.035409850   493.5245   2   6   0.1086   0.0909   0.2575  -0.0355   0.0399   0.0484   0.00    1.1
2018/03/15 10:50:12.000   78.246538390   16.035409775   493.5153   2   6   0.1078   0.0904   0.2549  -0.0350   0.0395   0.0471   0.00    1.1
2018/03/15 10:50:13.000   78.246538393   16.035409488   493.5088   2   6   0.1069   0.0899   0.2524  -0.0346   0.0392   0.0458   0.00    1.1
2018/03/15 10:50:14.000   78.246538442   16.035410395   493.5338   2   6   0.1061   0.0894   0.2500  -0.0341   0.0389   0.0445   0.00    1.1
2018/03/15 10:50:15.000   78.246538440   16.035410807   493.5744   2   6   0.1053   0.0890   0.2476  -0.0336   0.0385   0.0433   0.00    1.1
2018/03/15 10:50:16.000   78.246538452   16.035410323   493.5687   2   6   0.1045   0.0885   0.2452  -0.0332   0.0382   0.0421   0.00    1.1
2018/03/15 10:50:17.000   78.246538520   16.035409882   493.5508   2   6   0.1037   0.0880   0.2428  -0.0327   0.0379   0.0408   0.00    1.1
2018/03/15 10:50:18.000   78.246538627   16.035410281   493.5723   2   6   0.1029   0.0876   0.2405  -0.0323   0.0376   0.0396   0.00    1.1
2018/03/15 10:50:19.000   78.246538671   16.035410732   493.5966   2   7   0.1020   0.0871   0.2382  -0.0317   0.0370   0.0390   0.00    1.0
2018/03/15 10:50:20.000   78.246538570   16.035410941   493.5990   2   7   0.1011   0.0867   0.2358  -0.0311   0.0365   0.0383   0.00    1.1
2018/03/15 10:50:21.000   78.246538460   16.035411022   493.5813   2   7   0.1003   0.0862   0.2335  -0.0305   0.0361   0.0376   0.00    1.2
2018/03/15 10:50:22.000   78.246538310   16.035411114   493.5550   2   7   0.0994   0.0857   0.2312  -0.0300   0.0356   0.0369   0.00    1.3
2018/03/15 10:50:23.000   78.246538268   16.035411148   493.5657   2   7   0.0986   0.0853   0.2290  -0.0294   0.0351   0.0363   0.00    1.3
2018/03/15 10:50:24.000   78.246538352   16.035411417   493.5652   2   7   0.0977   0.0849   0.2268  -0.0288   0.0346   0.0356   0.00    1.3
2018/03/15 10:50:25.000   78.246538384   16.035411345   493.5735   2   7   0.0969   0.0844   0.2247  -0.0283   0.0342   0.0349   0.00    1.3
2018/03/15 10:50:26.000   78.246538438   16.035411336   493.5953   2   7   0.0961   0.0840   0.2226  -0.0278   0.0337   0.0343   0.00    1.3
2018/03/15 10:50:27.000   78.246538392   16.035411452   493.6158   2   7   0.0954   0.0836   0.2205  -0.0272   0.0333   0.0336   0.00    1.4
2018/03/15 10:50:28.000   78.246538254   16.035411016   493.6336   2   7   0.0946   0.0832   0.2185  -0.0267   0.0329   0.0330   0.00    1.4
2018/03/15 10:50:29.000   78.246538322   16.035411005   493.6268   2   7   0.0938   0.0827   0.2165  -0.0262   0.0325   0.0323   0.00    1.4
2018/03/15 10:50:30.000   78.246538459   16.035411366   493.6360   2   7   0.0931   0.0823   0.2145  -0.0257   0.0320   0.0316   0.00    1.4
2018/03/15 10:50:31.000   78.246538557   16.035411481   493.6413   2   7   0.0924   0.0819   0.2126  -0.0252   0.0316   0.0310   0.00    1.4
2018/03/15 10:50:32.000   78.246538580   16.035411080   493.6328   2   7   0.0916   0.0815   0.2106  -0.0247   0.0312   0.0304   0.00    1.4
2018/03/15 10:50:33.000   78.246538583   16.035410680   493.6171   2   7   0.0909   0.0811   0.2088  -0.0242   0.0308   0.0297   0.00    1.4
2018/03/15 10:50:34.000   78.246538560   16.035410533   493.6325   2   7   0.0902   0.0808   0.2069  -0.0237   0.0305   0.0291   0.00    1.4
2018/03/15 10:50:35.000   78.246538572   16.035410891   493.6685   2   7   0.0896   0.0804   0.2051  -0.0232   0.0301   0.0284   0.00    1.4
2018/03/15 10:50:36.000   78.246538630   16.035411189   493.6904   2   7   0.0889   0.0800   0.2033  -0.0227   0.0297   0.0278   0.00    1.5
2018/03/15 10:50:37.000   78.246538677   16.035410903   493.6999   2   7   0.0882   0.0796   0.2015  -0.0222   0.0293   0.0272   0.00    1.5
2018/03/15 10:50:38.000   78.246538714   16.035410860   493.6847   2   7   0.0876   0.0792   0.1998  -0.0217   0.0290   0.0265   0.00    1.5
2018/03/15 10:50:39.000   78.246538713   16.035410626   493.6795   2   7   0.0869   0.0789   0.1981  -0.0213   0.0286   0.0259   0.00    1.5
2018/03/15 10:50:40.000   78.246538736   16.035410580   493.6847   2   7   0.0863   0.0785   0.1964  -0.0208   0.0283   0.0253   0.00    1.5
2018/03/15 10:50:41.000   78.246538792   16.035410692   493.6920   2   7   0.0857   0.0782   0.1948  -0.0203   0.0279   0.0247   0.00    1.5
2018/03/15 10:50:42.000   78.246538815   16.035410874   493.7140   2   7   0.0850   0.0778   0.1931  -0.0199   0.0276   0.0240   0.00    1.5
2018/03/15 10:50:43.000   78.246538890   16.035410925   493.7487   2   7   0.0844   0.0775   0.1915  -0.0194   0.0273   0.0234   0.00    1.5
2018/03/15 10:50:44.000   78.246538905   16.035410629   493.7589   2   7   0.0838   0.0771   0.1899  -0.0189   0.0270   0.0228   0.00    1.5
2018/03/15 10:50:45.000   78.246538912   16.035410435   493.7387   2   7   0.0833   0.0768   0.1884  -0.0185   0.0266   0.0222   0.00    1.5
2018/03/15 10:50:46.000   78.246538929   16.035410121   493.7247   2   7   0.0827   0.0764   0.1868  -0.0180   0.0263   0.0216   0.00    1.5
2018/03/15 10:50:47.000   78.246538950   16.035410200   493.7311   2   7   0.0821   0.0761   0.1853  -0.0176   0.0260   0.0210   0.00    1.5
2018/03/15 10:50:48.000   78.246538992   16.035410420   493.7471   2   7   0.0815   0.0758   0.1838  -0.0171   0.0257   0.0203   0.00    1.5
2018/03/15 10:50:49.000   78.246538961   16.035410428   493.7681   2   7   0.0810   0.0754   0.1824  -0.0167   0.0254   0.0197   0.00    1.5
2018/03/15 10:50:50.000   78.246538931   16.035410165   493.7764   2   7   0.0804   0.0751   0.1809  -0.0162   0.0251   0.0191   0.00    1.5
2018/03/15 10:50:51.000   78.246538932   16.035410245   493.8022   2   7   0.0799   0.0748   0.1795  -0.0158   0.0248   0.0185   0.00    1.5
2018/03/15 10:50:52.000   78.246538857   16.035410556   493.8295   2   7   0.0794   0.0745   0.1781  -0.0153   0.0245   0.0178   0.00    1.5
2018/03/15 10:50:53.000   78.246538776   16.035410833   493.8572   2   7   0.0789   0.0742   0.1767  -0.0148   0.0242   0.0172   0.00    1.5
2018/03/15 10:50:54.000   78.246538745   16.035411028   493.8616   2   7   0.0783   0.0738   0.1753  -0.0144   0.0240   0.0166   0.00    1.5
2018/03/15 10:50:55.000   78.246538753   16.035410831   493.8652   2   7   0.0778   0.0735   0.1740  -0.0139   0.0237   0.0159   0.00    1.5
2018/03/15 10:50:56.000   78.246538796   16.035410850   493.8616   2   7   0.0773   0.0732   0.1726  -0.0135   0.0234   0.0153   0.00    1.5
2018/03/15 10:50:57.000   78.246538808   16.035410490   493.8662   2   7   0.0768   0.0729   0.1713  -0.0130   0.0231   0.0146   0.00    1.5
2018/03/15 10:50:58.000   78.246538803   16.035410524   493.8828   2   7   0.0763   0.0726   0.1700  -0.0125   0.0229   0.0140   0.00    1.5
2018/03/15 10:50:59.000   78.246538781   16.035410697   493.9166   2   7   0.0759   0.0723   0.1687  -0.0121   0.0226   0.0133   0.00    1.5
2018/03/15 10:51:00.000   78.246538757   16.035411062   493.9375   2   7   0.0754   0.0720   0.1675  -0.0116   0.0224   0.0126   0.00    1.5
2018/03/15 10:51:01.000   78.246538775   16.035410889   493.9326   2   7   0.0749   0.0717   0.1662  -0.0111   0.0221   0.0119   0.00    1.5
2018/03/15 10:51:02.000   78.246538843   16.035410203   493.9343   2   7   0.0744   0.0714   0.1650  -0.0106   0.0219   0.0111   0.00    1.5
2018/03/15 10:51:03.000   78.246538913   16.035410520   493.9503   2   7   0.0740   0.0712   0.1638  -0.0101   0.0216   0.0104   0.00    1.5
2018/03/15 10:51:04.000   78.246538966   16.035410664   493.9852   2   7   0.0735   0.0709   0.1626  -0.0096   0.0214   0.0096   0.00    1.5
2018/03/15 10:51:05.000   78.246538973   16.035410567   494.0009   2   7   0.0731   0.0706   0.1614  -0.0090   0.0211   0.0087   0.00    1.5
2018/03/15 10:51:06.000   78.246539011   16.035410348   493.9955   2   7   0.0726   0.0703   0.1602  -0.0085   0.0209   0.0078   0.00    1.5
2018/03/15 10:51:07.000   78.246539013   16.035410254   493.9974   2   7   0.0722   0.0700   0.1591  -0.0079   0.0207   0.0069   0.00    1.5
2018/03/15 10:51:08.000   78.246538998   16.035410230   494.0048   2   7   0.0718   0.0698   0.1579  -0.0073   0.0204   0.0058   0.00    1.5
2018/03/15 10:51:09.000   78.246538960   16.035409958   494.0091   2   7   0.0714   0.0695   0.1568  -0.0067   0.0202   0.0044   0.00    1.5
2018/03/15 10:51:10.000   78.246538974   16.035409726   494.0207   2   7   0.0709   0.0692   0.1557  -0.0060   0.0200   0.0025   0.00    1.5
2018/03/15 10:51:11.000   78.246539022   16.035409741   494.0308   2   7   0.0705   0.0690   0.1546  -0.0052   0.0198  -0.0025   0.00    1.5
2018/03/15 10:51:12.000   78.246539046   16.035410262   494.0556   2   7   0.0701   0.0687   0.1535  -0.0044   0.0196  -0.0043   0.00    1.6
2018/03/15 10:51:13.000   78.246539018   16.035410656   494.0744   2   7   0.0697   0.0684   0.1525  -0.0033   0.0194  -0.0055   0.00    1.6
2018/03/15 10:51:14.000   78.246538885   16.035410810   494.0785   2   7   0.0693   0.0682   0.1514  -0.0018   0.0191  -0.0065   0.00    1.5
2018/03/15 10:51:15.000   78.246538767   16.035410894   494.0862   2   7   0.0689   0.0679   0.1504   0.0021   0.0189  -0.0073   0.00    1.5
2018/03/15 10:51:16.000   78.246538707   16.035410870   494.1016   2   7   0.0685   0.0677   0.1493   0.0034   0.0187  -0.0080   0.00    1.6
2018/03/15 10:51:17.000   78.246538719   16.035411045   494.1107   2   7   0.0681   0.0674   0.1483   0.0044   0.0185  -0.0086   0.00    1.6
2018/03/15 10:51:18.000   78.246538708   16.035411087   494.1075   2   7   0.0678   0.0672   0.1473   0.0051   0.0183  -0.0092   0.00    1.6
2018/03/15 10:51:19.000   78.246538664   16.035410910   494.1033   2   7   0.0674   0.0669   0.1463   0.0057   0.0181  -0.0097   0.00    1.6
2018/03/15 10:51:20.000   78.246538639   16.035410902   494.1089   2   7   0.0670   0.0667   0.1454   0.0063   0.0179  -0.0102   0.00    1.6
2018/03/15 10:51:21.000   78.246538639   16.035411184   494.1256   2   7   0.0666   0.0664   0.1444   0.0068   0.0178  -0.0106   0.00    1.6
2018/03/15 10:51:22.000   78.246538640   16.035411385   494.1376   2   7   0.0663   0.0662   0.1434   0.0072   0.0176  -0.0111   0.00    1.6
2018/03/15 10:51:23.000   78.246538629   16.035411528   494.1395   2   7   0.0659   0.0659   0.1425   0.0077   0.0174  -0.0114   0.00    1.6
2018/03/15 10:51:24.000   78.246538678   16.035411251   494.1328   2   7   0.0656   0.0657   0.1416   0.0080   0.0172  -0.0118   0.00    1.6
2018/03/15 10:51:25.000   78.246538716   16.035410872   494.1169   2   7   0.0652   0.0655   0.1406   0.0084   0.0170  -0.0121   0.00    1.6
2018/03/15 10:51:26.000   78.246538791   16.035410876   494.1206   2   7   0.0649   0.0652   0.1397   0.0087   0.0168  -0.0124   0.00    1.6
2018/03/15 10:51:27.000   78.246538885   16.035411191   494.1315   2   7   0.0645   0.0650   0.1388   0.0090   0.0167  -0.0127   0.00    1.6
2018/03/15 10:51:28.000   78.246538987   16.035411407   494.1256   2   7   0.0642   0.0648   0.1379   0.0093   0.0165  -0.0130   0.00    1.6
2018/03/15 10:51:29.000   78.246539042   16.035411359   494.1136   2   7   0.0638   0.0645   0.1371   0.0096   0.0163  -0.0133   0.00    1.6
2018/03/15 10:51:30.000   78.246539061   16.035410918   494.0953   2   7   0.0635   0.0643   0.1362   0.0099   0.0162  -0.0135   0.00    1.6
2018/03/15 10:51:31.000   78.246539077   16.035410668   494.0921   2   7   0.0632   0.0641   0.1353   0.0101   0.0160  -0.0138   0.00    1.6
2018/03/15 10:51:32.000   78.246539089   16.035410957   494.1051   2   7   0.0629   0.0639   0.1345   0.0104   0.0158  -0.0140   0.00    1.6
2018/03/15 10:51:33.000   78.246539041   16.035411164   494.1181   2   7   0.0625   0.0636   0.1336   0.0106   0.0157  -0.0142   0.00    1.6
2018/03/15 10:51:34.000   78.246538960   16.035411068   494.1222   2   7   0.0622   0.0634   0.1328   0.0108   0.0155  -0.0144   0.00    1.6
2018/03/15 10:51:35.000   78.246538846   16.035410699   494.1229   2   7   0.0619   0.0632   0.1320   0.0110   0.0154  -0.0146   0.00    1.6
2018/03/15 10:51:36.000   78.246538718   16.035410568   494.1414   2   7   0.0616   0.0630   0.1312   0.0112   0.0152  -0.0148   0.00    1.6
2018/03/15 10:51:37.000   78.246538608   16.035410943   494.1629   2   7   0.0613   0.0628   0.1304   0.0114   0.0151  -0.0150   0.00    1.6
2018/03/15 10:51:38.000   78.246538561   16.035411003   494.1682   2   7   0.0610   0.0626   0.1296   0.0116   0.0149  -0.0151   0.00    1.6
2018/03/15 10:51:39.000   78.246538525   16.035410852   494.1586   2   7   0.0607   0.0623   0.1288   0.0117   0.0148  -0.0153   0.00    1.6
2018/03/15 10:51:40.000   78.246538516   16.035410642   494.1539   2   7   0.0604   0.0621   0.1280   0.0119   0.0146  -0.0154   0.00    1.7
2018/03/15 10:51:41.000   78.246538498   16.035410831   494.1495   2   7   0.0601   0.0619   0.1272   0.0121   0.0145  -0.0156   0.00    1.7
2018/03/15 10:51:42.000   78.246538453   16.035410898   494.1497   2   7   0.0598   0.0617   0.1265   0.0122   0.0143  -0.0157   0.00    1.7
2018/03/15 10:51:43.000   78.246538411   16.035410505   494.1447   2   7   0.0595   0.0615   0.1257   0.0124   0.0142  -0.0159   0.00    1.7
2018/03/15 10:51:44.000   78.246538426   16.035410337   494.1304   2   7   0.0592   0.0613   0.1250   0.0125   0.0141  -0.0160   0.00    1.7
2018/03/15 10:51:45.000   78.246538481   16.035410314   494.1251   2   7   0.0589   0.0611   0.1242   0.0126   0.0139  -0.0161   0.00    1.7
2018/03/15 10:51:46.000   78.246538507   16.035410141   494.1305   2   7   0.0587   0.0609   0.1235   0.0128   0.0138  -0.0162   0.00    1.7
2018/03/15 10:51:47.000   78.246538522   16.035410051   494.1289   2   7   0.0584   0.0607   0.1228   0.0129   0.0137  -0.0163   0.00    1.7
2018/03/15 10:51:48.000   78.246538517   16.035409879   494.1224   2   7   0.0581   0.0605   0.1221   0.0130   0.0135  -0.0164   0.00    1.7
2018/03/15 10:51:49.000   78.246538567   16.035409906   494.1259   2   7   0.0578   0.0603   0.1214   0.0131   0.0134  -0.0165   0.00    1.7
2018/03/15 10:51:50.000   78.246538622   16.035410143   494.1320   2   7   0.0576   0.0601   0.1207   0.0133   0.0133  -0.0166   0.00    1.7
2018/03/15 10:51:51.000   78.246538648   16.035410229   494.1354   2   7   0.0573   0.0599   0.1200   0.0134   0.0132  -0.0167   0.00    1.7
2018/03/15 10:51:52.000   78.246538636   16.035410357   494.1394   2   7   0.0570   0.0597   0.1193   0.0135   0.0131  -0.0168   0.00    1.7
2018/03/15 10:51:53.000   78.246538566   16.035410417   494.1445   2   7   0.0568   0.0595   0.1186   0.0136   0.0129  -0.0169   0.00    1.7
2018/03/15 10:51:54.000   78.246538452   16.035410256   494.1429   2   7   0.0565   0.0594   0.1180   0.0137   0.0128  -0.0169   0.00    1.7
2018/03/15 10:51:55.000   78.246538389   16.035409688   494.1367   2   7   0.0563   0.0592   0.1173   0.0138   0.0127  -0.0170   0.00    1.7
2018/03/15 10:51:56.000   78.246538405   16.035409741   494.1393   2   7   0.0560   0.0590   0.1166   0.0139   0.0126  -0.0171   0.00    1.7
2018/03/15 10:51:57.000   78.246538487   16.035410226   494.1518   2   7   0.0558   0.0588   0.1160   0.0139   0.0125  -0.0171   0.00    1.8
2018/03/15 10:51:58.000   78.246538516   16.035410632   494.1635   2   7   0.0555   0.0586   0.1154   0.0140   0.0124  -0.0172   0.00    1.8
2018/03/15 10:51:59.000   78.246538485   16.035410568   494.1681   2   7   0.0553   0.0584   0.1147   0.0141   0.0123  -0.0172   0.00    1.8
2018/03/15 10:52:00.000   78.246538434   16.035410330   494.1685   2   7   0.0550   0.0582   0.1141   0.0142   0.0122  -0.0173   0.00    1.8
2018/03/15 10:52:01.000   78.246538391   16.035410553   494.1814   2   7   0.0548   0.0581   0.1135   0.0143   0.0121  -0.0174   0.00    1.8
2018/03/15 10:52:02.000   78.246538376   16.035410888   494.1962   2   7   0.0545   0.0579   0.1129   0.0143   0.0120  -0.0174   0.00    1.8
2018/03/15 10:52:03.000   78.246538384   16.035411015   494.2021   2   7   0.0543   0.0577   0.1122   0.0144   0.0118  -0.0174   0.00    1.8
2018/03/15 10:52:04.000   78.246538408   16.035410679   494.1857   2   7   0.0541   0.0575   0.1116   0.0145   0.0118  -0.0175   0.00    1.8
2018/03/15 10:52:05.000   78.246538442   16.035410314   494.1729   2   7   0.0538   0.0574   0.1110   0.0145   0.0117  -0.0175   0.00    1.8
2018/03/15 10:52:06.000   78.246538440   16.035410488   494.1768   2   7   0.0536   0.0572   0.1104   0.0146   0.0116  -0.0176   0.00    1.8
2018/03/15 10:52:07.000   78.246538473   16.035410936   494.1889   2   7   0.0534   0.0570   0.1099   0.0147   0.0115  -0.0176   0.00    1.8
2018/03/15 10:52:08.000   78.246538433   16.035411135   494.2029   2   7   0.0531   0.0568   0.1093   0.0147   0.0114  -0.0176   0.00    1.8
2018/03/15 10:52:09.000   78.246538375   16.035411110   494.2112   2   7   0.0529   0.0567   0.1087   0.0148   0.0113  -0.0177   0.00    1.8
2018/03/15 10:52:10.000   78.246538362   16.035410851   494.2092   2   7   0.0527   0.0565   0.1081   0.0148   0.0112  -0.0177   0.00    1.8
2018/03/15 10:52:11.000   78.246538388   16.035410809   494.2130   2   7   0.0525   0.0563   0.1076   0.0149   0.0111  -0.0177   0.00    1.8
2018/03/15 10:52:12.000   78.246538391   16.035410932   494.2266   2   7   0.0523   0.0562   0.1070   0.0149   0.0110  -0.0177   0.00    1.9
2018/03/15 10:52:13.000   78.246538401   16.035411116   494.2359   2   7   0.0520   0.0560   0.1065   0.0150   0.0109  -0.0178   0.00    1.9
2018/03/15 10:52:14.000   78.246538360   16.035411270   494.2434   2   7   0.0518   0.0558   0.1059   0.0150   0.0109  -0.0178   0.00    1.9
2018/03/15 10:52:15.000   78.246538329   16.035411278   494.2384   2   7   0.0516   0.0557   0.1054   0.0151   0.0108  -0.0178   0.00    1.9
2018/03/15 10:52:16.000   78.246538331   16.035411114   494.2329   2   7   0.0514   0.0555   0.1048   0.0151   0.0107  -0.0178   0.00    1.9
2018/03/15 10:52:17.000   78.246538336   16.035411142   494.2304   2   7   0.0512   0.0553   0.1043   0.0152   0.0106  -0.0178   0.00    1.9
2018/03/15 10:52:18.000   78.246538332   16.035411333   494.2373   2   7   0.0510   0.0552   0.1038   0.0152   0.0105  -0.0178   0.00    1.9
2018/03/15 10:52:19.000   78.246538314   16.035411668   494.2518   2   7   0.0508   0.0550   0.1032   0.0153   0.0105  -0.0179   0.00    1.9
2018/03/15 10:52:20.000   78.246538315   16.035411814   494.2575   2   7   0.0506   0.0548   0.1027   0.0153   0.0104  -0.0179   0.00    1.9
2018/03/15 10:52:21.000   78.246538332   16.035411759   494.2507   2   7   0.0504   0.0547   0.1022   0.0153   0.0103  -0.0179   0.00    1.9
2018/03/15 10:52:22.000   78.246538369   16.035411607   494.2386   2   7   0.0502   0.0545   0.1017   0.0154   0.0102  -0.0179   0.00    1.9
2018/03/15 10:52:23.000   78.246538389   16.035411562   494.2359   2   7   0.0500   0.0544   0.1012   0.0154   0.0102  -0.0179   0.00    2.0
2018/03/15 10:52:24.000   78.246538413   16.035411936   494.2392   2   7   0.0498   0.0542   0.1007   0.0154   0.0101  -0.0179   0.00    2.0
2018/03/15 10:52:25.000   78.246538422   16.035412080   494.2434   2   7   0.0496   0.0541   0.1002   0.0155   0.0100  -0.0179   0.00    2.0
2018/03/15 10:52:26.000   78.246538421   16.035412065   494.2420   2   7   0.0494   0.0539   0.0997   0.0155   0.0100  -0.0179   0.00    2.0
2018/03/15 10:52:27.000   78.246538423   16.035411993   494.2355   2   7   0.0492   0.0538   0.0992   0.0155   0.0099  -0.0179   0.00    2.0
2018/03/15 10:52:28.000   78.246538429   16.035412002   494.2393   2   7   0.0490   0.0536   0.0988   0.0155   0.0099  -0.0179   0.00    2.0
2018/03/15 10:52:29.000   78.246538428   16.035412249   494.2480   2   7   0.0488   0.0535   0.0983   0.0156   0.0098  -0.0179   0.00    2.0
2018/03/15 10:52:30.000   78.246538406   16.035412307   494.2537   2   7   0.0486   0.0533   0.0978   0.0156   0.0097  -0.0179   0.00    2.0
2018/03/15 10:52:31.000   78.246538377   16.035412323   494.2566   2   7   0.0484   0.0532   0.0973   0.0156   0.0097  -0.0179   0.00    2.0
2018/03/15 10:52:32.000   78.246538346   16.035412302   494.2542   2   7   0.0483   0.0530   0.0969   0.0156   0.0096  -0.0179   0.00    2.0
2018/03/15 10:52:33.000   78.246538297   16.035412457   494.2524   2   7   0.0481   0.0529   0.0964   0.0157   0.0096  -0.0179   0.00    2.1
2018/03/15 10:52:34.000   78.246538251   16.035412647   494.2561   2   7   0.0479   0.0527   0.0960   0.0157   0.0095  -0.0178   0.00    2.1
2018/03/15 10:52:35.000   78.246538207   16.035412974   494.2613   2   7   0.0477   0.0526   0.0955   0.0157   0.0095  -0.0178   0.00    2.1
2018/03/15 10:52:36.000   78.246538194   16.035413130   494.2621   2   7   0.0475   0.0524   0.0951   0.0157   0.0094  -0.0178   0.00    2.1
2018/03/15 10:52:37.000   78.246538197   16.035413284   494.2612   2   7   0.0474   0.0523   0.0946   0.0157   0.0094  -0.0178   0.00    2.1
2018/03/15 10:52:38.000   78.246538184   16.035413377   494.2630   2   7   0.0472   0.0521   0.0942   0.0158   0.0093  -0.0178   0.00    2.1
2018/03/15 10:52:39.000   78.246538173   16.035413365   494.2582   2   7   0.0470   0.0520   0.0937   0.0158   0.0093  -0.0178   0.00    2.1
2018/03/15 10:52:40.000   78.246538164   16.035413306   494.2525   2   7   0.0468   0.0519   0.0933   0.0158   0.0092  -0.0178   0.00    2.1
2018/03/15 10:52:41.000   78.246538198   16.035413384   494.2513   2   7   0.0467   0.0517   0.0929   0.0158   0.0092  -0.0178   0.00    2.1
2018/03/15 10:52:42.000   78.246538253   16.035413580   494.2541   2   7   0.0465   0.0516   0.0925   0.0158   0.0091  -0.0177   0.00    2.1
2018/03/15 10:52:43.000   78.246538333   16.035413713   494.2541   2   7   0.0463   0.0514   0.0920   0.0158   0.0091  -0.0177   0.00    2.1
2018/03/15 10:52:44.000   78.246538390   16.035413709   494.2484   2   7   0.0462   0.0513   0.0916   0.0158   0.0090  -0.0177   0.00    2.2
2018/03/15 10:52:45.000   78.246538442   16.035413665   494.2378   2   7   0.0460   0.0512   0.0912   0.0159   0.0090  -0.0177   0.00    2.2
2018/03/15 10:52:46.000   78.246538455   16.035413828   494.2369   2   7   0.0458   0.0510   0.0908   0.0159   0.0090  -0.0177   0.00    2.2
2018/03/15 10:52:47.000   78.246538481   16.035414093   494.2393   2   7   0.0457   0.0509   0.0904   0.0159   0.0089  -0.0177   0.00    2.2
2018/03/15 10:52:48.000   78.246538518   16.035414414   494.2436   2   7   0.0455   0.0508   0.0900   0.0159   0.0089  -0.0176   0.00    2.2
2018/03/15 10:52:49.000   78.246538547   16.035414567   494.2459   2   7   0.0454   0.0506   0.0896   0.0159   0.0088  -0.0176   0.00    2.2
2018/03/15 10:52:50.000   78.246538543   16.035414514   494.2404   2   7   0.0452   0.0505   0.0892   0.0159   0.0088  -0.0176   0.00    2.2
2018/03/15 10:52:51.000   78.246538495   16.035414443   494.2315   2   7   0.0450   0.0504   0.0888   0.0159   0.0088  -0.0176   0.00    2.2
2018/03/15 10:52:52.000   78.246538442   16.035414437   494.2297   2   7   0.0449   0.0502   0.0884   0.0159   0.0087  -0.0176   0.00    2.2
2018/03/15 10:52:53.000   78.246538400   16.035414547   494.2318   2   7   0.0447   0.0501   0.0880   0.0159   0.0087  -0.0175   0.00    2.2
2018/03/15 10:52:54.000   78.246538381   16.035414745   494.2332   2   7   0.0446   0.0500   0.0876   0.0159   0.0087  -0.0175   0.00    2.2
2018/03/15 10:52:55.000   78.246538372   16.035415001   494.2346   2   7   0.0444   0.0498   0.0873   0.0159   0.0086  -0.0175   0.00    2.3
2018/03/15 10:52:56.000   78.246538366   16.035415146   494.2353   2   7   0.0443   0.0497   0.0869   0.0159   0.0086  -0.0175   0.00    2.3
2018/03/15 10:52:57.000   78.246538365   16.035415148   494.2357   2   7   0.0441   0.0496   0.0865   0.0159   0.0086  -0.0174   0.00    2.3
2018/03/15 10:52:58.000   78.246538377   16.035415296   494.2322   2   7   0.0440   0.0495   0.0861   0.0159   0.0086  -0.0174   0.00    2.3
2018/03/15 10:52:59.000   78.246538385   16.035415410   494.2338   2   7   0.0438   0.0493   0.0858   0.0159   0.0085  -0.0174   0.00    2.3
2018/03/15 10:53:00.000   78.246538406   16.035415578   494.2362   2   7   0.0437   0.0492   0.0854   0.0160   0.0085  -0.0174   0.00    2.3
2018/03/15 10:53:01.000   78.246538430   16.035415611   494.2294   2   7   0.0435   0.0491   0.0850   0.0160   0.0085  -0.0173   0.00    2.3
2018/03/15 10:53:02.000   78.246538422   16.035415461   494.2172   2   7   0.0434   0.0490   0.0847   0.0160   0.0084  -0.0173   0.00    2.3
2018/03/15 10:53:03.000   78.246538396   16.035415177   494.2099   2   7   0.0432   0.0488   0.0843   0.0160   0.0084  -0.0173   0.00    2.3
2018/03/15 10:53:04.000   78.246538453   16.035415185   494.2073   2   7   0.0431   0.0487   0.0840   0.0160   0.0084  -0.0172   0.00    2.3
2018/03/15 10:53:05.000   78.246538543   16.035415507   494.2120   2   7   0.0430   0.0486   0.0836   0.0160   0.0084  -0.0172   0.00    2.4
2018/03/15 10:53:06.000   78.246538661   16.035415981   494.2140   2   7   0.0428   0.0485   0.0833   0.0160   0.0084  -0.0172   0.00    2.4
2018/03/15 10:53:07.000   78.246538720   16.035416255   494.2134   2   7   0.0427   0.0483   0.0829   0.0159   0.0083  -0.0172   0.00    2.4
2018/03/15 10:53:08.000   78.246538742   16.035416160   494.2009   2   7   0.0425   0.0482   0.0826   0.0159   0.0083  -0.0171   0.00    2.4
2018/03/15 10:53:09.000   78.246538740   16.035415964   494.1915   2   7   0.0424   0.0481   0.0822   0.0159   0.0083  -0.0171   0.00    2.4
2018/03/15 10:53:10.000   78.246538745   16.035416244   494.1909   2   7   0.0423   0.0480   0.0819   0.0159   0.0083  -0.0171   0.00    2.4
2018/03/15 10:53:11.000   78.246538776   16.035416566   494.1925   2   7   0.0421   0.0479   0.0816   0.0159   0.0083  -0.0170   0.00    2.4
2018/03/15 10:53:12.000   78.246538788   16.035416686   494.1915   2   7   0.0420   0.0477   0.0812   0.0159   0.0082  -0.0170   0.00    2.4
2018/03/15 10:53:13.000   78.246538779   16.035416744   494.1855   2   7   0.0419   0.0476   0.0809   0.0159   0.0082  -0.0170   0.00    2.4
2018/03/15 10:53:14.000   78.246538753   16.035416681   494.1806   2   7   0.0417   0.0475   0.0806   0.0159   0.0082  -0.0169   0.00    2.5
2018/03/15 10:53:15.000   78.246538746   16.035416756   494.1822   2   7   0.0416   0.0474   0.0803   0.0159   0.0082  -0.0169   0.00    2.5
2018/03/15 10:53:16.000   78.246538726   16.035416928   494.1879   2   7   0.0415   0.0473   0.0799   0.0159   0.0082  -0.0169   0.00    2.5
2018/03/15 10:53:17.000   78.246538699   16.035417216   494.1880   2   7   0.0413   0.0472   0.0796   0.0159   0.0082  -0.0169   0.00    2.5
2018/03/15 10:53:18.000   78.246538679   16.035417364   494.1897   2   7   0.0412   0.0471   0.0793   0.0159   0.0082  -0.0168   0.00    2.5
2018/03/15 10:53:19.000   78.246538683   16.035417479   494.1904   2   7   0.0411   0.0469   0.0790   0.0159   0.0082  -0.0168   0.00    2.5
2018/03/15 10:53:20.000   78.246538685   16.035417477   494.1922   2   7   0.0409   0.0468   0.0787   0.0159   0.0081  -0.0168   0.00    2.5
2018/03/15 10:53:21.000   78.246538715   16.035417419   494.1909   2   7   0.0408   0.0467   0.0784   0.0159   0.0081  -0.0167   0.00    2.5
2018/03/15 10:53:22.000   78.246538772   16.035417607   494.1891   2   7   0.0407   0.0466   0.0781   0.0159   0.0081  -0.0167   0.00    2.5
2018/03/15 10:53:23.000   78.246538823   16.035417737   494.1897   2   7   0.0406   0.0465   0.0778   0.0159   0.0081  -0.0167   0.00    2.5
2018/03/15 10:53:24.000   78.246538844   16.035417861   494.1872   2   7   0.0404   0.0464   0.0775   0.0159   0.0081  -0.0166   0.00    2.5
2018/03/15 10:53:25.000   78.246538830   16.035417856   494.1791   2   7   0.0403   0.0463   0.0772   0.0159   0.0081  -0.0166   0.00    2.5
2018/03/15 10:53:26.000   78.246538829   16.035417715   494.1647   2   7   0.0402   0.0462   0.0769   0.0158   0.0081  -0.0166   0.00    2.5
2018/03/15 10:53:27.000   78.246538878   16.035417663   494.1594   2   7   0.0401   0.0461   0.0766   0.0158   0.0081  -0.0165   0.00    2.6
2018/03/15 10:53:28.000   78.246538959   16.035418027   494.1588   2   7   0.0400   0.0459   0.0763   0.0158   0.0081  -0.0165   0.00    2.6
2018/03/15 10:53:29.000   78.246539015   16.035418261   494.1621   2   7   0.0398   0.0458   0.0760   0.0158   0.0081  -0.0164   0.00    2.6
2018/03/15 10:53:30.000   78.246539023   16.035418303   494.1572   2   7   0.0397   0.0457   0.0757   0.0158   0.0081  -0.0164   0.00    2.6
2018/03/15 10:53:31.000   78.246539012   16.035418159   494.1448   2   7   0.0396   0.0456   0.0754   0.0158   0.0081  -0.0164   0.00    2.6
2018/03/15 10:53:32.000   78.246538997   16.035418067   494.1394   2   7   0.0395   0.0455   0.0751   0.0158   0.0081  -0.0163   0.00    2.6
2018/03/15 10:53:33.000   78.246539006   16.035418454   494.1426   2   7   0.0394   0.0454   0.0748   0.0158   0.0080  -0.0163   0.00    2.6
2018/03/15 10:53:34.000   78.246539011   16.035418757   494.1457   2   7   0.0392   0.0453   0.0746   0.0158   0.0080  -0.0163   0.00    2.6
2018/03/15 10:53:35.000   78.246538993   16.035418839   494.1486   2   7   0.0391   0.0452   0.0743   0.0158   0.0080  -0.0162   0.00    2.6
2018/03/15 10:53:36.000   78.246538975   16.035418812   494.1468   2   7   0.0390   0.0451   0.0740   0.0158   0.0080  -0.0162   0.00    2.6
2018/03/15 10:53:37.000   78.246538969   16.035418721   494.1372   2   7   0.0389   0.0450   0.0737   0.0157   0.0080  -0.0162   0.00    2.6
2018/03/15 10:53:38.000   78.246538953   16.035418596   494.1288   2   7   0.0388   0.0449   0.0735   0.0157   0.0080  -0.0161   0.00    2.6
2018/03/15 10:53:39.000   78.246538947   16.035418577   494.1262   2   7   0.0387   0.0448   0.0732   0.0157   0.0080  -0.0161   0.00    2.6
2018/03/15 10:53:40.000   78.246538931   16.035418534   494.1258   2   7   0.0386   0.0447   0.0729   0.0157   0.0080  -0.0161   0.00    2.6
2018/03/15 10:53:41.000   78.246538926   16.035418624   494.1282   2   7   0.0385   0.0446   0.0726   0.0157   0.0080  -0.0160   0.00    2.6
2018/03/15 10:53:42.000   78.246538937   16.035418766   494.1307   2   7   0.0383   0.0445   0.0724   0.0157   0.0080  -0.0160   0.00    2.6
2018/03/15 10:53:43.000   78.246538946   16.035418799   494.1323   2   7   0.0382   0.0444   0.0721   0.0157   0.0080  -0.0160   0.00    2.6
2018/03/15 10:53:44.000   78.246538953   16.035418764   494.1281   2   7   0.0381   0.0443   0.0719   0.0157   0.0080  -0.0159   0.00    2.7
2018/03/15 10:53:45.000   78.246538972   16.035418840   494.1267   2   7   0.0380   0.0442   0.0716   0.0156   0.0080  -0.0159   0.00    2.7
2018/03/15 10:53:46.000   78.246538996   16.035419081   494.1298   2   7   0.0379   0.0441   0.0713   0.0156   0.0080  -0.0158   0.00    2.7
2018/03/15 10:53:47.000   78.246539020   16.035419312   494.1317   2   7   0.0378   0.0440   0.0711   0.0156   0.0080  -0.0158   0.00    2.7
2018/03/15 10:53:48.000   78.246539034   16.035419435   494.1298   2   7   0.0377   0.0439   0.0708   0.0156   0.0080  -0.0158   0.00    2.7
2018/03/15 10:53:49.000   78.246539026   16.035419291   494.1246   2   7   0.0376   0.0438   0.0706   0.0156   0.0080  -0.0157   0.00    2.7
2018/03/15 10:53:50.000   78.246539048   16.035418971   494.1124   2   7   0.0375   0.0437   0.0703   0.0156   0.0080  -0.0157   0.00    2.7
2018/03/15 10:53:51.000   78.246539064   16.035418877   494.1100   2   7   0.0374   0.0436   0.0701   0.0156   0.0080  -0.0157   0.00    2.7
2018/03/15 10:53:52.000   78.246539077   16.035419135   494.1122   2   7   0.0373   0.0435   0.0698   0.0156   0.0080  -0.0156   0.00    2.7
2018/03/15 10:53:53.000   78.246539064   16.035419293   494.1160   2   7   0.0372   0.0434   0.0696   0.0155   0.0080  -0.0156   0.00    2.7
2018/03/15 10:53:54.000   78.246539047   16.035419344   494.1145   2   7   0.0371   0.0433   0.0693   0.0155   0.0080  -0.0155   0.00    2.7
2018/03/15 10:53:55.000   78.246539023   16.035419093   494.1112   2   7   0.0370   0.0432   0.0691   0.0155   0.0080  -0.0155   0.00    2.7
2018/03/15 10:53:56.000   78.246539029   16.035419147   494.1125   2   7   0.0369   0.0431   0.0689   0.0155   0.0081  -0.0155   0.00    2.7
2018/03/15 10:53:57.000   78.246539031   16.035419274   494.1188   2   7   0.0368   0.0430   0.0686   0.0155   0.0081  -0.0154   0.00    2.7
2018/03/15 10:53:58.000   78.246539032   16.035419518   494.1228   2   7   0.0367   0.0430   0.0684   0.0155   0.0081  -0.0154   0.00    2.7
2018/03/15 10:53:59.000   78.246539025   16.035419562   494.1236   2   7   0.0366   0.0429   0.0682   0.0154   0.0081  -0.0154   0.00    2.7
2018/03/15 10:54:00.000   78.246539001   16.035419540   494.1179   2   7   0.0365   0.0428   0.0679   0.0154   0.0081  -0.0153   0.00    2.7
2018/03/15 10:54:01.000   78.246538971   16.035419374   494.1105   2   7   0.0364   0.0427   0.0677   0.0154   0.0081  -0.0153   0.00    2.7
2018/03/15 10:54:02.000   78.246538974   16.035419436   494.1098   2   7   0.0363   0.0426   0.0675   0.0154   0.0081  -0.0153   0.00    2.7
2018/03/15 10:54:03.000   78.246538989   16.035419707   494.1151   2   7   0.0362   0.0425   0.0672   0.0154   0.0081  -0.0152   0.00    2.7
2018/03/15 10:54:04.000   78.246539018   16.035419975   494.1183   2   7   0.0361   0.0424   0.0670   0.0154   0.0081  -0.0152   0.00    2.7
2018/03/15 10:54:05.000   78.246539050   16.035420155   494.1185   2   7   0.0360   0.0423   0.0668   0.0154   0.0081  -0.0151   0.00    2.7
2018/03/15 10:54:06.000   78.246539062   16.035420119   494.1148   2   7   0.0359   0.0422   0.0666   0.0153   0.0081  -0.0151   0.00    2.8
2018/03/15 10:54:07.000   78.246539068   16.035420011   494.1081   2   7   0.0358   0.0421   0.0663   0.0153   0.0081  -0.0151   0.00    2.8
2018/03/15 10:54:08.000   78.246539089   16.035420110   494.1058   2   7   0.0357   0.0420   0.0661   0.0153   0.0081  -0.0150   0.00    2.8
2018/03/15 10:54:09.000   78.246539105   16.035420312   494.1067   2   7   0.0356   0.0420   0.0659   0.0153   0.0081  -0.0150   0.00    2.8
2018/03/15 10:54:10.000   78.246539106   16.035420463   494.1081   2   7   0.0355   0.0419   0.0657   0.0153   0.0081  -0.0150   0.00    2.8
2018/03/15 10:54:11.000   78.246539098   16.035420461   494.1072   2   7   0.0354   0.0418   0.0655   0.0153   0.0081  -0.0149   0.00    2.8
2018/03/15 10:54:12.000   78.246539081   16.035420287   494.1002   2   7   0.0354   0.0417   0.0652   0.0152   0.0081  -0.0149   0.00    2.8
2018/03/15 10:54:13.000   78.246539079   16.035420035   494.0925   2   7   0.0353   0.0416   0.0650   0.0152   0.0081  -0.0148   0.00    2.8
2018/03/15 10:54:14.000   78.246539110   16.035420274   494.0935   2   7   0.0352   0.0415   0.0648   0.0152   0.0082  -0.0148   0.00    2.8
2018/03/15 10:54:15.000   78.246539145   16.035420753   494.0948   2   7   0.0351   0.0414   0.0646   0.0152   0.0082  -0.0148   0.00    2.8
2018/03/15 10:54:16.000   78.246539152   16.035421097   494.0944   2   7   0.0350   0.0414   0.0644   0.0152   0.0082  -0.0147   0.00    2.8
2018/03/15 10:54:17.000   78.246539143   16.035421104   494.0907   2   7   0.0349   0.0413   0.0642   0.0152   0.0082  -0.0147   0.00    2.8
2018/03/15 10:54:18.000   78.246539123   16.035420927   494.0818   2   7   0.0348   0.0412   0.0640   0.0151   0.0082  -0.0147   0.00    2.8
2018/03/15 10:54:19.000   78.246539132   16.035420948   494.0783   2   7   0.0347   0.0411   0.0638   0.0151   0.0082  -0.0146   0.00    2.8
2018/03/15 10:54:20.000   78.246539163   16.035421196   494.0792   2   7   0.0346   0.0410   0.0636   0.0151   0.0082  -0.0146   0.00    2.8
2018/03/15 10:54:21.000   78.246539197   16.035421382   494.0770   2   7   0.0346   0.0409   0.0634   0.0151   0.0082  -0.0146   0.00    2.8
2018/03/15 10:54:22.000   78.246539215   16.035421367   494.0735   2   7   0.0345   0.0409   0.0632   0.0151   0.0082  -0.0145   0.00    2.8
2018/03/15 10:54:23.000   78.246539226   16.035421246   494.0647   2   7   0.0344   0.0408   0.0630   0.0151   0.0082  -0.0145   0.00    2.8
2018/03/15 10:54:24.000   78.246539234   16.035421195   494.0598   2   7   0.0343   0.0407   0.0628   0.0150   0.0082  -0.0144   0.00    2.8
2018/03/15 10:54:25.000   78.246539260   16.035421223   494.0552   2   7   0.0342   0.0406   0.0626   0.0150   0.0082  -0.0144   0.00    2.8
2018/03/15 10:54:26.000   78.246539268   16.035421371   494.0554   2   7   0.0341   0.0405   0.0624   0.0150   0.0082  -0.0144   0.00    2.8
2018/03/15 10:54:27.000   78.246539272   16.035421448   494.0551   2   7   0.0341   0.0404   0.0622   0.0150   0.0083  -0.0143   0.00    2.8
2018/03/15 10:54:28.000   78.246539253   16.035421497   494.0519   2   7   0.0340   0.0404   0.0620   0.0150   0.0083  -0.0143   0.00    2.8
2018/03/15 10:54:29.000   78.246539236   16.035421492   494.0481   2   7   0.0339   0.0403   0.0618   0.0150   0.0083  -0.0143   0.00    2.8
2018/03/15 10:54:30.000   78.246539209   16.035421476   494.0476   2   7   0.0338   0.0402   0.0616   0.0149   0.0083  -0.0142   0.00    2.8
2018/03/15 10:54:31.000   78.246539199   16.035421624   494.0494   2   7   0.0337   0.0401   0.0614   0.0149   0.0083  -0.0142   0.00    2.9
2018/03/15 10:54:32.000   78.246539192   16.035421829   494.0523   2   7   0.0336   0.0400   0.0612   0.0149   0.0083  -0.0142   0.00    2.9
2018/03/15 10:54:33.000   78.246539178   16.035421930   494.0527   2   7   0.0336   0.0400   0.0610   0.0149   0.0083  -0.0141   0.00    2.9
2018/03/15 10:54:34.000   78.246539153   16.035422014   494.0506   2   7   0.0335   0.0399   0.0609   0.0149   0.0083  -0.0141   0.00    2.9
2018/03/15 10:54:35.000   78.246539134   16.035421964   494.0476   2   7   0.0334   0.0398   0.0607   0.0149   0.0083  -0.0140   0.00    2.9
2018/03/15 10:54:36.000   78.246539136   16.035422040   494.0467   2   7   0.0333   0.0397   0.0605   0.0148   0.0083  -0.0140   0.00    2.9
2018/03/15 10:54:37.000   78.246539151   16.035422197   494.0451   2   7   0.0332   0.0397   0.0603   0.0148   0.0083  -0.0140   0.00    2.9
2018/03/15 10:54:38.000   78.246539171   16.035422247   494.0445   2   7   0.0332   0.0396   0.0601   0.0148   0.0083  -0.0139   0.00    2.9
2018/03/15 10:54:39.000   78.246539172   16.035422230   494.0383   2   7   0.0331   0.0395   0.0599   0.0148   0.0084  -0.0139   0.00    2.9
2018/03/15 10:54:40.000   78.246539161   16.035422230   494.0311   2   7   0.0330   0.0394   0.0598   0.0148   0.0084  -0.0139   0.00    2.9
2018/03/15 10:54:41.000   78.246539149   16.035422231   494.0264   2   7   0.0329   0.0393   0.0596   0.0147   0.0084  -0.0138   0.00    2.9
2018/03/15 10:54:42.000   78.246539149   16.035422296   494.0279   2   7   0.0329   0.0393   0.0594   0.0147   0.0084  -0.0138   0.00    2.9
2018/03/15 10:54:43.000   78.246539173   16.035422405   494.0295   2   7   0.0328   0.0392   0.0592   0.0147   0.0084  -0.0138   0.00    2.9
2018/03/15 10:54:44.000   78.246539198   16.035422494   494.0319   2   7   0.0327   0.0391   0.0590   0.0147   0.0084  -0.0137   0.00    2.9
2018/03/15 10:54:45.000   78.246539207   16.035422560   494.0336   2   7   0.0326   0.0390   0.0589   0.0147   0.0084  -0.0137   0.00    2.9
2018/03/15 10:54:46.000   78.246539199   16.035422631   494.0345   2   7   0.0326   0.0390   0.0587   0.0147   0.0084  -0.0137   0.00    2.9
2018/03/15 10:54:47.000   78.246539179   16.035422592   494.0327   2   7   0.0325   0.0389   0.0585   0.0146   0.0084  -0.0136   0.00    2.9
2018/03/15 10:54:48.000   78.246539146   16.035422518   494.0289   2   7   0.0324   0.0388   0.0584   0.0146   0.0084  -0.0136   0.00    2.9
2018/03/15 10:54:49.000   78.246539108   16.035422491   494.0255   2   7   0.0323   0.0388   0.0582   0.0146   0.0084  -0.0135   0.00    2.9
2018/03/15 10:54:50.000   78.246539101   16.035422588   494.0251   2   7   0.0323   0.0387   0.0580   0.0146   0.0085  -0.0135   0.00    2.9
2018/03/15 10:54:51.000   78.246539110   16.035422662   494.0247   2   7   0.0322   0.0386   0.0578   0.0146   0.0085  -0.0135   0.00    2.9
2018/03/15 10:54:52.000   78.246539104   16.035422612   494.0258   2   7   0.0321   0.0385   0.0577   0.0145   0.0085  -0.0134   0.00    2.9
2018/03/15 10:54:53.000   78.246539093   16.035422619   494.0269   2   7   0.0320   0.0385   0.0575   0.0145   0.0085  -0.0134   0.00    2.9
2018/03/15 10:54:54.000   78.246539090   16.035422710   494.0275   2   7   0.0320   0.0384   0.0573   0.0145   0.0085  -0.0134   0.00    3.0
2018/03/15 10:54:55.000   78.246539099   16.035422939   494.0324   2   7   0.0319   0.0383   0.0572   0.0145   0.0085  -0.0133   0.00    3.0
2018/03/15 10:54:56.000   78.246539108   16.035423154   494.0364   2   7   0.0318   0.0383   0.0570   0.0145   0.0085  -0.0133   0.00    3.0
2018/03/15 10:54:57.000   78.246539110   16.035423251   494.0381   2   7   0.0318   0.0382   0.0569   0.0145   0.0085  -0.0133   0.00    3.0
2018/03/15 10:54:58.000   78.246539104   16.035423234   494.0340   2   7   0.0317   0.0381   0.0567   0.0144   0.0085  -0.0132   0.00    3.0
2018/03/15 10:54:59.000   78.246539079   16.035423133   494.0300   2   7   0.0316   0.0380   0.0565   0.0144   0.0085  -0.0132   0.00    3.0
2018/03/15 10:55:00.000   78.246539071   16.035423126   494.0279   2   7   0.0316   0.0380   0.0564   0.0144   0.0085  -0.0132   0.00    3.0
2018/03/15 10:55:01.000   78.246539069   16.035423235   494.0278   2   7   0.0315   0.0379   0.0562   0.0144   0.0086  -0.0131   0.00    3.0
2018/03/15 10:55:02.000   78.246539081   16.035423379   494.0275   2   7   0.0314   0.0378   0.0561   0.0144   0.0086  -0.0131   0.00    3.0
2018/03/15 10:55:03.000   78.246539096   16.035423369   494.0264   2   7   0.0313   0.0378   0.0559   0.0143   0.0086  -0.0131   0.00    3.0
2018/03/15 10:55:04.000   78.246539107   16.035423293   494.0267   2   7   0.0313   0.0377   0.0557   0.0143   0.0086  -0.0130   0.00    3.0
2018/03/15 10:55:05.000   78.246539121   16.035423260   494.0268   2   7   0.0312   0.0376   0.0556   0.0143   0.0086  -0.0130   0.00    3.0
2018/03/15 10:55:06.000   78.246537383   16.035438473   494.7584   1   7   0.0012   0.0009   0.0038  -0.0004  -0.0007   0.0017   0.00    3.0
2018/03/15 10:55:07.000   78.246537383   16.035438473   494.7580   1   7   0.0012   0.0009   0.0038  -0.0004  -0.0007   0.0017   0.00    3.0
2018/03/15 10:55:08.000   78.246537382   16.035438472   494.7576   1   7   0.0012   0.0009   0.0038  -0.0004  -0.0007   0.0017   0.00    3.0
2018/03/15 10:55:09.000   78.246537381   16.035438470   494.7572   1   7   0.0012   0.0009   0.0038  -0.0004  -0.0007   0.0017   0.00    3.0
2018/03/15 10:55:10.000   78.246537380   16.035438469   494.7566   1   7   0.0012   0.0009   0.0038  -0.0004  -0.0007   0.0017   0.00    3.0
2018/03/15 10:55:11.000   78.246537379   16.035438468   494.7561   1   7   0.0012   0.0009   0.0038  -0.0004  -0.0007   0.0017   0.00    3.0
2018/03/15 10:55:12.000   78.246537378   16.035438468   494.7556   1   7   0.0012   0.0009   0.0038  -0.0004  -0.0007   0.0017   0.00    3.0
