% program   : RTKPOST ver.2.4.2
% inp file  : Z:\home\linda\Documents\Spring18\GitHub_Unis\data\processed_data\46250749.obs
% inp file  : Z:\home\linda\Documents\Spring18\GitHub_Unis\data\processed_data\46250749.nav
% obs start : 2018/03/15 10:09:16.0 GPST (week1992 382156.0s)
% obs end   : 2018/03/15 10:24:33.0 GPST (week1992 383073.0s)
% pos mode  : single
% elev mask : 15.0 deg
% ionos opt : broadcast
% tropo opt : saastamoinen
% ephemeris : broadcast
% navi sys  : gps glonass galileo qzss sbas
%
% (lat/lon/height=WGS84/ellipsoidal,Q=1:fix,2:float,3:sbas,4:dgps,5:single,6:ppp,ns=# of satellites)
%  GPST                  latitude(deg) longitude(deg)  height(m)   Q  ns   sdn(m)   sde(m)   sdu(m)  sdne(m)  sdeu(m)  sdun(m) age(s)  ratio
2018/03/15 10:09:16.000   78.247137982   16.013834357   439.0783   5   9   3.2610   1.6442  10.6097   0.8846   2.2156   4.7208   0.00    0.0
2018/03/15 10:09:17.000   78.247139567   16.013823466   439.1588   5   9   3.2610   1.6442  10.6079   0.8843   2.2151   4.7205   0.00    0.0
2018/03/15 10:09:18.000   78.247137877   16.013832637   440.0766   5   9   3.2610   1.6442  10.6061   0.8840   2.2146   4.7203   0.00    0.0
2018/03/15 10:09:19.000   78.247140433   16.013831592   439.5009   5   9   3.2610   1.6442  10.6043   0.8837   2.2141   4.7200   0.00    0.0
2018/03/15 10:09:20.000   78.247133858   16.013814345   437.8292   5   9   3.2610   1.6442  10.6025   0.8834   2.2136   4.7197   0.00    0.0
2018/03/15 10:09:21.000   78.247137772   16.013811014   438.6567   5   9   3.2610   1.6442  10.6007   0.8831   2.2131   4.7194   0.00    0.0
2018/03/15 10:09:22.000   78.247135124   16.013823436   438.1650   5   9   3.2610   1.6442  10.5989   0.8828   2.2126   4.7192   0.00    0.0
2018/03/15 10:09:23.000   78.247132108   16.013825561   437.7829   5   9   3.2611   1.6442  10.5971   0.8825   2.2121   4.7189   0.00    0.0
2018/03/15 10:09:24.000   78.247131045   16.013836574   438.1180   5   9   3.2611   1.6442  10.5953   0.8821   2.2116   4.7186   0.00    0.0
2018/03/15 10:09:25.000   78.247138483   16.013829460   439.9842   5   9   3.2611   1.6442  10.5935   0.8818   2.2111   4.7183   0.00    0.0
2018/03/15 10:09:26.000   78.247142395   16.013821809   440.2776   5   9   3.2611   1.6442  10.5917   0.8815   2.2106   4.7180   0.00    0.0
2018/03/15 10:09:27.000   78.247142456   16.013813936   438.8624   5   9   3.2611   1.6442  10.5899   0.8812   2.2101   4.7177   0.00    0.0
2018/03/15 10:09:28.000   78.247144871   16.013814268   441.4950   5   9   3.2611   1.6442  10.5881   0.8809   2.2096   4.7174   0.00    0.0
2018/03/15 10:09:29.000   78.247137321   16.013817939   439.2266   5   9   3.2611   1.6442  10.5863   0.8806   2.2091   4.7171   0.00    0.0
2018/03/15 10:09:30.000   78.247133978   16.013831924   437.8511   5   9   3.2611   1.6443  10.5844   0.8802   2.2086   4.7169   0.00    0.0
2018/03/15 10:09:31.000   78.247132835   16.013839981   438.7811   5   9   3.2611   1.6443  10.5826   0.8799   2.2081   4.7166   0.00    0.0
2018/03/15 10:09:32.000   78.247140245   16.013842672   440.6256   5   9   3.2610   1.6443  10.5808   0.8796   2.2076   4.7163   0.00    0.0
2018/03/15 10:09:33.000   78.247141245   16.013833332   439.8817   5   9   3.2610   1.6443  10.5790   0.8793   2.2071   4.7160   0.00    0.0
2018/03/15 10:09:34.000   78.247144738   16.013851590   440.6323   5   9   3.2610   1.6443  10.5771   0.8790   2.2066   4.7157   0.00    0.0
2018/03/15 10:09:35.000   78.247143803   16.013833725   439.6512   5   9   3.2610   1.6443  10.5753   0.8787   2.2061   4.7154   0.00    0.0
2018/03/15 10:09:36.000   78.247141982   16.013848537   438.6321   5   9   3.2610   1.6443  10.5735   0.8783   2.2056   4.7151   0.00    0.0
2018/03/15 10:09:37.000   78.247141135   16.013843895   439.1752   5   9   3.2610   1.6443  10.5717   0.8780   2.2050   4.7148   0.00    0.0
2018/03/15 10:09:38.000   78.247144651   16.013846057   440.4481   5   9   3.2610   1.6443  10.5698   0.8777   2.2045   4.7145   0.00    0.0
2018/03/15 10:09:39.000   78.247149648   16.013847212   442.2702   5   9   3.2610   1.6443  10.5680   0.8774   2.2040   4.7141   0.00    0.0
2018/03/15 10:09:40.000   78.247146415   16.013833350   442.6572   5   9   3.2610   1.6443  10.5661   0.8770   2.2035   4.7138   0.00    0.0
2018/03/15 10:09:41.000   78.247146386   16.013832204   440.7445   5   9   3.2610   1.6443  10.5643   0.8767   2.2030   4.7135   0.00    0.0
2018/03/15 10:09:42.000   78.247142131   16.013845545   439.4979   5   9   3.2610   1.6443  10.5624   0.8764   2.2025   4.7132   0.00    0.0
2018/03/15 10:09:43.000   78.247132714   16.013829768   436.6819   5   9   3.2610   1.6443  10.5606   0.8761   2.2020   4.7129   0.00    0.0
2018/03/15 10:09:44.000   78.247140761   16.013842957   439.2448   5   9   3.2610   1.6443  10.5587   0.8757   2.2015   4.7126   0.00    0.0
2018/03/15 10:09:45.000   78.247143359   16.013836152   440.7485   5   9   3.2610   1.6443  10.5569   0.8754   2.2009   4.7123   0.00    0.0
2018/03/15 10:09:46.000   78.247150081   16.013835034   441.9316   5   9   3.2610   1.6443  10.5550   0.8751   2.2004   4.7120   0.00    0.0
2018/03/15 10:09:47.000   78.247153919   16.013849647   443.1790   5   9   3.2609   1.6443  10.5532   0.8748   2.1999   4.7116   0.00    0.0
2018/03/15 10:09:48.000   78.247145821   16.013843533   441.1261   5   9   3.2609   1.6443  10.5513   0.8744   2.1994   4.7113   0.00    0.0
2018/03/15 10:09:49.000   78.247133088   16.013836057   437.7080   5   9   3.2609   1.6443  10.5494   0.8741   2.1989   4.7110   0.00    0.0
2018/03/15 10:09:50.000   78.247136006   16.013829194   438.0836   5   9   3.2609   1.6443  10.5476   0.8738   2.1984   4.7107   0.00    0.0
2018/03/15 10:09:51.000   78.247140729   16.013814092   440.5818   5   9   3.2609   1.6443  10.5457   0.8735   2.1978   4.7104   0.00    0.0
2018/03/15 10:09:52.000   78.247144523   16.013816509   440.1400   5   9   3.2609   1.6443  10.5438   0.8731   2.1973   4.7100   0.00    0.0
2018/03/15 10:09:53.000   78.247148163   16.013834273   441.2049   5   9   3.2609   1.6443  10.5420   0.8728   2.1968   4.7097   0.00    0.0
2018/03/15 10:09:54.000   78.247145535   16.013829164   441.6522   5   9   3.2609   1.6444  10.5401   0.8725   2.1963   4.7094   0.00    0.0
2018/03/15 10:09:55.000   78.247138384   16.013834013   439.5157   5   9   3.2608   1.6444  10.5382   0.8721   2.1957   4.7090   0.00    0.0
2018/03/15 10:09:56.000   78.247133176   16.013837385   437.6406   5   9   3.2608   1.6444  10.5363   0.8718   2.1952   4.7087   0.00    0.0
2018/03/15 10:09:57.000   78.247132675   16.013836038   437.1244   5   9   3.2608   1.6444  10.5345   0.8715   2.1947   4.7084   0.00    0.0
2018/03/15 10:09:58.000   78.247136910   16.013842778   438.7991   5   9   3.2608   1.6444  10.5326   0.8711   2.1942   4.7080   0.00    0.0
2018/03/15 10:09:59.000   78.247141918   16.013808174   438.6040   5   9   3.2608   1.6444  10.5307   0.8708   2.1936   4.7077   0.00    0.0
2018/03/15 10:10:00.000   78.247148610   16.013834351   441.7144   5   9   3.2608   1.6444  10.5288   0.8705   2.1931   4.7074   0.00    0.0
2018/03/15 10:10:01.000   78.247145072   16.013823670   440.2470   5   9   3.2607   1.6444  10.5269   0.8701   2.1926   4.7070   0.00    0.0
2018/03/15 10:10:02.000   78.247138499   16.013821586   438.6833   5   9   3.2607   1.6444  10.5250   0.8698   2.1921   4.7067   0.00    0.0
2018/03/15 10:10:03.000   78.247135380   16.013830491   437.9990   5   9   3.2607   1.6444  10.5231   0.8695   2.1915   4.7064   0.00    0.0
2018/03/15 10:10:04.000   78.247135072   16.013843242   438.0751   5   9   3.2607   1.6444  10.5212   0.8691   2.1910   4.7060   0.00    0.0
2018/03/15 10:10:05.000   78.247141779   16.013846939   441.3975   5   9   3.2607   1.6444  10.5193   0.8688   2.1905   4.7057   0.00    0.0
2018/03/15 10:10:06.000   78.247143866   16.013831495   439.7952   5   9   3.2606   1.6444  10.5174   0.8684   2.1899   4.7053   0.00    0.0
2018/03/15 10:10:07.000   78.247142265   16.013835289   439.9407   5   9   3.2606   1.6444  10.5155   0.8681   2.1894   4.7050   0.00    0.0
2018/03/15 10:10:08.000   78.247145581   16.013834628   439.7425   5   9   3.2606   1.6444  10.5136   0.8678   2.1889   4.7046   0.00    0.0
2018/03/15 10:10:09.000   78.247139938   16.013835935   439.3999   5   9   3.2606   1.6444  10.5117   0.8674   2.1883   4.7043   0.00    0.0
2018/03/15 10:10:10.000   78.247138828   16.013853441   439.4530   5   9   3.2606   1.6444  10.5098   0.8671   2.1878   4.7039   0.00    0.0
2018/03/15 10:10:11.000   78.247141062   16.013842875   438.9562   5   9   3.2605   1.6444  10.5079   0.8667   2.1872   4.7036   0.00    0.0
2018/03/15 10:10:12.000   78.247145338   16.013842594   438.6487   5   9   3.2605   1.6444  10.5060   0.8664   2.1867   4.7032   0.00    0.0
2018/03/15 10:10:13.000   78.247149039   16.013845364   441.8837   5   9   3.2605   1.6444  10.5041   0.8661   2.1862   4.7029   0.00    0.0
2018/03/15 10:10:14.000   78.247149071   16.013838018   441.9233   5   9   3.2605   1.6444  10.5021   0.8657   2.1856   4.7025   0.00    0.0
2018/03/15 10:10:15.000   78.247148830   16.013842566   441.7052   5   9   3.2604   1.6444  10.5002   0.8654   2.1851   4.7021   0.00    0.0
2018/03/15 10:10:16.000   78.247145101   16.013838021   441.5024   5   9   3.2604   1.6444  10.4983   0.8650   2.1846   4.7018   0.00    0.0
2018/03/15 10:10:17.000   78.247132661   16.013844303   439.2202   5   9   3.2604   1.6444  10.4964   0.8647   2.1840   4.7014   0.00    0.0
2018/03/15 10:10:18.000   78.247143139   16.013862836   440.5530   5   9   3.2604   1.6444  10.4944   0.8643   2.1835   4.7011   0.00    0.0
2018/03/15 10:10:19.000   78.247150277   16.013835029   439.9366   5   9   3.2603   1.6444  10.4925   0.8640   2.1829   4.7007   0.00    0.0
2018/03/15 10:10:20.000   78.247152034   16.013841883   440.8509   5   9   3.2603   1.6444  10.4906   0.8636   2.1824   4.7003   0.00    0.0
2018/03/15 10:10:21.000   78.247148375   16.013836415   441.5138   5   9   3.2603   1.6444  10.4886   0.8633   2.1818   4.7000   0.00    0.0
2018/03/15 10:10:22.000   78.247148304   16.013836376   441.0596   5   9   3.2602   1.6444  10.4867   0.8629   2.1813   4.6996   0.00    0.0
2018/03/15 10:10:23.000   78.247139758   16.013835826   438.6807   5   9   3.2602   1.6445  10.4848   0.8626   2.1807   4.6992   0.00    0.0
2018/03/15 10:10:24.000   78.247137530   16.013849448   440.0081   5   9   3.2602   1.6445  10.4828   0.8622   2.1802   4.6989   0.00    0.0
2018/03/15 10:10:25.000   78.247138624   16.013832085   439.2608   5   9   3.2601   1.6445  10.4809   0.8619   2.1796   4.6985   0.00    0.0
2018/03/15 10:10:26.000   78.247138763   16.013848105   439.1162   5   9   3.2601   1.6445  10.4789   0.8615   2.1791   4.6981   0.00    0.0
2018/03/15 10:10:27.000   78.247142006   16.013824558   440.0638   5   9   3.2601   1.6445  10.4770   0.8612   2.1785   4.6977   0.00    0.0
2018/03/15 10:10:28.000   78.247137894   16.013834028   438.7506   5   9   3.2601   1.6445  10.4750   0.8608   2.1780   4.6974   0.00    0.0
2018/03/15 10:10:29.000   78.247138994   16.013832839   438.7150   5   9   3.2600   1.6445  10.4731   0.8605   2.1774   4.6970   0.00    0.0
2018/03/15 10:10:30.000   78.247135556   16.013828131   437.7864   5   9   3.2600   1.6445  10.4711   0.8601   2.1769   4.6966   0.00    0.0
2018/03/15 10:10:31.000   78.247131879   16.013832725   436.8139   5   9   3.2600   1.6445  10.4692   0.8598   2.1763   4.6962   0.00    0.0
2018/03/15 10:10:32.000   78.247131956   16.013822578   437.3558   5   9   3.2599   1.6445  10.4672   0.8594   2.1758   4.6958   0.00    0.0
2018/03/15 10:10:33.000   78.247138778   16.013813343   438.6523   5   9   3.2599   1.6445  10.4653   0.8591   2.1752   4.6955   0.00    0.0
2018/03/15 10:10:34.000   78.247144595   16.013818132   439.5171   5   9   3.2598   1.6445  10.4633   0.8587   2.1747   4.6951   0.00    0.0
2018/03/15 10:10:35.000   78.247140338   16.013818423   439.3602   5   9   3.2598   1.6445  10.4613   0.8584   2.1741   4.6947   0.00    0.0
2018/03/15 10:10:36.000   78.247136574   16.013824657   437.5586   5   9   3.2598   1.6445  10.4594   0.8580   2.1736   4.6943   0.00    0.0
2018/03/15 10:10:37.000   78.247134813   16.013828354   437.6397   5   9   3.2597   1.6445  10.4574   0.8577   2.1730   4.6939   0.00    0.0
2018/03/15 10:10:38.000   78.247134028   16.013831659   437.4542   5   9   3.2597   1.6445  10.4554   0.8573   2.1724   4.6935   0.00    0.0
2018/03/15 10:10:39.000   78.247136093   16.013814483   437.1283   5   9   3.2597   1.6445  10.4535   0.8569   2.1719   4.6931   0.00    0.0
2018/03/15 10:10:40.000   78.247148719   16.013832340   440.3740   5   9   3.2596   1.6445  10.4515   0.8566   2.1713   4.6927   0.00    0.0
2018/03/15 10:10:41.000   78.247147520   16.013822938   439.4792   5   9   3.2596   1.6445  10.4495   0.8562   2.1708   4.6923   0.00    0.0
2018/03/15 10:10:42.000   78.247143759   16.013835632   439.7611   5   9   3.2595   1.6445  10.4475   0.8559   2.1702   4.6919   0.00    0.0
2018/03/15 10:10:43.000   78.247142828   16.013840320   439.4208   5   9   3.2595   1.6445  10.4455   0.8555   2.1696   4.6915   0.00    0.0
2018/03/15 10:10:44.000   78.247136624   16.013829807   439.5433   5   9   3.2595   1.6445  10.4436   0.8551   2.1691   4.6911   0.00    0.0
2018/03/15 10:10:45.000   78.247132429   16.013838023   438.8051   5   9   3.2594   1.6445  10.4416   0.8548   2.1685   4.6907   0.00    0.0
2018/03/15 10:10:46.000   78.247139485   16.013816772   439.8164   5   9   3.2594   1.6445  10.4396   0.8544   2.1680   4.6903   0.00    0.0
2018/03/15 10:10:47.000   78.247148175   16.013836422   440.8874   5   9   3.2593   1.6445  10.4376   0.8541   2.1674   4.6899   0.00    0.0
2018/03/15 10:10:48.000   78.247151033   16.013840616   441.2360   5   9   3.2593   1.6445  10.4356   0.8537   2.1668   4.6895   0.00    0.0
2018/03/15 10:10:49.000   78.247148521   16.013852030   441.2722   5   9   3.2592   1.6445  10.4336   0.8533   2.1663   4.6891   0.00    0.0
2018/03/15 10:10:50.000   78.247138261   16.013836062   439.3259   5   9   3.2592   1.6445  10.4316   0.8530   2.1657   4.6887   0.00    0.0
2018/03/15 10:10:51.000   78.247142985   16.013841039   439.4896   5   9   3.2592   1.6445  10.4296   0.8526   2.1651   4.6883   0.00    0.0
2018/03/15 10:10:52.000   78.247144723   16.013844799   440.6799   5   9   3.2591   1.6445  10.4276   0.8522   2.1646   4.6879   0.00    0.0
2018/03/15 10:10:53.000   78.247144575   16.013842632   440.7312   5   9   3.2591   1.6445  10.4256   0.8519   2.1640   4.6875   0.00    0.0
2018/03/15 10:10:54.000   78.247142747   16.013843923   440.2608   5   9   3.2590   1.6445  10.4236   0.8515   2.1634   4.6871   0.00    0.0
2018/03/15 10:10:55.000   78.247144357   16.013842062   440.7297   5   9   3.2590   1.6445  10.4216   0.8511   2.1628   4.6867   0.00    0.0
2018/03/15 10:10:56.000   78.247145006   16.013843882   440.6180   5   9   3.2589   1.6445  10.4196   0.8508   2.1623   4.6863   0.00    0.0
2018/03/15 10:10:57.000   78.247146690   16.013854943   441.8985   5   9   3.2589   1.6446  10.4176   0.8504   2.1617   4.6858   0.00    0.0
2018/03/15 10:10:58.000   78.247146098   16.013831973   439.9750   5   9   3.2588   1.6446  10.4156   0.8500   2.1611   4.6854   0.00    0.0
2018/03/15 10:10:59.000   78.247148819   16.013852335   441.1720   5   9   3.2588   1.6446  10.4136   0.8497   2.1606   4.6850   0.00    0.0
2018/03/15 10:11:00.000   78.247148167   16.013847109   440.8361   5   9   3.2587   1.6446  10.4116   0.8493   2.1600   4.6846   0.00    0.0
2018/03/15 10:11:01.000   78.247139806   16.013837472   439.0907   5   9   3.2587   1.6446  10.4096   0.8489   2.1594   4.6842   0.00    0.0
2018/03/15 10:11:02.000   78.247144078   16.013848282   439.8011   5   9   3.2586   1.6446  10.4075   0.8485   2.1588   4.6837   0.00    0.0
2018/03/15 10:11:03.000   78.247142283   16.013828975   439.2509   5   9   3.2586   1.6446  10.4055   0.8482   2.1582   4.6833   0.00    0.0
2018/03/15 10:11:04.000   78.247143237   16.013831878   439.7536   5   9   3.2585   1.6446  10.4035   0.8478   2.1577   4.6829   0.00    0.0
2018/03/15 10:11:05.000   78.247141029   16.013839204   438.9778   5   9   3.2585   1.6446  10.4015   0.8474   2.1571   4.6825   0.00    0.0
2018/03/15 10:11:06.000   78.247136622   16.013823728   438.3591   5   9   3.2584   1.6446  10.3994   0.8470   2.1565   4.6820   0.00    0.0
2018/03/15 10:11:07.000   78.247134559   16.013820281   437.7412   5   9   3.2584   1.6446  10.3974   0.8467   2.1559   4.6816   0.00    0.0
2018/03/15 10:11:08.000   78.247131212   16.013817800   436.8831   5   9   3.2583   1.6446  10.3954   0.8463   2.1554   4.6812   0.00    0.0
2018/03/15 10:11:09.000   78.247132653   16.013810196   438.1245   5   9   3.2583   1.6446  10.3934   0.8459   2.1548   4.6807   0.00    0.0
2018/03/15 10:11:10.000   78.247131829   16.013807377   436.3660   5   9   3.2582   1.6446  10.3913   0.8455   2.1542   4.6803   0.00    0.0
2018/03/15 10:11:11.000   78.247129074   16.013817479   435.6700   5   9   3.2582   1.6446  10.3893   0.8452   2.1536   4.6799   0.00    0.0
2018/03/15 10:11:12.000   78.247133574   16.013810742   437.1390   5   9   3.2581   1.6446  10.3872   0.8448   2.1530   4.6794   0.00    0.0
2018/03/15 10:11:13.000   78.247134303   16.013828391   437.7567   5   9   3.2581   1.6446  10.3852   0.8444   2.1524   4.6790   0.00    0.0
2018/03/15 10:11:14.000   78.247129228   16.013814270   436.4249   5   9   3.2580   1.6446  10.3832   0.8440   2.1519   4.6786   0.00    0.0
2018/03/15 10:11:15.000   78.247136058   16.013823689   437.3671   5   9   3.2579   1.6446  10.3811   0.8437   2.1513   4.6781   0.00    0.0
2018/03/15 10:11:16.000   78.247131938   16.013802305   435.7480   5   9   3.2579   1.6446  10.3791   0.8433   2.1507   4.6777   0.00    0.0
2018/03/15 10:11:17.000   78.247135233   16.013815323   437.7674   5   9   3.2578   1.6446  10.3770   0.8429   2.1501   4.6772   0.00    0.0
2018/03/15 10:11:18.000   78.247135011   16.013815802   437.5556   5   9   3.2578   1.6446  10.3750   0.8425   2.1495   4.6768   0.00    0.0
2018/03/15 10:11:19.000   78.247136841   16.013831402   439.4915   5   9   3.2577   1.6446  10.3729   0.8421   2.1489   4.6764   0.00    0.0
2018/03/15 10:11:20.000   78.247132060   16.013828851   438.8752   5   9   3.2576   1.6446  10.3709   0.8417   2.1483   4.6759   0.00    0.0
2018/03/15 10:11:21.000   78.247137382   16.013831388   440.1790   5   9   3.2576   1.6446  10.3688   0.8414   2.1477   4.6755   0.00    0.0
2018/03/15 10:11:22.000   78.247142715   16.013821900   440.2319   5   9   3.2575   1.6446  10.3668   0.8410   2.1471   4.6750   0.00    0.0
2018/03/15 10:11:23.000   78.247143953   16.013817040   439.5372   5   9   3.2575   1.6446  10.3647   0.8406   2.1466   4.6746   0.00    0.0
2018/03/15 10:11:24.000   78.247143976   16.013832934   439.8842   5   9   3.2574   1.6446  10.3626   0.8402   2.1460   4.6741   0.00    0.0
2018/03/15 10:11:25.000   78.247143944   16.013840041   439.4668   5   9   3.2573   1.6446  10.3606   0.8398   2.1454   4.6737   0.00    0.0
2018/03/15 10:11:26.000   78.247135673   16.013841503   437.9418   5   9   3.2573   1.6446  10.3585   0.8394   2.1448   4.6732   0.00    0.0
2018/03/15 10:11:27.000   78.247138611   16.013849850   439.8728   5   9   3.2572   1.6446  10.3565   0.8391   2.1442   4.6728   0.00    0.0
2018/03/15 10:11:28.000   78.247141897   16.013850284   440.9091   5   9   3.2572   1.6446  10.3544   0.8387   2.1436   4.6723   0.00    0.0
2018/03/15 10:11:29.000   78.247148285   16.013836377   441.7067   5   9   3.2571   1.6446  10.3523   0.8383   2.1430   4.6718   0.00    0.0
2018/03/15 10:11:30.000   78.247151923   16.013859857   441.9512   5   9   3.2570   1.6446  10.3503   0.8379   2.1424   4.6714   0.00    0.0
2018/03/15 10:11:31.000   78.247148780   16.013842497   440.8424   5   9   3.2570   1.6446  10.3482   0.8375   2.1418   4.6709   0.00    0.0
2018/03/15 10:11:32.000   78.247146557   16.013842299   440.3309   5   9   3.2569   1.6446  10.3461   0.8371   2.1412   4.6705   0.00    0.0
2018/03/15 10:11:33.000   78.247140931   16.013848200   439.5125   5   9   3.2568   1.6446  10.3440   0.8367   2.1406   4.6700   0.00    0.0
2018/03/15 10:11:34.000   78.247140336   16.013841624   440.4520   5   9   3.2568   1.6446  10.3419   0.8363   2.1400   4.6695   0.00    0.0
2018/03/15 10:11:35.000   78.247138339   16.013839636   439.6030   5   9   3.2567   1.6446  10.3399   0.8359   2.1394   4.6691   0.00    0.0
2018/03/15 10:11:36.000   78.247141160   16.013834690   440.2377   5   9   3.2566   1.6446  10.3378   0.8356   2.1388   4.6686   0.00    0.0
2018/03/15 10:11:37.000   78.247145250   16.013833982   440.8102   5   9   3.2566   1.6446  10.3357   0.8352   2.1382   4.6681   0.00    0.0
2018/03/15 10:11:38.000   78.247142207   16.013836281   439.6500   5   9   3.2565   1.6447  10.3336   0.8348   2.1376   4.6677   0.00    0.0
2018/03/15 10:11:39.000   78.247137864   16.013839731   438.8215   5   9   3.2564   1.6447  10.3315   0.8344   2.1370   4.6672   0.00    0.0
2018/03/15 10:11:40.000   78.247134997   16.013827470   438.4783   5   9   3.2564   1.6447  10.3294   0.8340   2.1364   4.6667   0.00    0.0
2018/03/15 10:11:41.000   78.247142256   16.013830761   440.5689   5   9   3.2563   1.6447  10.3274   0.8336   2.1358   4.6663   0.00    0.0
2018/03/15 10:11:42.000   78.247146160   16.013841342   441.9963   5   9   3.2562   1.6447  10.3253   0.8332   2.1352   4.6658   0.00    0.0
2018/03/15 10:11:43.000   78.247146321   16.013828258   441.1801   5   9   3.2561   1.6447  10.3232   0.8328   2.1346   4.6653   0.00    0.0
2018/03/15 10:11:44.000   78.247145932   16.013841682   440.0923   5   9   3.2561   1.6447  10.3211   0.8324   2.1340   4.6648   0.00    0.0
2018/03/15 10:11:45.000   78.247140580   16.013837212   439.4361   5   9   3.2560   1.6447  10.3190   0.8320   2.1334   4.6644   0.00    0.0
2018/03/15 10:11:46.000   78.247134408   16.013842446   437.5095   5   9   3.2559   1.6447  10.3169   0.8316   2.1327   4.6639   0.00    0.0
2018/03/15 10:11:47.000   78.247136084   16.013841490   438.3827   5   9   3.2559   1.6447  10.3148   0.8312   2.1321   4.6634   0.00    0.0
2018/03/15 10:11:48.000   78.247140787   16.013839895   438.3447   5   9   3.2558   1.6447  10.3127   0.8308   2.1315   4.6629   0.00    0.0
2018/03/15 10:11:49.000   78.247146301   16.013829867   440.5192   5   9   3.2557   1.6447  10.3106   0.8304   2.1309   4.6624   0.00    0.0
2018/03/15 10:11:50.000   78.247147038   16.013840640   441.3078   5   9   3.2556   1.6447  10.3085   0.8300   2.1303   4.6620   0.00    0.0
2018/03/15 10:11:51.000   78.247140899   16.013837632   440.8877   5   9   3.2556   1.6447  10.3064   0.8296   2.1297   4.6615   0.00    0.0
2018/03/15 10:11:52.000   78.247136572   16.013840598   439.0071   5   9   3.2555   1.6447  10.3042   0.8292   2.1291   4.6610   0.00    0.0
2018/03/15 10:11:53.000   78.247136792   16.013837420   438.7495   5   9   3.2554   1.6447  10.3021   0.8288   2.1285   4.6605   0.00    0.0
2018/03/15 10:11:54.000   78.247137299   16.013837652   438.6995   5   9   3.2553   1.6447  10.3000   0.8284   2.1279   4.6600   0.00    0.0
2018/03/15 10:11:55.000   78.247140796   16.013833599   439.9508   5   9   3.2553   1.6447  10.2979   0.8280   2.1272   4.6595   0.00    0.0
2018/03/15 10:11:56.000   78.247137048   16.013802418   437.3400   5   9   3.2552   1.6447  10.2958   0.8276   2.1266   4.6590   0.00    0.0
2018/03/15 10:11:57.000   78.247137484   16.013823100   439.1884   5   9   3.2551   1.6447  10.2937   0.8272   2.1260   4.6585   0.00    0.0
2018/03/15 10:11:58.000   78.247131224   16.013820088   437.8753   5   9   3.2550   1.6447  10.2916   0.8268   2.1254   4.6581   0.00    0.0
2018/03/15 10:11:59.000   78.247132604   16.013839398   437.0385   5   9   3.2550   1.6447  10.2894   0.8264   2.1248   4.6576   0.00    0.0
2018/03/15 10:12:00.000   78.247136502   16.013825614   437.3635   5   9   3.2549   1.6447  10.2873   0.8260   2.1242   4.6571   0.00    0.0
2018/03/15 10:12:01.000   78.247140308   16.013826689   438.0391   5   9   3.2548   1.6447  10.2852   0.8256   2.1236   4.6566   0.00    0.0
2018/03/15 10:12:02.000   78.247146630   16.013835254   440.8192   5   9   3.2547   1.6447  10.2831   0.8252   2.1229   4.6561   0.00    0.0
2018/03/15 10:12:03.000   78.247137826   16.013821720   438.9672   5   9   3.2546   1.6447  10.2809   0.8248   2.1223   4.6556   0.00    0.0
2018/03/15 10:12:04.000   78.247133323   16.013835634   438.6226   5   9   3.2546   1.6447  10.2788   0.8243   2.1217   4.6551   0.00    0.0
2018/03/15 10:12:05.000   78.247131025   16.013829902   437.7519   5   9   3.2545   1.6447  10.2767   0.8239   2.1211   4.6546   0.00    0.0
2018/03/15 10:12:06.000   78.247144425   16.013832541   440.4618   5   9   3.2544   1.6447  10.2745   0.8235   2.1205   4.6541   0.00    0.0
2018/03/15 10:12:07.000   78.247153599   16.013836056   442.2851   5   9   3.2543   1.6447  10.2724   0.8231   2.1198   4.6536   0.00    0.0
2018/03/15 10:12:08.000   78.247146031   16.013828674   440.1807   5   9   3.2542   1.6447  10.2703   0.8227   2.1192   4.6531   0.00    0.0
2018/03/15 10:12:09.000   78.247144685   16.013840110   441.1668   5   9   3.2541   1.6447  10.2681   0.8223   2.1186   4.6526   0.00    0.0
2018/03/15 10:12:10.000   78.247132842   16.013842704   438.6525   5   9   3.2541   1.6447  10.2660   0.8219   2.1180   4.6521   0.00    0.0
2018/03/15 10:12:11.000   78.247143822   16.013857712   440.0471   5   9   3.2540   1.6447  10.2638   0.8215   2.1173   4.6515   0.00    0.0
2018/03/15 10:12:12.000   78.247149642   16.013843673   441.6578   5   9   3.2539   1.6447  10.2617   0.8211   2.1167   4.6510   0.00    0.0
2018/03/15 10:12:13.000   78.247148108   16.013845846   440.3771   5   9   3.2538   1.6447  10.2596   0.8206   2.1161   4.6505   0.00    0.0
2018/03/15 10:12:14.000   78.247150987   16.013839673   442.1431   5   9   3.2537   1.6447  10.2574   0.8202   2.1155   4.6500   0.00    0.0
2018/03/15 10:12:15.000   78.247144152   16.013834262   439.6161   5   9   3.2536   1.6447  10.2553   0.8198   2.1148   4.6495   0.00    0.0
2018/03/15 10:12:16.000   78.247141096   16.013846646   439.9441   5   9   3.2535   1.6447  10.2531   0.8194   2.1142   4.6490   0.00    0.0
2018/03/15 10:12:17.000   78.247131449   16.013834603   437.8129   5   9   3.2535   1.6447  10.2510   0.8190   2.1136   4.6485   0.00    0.0
2018/03/15 10:12:18.000   78.247135780   16.013837726   439.5309   5   9   3.2534   1.6447  10.2488   0.8186   2.1129   4.6480   0.00    0.0
2018/03/15 10:12:19.000   78.247146807   16.013837086   441.6186   5   9   3.2533   1.6447  10.2467   0.8182   2.1123   4.6474   0.00    0.0
2018/03/15 10:12:20.000   78.247146755   16.013831145   441.4605   5   9   3.2532   1.6447  10.2445   0.8177   2.1117   4.6469   0.00    0.0
2018/03/15 10:12:21.000   78.247148805   16.013844551   441.2240   5   9   3.2531   1.6447  10.2424   0.8173   2.1111   4.6464   0.00    0.0
2018/03/15 10:12:22.000   78.247136805   16.013833553   438.4238   5   9   3.2530   1.6447  10.2402   0.8169   2.1104   4.6459   0.00    0.0
2018/03/15 10:12:23.000   78.247132641   16.013848604   438.7243   5   9   3.2529   1.6447  10.2380   0.8165   2.1098   4.6454   0.00    0.0
2018/03/15 10:12:24.000   78.247141732   16.013833782   439.8896   5   9   3.2528   1.6447  10.2359   0.8161   2.1092   4.6448   0.00    0.0
2018/03/15 10:12:25.000   78.247146721   16.013843737   441.6245   5   9   3.2527   1.6448  10.2337   0.8156   2.1085   4.6443   0.00    0.0
2018/03/15 10:12:26.000   78.247142096   16.013824541   439.5767   5   9   3.2527   1.6448  10.2315   0.8152   2.1079   4.6438   0.00    0.0
2018/03/15 10:12:27.000   78.247142111   16.013849524   441.3963   5   9   3.2526   1.6448  10.2294   0.8148   2.1073   4.6433   0.00    0.0
2018/03/15 10:12:28.000   78.247135809   16.013832491   439.7580   5   9   3.2525   1.6448  10.2272   0.8144   2.1066   4.6427   0.00    0.0
2018/03/15 10:12:29.000   78.247134361   16.013842590   438.4913   5   9   3.2524   1.6448  10.2250   0.8140   2.1060   4.6422   0.00    0.0
2018/03/15 10:12:30.000   78.247139090   16.013848100   439.2632   5   9   3.2523   1.6448  10.2229   0.8135   2.1053   4.6417   0.00    0.0
2018/03/15 10:12:31.000   78.247140279   16.013824824   439.0756   5   9   3.2522   1.6448  10.2207   0.8131   2.1047   4.6411   0.00    0.0
2018/03/15 10:12:32.000   78.247142771   16.013837126   440.2003   5   9   3.2521   1.6448  10.2185   0.8127   2.1041   4.6406   0.00    0.0
2018/03/15 10:12:33.000   78.247142610   16.013841093   439.3767   5   9   3.2520   1.6448  10.2164   0.8123   2.1034   4.6401   0.00    0.0
2018/03/15 10:12:34.000   78.247137682   16.013833981   438.9478   5   9   3.2519   1.6448  10.2142   0.8118   2.1028   4.6395   0.00    0.0
2018/03/15 10:12:35.000   78.247134417   16.013832195   437.7101   5   9   3.2518   1.6448  10.2120   0.8114   2.1022   4.6390   0.00    0.0
2018/03/15 10:12:36.000   78.247137070   16.013834474   439.6412   5   9   3.2517   1.6448  10.2098   0.8110   2.1015   4.6385   0.00    0.0
2018/03/15 10:12:37.000   78.247138221   16.013829341   439.5634   5   9   3.2516   1.6448  10.2076   0.8105   2.1009   4.6379   0.00    0.0
2018/03/15 10:12:38.000   78.247136344   16.013833243   438.5861   5   9   3.2515   1.6448  10.2055   0.8101   2.1002   4.6374   0.00    0.0
2018/03/15 10:12:39.000   78.247135409   16.013823470   437.8477   5   9   3.2514   1.6448  10.2033   0.8097   2.0996   4.6369   0.00    0.0
2018/03/15 10:12:40.000   78.247127612   16.013830113   436.1549   5   9   3.2513   1.6448  10.2011   0.8093   2.0989   4.6363   0.00    0.0
2018/03/15 10:12:41.000   78.247132571   16.013825526   437.2794   5   9   3.2512   1.6448  10.1989   0.8088   2.0983   4.6358   0.00    0.0
2018/03/15 10:12:42.000   78.247142005   16.013832896   440.7024   5   9   3.2511   1.6448  10.1967   0.8084   2.0977   4.6352   0.00    0.0
2018/03/15 10:12:43.000   78.247142000   16.013829131   440.8690   5   9   3.2510   1.6448  10.1945   0.8080   2.0970   4.6347   0.00    0.0
2018/03/15 10:12:44.000   78.247140215   16.013840424   440.5570   5   9   3.2509   1.6448  10.1923   0.8075   2.0964   4.6341   0.00    0.0
2018/03/15 10:12:45.000   78.247140394   16.013837564   440.1506   5   9   3.2508   1.6448  10.1901   0.8071   2.0957   4.6336   0.00    0.0
2018/03/15 10:12:46.000   78.247135475   16.013849798   439.9688   5   9   3.2507   1.6448  10.1879   0.8067   2.0951   4.6331   0.00    0.0
2018/03/15 10:12:47.000   78.247133561   16.013842578   438.7884   5   9   3.2506   1.6448  10.1858   0.8062   2.0944   4.6325   0.00    0.0
2018/03/15 10:12:48.000   78.247138486   16.013841265   439.7575   5   9   3.2505   1.6448  10.1836   0.8058   2.0938   4.6320   0.00    0.0
2018/03/15 10:12:49.000   78.247147462   16.013834956   441.2175   5   9   3.2504   1.6448  10.1814   0.8054   2.0931   4.6314   0.00    0.0
2018/03/15 10:12:50.000   78.247144487   16.013850493   440.6491   5   9   3.2503   1.6448  10.1792   0.8049   2.0925   4.6309   0.00    0.0
2018/03/15 10:12:51.000   78.247138367   16.013841189   439.7389   5   9   3.2502   1.6448  10.1770   0.8045   2.0918   4.6303   0.00    0.0
2018/03/15 10:12:52.000   78.247136464   16.013840631   440.2134   5   9   3.2501   1.6448  10.1748   0.8041   2.0912   4.6297   0.00    0.0
2018/03/15 10:12:53.000   78.247141755   16.013850519   441.3480   5   9   3.2500   1.6448  10.1726   0.8036   2.0905   4.6292   0.00    0.0
2018/03/15 10:12:54.000   78.247146155   16.013844955   442.4964   5   9   3.2499   1.6448  10.1703   0.8032   2.0899   4.6286   0.00    0.0
2018/03/15 10:12:55.000   78.247149447   16.013857096   442.0051   5   9   3.2498   1.6448  10.1681   0.8028   2.0892   4.6281   0.00    0.0
2018/03/15 10:12:56.000   78.247146798   16.013840867   440.8056   5   9   3.2497   1.6448  10.1659   0.8023   2.0886   4.6275   0.00    0.0
2018/03/15 10:12:57.000   78.247132740   16.013862482   438.5589   5   9   3.2496   1.6448  10.1637   0.8019   2.0879   4.6270   0.00    0.0
2018/03/15 10:12:58.000   78.247132630   16.013843061   438.1647   5   9   3.2495   1.6448  10.1615   0.8014   2.0873   4.6264   0.00    0.0
2018/03/15 10:12:59.000   78.247135288   16.013847698   438.3945   5   9   3.2494   1.6448  10.1593   0.8010   2.0866   4.6258   0.00    0.0
2018/03/15 10:13:00.000   78.247145382   16.013830215   440.2432   5   9   3.2493   1.6448  10.1571   0.8006   2.0860   4.6253   0.00    0.0
2018/03/15 10:13:01.000   78.247147256   16.013832451   441.6359   5   9   3.2492   1.6448  10.1549   0.8001   2.0853   4.6247   0.00    0.0
2018/03/15 10:13:02.000   78.247143396   16.013825400   440.1160   5   9   3.2491   1.6448  10.1527   0.7997   2.0846   4.6242   0.00    0.0
2018/03/15 10:13:03.000   78.247138366   16.013839466   440.0974   5   9   3.2490   1.6448  10.1504   0.7992   2.0840   4.6236   0.00    0.0
2018/03/15 10:13:04.000   78.247134233   16.013832877   440.5239   5   9   3.2489   1.6448  10.1482   0.7988   2.0833   4.6230   0.00    0.0
2018/03/15 10:13:05.000   78.247132008   16.013825234   438.3461   5   9   3.2488   1.6448  10.1460   0.7983   2.0827   4.6225   0.00    0.0
2018/03/15 10:13:06.000   78.247142072   16.013838332   440.5072   5   9   3.2486   1.6448  10.1438   0.7979   2.0820   4.6219   0.00    0.0
2018/03/15 10:13:07.000   78.247144640   16.013839165   441.3960   5   9   3.2485   1.6448  10.1416   0.7974   2.0814   4.6213   0.00    0.0
2018/03/15 10:13:08.000   78.247145000   16.013835659   439.9026   5   9   3.2484   1.6448  10.1393   0.7970   2.0807   4.6207   0.00    0.0
2018/03/15 10:13:09.000   78.247137925   16.013834311   438.0086   5   9   3.2483   1.6448  10.1371   0.7966   2.0800   4.6202   0.00    0.0
2018/03/15 10:13:10.000   78.247132300   16.013841536   437.1730   5   9   3.2482   1.6448  10.1349   0.7961   2.0794   4.6196   0.00    0.0
2018/03/15 10:13:11.000   78.247139359   16.013833759   437.8052   5   9   3.2481   1.6448  10.1327   0.7957   2.0787   4.6190   0.00    0.0
2018/03/15 10:13:12.000   78.247148052   16.013844873   440.2182   5   9   3.2480   1.6449  10.1304   0.7952   2.0781   4.6185   0.00    0.0
2018/03/15 10:13:13.000   78.247143255   16.013827354   437.7222   5   9   3.2479   1.6449  10.1282   0.7948   2.0774   4.6179   0.00    0.0
2018/03/15 10:13:14.000   78.247143189   16.013836345   439.2279   5   9   3.2478   1.6449  10.1260   0.7943   2.0767   4.6173   0.00    0.0
2018/03/15 10:13:15.000   78.247137458   16.013840255   439.0351   5   9   3.2476   1.6449  10.1237   0.7939   2.0761   4.6167   0.00    0.0
2018/03/15 10:13:16.000   78.247132376   16.013834736   438.8788   5   9   3.2475   1.6449  10.1215   0.7934   2.0754   4.6161   0.00    0.0
2018/03/15 10:13:17.000   78.247139387   16.013861079   440.1857   5   9   3.2474   1.6449  10.1193   0.7930   2.0747   4.6156   0.00    0.0
2018/03/15 10:13:18.000   78.247141158   16.013819644   439.2040   5   9   3.2473   1.6449  10.1170   0.7925   2.0741   4.6150   0.00    0.0
2018/03/15 10:13:19.000   78.247141842   16.013835992   440.7495   5   9   3.2472   1.6449  10.1148   0.7921   2.0734   4.6144   0.00    0.0
2018/03/15 10:13:20.000   78.247141221   16.013838852   439.0332   5   9   3.2471   1.6449  10.1125   0.7916   2.0727   4.6138   0.00    0.0
2018/03/15 10:13:21.000   78.247137594   16.013833552   438.3147   5   9   3.2470   1.6449  10.1103   0.7912   2.0721   4.6132   0.00    0.0
2018/03/15 10:13:22.000   78.247137069   16.013848886   438.7648   5   9   3.2468   1.6449  10.1081   0.7907   2.0714   4.6127   0.00    0.0
2018/03/15 10:13:23.000   78.247134618   16.013834369   437.1829   5   9   3.2467   1.6449  10.1058   0.7902   2.0707   4.6121   0.00    0.0
2018/03/15 10:13:24.000   78.247142265   16.013831462   439.7110   5   9   3.2466   1.6449  10.1036   0.7898   2.0701   4.6115   0.00    0.0
2018/03/15 10:13:25.000   78.247140191   16.013817839   438.6914   5   9   3.2465   1.6449  10.1013   0.7893   2.0694   4.6109   0.00    0.0
2018/03/15 10:13:26.000   78.247141140   16.013831385   439.3793   5   9   3.2464   1.6449  10.0991   0.7889   2.0687   4.6103   0.00    0.0
2018/03/15 10:13:27.000   78.247133910   16.013836761   438.3930   5   9   3.2463   1.6449  10.0968   0.7884   2.0681   4.6097   0.00    0.0
2018/03/15 10:13:28.000   78.247136527   16.013857618   439.5301   5   9   3.2461   1.6449  10.0946   0.7880   2.0674   4.6091   0.00    0.0
2018/03/15 10:13:29.000   78.247136630   16.013833960   439.5731   5   9   3.2460   1.6449  10.0923   0.7875   2.0667   4.6085   0.00    0.0
2018/03/15 10:13:30.000   78.247140622   16.013847008   440.2386   5   9   3.2459   1.6449  10.0901   0.7870   2.0660   4.6079   0.00    0.0
2018/03/15 10:13:31.000   78.247137897   16.013831974   438.9260   5   9   3.2458   1.6449  10.0878   0.7866   2.0654   4.6073   0.00    0.0
2018/03/15 10:13:32.000   78.247140878   16.013846032   438.9835   5   9   3.2457   1.6449  10.0856   0.7861   2.0647   4.6067   0.00    0.0
2018/03/15 10:13:33.000   78.247137296   16.013839438   439.0100   5   9   3.2455   1.6449  10.0833   0.7857   2.0640   4.6062   0.00    0.0
2018/03/15 10:13:34.000   78.247130365   16.013827104   437.1557   5   9   3.2454   1.6449  10.0811   0.7852   2.0633   4.6056   0.00    0.0
2018/03/15 10:13:35.000   78.247140492   16.013847075   439.4611   5   9   3.2453   1.6449  10.0788   0.7847   2.0627   4.6050   0.00    0.0
2018/03/15 10:13:36.000   78.247137612   16.013825887   438.6174   5   9   3.2452   1.6449  10.0765   0.7843   2.0620   4.6044   0.00    0.0
2018/03/15 10:13:37.000   78.247139749   16.013836505   438.9003   5   9   3.2450   1.6449  10.0743   0.7838   2.0613   4.6038   0.00    0.0
2018/03/15 10:13:38.000   78.247141942   16.013838111   439.3713   5   9   3.2449   1.6449  10.0720   0.7834   2.0606   4.6032   0.00    0.0
2018/03/15 10:13:39.000   78.247138308   16.013842336   439.2327   5   9   3.2448   1.6449  10.0697   0.7829   2.0600   4.6026   0.00    0.0
2018/03/15 10:13:40.000   78.247135955   16.013834197   438.8443   5   9   3.2447   1.6449  10.0675   0.7824   2.0593   4.6020   0.00    0.0
2018/03/15 10:13:41.000   78.247137951   16.013826678   438.6655   5   9   3.2446   1.6449  10.0652   0.7820   2.0586   4.6014   0.00    0.0
2018/03/15 10:13:42.000   78.247135169   16.013836824   438.4750   5   9   3.2444   1.6449  10.0630   0.7815   2.0579   4.6007   0.00    0.0
2018/03/15 10:13:43.000   78.247143838   16.013842907   439.9986   5   9   3.2443   1.6449  10.0607   0.7810   2.0572   4.6001   0.00    0.0
2018/03/15 10:13:44.000   78.247135316   16.013848545   439.6425   5   9   3.2442   1.6449  10.0584   0.7806   2.0566   4.5995   0.00    0.0
2018/03/15 10:13:45.000   78.247126038   16.013850906   435.4321   5   9   3.2441   1.6449  10.0561   0.7801   2.0559   4.5989   0.00    0.0
2018/03/15 10:13:46.000   78.247137983   16.013856723   440.2145   5   9   3.2439   1.6449  10.0539   0.7796   2.0552   4.5983   0.00    0.0
2018/03/15 10:13:47.000   78.247148272   16.013845845   441.9926   5   9   3.2438   1.6449  10.0516   0.7792   2.0545   4.5977   0.00    0.0
2018/03/15 10:13:48.000   78.247145453   16.013837806   440.9378   5   9   3.2437   1.6449  10.0493   0.7787   2.0538   4.5971   0.00    0.0
2018/03/15 10:13:49.000   78.247143448   16.013828981   440.2819   5   9   3.2435   1.6449  10.0471   0.7782   2.0532   4.5965   0.00    0.0
2018/03/15 10:13:50.000   78.247130286   16.013830025   437.4535   5   9   3.2434   1.6449  10.0448   0.7777   2.0525   4.5959   0.00    0.0
2018/03/15 10:13:51.000   78.247131696   16.013853814   438.2579   5   9   3.2433   1.6449  10.0425   0.7773   2.0518   4.5953   0.00    0.0
2018/03/15 10:13:52.000   78.247138250   16.013842674   439.1658   5   9   3.2432   1.6449  10.0402   0.7768   2.0511   4.5947   0.00    0.0
2018/03/15 10:13:53.000   78.247142639   16.013841414   439.8087   5   9   3.2430   1.6449  10.0379   0.7763   2.0504   4.5940   0.00    0.0
2018/03/15 10:13:54.000   78.247142078   16.013819542   439.6198   5   9   3.2429   1.6450  10.0357   0.7759   2.0497   4.5934   0.00    0.0
2018/03/15 10:13:55.000   78.247141025   16.013839257   440.5235   5   9   3.2428   1.6450  10.0334   0.7754   2.0490   4.5928   0.00    0.0
2018/03/15 10:13:56.000   78.247134912   16.013845806   438.9688   5   9   3.2426   1.6450  10.0311   0.7749   2.0484   4.5922   0.00    0.0
2018/03/15 10:13:57.000   78.247126346   16.013829454   437.2522   5   9   3.2425   1.6450  10.0288   0.7744   2.0477   4.5916   0.00    0.0
2018/03/15 10:13:58.000   78.247141782   16.013846003   440.3402   5   9   3.2424   1.6450  10.0265   0.7740   2.0470   4.5909   0.00    0.0
2018/03/15 10:13:59.000   78.247143660   16.013824633   439.4156   5   9   3.2422   1.6450  10.0242   0.7735   2.0463   4.5903   0.00    0.0
2018/03/15 10:14:00.000   78.247141282   16.013822750   438.2515   5   9   3.2421   1.6450  10.0220   0.7730   2.0456   4.5897   0.00    0.0
2018/03/15 10:14:01.000   78.247133873   16.013828713   437.6033   5   9   3.2420   1.6450  10.0197   0.7725   2.0449   4.5891   0.00    0.0
2018/03/15 10:14:02.000   78.247129242   16.013832790   436.5056   5   9   3.2419   1.6450  10.0174   0.7721   2.0442   4.5885   0.00    0.0
2018/03/15 10:14:03.000   78.247127067   16.013821739   436.1491   5   9   3.2417   1.6450  10.0151   0.7716   2.0435   4.5878   0.00    0.0
2018/03/15 10:14:04.000   78.247140708   16.013824320   438.8336   5   9   3.2416   1.6450  10.0128   0.7711   2.0429   4.5872   0.00    0.0
2018/03/15 10:14:05.000   78.247138524   16.013814089   438.1898   5   9   3.2414   1.6450  10.0105   0.7706   2.0422   4.5866   0.00    0.0
2018/03/15 10:14:06.000   78.247134842   16.013819511   439.4284   5   9   3.2413   1.6450  10.0082   0.7701   2.0415   4.5860   0.00    0.0
2018/03/15 10:14:07.000   78.247131550   16.013829705   438.6985   5   9   3.2412   1.6450  10.0059   0.7697   2.0408   4.5853   0.00    0.0
2018/03/15 10:14:08.000   78.247123864   16.013812056   437.1002   5   9   3.2410   1.6450  10.0036   0.7692   2.0401   4.5847   0.00    0.0
2018/03/15 10:14:09.000   78.247130059   16.013828663   439.1693   5   9   3.2409   1.6450  10.0013   0.7687   2.0394   4.5841   0.00    0.0
2018/03/15 10:14:10.000   78.247134126   16.013818018   438.1174   5   9   3.2408   1.6450   9.9990   0.7682   2.0387   4.5834   0.00    0.0
2018/03/15 10:14:11.000   78.247134209   16.013823374   437.6469   5   9   3.2406   1.6450   9.9967   0.7677   2.0380   4.5828   0.00    0.0
2018/03/15 10:14:12.000   78.247132002   16.013823509   437.7430   5   9   3.2405   1.6450   9.9944   0.7672   2.0373   4.5822   0.00    0.0
2018/03/15 10:14:13.000   78.247132117   16.013832483   437.5259   5   9   3.2404   1.6450   9.9921   0.7668   2.0366   4.5815   0.00    0.0
2018/03/15 10:14:14.000   78.247130041   16.013819177   437.5522   5   9   3.2402   1.6450   9.9898   0.7663   2.0359   4.5809   0.00    0.0
2018/03/15 10:14:15.000   78.247137256   16.013827970   438.9428   5   9   3.2401   1.6450   9.9875   0.7658   2.0352   4.5803   0.00    0.0
2018/03/15 10:14:16.000   78.247141586   16.013834748   440.3859   5   9   3.2399   1.6450   9.9852   0.7653   2.0345   4.5796   0.00    0.0
2018/03/15 10:14:17.000   78.247139016   16.013831720   441.0302   5   9   3.2398   1.6450   9.9829   0.7648   2.0338   4.5790   0.00    0.0
2018/03/15 10:14:18.000   78.247139510   16.013859432   441.9280   5   9   3.2397   1.6450   9.9806   0.7643   2.0331   4.5784   0.00    0.0
2018/03/15 10:14:19.000   78.247130816   16.013847069   437.8858   5   9   3.2395   1.6450   9.9783   0.7638   2.0324   4.5777   0.00    0.0
2018/03/15 10:14:20.000   78.247133454   16.013834182   438.4705   5   9   3.2394   1.6450   9.9760   0.7634   2.0317   4.5771   0.00    0.0
2018/03/15 10:14:21.000   78.247150450   16.013852634   441.8103   5   9   3.2392   1.6450   9.9737   0.7629   2.0310   4.5764   0.00    0.0
2018/03/15 10:14:22.000   78.247149069   16.013842569   442.4466   5   9   3.2391   1.6450   9.9714   0.7624   2.0303   4.5758   0.00    0.0
2018/03/15 10:14:23.000   78.247153154   16.013846323   442.4890   5   9   3.2390   1.6450   9.9691   0.7619   2.0296   4.5752   0.00    0.0
2018/03/15 10:14:24.000   78.247138918   16.013841917   439.0488   5   9   3.2388   1.6450   9.9668   0.7614   2.0289   4.5745   0.00    0.0
2018/03/15 10:14:25.000   78.247141308   16.013861298   440.7258   5   9   3.2387   1.6450   9.9644   0.7609   2.0282   4.5739   0.00    0.0
2018/03/15 10:14:26.000   78.247139684   16.013849789   441.5097   5   9   3.2385   1.6450   9.9621   0.7604   2.0275   4.5732   0.00    0.0
2018/03/15 10:14:27.000   78.247140742   16.013843649   440.7353   5   9   3.2384   1.6450   9.9598   0.7599   2.0268   4.5726   0.00    0.0
2018/03/15 10:14:28.000   78.247142981   16.013836642   441.3470   5   9   3.2383   1.6450   9.9575   0.7594   2.0261   4.5719   0.00    0.0
2018/03/15 10:14:29.000   78.247142415   16.013837083   440.9638   5   9   3.2381   1.6451   9.9552   0.7589   2.0254   4.5713   0.00    0.0
2018/03/15 10:14:30.000   78.247138970   16.013855485   440.0015   5   9   3.2380   1.6451   9.9529   0.7584   2.0247   4.5706   0.00    0.0
2018/03/15 10:14:31.000   78.247132571   16.013847054   438.7637   5   9   3.2378   1.6451   9.9506   0.7579   2.0240   4.5700   0.00    0.0
2018/03/15 10:14:32.000   78.247139081   16.013834445   439.2930   5   9   3.2377   1.6451   9.9482   0.7574   2.0233   4.5693   0.00    0.0
2018/03/15 10:14:33.000   78.247141340   16.013829512   440.7465   5   9   3.2375   1.6451   9.9459   0.7569   2.0226   4.5687   0.00    0.0
2018/03/15 10:14:34.000   78.247141788   16.013828331   440.2492   5   9   3.2374   1.6451   9.9436   0.7565   2.0219   4.5680   0.00    0.0
2018/03/15 10:14:35.000   78.247135620   16.013832670   438.6242   5   9   3.2372   1.6451   9.9413   0.7560   2.0212   4.5674   0.00    0.0
2018/03/15 10:14:36.000   78.247130897   16.013836886   439.1861   5   9   3.2371   1.6451   9.9389   0.7555   2.0205   4.5667   0.00    0.0
2018/03/15 10:14:37.000   78.247134145   16.013837643   439.6960   5   9   3.2369   1.6451   9.9366   0.7550   2.0198   4.5661   0.00    0.0
2018/03/15 10:14:38.000   78.247140442   16.013837929   440.5336   5   9   3.2368   1.6451   9.9343   0.7545   2.0191   4.5654   0.00    0.0
2018/03/15 10:14:39.000   78.247138910   16.013841885   440.3940   5   9   3.2367   1.6451   9.9320   0.7540   2.0184   4.5648   0.00    0.0
2018/03/15 10:14:40.000   78.247131938   16.013830656   439.3588   5   9   3.2365   1.6451   9.9296   0.7535   2.0176   4.5641   0.00    0.0
2018/03/15 10:14:41.000   78.247131025   16.013822132   438.4159   5   9   3.2364   1.6451   9.9273   0.7530   2.0169   4.5635   0.00    0.0
2018/03/15 10:14:42.000   78.247137697   16.013823019   439.4606   5   9   3.2362   1.6451   9.9250   0.7525   2.0162   4.5628   0.00    0.0
2018/03/15 10:14:43.000   78.247142213   16.013832237   440.4590   5   9   3.2361   1.6451   9.9227   0.7520   2.0155   4.5621   0.00    0.0
2018/03/15 10:14:44.000   78.247138620   16.013833695   439.1595   5   9   3.2359   1.6451   9.9203   0.7514   2.0148   4.5615   0.00    0.0
2018/03/15 10:14:45.000   78.247139393   16.013839551   438.8855   5   9   3.2358   1.6451   9.9180   0.7509   2.0141   4.5608   0.00    0.0
2018/03/15 10:14:46.000   78.247136528   16.013838803   439.1878   5   9   3.2356   1.6451   9.9157   0.7504   2.0134   4.5602   0.00    0.0
2018/03/15 10:14:47.000   78.247135317   16.013824034   438.9318   5   9   3.2355   1.6451   9.9133   0.7499   2.0127   4.5595   0.00    0.0
2018/03/15 10:14:48.000   78.247138959   16.013851703   440.2229   5   9   3.2353   1.6451   9.9110   0.7494   2.0120   4.5588   0.00    0.0
2018/03/15 10:14:49.000   78.247142439   16.013836050   440.0313   5   9   3.2352   1.6451   9.9087   0.7489   2.0112   4.5582   0.00    0.0
2018/03/15 10:14:50.000   78.247147067   16.013852941   441.5021   5   9   3.2350   1.6451   9.9063   0.7484   2.0105   4.5575   0.00    0.0
2018/03/15 10:14:51.000   78.247141806   16.013849455   441.2355   5   9   3.2349   1.6451   9.9040   0.7479   2.0098   4.5568   0.00    0.0
2018/03/15 10:14:52.000   78.247134866   16.013858355   439.7740   5   9   3.2347   1.6451   9.9017   0.7474   2.0091   4.5562   0.00    0.0
2018/03/15 10:14:53.000   78.247133693   16.013843674   439.3239   5   9   3.2345   1.6451   9.8993   0.7469   2.0084   4.5555   0.00    0.0
2018/03/15 10:14:54.000   78.247145454   16.013827997   441.1947   5   9   3.2344   1.6451   9.8970   0.7464   2.0077   4.5548   0.00    0.0
2018/03/15 10:14:55.000   78.247151357   16.013834856   442.8365   5   9   3.2342   1.6451   9.8946   0.7459   2.0070   4.5542   0.00    0.0
2018/03/15 10:14:56.000   78.247146196   16.013843084   440.8342   5   9   3.2341   1.6451   9.8923   0.7454   2.0062   4.5535   0.00    0.0
2018/03/15 10:14:57.000   78.247141000   16.013853412   440.6602   5   9   3.2339   1.6451   9.8900   0.7449   2.0055   4.5528   0.00    0.0
2018/03/15 10:14:58.000   78.247130372   16.013853091   438.7093   5   9   3.2338   1.6451   9.8876   0.7443   2.0048   4.5521   0.00    0.0
2018/03/15 10:14:59.000   78.247137416   16.013841662   440.6754   5   9   3.2336   1.6452   9.8853   0.7438   2.0041   4.5515   0.00    0.0
2018/03/15 10:15:00.000   78.247140869   16.013830075   439.9307   5   9   3.2335   1.6452   9.8829   0.7433   2.0034   4.5508   0.00    0.0
2018/03/15 10:15:01.000   78.247139148   16.013835282   439.4668   5   9   3.2333   1.6452   9.8806   0.7428   2.0026   4.5501   0.00    0.0
2018/03/15 10:15:02.000   78.247140223   16.013840844   438.1931   5   9   3.2332   1.6452   9.8782   0.7423   2.0019   4.5494   0.00    0.0
2018/03/15 10:15:03.000   78.247132634   16.013827993   437.0245   5   9   3.2330   1.6452   9.8759   0.7418   2.0012   4.5488   0.00    0.0
2018/03/15 10:15:04.000   78.247133759   16.013844568   438.3235   5   9   3.2328   1.6452   9.8735   0.7413   2.0005   4.5481   0.00    0.0
2018/03/15 10:15:05.000   78.247137444   16.013830779   438.4194   5   9   3.2327   1.6452   9.8712   0.7407   1.9998   4.5474   0.00    0.0
2018/03/15 10:15:06.000   78.247144036   16.013832129   439.5447   5   9   3.2325   1.6452   9.8688   0.7402   1.9990   4.5467   0.00    0.0
2018/03/15 10:15:07.000   78.247147254   16.013844228   440.7261   5   9   3.2324   1.6452   9.8665   0.7397   1.9983   4.5461   0.00    0.0
2018/03/15 10:15:08.000   78.247142646   16.013830723   439.8022   5   9   3.2322   1.6452   9.8641   0.7392   1.9976   4.5454   0.00    0.0
2018/03/15 10:15:09.000   78.247135073   16.013846974   439.6927   5   9   3.2321   1.6452   9.8618   0.7387   1.9969   4.5447   0.00    0.0
2018/03/15 10:15:10.000   78.247129265   16.013844813   437.1801   5   9   3.2319   1.6452   9.8594   0.7382   1.9962   4.5440   0.00    0.0
2018/03/15 10:15:11.000   78.247143624   16.013840372   439.4906   5   9   3.2317   1.6452   9.8571   0.7376   1.9954   4.5433   0.00    0.0
2018/03/15 10:15:12.000   78.247148810   16.013829230   442.3536   5   9   3.2316   1.6452   9.8547   0.7371   1.9947   4.5427   0.00    0.0
2018/03/15 10:15:13.000   78.247145312   16.013845576   440.2867   5   9   3.2314   1.6452   9.8524   0.7366   1.9940   4.5420   0.00    0.0
2018/03/15 10:15:14.000   78.247142083   16.013840029   439.5440   5   9   3.2313   1.6452   9.8500   0.7361   1.9933   4.5413   0.00    0.0
2018/03/15 10:15:15.000   78.247140375   16.013866151   440.0866   5   9   3.2311   1.6452   9.8477   0.7356   1.9925   4.5406   0.00    0.0
2018/03/15 10:15:16.000   78.247138472   16.013840803   439.7416   5   9   3.2309   1.6452   9.8453   0.7350   1.9918   4.5399   0.00    0.0
2018/03/15 10:15:17.000   78.247146232   16.013842450   441.3888   5   9   3.2308   1.6452   9.8430   0.7345   1.9911   4.5392   0.00    0.0
2018/03/15 10:15:18.000   78.247146202   16.013839812   440.9749   5   9   3.2306   1.6452   9.8406   0.7340   1.9904   4.5385   0.00    0.0
2018/03/15 10:15:19.000   78.247140770   16.013826885   438.7741   5   9   3.2304   1.6452   9.8382   0.7335   1.9896   4.5379   0.00    0.0
2018/03/15 10:15:20.000   78.247137650   16.013860257   439.8957   5   9   3.2303   1.6452   9.8359   0.7329   1.9889   4.5372   0.00    0.0
2018/03/15 10:15:21.000   78.247131909   16.013861322   438.8579   5   9   3.2301   1.6452   9.8335   0.7324   1.9882   4.5365   0.00    0.0
2018/03/15 10:15:22.000   78.247134378   16.013835069   438.6949   5   9   3.2300   1.6452   9.8312   0.7319   1.9874   4.5358   0.00    0.0
2018/03/15 10:15:23.000   78.247142059   16.013835771   441.8811   5   9   3.2298   1.6452   9.8288   0.7314   1.9867   4.5351   0.00    0.0
2018/03/15 10:15:24.000   78.247141120   16.013833905   441.0273   5   9   3.2296   1.6453   9.8264   0.7308   1.9860   4.5344   0.00    0.0
2018/03/15 10:15:25.000   78.247132763   16.013824320   437.3321   5   9   3.2295   1.6453   9.8241   0.7303   1.9853   4.5337   0.00    0.0
2018/03/15 10:15:26.000   78.247128851   16.013822047   436.4193   5   9   3.2293   1.6453   9.8217   0.7298   1.9845   4.5330   0.00    0.0
2018/03/15 10:15:27.000   78.247131400   16.013832698   438.2153   5   9   3.2291   1.6453   9.8193   0.7292   1.9838   4.5323   0.00    0.0
2018/03/15 10:15:28.000   78.247136215   16.013829347   439.2784   5   9   3.2290   1.6453   9.8170   0.7287   1.9831   4.5316   0.00    0.0
2018/03/15 10:15:29.000   78.247141841   16.013841544   440.1640   5   9   3.2288   1.6453   9.8146   0.7282   1.9823   4.5309   0.00    0.0
2018/03/15 10:15:30.000   78.247136930   16.013829460   439.1657   5   9   3.2286   1.6453   9.8122   0.7277   1.9816   4.5302   0.00    0.0
2018/03/15 10:15:31.000   78.247131354   16.013833665   437.7750   5   9   3.2285   1.6453   9.8099   0.7271   1.9809   4.5295   0.00    0.0
2018/03/15 10:15:32.000   78.247136837   16.013827447   438.5812   5   9   3.2283   1.6453   9.8075   0.7266   1.9801   4.5288   0.00    0.0
2018/03/15 10:15:33.000   78.247136798   16.013833248   440.0263   5   9   3.2281   1.6453   9.8051   0.7261   1.9794   4.5281   0.00    0.0
2018/03/15 10:15:34.000   78.247140855   16.013848653   440.5551   5   9   3.2280   1.6453   9.8028   0.7255   1.9787   4.5274   0.00    0.0
2018/03/15 10:15:35.000   78.247138255   16.013841563   439.7002   5   9   3.2278   1.6453   9.8004   0.7250   1.9779   4.5267   0.00    0.0
2018/03/15 10:15:36.000   78.247140283   16.013850469   440.5169   5   9   3.2276   1.6453   9.7980   0.7245   1.9772   4.5260   0.00    0.0
2018/03/15 10:15:37.000   78.247141618   16.013839775   439.3739   5   9   3.2275   1.6453   9.7957   0.7239   1.9765   4.5253   0.00    0.0
2018/03/15 10:15:38.000   78.247151067   16.013836128   441.1346   5   9   3.2273   1.6453   9.7933   0.7234   1.9757   4.5246   0.00    0.0
2018/03/15 10:15:39.000   78.247156338   16.013859259   443.3729   5   9   3.2271   1.6453   9.7909   0.7228   1.9750   4.5239   0.00    0.0
2018/03/15 10:15:40.000   78.247150942   16.013845186   442.6007   5   9   3.2269   1.6453   9.7885   0.7223   1.9743   4.5232   0.00    0.0
2018/03/15 10:15:41.000   78.247148925   16.013862806   442.6973   5   9   3.2268   1.6453   9.7862   0.7218   1.9735   4.5225   0.00    0.0
2018/03/15 10:15:42.000   78.247142197   16.013874706   442.3695   5   9   3.2266   1.6453   9.7838   0.7212   1.9728   4.5218   0.00    0.0
2018/03/15 10:15:43.000   78.247146293   16.013839323   441.4111   5   9   3.2264   1.6453   9.7814   0.7207   1.9721   4.5211   0.00    0.0
2018/03/15 10:15:44.000   78.247155129   16.013849860   443.8309   5   9   3.2263   1.6453   9.7790   0.7202   1.9713   4.5204   0.00    0.0
2018/03/15 10:15:45.000   78.247146205   16.013841269   440.2699   5   9   3.2261   1.6453   9.7767   0.7196   1.9706   4.5197   0.00    0.0
2018/03/15 10:15:46.000   78.247140163   16.013829826   440.2177   5   9   3.2259   1.6454   9.7743   0.7191   1.9698   4.5190   0.00    0.0
2018/03/15 10:15:47.000   78.247134010   16.013847769   438.6601   5   9   3.2258   1.6454   9.7719   0.7185   1.9691   4.5183   0.00    0.0
2018/03/15 10:15:48.000   78.247131996   16.013843787   438.3480   5   9   3.2256   1.6454   9.7695   0.7180   1.9684   4.5176   0.00    0.0
2018/03/15 10:15:49.000   78.247136562   16.013817725   439.1412   5   9   3.2254   1.6454   9.7671   0.7174   1.9676   4.5169   0.00    0.0
2018/03/15 10:15:50.000   78.247139540   16.013822847   439.0434   5   9   3.2252   1.6454   9.7648   0.7169   1.9669   4.5161   0.00    0.0
2018/03/15 10:15:51.000   78.247139727   16.013822443   440.0169   5   9   3.2251   1.6454   9.7624   0.7164   1.9661   4.5154   0.00    0.0
2018/03/15 10:15:52.000   78.247139306   16.013829762   439.4330   5   9   3.2249   1.6454   9.7600   0.7158   1.9654   4.5147   0.00    0.0
2018/03/15 10:15:53.000   78.247138725   16.013838236   440.2863   5   9   3.2247   1.6454   9.7576   0.7153   1.9647   4.5140   0.00    0.0
2018/03/15 10:15:54.000   78.247129232   16.013832151   437.4177   5   9   3.2245   1.6454   9.7552   0.7147   1.9639   4.5133   0.00    0.0
2018/03/15 10:15:55.000   78.247135838   16.013837725   438.7995   5   9   3.2244   1.6454   9.7529   0.7142   1.9632   4.5126   0.00    0.0
2018/03/15 10:15:56.000   78.247139062   16.013833950   439.8063   5   9   3.2242   1.6454   9.7505   0.7136   1.9624   4.5119   0.00    0.0
2018/03/15 10:15:57.000   78.247137965   16.013825834   439.1120   5   9   3.2240   1.6454   9.7481   0.7131   1.9617   4.5112   0.00    0.0
2018/03/15 10:15:58.000   78.247138438   16.013836778   438.9933   5   9   3.2238   1.6454   9.7457   0.7125   1.9610   4.5104   0.00    0.0
2018/03/15 10:15:59.000   78.247137241   16.013842813   438.6414   5   9   3.2237   1.6454   9.7433   0.7120   1.9602   4.5097   0.00    0.0
2018/03/15 10:16:00.000   78.247137851   16.013836031   438.5954   5   9   3.2235   1.6454   9.7409   0.7114   1.9595   4.5090   0.00    0.0
2018/03/15 10:16:01.000   78.247142532   16.013844478   438.7631   5   9   3.2233   1.6454   9.7385   0.7109   1.9587   4.5083   0.00    0.0
2018/03/15 10:16:02.000   78.247146920   16.013851872   440.8271   5   9   3.2231   1.6454   9.7362   0.7103   1.9580   4.5076   0.00    0.0
2018/03/15 10:16:03.000   78.247141353   16.013861772   441.0682   5   9   3.2229   1.6454   9.7338   0.7098   1.9572   4.5068   0.00    0.0
2018/03/15 10:16:04.000   78.247140884   16.013858735   442.2122   5   9   3.2228   1.6454   9.7314   0.7092   1.9565   4.5061   0.00    0.0
2018/03/15 10:16:05.000   78.247144239   16.013849205   441.2099   5   9   3.2226   1.6454   9.7290   0.7087   1.9557   4.5054   0.00    0.0
2018/03/15 10:16:06.000   78.247148312   16.013861071   442.3446   5   9   3.2224   1.6455   9.7266   0.7081   1.9550   4.5047   0.00    0.0
2018/03/15 10:16:07.000   78.247143052   16.013843533   441.3943   5   9   3.2222   1.6455   9.7242   0.7076   1.9542   4.5040   0.00    0.0
2018/03/15 10:16:08.000   78.247142097   16.013845899   440.1952   5   9   3.2221   1.6455   9.7218   0.7070   1.9535   4.5032   0.00    0.0
2018/03/15 10:16:09.000   78.247137246   16.013847518   439.4189   5   9   3.2219   1.6455   9.7194   0.7065   1.9527   4.5025   0.00    0.0
2018/03/15 10:16:10.000   78.247135452   16.013839623   439.5039   5   9   3.2217   1.6455   9.7170   0.7059   1.9520   4.5018   0.00    0.0
2018/03/15 10:16:11.000   78.247140265   16.013847444   440.6956   5   9   3.2215   1.6455   9.7146   0.7053   1.9513   4.5011   0.00    0.0
2018/03/15 10:16:12.000   78.247142298   16.013840437   440.4288   5   9   3.2213   1.6455   9.7122   0.7048   1.9505   4.5003   0.00    0.0
