% program   : RTKPOST ver.2.4.2
% inp file  : Z:\home\linda\Documents\Spring18\GitHub_Unis\data\processed_data\46250753.obs
% inp file  : Z:\home\linda\Documents\Spring18\GitHub_Unis\data\base_station_data\lyrs0750.18o
% inp file  : Z:\home\linda\Documents\Spring18\GitHub_Unis\data\processed_data\46250753.nav
% obs start : 2018/03/16 10:02:44.0 GPST (week1992 468164.0s)
% obs end   : 2018/03/16 10:17:44.0 GPST (week1992 469064.0s)
% pos mode  : static
% freqs     : L1+L2
% solution  : forward
% elev mask : 15.0 deg
% dynamics  : on
% tidecorr  : off
% ionos opt : broadcast
% tropo opt : saastamoinen
% ephemeris : broadcast
% navi sys  : gps glonass galileo qzss sbas
% amb res   : fix and hold
% amb glo   : on
% val thres : 3.0
% antenna1  :                       ( 0.0000  0.0000  0.0000)
% antenna2  :                       ( 0.0000  0.0000  0.0000)
% ref pos   : 78.228825638   15.397310064   495.6816
%
% (lat/lon/height=WGS84/ellipsoidal,Q=1:fix,2:float,3:sbas,4:dgps,5:single,6:ppp,ns=# of satellites)
%  GPST                  latitude(deg) longitude(deg)  height(m)   Q  ns   sdn(m)   sde(m)   sdu(m)  sdne(m)  sdeu(m)  sdun(m) age(s)  ratio
2018/03/16 10:02:44.000   78.246708229   16.083820012   629.8704   2   9   0.5823   0.3199   1.9742   0.1871   0.3901   0.8571   0.00    1.3
2018/03/16 10:02:45.000   78.246709005   16.083826263   630.4452   2   9   0.4138   0.2272   1.4026   0.1329   0.2773   0.6091   0.00    1.5
2018/03/16 10:02:46.000   78.246709179   16.083827461   630.6683   2   9   0.3383   0.1858   1.1462   0.1086   0.2267   0.4978   0.00    1.5
2018/03/16 10:02:47.000   78.246708600   16.083827354   630.5200   2   9   0.2930   0.1610   0.9922   0.0940   0.1963   0.4310   0.00    1.4
2018/03/16 10:02:48.000   78.246708627   16.083826875   630.2837   2   9   0.2620   0.1441   0.8865   0.0840   0.1753   0.3850   0.00    1.3
2018/03/16 10:02:49.000   78.246708547   16.083826270   630.3539   2   9   0.2391   0.1315   0.8079   0.0766   0.1598   0.3509   0.00    1.2
2018/03/16 10:02:50.000   78.246709105   16.083824831   630.5758   2   9   0.2211   0.1218   0.7464   0.0708   0.1476   0.3241   0.00    1.1
2018/03/16 10:02:51.000   78.246709140   16.083823526   630.7748   2   9   0.2066   0.1139   0.6964   0.0660   0.1377   0.3024   0.00    1.1
2018/03/16 10:02:52.000   78.246709043   16.083822426   630.7460   2   9   0.1945   0.1074   0.6546   0.0621   0.1294   0.2842   0.00    1.1
2018/03/16 10:02:53.000   78.246708978   16.083821799   630.7139   2   9   0.1842   0.1018   0.6190   0.0587   0.1224   0.2686   0.00    1.2
2018/03/16 10:02:54.000   78.246708367   16.083822125   630.5596   2   9   0.1754   0.0971   0.5880   0.0558   0.1162   0.2551   0.00    1.4
2018/03/16 10:02:55.000   78.246708091   16.083821456   630.3838   2   9   0.1676   0.0929   0.5607   0.0533   0.1108   0.2432   0.00    1.5
2018/03/16 10:02:56.000   78.246707410   16.083821273   630.1231   2   9   0.1606   0.0892   0.5364   0.0510   0.1060   0.2326   0.00    1.6
2018/03/16 10:02:57.000   78.246707119   16.083821108   629.9276   2   9   0.1545   0.0860   0.5145   0.0489   0.1016   0.2230   0.00    1.5
2018/03/16 10:02:58.000   78.246706370   16.083820860   629.5365   2   9   0.1489   0.0830   0.4946   0.0470   0.0976   0.2143   0.00    1.5
2018/03/16 10:02:59.000   78.246706135   16.083820867   629.3207   2   9   0.1438   0.0803   0.4763   0.0453   0.0940   0.2063   0.00    1.5
2018/03/16 10:03:00.000   78.246705525   16.083820189   629.1079   2   9   0.1391   0.0779   0.4596   0.0438   0.0907   0.1990   0.00    1.5
2018/03/16 10:03:01.000   78.246704992   16.083819012   628.7597   2   9   0.1348   0.0757   0.4440   0.0423   0.0876   0.1922   0.00    1.5
2018/03/16 10:03:02.000   78.246704495   16.083818575   628.4049   2   9   0.1308   0.0736   0.4295   0.0410   0.0847   0.1858   0.00    1.5
2018/03/16 10:03:03.000   78.246704159   16.083818574   628.1711   2   9   0.1271   0.0717   0.4160   0.0397   0.0820   0.1799   0.00    1.6
2018/03/16 10:03:04.000   78.246703916   16.083818158   627.9224   2   9   0.1237   0.0699   0.4033   0.0385   0.0794   0.1743   0.00    1.6
2018/03/16 10:03:05.000   78.246703785   16.083818260   627.7544   2   9   0.1204   0.0683   0.3913   0.0374   0.0771   0.1690   0.00    1.6
2018/03/16 10:03:06.000   78.246703639   16.083818114   627.5609   2   9   0.1174   0.0668   0.3801   0.0363   0.0748   0.1641   0.00    1.6
2018/03/16 10:03:07.000   78.246703359   16.083817724   627.3415   2   9   0.1145   0.0653   0.3694   0.0354   0.0727   0.1594   0.00    1.6
2018/03/16 10:03:08.000   78.246703124   16.083817509   627.1877   2   9   0.1118   0.0639   0.3592   0.0344   0.0706   0.1549   0.00    1.6
2018/03/16 10:03:09.000   78.246703175   16.083817551   627.1611   2   9   0.1092   0.0627   0.3495   0.0335   0.0687   0.1506   0.00    1.7
2018/03/16 10:03:10.000   78.246703496   16.083817353   627.2465   2   9   0.1068   0.0615   0.3403   0.0327   0.0668   0.1465   0.00    1.7
2018/03/16 10:03:11.000   78.246703933   16.083817165   627.3925   2   9   0.1045   0.0603   0.3315   0.0319   0.0651   0.1426   0.00    1.7
2018/03/16 10:03:12.000   78.246704444   16.083817348   627.5681   2   9   0.1023   0.0592   0.3231   0.0311   0.0634   0.1389   0.00    1.7
2018/03/16 10:03:13.000   78.246705013   16.083817769   627.7612   2   9   0.1002   0.0582   0.3151   0.0304   0.0618   0.1354   0.00    1.7
2018/03/16 10:03:14.000   78.246705448   16.083818005   627.9066   2   9   0.0982   0.0572   0.3073   0.0296   0.0602   0.1319   0.00    1.6
2018/03/16 10:03:15.000   78.246705801   16.083818324   627.9936   2   9   0.0962   0.0562   0.2999   0.0290   0.0587   0.1286   0.00    1.6
2018/03/16 10:03:16.000   78.246706077   16.083818489   628.0451   2   9   0.0944   0.0553   0.2928   0.0283   0.0573   0.1255   0.00    1.5
2018/03/16 10:03:17.000   78.246706363   16.083818771   628.0529   2   9   0.0926   0.0545   0.2859   0.0277   0.0559   0.1224   0.00    1.5
2018/03/16 10:03:18.000   78.246706654   16.083818753   628.1163   2   9   0.0909   0.0537   0.2793   0.0271   0.0546   0.1195   0.00    1.5
2018/03/16 10:03:19.000   78.246706817   16.083818291   628.1060   2   9   0.0893   0.0529   0.2729   0.0265   0.0533   0.1166   0.00    1.5
2018/03/16 10:03:20.000   78.246707012   16.083817762   628.1063   2   9   0.0877   0.0521   0.2668   0.0260   0.0520   0.1139   0.00    1.5
2018/03/16 10:03:21.000   78.246707147   16.083817188   628.0909   2   9   0.0862   0.0514   0.2608   0.0254   0.0508   0.1113   0.00    1.5
2018/03/16 10:03:22.000   78.246707221   16.083816441   628.0703   2   9   0.0848   0.0507   0.2551   0.0249   0.0497   0.1087   0.00    1.5
2018/03/16 10:03:23.000   78.246707221   16.083815627   628.0642   2   9   0.0834   0.0500   0.2495   0.0244   0.0486   0.1062   0.00    1.5
2018/03/16 10:03:24.000   78.246707279   16.083815328   628.0727   2   9   0.0820   0.0493   0.2442   0.0239   0.0475   0.1038   0.00    1.5
2018/03/16 10:03:25.000   78.246707251   16.083814940   628.0296   2   9   0.0807   0.0487   0.2390   0.0235   0.0464   0.1015   0.00    1.5
2018/03/16 10:03:26.000   78.246707217   16.083814734   627.9742   2   9   0.0794   0.0481   0.2340   0.0230   0.0454   0.0993   0.00    1.5
2018/03/16 10:03:27.000   78.246707206   16.083814352   627.9224   2   9   0.0782   0.0475   0.2291   0.0226   0.0444   0.0971   0.00    1.5
2018/03/16 10:03:28.000   78.246707332   16.083814242   627.9524   2   9   0.0770   0.0469   0.2244   0.0222   0.0435   0.0950   0.00    1.5
2018/03/16 10:03:29.000   78.246707491   16.083814231   628.0009   2   9   0.0759   0.0464   0.2199   0.0218   0.0425   0.0930   0.00    1.5
2018/03/16 10:03:30.000   78.246707669   16.083814309   628.0627   2   9   0.0747   0.0459   0.2154   0.0214   0.0416   0.0910   0.00    1.5
2018/03/16 10:03:31.000   78.246707711   16.083814250   628.1024   2   9   0.0737   0.0453   0.2111   0.0210   0.0408   0.0891   0.00    1.4
2018/03/16 10:03:32.000   78.246707671   16.083814338   628.1363   2   9   0.0726   0.0448   0.2070   0.0206   0.0399   0.0872   0.00    1.4
2018/03/16 10:03:33.000   78.246707605   16.083814328   628.1591   2   9   0.0716   0.0443   0.2029   0.0203   0.0391   0.0854   0.00    1.4
2018/03/16 10:03:34.000   78.246707473   16.083814365   628.1355   2   9   0.0706   0.0439   0.1990   0.0199   0.0383   0.0836   0.00    1.4
2018/03/16 10:03:35.000   78.246707376   16.083814509   628.1117   2   9   0.0696   0.0434   0.1952   0.0196   0.0375   0.0819   0.00    1.4
2018/03/16 10:03:36.000   78.246707288   16.083814605   628.0523   2   9   0.0687   0.0430   0.1915   0.0193   0.0368   0.0802   0.00    1.4
2018/03/16 10:03:37.000   78.246707254   16.083814526   627.9753   2   9   0.0678   0.0425   0.1879   0.0190   0.0360   0.0786   0.00    1.3
2018/03/16 10:03:38.000   78.246707170   16.083814315   627.8549   2   9   0.0669   0.0421   0.1844   0.0187   0.0353   0.0771   0.00    1.3
2018/03/16 10:03:39.000   78.246707164   16.083814092   627.7396   2   9   0.0661   0.0417   0.1810   0.0184   0.0346   0.0755   0.00    1.3
2018/03/16 10:03:40.000   78.246707219   16.083813991   627.6730   2   9   0.0652   0.0413   0.1777   0.0181   0.0340   0.0740   0.00    1.3
2018/03/16 10:03:41.000   78.246707226   16.083813878   627.6298   2   9   0.0644   0.0409   0.1745   0.0178   0.0333   0.0726   0.00    1.3
2018/03/16 10:03:42.000   78.246707335   16.083814079   627.6460   2   9   0.0636   0.0405   0.1714   0.0175   0.0327   0.0712   0.00    1.3
2018/03/16 10:03:43.000   78.246707495   16.083814402   627.6716   2   9   0.0629   0.0401   0.1683   0.0173   0.0321   0.0698   0.00    1.3
2018/03/16 10:03:44.000   78.246707677   16.083814725   627.7410   2   9   0.0621   0.0398   0.1654   0.0170   0.0314   0.0685   0.00    1.2
2018/03/16 10:03:45.000   78.246707816   16.083815021   627.8280   2   9   0.0614   0.0394   0.1625   0.0168   0.0309   0.0672   0.00    1.2
2018/03/16 10:03:46.000   78.246707931   16.083815268   627.9304   2   9   0.0607   0.0390   0.1597   0.0166   0.0303   0.0659   0.00    1.2
2018/03/16 10:03:47.000   78.246707993   16.083815598   628.0129   2   9   0.0600   0.0387   0.1570   0.0163   0.0297   0.0647   0.00    1.2
2018/03/16 10:03:48.000   78.246708073   16.083815839   628.1201   2   9   0.0593   0.0384   0.1543   0.0161   0.0292   0.0635   0.00    1.1
2018/03/16 10:03:49.000   78.246708186   16.083816038   628.2625   2   9   0.0586   0.0380   0.1517   0.0159   0.0286   0.0623   0.00    1.1
2018/03/16 10:03:50.000   78.246708270   16.083816161   628.4242   2   9   0.0580   0.0377   0.1492   0.0157   0.0281   0.0612   0.00    1.1
2018/03/16 10:03:51.000   78.246708438   16.083816275   628.6431   2   9   0.0573   0.0374   0.1467   0.0155   0.0276   0.0601   0.00    1.1
2018/03/16 10:03:52.000   78.246708661   16.083816550   628.8635   2   9   0.0567   0.0371   0.1443   0.0153   0.0271   0.0590   0.00    1.0
2018/03/16 10:03:53.000   78.246708803   16.083816782   629.0468   2   9   0.0561   0.0368   0.1420   0.0151   0.0266   0.0579   0.00    1.0
2018/03/16 10:03:54.000   78.246708825   16.083816936   629.1619   2   9   0.0555   0.0365   0.1397   0.0149   0.0262   0.0569   0.00    1.1
2018/03/16 10:03:55.000   78.246708745   16.083816999   629.1851   2   9   0.0549   0.0362   0.1375   0.0147   0.0257   0.0559   0.00    1.1
2018/03/16 10:03:56.000   78.246708624   16.083817148   629.1885   2   9   0.0543   0.0359   0.1353   0.0146   0.0253   0.0549   0.00    1.1
2018/03/16 10:03:57.000   78.246708550   16.083817153   629.1868   2   9   0.0538   0.0357   0.1332   0.0144   0.0248   0.0539   0.00    1.1
2018/03/16 10:03:58.000   78.246708592   16.083817259   629.2135   2   9   0.0532   0.0354   0.1311   0.0142   0.0244   0.0530   0.00    1.2
2018/03/16 10:03:59.000   78.246708725   16.083817316   629.2577   2   9   0.0527   0.0351   0.1291   0.0141   0.0240   0.0521   0.00    1.2
2018/03/16 10:04:00.000   78.246708820   16.083817284   629.2874   2   9   0.0522   0.0348   0.1271   0.0139   0.0236   0.0512   0.00    1.2
2018/03/16 10:04:01.000   78.246708968   16.083817343   629.3425   2   9   0.0517   0.0346   0.1252   0.0137   0.0232   0.0503   0.00    1.2
2018/03/16 10:04:02.000   78.246709148   16.083817426   629.4202   2   9   0.0512   0.0343   0.1233   0.0136   0.0228   0.0495   0.00    1.2
2018/03/16 10:04:03.000   78.246709272   16.083817557   629.5013   2   9   0.0507   0.0341   0.1215   0.0135   0.0224   0.0486   0.00    1.3
2018/03/16 10:04:04.000   78.246709428   16.083817585   629.5858   2   9   0.0502   0.0338   0.1197   0.0133   0.0220   0.0478   0.00    1.3
2018/03/16 10:04:05.000   78.246709609   16.083817680   629.6564   2   9   0.0497   0.0336   0.1179   0.0132   0.0217   0.0470   0.00    1.3
2018/03/16 10:04:06.000   78.246709833   16.083817777   629.7565   2   9   0.0492   0.0334   0.1162   0.0130   0.0213   0.0462   0.00    1.3
2018/03/16 10:04:07.000   78.246710020   16.083817728   629.8391   2   9   0.0488   0.0331   0.1145   0.0129   0.0209   0.0455   0.00    1.3
2018/03/16 10:04:08.000   78.246710215   16.083817642   629.9017   2   9   0.0483   0.0329   0.1129   0.0128   0.0206   0.0447   0.00    1.4
2018/03/16 10:04:09.000   78.246710415   16.083817632   629.9629   2   9   0.0479   0.0327   0.1113   0.0127   0.0203   0.0440   0.00    1.4
2018/03/16 10:04:10.000   78.246710556   16.083817598   629.9743   2   9   0.0475   0.0325   0.1097   0.0126   0.0199   0.0433   0.00    1.4
2018/03/16 10:04:11.000   78.246710644   16.083817578   629.9560   2   9   0.0470   0.0322   0.1082   0.0124   0.0196   0.0426   0.00    1.4
2018/03/16 10:04:12.000   78.246710695   16.083817624   629.8873   2   9   0.0466   0.0320   0.1067   0.0123   0.0193   0.0419   0.00    1.4
2018/03/16 10:04:13.000   78.246710783   16.083817696   629.8046   2   9   0.0462   0.0318   0.1052   0.0122   0.0190   0.0413   0.00    1.3
2018/03/16 10:04:14.000   78.246710860   16.083817745   629.7204   2   9   0.0458   0.0316   0.1038   0.0121   0.0187   0.0406   0.00    1.3
2018/03/16 10:04:15.000   78.246710948   16.083817900   629.6516   2   9   0.0454   0.0314   0.1024   0.0120   0.0184   0.0400   0.00    1.3
2018/03/16 10:04:16.000   78.246711024   16.083817896   629.5754   2   9   0.0450   0.0312   0.1010   0.0119   0.0181   0.0393   0.00    1.3
2018/03/16 10:04:17.000   78.246711013   16.083817856   629.4835   2   9   0.0446   0.0310   0.0997   0.0118   0.0178   0.0387   0.00    1.3
2018/03/16 10:04:18.000   78.246710949   16.083817716   629.4007   2   9   0.0443   0.0308   0.0984   0.0117   0.0176   0.0381   0.00    1.3
2018/03/16 10:04:19.000   78.246710890   16.083817528   629.3335   2   9   0.0439   0.0306   0.0971   0.0116   0.0173   0.0376   0.00    1.3
2018/03/16 10:04:20.000   78.246710880   16.083817320   629.2925   2   9   0.0435   0.0304   0.0958   0.0115   0.0170   0.0370   0.00    1.3
2018/03/16 10:04:21.000   78.246710929   16.083817273   629.2781   2   9   0.0432   0.0302   0.0946   0.0114   0.0168   0.0364   0.00    1.3
2018/03/16 10:04:22.000   78.246710985   16.083817236   629.2588   2   9   0.0428   0.0300   0.0934   0.0113   0.0165   0.0359   0.00    1.2
2018/03/16 10:04:23.000   78.246711010   16.083817201   629.2137   2   9   0.0425   0.0299   0.0922   0.0113   0.0163   0.0353   0.00    1.2
2018/03/16 10:04:24.000   78.246711066   16.083817298   629.1692   2   9   0.0421   0.0297   0.0910   0.0112   0.0160   0.0348   0.00    1.2
2018/03/16 10:04:25.000   78.246711165   16.083817349   629.1240   2   9   0.0418   0.0295   0.0899   0.0111   0.0158   0.0343   0.00    1.2
2018/03/16 10:04:26.000   78.246711254   16.083817239   629.0850   2   9   0.0415   0.0293   0.0888   0.0110   0.0155   0.0338   0.00    1.2
2018/03/16 10:04:27.000   78.246711336   16.083817194   629.0672   2   9   0.0411   0.0291   0.0877   0.0109   0.0153   0.0333   0.00    1.2
2018/03/16 10:04:28.000   78.246711400   16.083817128   629.0897   2   9   0.0408   0.0290   0.0866   0.0109   0.0151   0.0328   0.00    1.2
2018/03/16 10:04:29.000   78.246711470   16.083817019   629.1292   2   9   0.0405   0.0288   0.0855   0.0108   0.0148   0.0323   0.00    1.2
2018/03/16 10:04:30.000   78.246711562   16.083816998   629.1848   2   9   0.0402   0.0286   0.0845   0.0107   0.0146   0.0319   0.00    1.2
2018/03/16 10:04:31.000   78.246711658   16.083816948   629.2397   2   9   0.0399   0.0285   0.0835   0.0107   0.0144   0.0314   0.00    1.2
2018/03/16 10:04:32.000   78.246711766   16.083816907   629.2884   2   9   0.0396   0.0283   0.0825   0.0106   0.0142   0.0309   0.00    1.2
2018/03/16 10:04:33.000   78.246711910   16.083816941   629.3331   2   9   0.0393   0.0281   0.0815   0.0105   0.0140   0.0305   0.00    1.2
2018/03/16 10:04:34.000   78.246712001   16.083816898   629.3740   2   9   0.0390   0.0280   0.0806   0.0105   0.0138   0.0301   0.00    1.2
2018/03/16 10:04:35.000   78.246712104   16.083816720   629.4020   2   9   0.0387   0.0278   0.0796   0.0104   0.0136   0.0296   0.00    1.2
2018/03/16 10:04:36.000   78.246712198   16.083816708   629.4165   2   9   0.0384   0.0277   0.0787   0.0103   0.0134   0.0292   0.00    1.2
2018/03/16 10:04:37.000   78.246712318   16.083816844   629.4390   2   9   0.0381   0.0275   0.0778   0.0103   0.0132   0.0288   0.00    1.2
2018/03/16 10:04:38.000   78.246712441   16.083816942   629.4720   2   9   0.0379   0.0274   0.0769   0.0102   0.0130   0.0284   0.00    1.2
2018/03/16 10:04:39.000   78.246712539   16.083817143   629.5067   2   9   0.0376   0.0272   0.0761   0.0101   0.0128   0.0280   0.00    1.2
2018/03/16 10:04:40.000   78.246712635   16.083817343   629.5475   2   9   0.0373   0.0271   0.0752   0.0101   0.0126   0.0276   0.00    1.2
2018/03/16 10:04:41.000   78.246712677   16.083817656   629.5660   2   9   0.0370   0.0269   0.0744   0.0100   0.0125   0.0273   0.00    1.2
2018/03/16 10:04:42.000   78.246712649   16.083817962   629.5721   2   9   0.0368   0.0268   0.0735   0.0100   0.0123   0.0269   0.00    1.1
2018/03/16 10:04:43.000   78.246712622   16.083818291   629.5789   2   9   0.0365   0.0266   0.0727   0.0099   0.0121   0.0265   0.00    1.1
2018/03/16 10:04:44.000   78.246712598   16.083818636   629.5926   2   9   0.0363   0.0265   0.0719   0.0099   0.0119   0.0262   0.00    1.1
2018/03/16 10:04:45.000   78.246712546   16.083818967   629.6038   2   9   0.0360   0.0263   0.0712   0.0098   0.0118   0.0258   0.00    1.1
2018/03/16 10:04:46.000   78.246712520   16.083819349   629.6206   2   9   0.0358   0.0262   0.0704   0.0098   0.0116   0.0255   0.00    1.1
2018/03/16 10:04:47.000   78.246712465   16.083819741   629.6260   2   9   0.0355   0.0261   0.0696   0.0097   0.0114   0.0251   0.00    1.1
2018/03/16 10:04:48.000   78.246712418   16.083820031   629.6231   2   9   0.0353   0.0259   0.0689   0.0097   0.0113   0.0248   0.00    1.1
2018/03/16 10:04:49.000   78.246712357   16.083820310   629.6211   2   9   0.0350   0.0258   0.0682   0.0096   0.0111   0.0245   0.00    1.1
2018/03/16 10:04:50.000   78.246712287   16.083820641   629.6193   2   9   0.0348   0.0257   0.0675   0.0096   0.0110   0.0241   0.00    1.1
2018/03/16 10:04:51.000   78.246712234   16.083820936   629.6073   2   9   0.0345   0.0255   0.0668   0.0095   0.0108   0.0238   0.00    1.1
2018/03/16 10:04:52.000   78.246712163   16.083821340   629.5981   2   9   0.0343   0.0254   0.0661   0.0095   0.0106   0.0235   0.00    1.2
2018/03/16 10:04:53.000   78.246712111   16.083821570   629.5896   2   9   0.0341   0.0253   0.0654   0.0094   0.0105   0.0232   0.00    1.2
2018/03/16 10:04:54.000   78.246712085   16.083821841   629.5871   2   9   0.0339   0.0251   0.0647   0.0094   0.0103   0.0229   0.00    1.2
2018/03/16 10:04:55.000   78.246712109   16.083822051   629.5933   2   9   0.0336   0.0250   0.0641   0.0094   0.0102   0.0226   0.00    1.2
2018/03/16 10:04:56.000   78.246712148   16.083822131   629.6029   2   9   0.0334   0.0249   0.0634   0.0093   0.0101   0.0223   0.00    1.2
2018/03/16 10:04:57.000   78.246712199   16.083822232   629.6232   2   9   0.0332   0.0248   0.0628   0.0093   0.0099   0.0220   0.00    1.2
2018/03/16 10:04:58.000   78.246712278   16.083822248   629.6480   2   9   0.0330   0.0246   0.0622   0.0092   0.0098   0.0217   0.00    1.2
2018/03/16 10:04:59.000   78.246712351   16.083822076   629.6767   2   9   0.0328   0.0245   0.0615   0.0092   0.0096   0.0215   0.00    1.2
2018/03/16 10:05:00.000   78.246712426   16.083821925   629.7144   2   9   0.0325   0.0244   0.0609   0.0092   0.0095   0.0212   0.00    1.2
2018/03/16 10:05:01.000   78.246712524   16.083821728   629.7634   2   9   0.0323   0.0243   0.0603   0.0091   0.0094   0.0209   0.00    1.2
2018/03/16 10:05:02.000   78.246712661   16.083821528   629.8263   2   9   0.0321   0.0242   0.0598   0.0091   0.0092   0.0207   0.00    1.2
2018/03/16 10:05:03.000   78.246712809   16.083821284   629.8866   2   9   0.0319   0.0240   0.0592   0.0090   0.0091   0.0204   0.00    1.2
2018/03/16 10:05:04.000   78.246713002   16.083821083   629.9482   2   9   0.0317   0.0239   0.0586   0.0090   0.0090   0.0201   0.00    1.3
2018/03/16 10:05:05.000   78.246713192   16.083820828   630.0036   2   9   0.0315   0.0238   0.0581   0.0090   0.0089   0.0199   0.00    1.3
2018/03/16 10:05:06.000   78.246713348   16.083820623   630.0544   2   9   0.0313   0.0237   0.0575   0.0089   0.0087   0.0196   0.00    1.3
2018/03/16 10:05:07.000   78.246713462   16.083820369   630.1081   2   9   0.0311   0.0236   0.0570   0.0089   0.0086   0.0194   0.00    1.3
2018/03/16 10:05:08.000   78.246713474   16.083819971   630.1570   2   9   0.0309   0.0235   0.0564   0.0089   0.0085   0.0192   0.00    1.3
2018/03/16 10:05:09.000   78.246713476   16.083819490   630.2142   2   9   0.0307   0.0234   0.0559   0.0088   0.0084   0.0189   0.00    1.4
2018/03/16 10:05:10.000   78.246713469   16.083818890   630.2697   2   9   0.0305   0.0233   0.0554   0.0088   0.0083   0.0187   0.00    1.4
2018/03/16 10:05:11.000   78.246713458   16.083818293   630.3270   2   9   0.0304   0.0231   0.0549   0.0088   0.0082   0.0185   0.00    1.4
2018/03/16 10:05:12.000   78.246713473   16.083817739   630.3814   2   9   0.0302   0.0230   0.0544   0.0087   0.0080   0.0182   0.00    1.4
2018/03/16 10:05:13.000   78.246713498   16.083817328   630.4321   2   9   0.0300   0.0229   0.0539   0.0087   0.0079   0.0180   0.00    1.5
2018/03/16 10:05:14.000   78.246713505   16.083816937   630.4688   2   9   0.0298   0.0228   0.0534   0.0087   0.0078   0.0178   0.00    1.5
2018/03/16 10:05:15.000   78.246713505   16.083816718   630.4941   2   9   0.0296   0.0227   0.0529   0.0086   0.0077   0.0176   0.00    1.5
2018/03/16 10:05:16.000   78.246713471   16.083816629   630.5127   2   9   0.0294   0.0226   0.0525   0.0086   0.0076   0.0174   0.00    1.6
2018/03/16 10:05:17.000   78.246713435   16.083816733   630.5275   2   9   0.0293   0.0225   0.0520   0.0086   0.0075   0.0172   0.00    1.6
2018/03/16 10:05:18.000   78.246713420   16.083816850   630.5418   2   9   0.0291   0.0224   0.0515   0.0085   0.0074   0.0170   0.00    1.6
2018/03/16 10:05:19.000   78.246713417   16.083817158   630.5440   2   9   0.0289   0.0223   0.0511   0.0085   0.0073   0.0168   0.00    1.6
2018/03/16 10:05:20.000   78.246713488   16.083817548   630.5496   2   9   0.0288   0.0222   0.0506   0.0085   0.0072   0.0166   0.00    1.7
2018/03/16 10:05:21.000   78.246713598   16.083817932   630.5592   2   9   0.0286   0.0221   0.0502   0.0084   0.0071   0.0164   0.00    1.7
2018/03/16 10:05:22.000   78.246713715   16.083818279   630.5729   2   9   0.0284   0.0220   0.0498   0.0084   0.0070   0.0162   0.00    1.7
2018/03/16 10:05:23.000   78.246713813   16.083818501   630.5849   2   9   0.0282   0.0219   0.0493   0.0084   0.0069   0.0160   0.00    1.7
2018/03/16 10:05:24.000   78.246713915   16.083818725   630.5980   2   9   0.0281   0.0218   0.0489   0.0084   0.0068   0.0158   0.00    1.7
2018/03/16 10:05:25.000   78.246714010   16.083818943   630.6143   2   9   0.0279   0.0217   0.0485   0.0083   0.0067   0.0156   0.00    1.7
2018/03/16 10:05:26.000   78.246714136   16.083819152   630.6362   2   9   0.0278   0.0216   0.0481   0.0083   0.0066   0.0154   0.00    1.7
2018/03/16 10:05:27.000   78.246714257   16.083819310   630.6642   2   9   0.0276   0.0215   0.0477   0.0083   0.0065   0.0153   0.00    1.7
2018/03/16 10:05:28.000   78.246714379   16.083819444   630.6961   2   9   0.0274   0.0214   0.0473   0.0083   0.0064   0.0151   0.00    1.7
2018/03/16 10:05:29.000   78.246714474   16.083819431   630.7343   2   9   0.0273   0.0213   0.0469   0.0082   0.0063   0.0149   0.00    1.7
2018/03/16 10:05:30.000   78.246714542   16.083819383   630.7702   2   9   0.0271   0.0212   0.0465   0.0082   0.0062   0.0147   0.00    1.8
2018/03/16 10:05:31.000   78.246714627   16.083819289   630.8093   2   9   0.0270   0.0211   0.0461   0.0082   0.0061   0.0146   0.00    1.8
2018/03/16 10:05:32.000   78.246714691   16.083819207   630.8435   2   9   0.0268   0.0211   0.0458   0.0081   0.0060   0.0144   0.00    1.8
2018/03/16 10:05:33.000   78.246714754   16.083819125   630.8779   2   9   0.0267   0.0210   0.0454   0.0081   0.0059   0.0142   0.00    1.8
2018/03/16 10:05:34.000   78.246714793   16.083819095   630.9035   2   9   0.0265   0.0209   0.0450   0.0081   0.0059   0.0141   0.00    1.8
2018/03/16 10:05:35.000   78.246714817   16.083819124   630.9255   2   9   0.0264   0.0208   0.0447   0.0081   0.0058   0.0139   0.00    1.8
2018/03/16 10:05:36.000   78.246714846   16.083819172   630.9387   2   9   0.0262   0.0207   0.0443   0.0080   0.0057   0.0138   0.00    1.8
2018/03/16 10:05:37.000   78.246714865   16.083819278   630.9493   2   9   0.0261   0.0206   0.0440   0.0080   0.0056   0.0136   0.00    1.8
2018/03/16 10:05:38.000   78.246714889   16.083819362   630.9605   2   9   0.0259   0.0205   0.0436   0.0080   0.0055   0.0135   0.00    1.8
2018/03/16 10:05:39.000   78.246714909   16.083819473   630.9726   2   9   0.0258   0.0204   0.0433   0.0080   0.0054   0.0133   0.00    1.8
2018/03/16 10:05:40.000   78.246714925   16.083819508   630.9838   2   9   0.0257   0.0203   0.0429   0.0079   0.0054   0.0132   0.00    1.8
2018/03/16 10:05:41.000   78.246714920   16.083819545   630.9930   2   9   0.0255   0.0203   0.0426   0.0079   0.0053   0.0130   0.00    1.9
2018/03/16 10:05:42.000   78.246714915   16.083819574   630.9990   2   9   0.0254   0.0202   0.0423   0.0079   0.0052   0.0129   0.00    1.9
2018/03/16 10:05:43.000   78.246714933   16.083819599   631.0078   2   9   0.0252   0.0201   0.0420   0.0079   0.0051   0.0127   0.00    1.9
2018/03/16 10:05:44.000   78.246714958   16.083819614   631.0206   2   9   0.0251   0.0200   0.0416   0.0079   0.0050   0.0126   0.00    1.9
2018/03/16 10:05:45.000   78.246714980   16.083819581   631.0343   2   9   0.0250   0.0199   0.0413   0.0078   0.0050   0.0124   0.00    2.0
2018/03/16 10:05:46.000   78.246715000   16.083819604   631.0576   2   9   0.0248   0.0198   0.0410   0.0078   0.0049   0.0123   0.00    2.0
2018/03/16 10:05:47.000   78.246715013   16.083819673   631.0778   2   9   0.0247   0.0198   0.0407   0.0078   0.0048   0.0122   0.00    2.0
2018/03/16 10:05:48.000   78.246715025   16.083819768   631.0999   2   9   0.0246   0.0197   0.0404   0.0078   0.0047   0.0120   0.00    2.0
2018/03/16 10:05:49.000   78.246715022   16.083819822   631.1175   2   9   0.0244   0.0196   0.0401   0.0077   0.0046   0.0119   0.00    2.1
2018/03/16 10:05:50.000   78.246715034   16.083819994   631.1354   2   9   0.0243   0.0195   0.0398   0.0077   0.0046   0.0118   0.00    2.1
2018/03/16 10:05:51.000   78.246715065   16.083820154   631.1551   2   9   0.0242   0.0194   0.0395   0.0077   0.0045   0.0117   0.00    2.1
2018/03/16 10:05:52.000   78.246715136   16.083820417   631.1869   2   9   0.0241   0.0194   0.0392   0.0077   0.0044   0.0115   0.00    2.1
2018/03/16 10:05:53.000   78.246715204   16.083820742   631.2217   2   9   0.0239   0.0193   0.0389   0.0076   0.0043   0.0114   0.00    2.2
2018/03/16 10:05:54.000   78.246715243   16.083821009   631.2493   2   9   0.0238   0.0192   0.0386   0.0076   0.0043   0.0113   0.00    2.2
2018/03/16 10:05:55.000   78.246715279   16.083821241   631.2800   2   9   0.0237   0.0191   0.0384   0.0076   0.0042   0.0112   0.00    2.2
2018/03/16 10:05:56.000   78.246715287   16.083821428   631.3085   2   9   0.0236   0.0190   0.0381   0.0076   0.0041   0.0110   0.00    2.2
2018/03/16 10:05:57.000   78.246715279   16.083821659   631.3445   2   9   0.0234   0.0190   0.0378   0.0076   0.0041   0.0109   0.00    2.2
2018/03/16 10:05:58.000   78.246715281   16.083821916   631.3841   2   9   0.0233   0.0189   0.0375   0.0075   0.0040   0.0108   0.00    2.2
2018/03/16 10:05:59.000   78.246715265   16.083822133   631.4267   2   9   0.0232   0.0188   0.0373   0.0075   0.0039   0.0107   0.00    2.3
2018/03/16 10:06:00.000   78.246715255   16.083822310   631.4618   2   9   0.0231   0.0187   0.0370   0.0075   0.0038   0.0106   0.00    2.3
2018/03/16 10:06:01.000   78.246715270   16.083822453   631.4977   2   9   0.0230   0.0187   0.0368   0.0075   0.0038   0.0105   0.00    2.3
2018/03/16 10:06:02.000   78.246715279   16.083822589   631.5207   2   9   0.0228   0.0186   0.0365   0.0075   0.0037   0.0104   0.00    2.3
2018/03/16 10:06:03.000   78.246715301   16.083822776   631.5360   2   9   0.0227   0.0185   0.0362   0.0074   0.0036   0.0102   0.00    2.3
2018/03/16 10:06:04.000   78.246715310   16.083822939   631.5468   2   9   0.0226   0.0184   0.0360   0.0074   0.0036   0.0101   0.00    2.3
2018/03/16 10:06:05.000   78.246715327   16.083823091   631.5569   2   9   0.0225   0.0184   0.0358   0.0074   0.0035   0.0100   0.00    2.4
2018/03/16 10:06:06.000   78.246715340   16.083823249   631.5650   2   9   0.0224   0.0183   0.0355   0.0074   0.0034   0.0099   0.00    2.4
2018/03/16 10:06:07.000   78.246715356   16.083823415   631.5671   2   9   0.0223   0.0182   0.0353   0.0074   0.0034   0.0098   0.00    2.4
2018/03/16 10:06:08.000   78.246715369   16.083823649   631.5685   2   9   0.0222   0.0182   0.0350   0.0073   0.0033   0.0097   0.00    2.4
2018/03/16 10:06:09.000   78.246715386   16.083823920   631.5678   2   9   0.0221   0.0181   0.0348   0.0073   0.0032   0.0096   0.00    2.4
2018/03/16 10:06:10.000   78.246715401   16.083824211   631.5668   2   9   0.0219   0.0180   0.0346   0.0073   0.0032   0.0095   0.00    2.4
2018/03/16 10:06:11.000   78.246715406   16.083824485   631.5687   2   9   0.0218   0.0180   0.0343   0.0073   0.0031   0.0094   0.00    2.4
2018/03/16 10:06:12.000   78.246715379   16.083824701   631.5689   2   9   0.0217   0.0179   0.0341   0.0073   0.0030   0.0093   0.00    2.5
2018/03/16 10:06:13.000   78.246715343   16.083824932   631.5712   2   9   0.0216   0.0178   0.0339   0.0072   0.0030   0.0092   0.00    2.5
2018/03/16 10:06:14.000   78.246715275   16.083825144   631.5731   2   9   0.0215   0.0177   0.0336   0.0072   0.0029   0.0091   0.00    2.5
2018/03/16 10:06:15.000   78.246715187   16.083825392   631.5780   2   9   0.0214   0.0177   0.0334   0.0072   0.0028   0.0090   0.00    2.5
2018/03/16 10:06:16.000   78.246715089   16.083825679   631.5823   2   9   0.0213   0.0176   0.0332   0.0072   0.0028   0.0089   0.00    2.5
2018/03/16 10:06:17.000   78.246714972   16.083825975   631.5807   2   9   0.0212   0.0175   0.0330   0.0072   0.0027   0.0088   0.00    2.5
2018/03/16 10:06:18.000   78.246714820   16.083826289   631.5766   2   9   0.0211   0.0175   0.0328   0.0071   0.0026   0.0088   0.00    2.5
2018/03/16 10:06:19.000   78.246714655   16.083826543   631.5715   2   9   0.0210   0.0174   0.0326   0.0071   0.0026   0.0087   0.00    2.5
2018/03/16 10:06:20.000   78.246714478   16.083826803   631.5630   2   9   0.0209   0.0173   0.0324   0.0071   0.0025   0.0086   0.00    2.5
2018/03/16 10:06:21.000   78.246714301   16.083827057   631.5532   2   9   0.0208   0.0173   0.0322   0.0071   0.0024   0.0085   0.00    2.5
2018/03/16 10:06:22.000   78.246714142   16.083827343   631.5433   2   9   0.0207   0.0172   0.0319   0.0071   0.0024   0.0084   0.00    2.5
2018/03/16 10:06:23.000   78.246714019   16.083827650   631.5356   2   9   0.0206   0.0171   0.0317   0.0070   0.0023   0.0083   0.00    2.5
2018/03/16 10:06:24.000   78.246713904   16.083828003   631.5257   2   9   0.0205   0.0171   0.0315   0.0070   0.0022   0.0082   0.00    2.5
2018/03/16 10:06:25.000   78.246713793   16.083828307   631.5151   2   9   0.0204   0.0170   0.0313   0.0070   0.0022   0.0081   0.00    2.5
2018/03/16 10:06:26.000   78.246713652   16.083828593   631.5066   2   9   0.0203   0.0170   0.0311   0.0070   0.0021   0.0081   0.00    2.5
2018/03/16 10:06:27.000   78.246713512   16.083828846   631.4993   2   9   0.0202   0.0169   0.0310   0.0070   0.0020   0.0080   0.00    2.5
2018/03/16 10:06:28.000   78.246713378   16.083829151   631.4921   2   9   0.0201   0.0168   0.0308   0.0070   0.0019   0.0079   0.00    2.5
2018/03/16 10:06:29.000   78.246713274   16.083829498   631.4858   2   9   0.0200   0.0168   0.0306   0.0069   0.0019   0.0078   0.00    2.5
2018/03/16 10:06:30.000   78.246713186   16.083829846   631.4822   2   9   0.0199   0.0167   0.0304   0.0069   0.0018   0.0077   0.00    2.4
2018/03/16 10:06:31.000   78.246713095   16.083830220   631.4769   2   9   0.0198   0.0166   0.0302   0.0069   0.0017   0.0077   0.00    2.4
2018/03/16 10:06:32.000   78.246713025   16.083830594   631.4751   2   9   0.0198   0.0166   0.0300   0.0069   0.0017   0.0076   0.00    2.4
2018/03/16 10:06:33.000   78.246712940   16.083830912   631.4694   2   9   0.0197   0.0165   0.0298   0.0069   0.0016   0.0075   0.00    2.4
2018/03/16 10:06:34.000   78.246712857   16.083831194   631.4615   2   9   0.0196   0.0165   0.0297   0.0069   0.0015   0.0074   0.00    2.4
2018/03/16 10:06:35.000   78.246712775   16.083831419   631.4509   2   9   0.0195   0.0164   0.0295   0.0068   0.0014   0.0074   0.00    2.4
2018/03/16 10:06:36.000   78.246712699   16.083831646   631.4438   2   9   0.0194   0.0163   0.0293   0.0068   0.0013   0.0073   0.00    2.4
2018/03/16 10:06:37.000   78.246712637   16.083831838   631.4380   2   9   0.0193   0.0163   0.0291   0.0068   0.0012   0.0072   0.00    2.4
2018/03/16 10:06:38.000   78.246712584   16.083832075   631.4324   2   9   0.0192   0.0162   0.0290   0.0068   0.0011   0.0071   0.00    2.4
2018/03/16 10:06:39.000   78.246712525   16.083832300   631.4271   2   9   0.0191   0.0162   0.0288   0.0068   0.0010   0.0071   0.00    2.4
2018/03/16 10:06:40.000   78.246712464   16.083832536   631.4233   2   9   0.0190   0.0161   0.0286   0.0067   0.0009   0.0070   0.00    2.4
2018/03/16 10:06:41.000   78.246712408   16.083832794   631.4142   2   9   0.0190   0.0161   0.0284   0.0067   0.0008   0.0069   0.00    2.4
2018/03/16 10:06:42.000   78.246712356   16.083833078   631.4033   2   9   0.0189   0.0160   0.0283   0.0067   0.0007   0.0068   0.00    2.4
2018/03/16 10:06:43.000   78.246712304   16.083833359   631.3956   2   9   0.0188   0.0159   0.0281   0.0067   0.0005   0.0068   0.00    2.4
2018/03/16 10:06:44.000   78.246712245   16.083833634   631.3897   2   9   0.0187   0.0159   0.0280   0.0067   0.0003   0.0067   0.00    2.4
2018/03/16 10:06:45.000   78.246712160   16.083833905   631.3820   2   9   0.0186   0.0158   0.0278   0.0067  -0.0003   0.0066   0.00    2.4
2018/03/16 10:06:46.000   78.246712087   16.083834174   631.3722   2   9   0.0185   0.0158   0.0276   0.0066  -0.0005   0.0066   0.00    2.4
2018/03/16 10:06:47.000   78.246712008   16.083834385   631.3637   2   9   0.0185   0.0157   0.0275   0.0066  -0.0007   0.0065   0.00    2.4
2018/03/16 10:06:48.000   78.246711928   16.083834638   631.3582   2   9   0.0184   0.0157   0.0273   0.0066  -0.0008   0.0064   0.00    2.4
2018/03/16 10:06:49.000   78.246711836   16.083834911   631.3521   2   9   0.0183   0.0156   0.0272   0.0066  -0.0009   0.0064   0.00    2.4
2018/03/16 10:06:50.000   78.246711733   16.083835135   631.3458   2   9   0.0182   0.0156   0.0270   0.0066  -0.0010   0.0063   0.00    2.4
2018/03/16 10:06:51.000   78.246711619   16.083835329   631.3392   2   9   0.0181   0.0155   0.0269   0.0066  -0.0011   0.0063   0.00    2.4
2018/03/16 10:06:52.000   78.246711501   16.083835498   631.3349   2   9   0.0181   0.0154   0.0267   0.0065  -0.0011   0.0062   0.00    2.4
2018/03/16 10:06:53.000   78.246711376   16.083835598   631.3329   2   9   0.0180   0.0154   0.0266   0.0065  -0.0012   0.0061   0.00    2.4
2018/03/16 10:06:54.000   78.246711246   16.083835686   631.3333   2   9   0.0179   0.0153   0.0264   0.0065  -0.0013   0.0061   0.00    2.4
2018/03/16 10:06:55.000   78.246711120   16.083835670   631.3375   2   9   0.0178   0.0153   0.0263   0.0065  -0.0013   0.0060   0.00    2.4
2018/03/16 10:06:56.000   78.246710997   16.083835530   631.3444   2   9   0.0177   0.0152   0.0261   0.0065  -0.0014   0.0059   0.00    2.4
2018/03/16 10:06:57.000   78.246710892   16.083835405   631.3493   2   9   0.0177   0.0152   0.0260   0.0065  -0.0014   0.0059   0.00    2.4
2018/03/16 10:06:58.000   78.246710821   16.083835372   631.3476   2   9   0.0176   0.0151   0.0258   0.0064  -0.0015   0.0058   0.00    2.4
2018/03/16 10:06:59.000   78.246710783   16.083835400   631.3393   2   9   0.0175   0.0151   0.0257   0.0064  -0.0015   0.0058   0.00    2.4
2018/03/16 10:07:00.000   78.246710767   16.083835443   631.3248   2   9   0.0174   0.0150   0.0256   0.0064  -0.0016   0.0057   0.00    2.4
2018/03/16 10:07:01.000   78.246710789   16.083835584   631.3051   2   9   0.0174   0.0150   0.0254   0.0064  -0.0016   0.0057   0.00    2.5
2018/03/16 10:07:02.000   78.246710827   16.083835772   631.2865   2   9   0.0173   0.0149   0.0253   0.0064  -0.0016   0.0056   0.00    2.5
2018/03/16 10:07:03.000   78.246710865   16.083835926   631.2697   2   9   0.0172   0.0149   0.0251   0.0064  -0.0017   0.0055   0.00    2.5
2018/03/16 10:07:04.000   78.246710909   16.083836112   631.2572   2   9   0.0171   0.0148   0.0250   0.0064  -0.0017   0.0055   0.00    2.5
2018/03/16 10:07:05.000   78.246710939   16.083836297   631.2483   2   9   0.0171   0.0148   0.0249   0.0063  -0.0017   0.0054   0.00    2.5
2018/03/16 10:07:06.000   78.246710972   16.083836474   631.2425   2   9   0.0170   0.0147   0.0247   0.0063  -0.0018   0.0054   0.00    2.5
2018/03/16 10:07:07.000   78.246710992   16.083836633   631.2384   2   9   0.0169   0.0147   0.0246   0.0063  -0.0018   0.0053   0.00    2.6
2018/03/16 10:07:08.000   78.246710990   16.083836713   631.2383   2   9   0.0169   0.0146   0.0245   0.0063  -0.0018   0.0053   0.00    2.6
2018/03/16 10:07:09.000   78.246710992   16.083836772   631.2389   2   9   0.0168   0.0146   0.0244   0.0063  -0.0019   0.0052   0.00    2.6
2018/03/16 10:07:10.000   78.246711009   16.083836853   631.2384   2   9   0.0167   0.0145   0.0242   0.0063  -0.0019   0.0052   0.00    2.6
2018/03/16 10:07:11.000   78.246711016   16.083836844   631.2389   2   9   0.0167   0.0145   0.0241   0.0062  -0.0019   0.0051   0.00    2.6
2018/03/16 10:07:12.000   78.246711008   16.083836812   631.2412   2   9   0.0166   0.0144   0.0240   0.0062  -0.0019   0.0051   0.00    2.7
2018/03/16 10:07:13.000   78.246710994   16.083836778   631.2423   2   9   0.0165   0.0144   0.0239   0.0062  -0.0020   0.0050   0.00    2.7
2018/03/16 10:07:14.000   78.246710985   16.083836814   631.2433   2   9   0.0164   0.0143   0.0237   0.0062  -0.0020   0.0050   0.00    2.7
2018/03/16 10:07:15.000   78.246710968   16.083836929   631.2432   2   9   0.0164   0.0143   0.0236   0.0062  -0.0020   0.0049   0.00    2.7
2018/03/16 10:07:16.000   78.246710955   16.083837093   631.2419   2   9   0.0163   0.0142   0.0235   0.0062  -0.0020   0.0049   0.00    2.7
2018/03/16 10:07:17.000   78.246710933   16.083837335   631.2390   2   9   0.0162   0.0142   0.0234   0.0062  -0.0021   0.0048   0.00    2.7
2018/03/16 10:07:18.000   78.246710934   16.083837602   631.2389   2   9   0.0162   0.0141   0.0233   0.0061  -0.0021   0.0048   0.00    2.8
2018/03/16 10:07:19.000   78.246710960   16.083837892   631.2397   2   9   0.0161   0.0141   0.0231   0.0061  -0.0021   0.0047   0.00    2.8
2018/03/16 10:07:20.000   78.246710993   16.083838148   631.2425   2   9   0.0160   0.0140   0.0230   0.0061  -0.0021   0.0047   0.00    2.8
2018/03/16 10:07:21.000   78.246711038   16.083838316   631.2477   2   9   0.0160   0.0140   0.0229   0.0061  -0.0021   0.0046   0.00    2.8
2018/03/16 10:07:22.000   78.246711085   16.083838421   631.2535   2   9   0.0159   0.0140   0.0228   0.0061  -0.0022   0.0046   0.00    2.8
2018/03/16 10:07:23.000   78.246711126   16.083838513   631.2596   2   9   0.0159   0.0139   0.0227   0.0061  -0.0022   0.0045   0.00    2.8
2018/03/16 10:07:24.000   78.246711157   16.083838568   631.2677   2   9   0.0158   0.0139   0.0226   0.0060  -0.0022   0.0045   0.00    2.8
2018/03/16 10:07:25.000   78.246711184   16.083838665   631.2750   2   9   0.0157   0.0138   0.0225   0.0060  -0.0022   0.0044   0.00    2.9
2018/03/16 10:07:26.000   78.246711194   16.083838790   631.2758   2   9   0.0157   0.0138   0.0223   0.0060  -0.0022   0.0044   0.00    2.9
2018/03/16 10:07:27.000   78.246711197   16.083838953   631.2694   2   9   0.0156   0.0137   0.0222   0.0060  -0.0022   0.0043   0.00    2.9
2018/03/16 10:07:28.000   78.246711202   16.083839158   631.2599   2   9   0.0155   0.0137   0.0221   0.0060  -0.0023   0.0043   0.00    2.9
2018/03/16 10:07:29.000   78.246711201   16.083839411   631.2496   2   9   0.0155   0.0136   0.0220   0.0060  -0.0023   0.0043   0.00    2.9
2018/03/16 10:07:30.000   78.246711210   16.083839660   631.2381   2   9   0.0154   0.0136   0.0219   0.0060  -0.0023   0.0042   0.00    2.9
2018/03/16 10:07:31.000   78.246711234   16.083839904   631.2219   2   9   0.0154   0.0136   0.0218   0.0059  -0.0023   0.0042   0.00    2.9
2018/03/16 10:07:32.000   78.246711272   16.083840194   631.2011   2   9   0.0153   0.0135   0.0217   0.0059  -0.0023   0.0041   0.00    2.9
2018/03/16 10:07:33.000   78.246711332   16.083840508   631.1744   2   9   0.0152   0.0135   0.0216   0.0059  -0.0023   0.0041   0.00    2.9
2018/03/16 10:07:34.000   78.246711394   16.083840862   631.1445   2   9   0.0152   0.0134   0.0215   0.0059  -0.0023   0.0040   0.00    2.9
2018/03/16 10:07:35.000   78.246711456   16.083841219   631.1159   2   9   0.0151   0.0134   0.0214   0.0059  -0.0023   0.0040   0.00    2.9
2018/03/16 10:07:36.000   78.246711508   16.083841543   631.0891   2   9   0.0151   0.0133   0.0213   0.0059  -0.0024   0.0040   0.00    2.9
2018/03/16 10:07:37.000   78.246711554   16.083841858   631.0618   2   9   0.0150   0.0133   0.0212   0.0059  -0.0024   0.0039   0.00    2.9
2018/03/16 10:07:38.000   78.246711595   16.083842118   631.0398   2   9   0.0149   0.0133   0.0211   0.0058  -0.0024   0.0039   0.00    2.9
2018/03/16 10:07:39.000   78.246711628   16.083842322   631.0223   2   9   0.0149   0.0132   0.0210   0.0058  -0.0024   0.0038   0.00    2.9
2018/03/16 10:07:40.000   78.246711666   16.083842472   631.0083   2   9   0.0148   0.0132   0.0209   0.0058  -0.0024   0.0038   0.00    2.9
2018/03/16 10:07:41.000   78.246711714   16.083842593   630.9964   2   9   0.0148   0.0131   0.0208   0.0058  -0.0024   0.0037   0.00    2.9
2018/03/16 10:07:42.000   78.246711750   16.083842727   630.9858   2   9   0.0147   0.0131   0.0207   0.0058  -0.0024   0.0037   0.00    2.9
2018/03/16 10:07:43.000   78.246711788   16.083842845   630.9763   2   9   0.0147   0.0131   0.0206   0.0058  -0.0024   0.0037   0.00    2.9
2018/03/16 10:07:44.000   78.246711825   16.083842960   630.9669   2   9   0.0146   0.0130   0.0205   0.0058  -0.0024   0.0036   0.00    2.9
2018/03/16 10:07:45.000   78.246711861   16.083843066   630.9590   2   9   0.0146   0.0130   0.0204   0.0058  -0.0024   0.0036   0.00    2.9
2018/03/16 10:07:46.000   78.246711894   16.083843183   630.9541   2   9   0.0145   0.0129   0.0203   0.0057  -0.0024   0.0035   0.00    2.9
2018/03/16 10:07:47.000   78.246711928   16.083843197   630.9520   2   9   0.0144   0.0129   0.0202   0.0057  -0.0025   0.0035   0.00    2.9
2018/03/16 10:07:48.000   78.246711958   16.083843120   630.9525   2   9   0.0144   0.0128   0.0201   0.0057  -0.0025   0.0035   0.00    2.9
2018/03/16 10:07:49.000   78.246711989   16.083843002   630.9562   2   9   0.0143   0.0128   0.0200   0.0057  -0.0025   0.0034   0.00    2.9
2018/03/16 10:07:50.000   78.246712022   16.083842861   630.9617   2   9   0.0143   0.0128   0.0200   0.0057  -0.0025   0.0034   0.00    2.9
2018/03/16 10:07:51.000   78.246712043   16.083842680   630.9688   2   9   0.0142   0.0127   0.0199   0.0057  -0.0025   0.0034   0.00    2.9
2018/03/16 10:07:52.000   78.246712034   16.083842453   630.9765   2   9   0.0142   0.0127   0.0198   0.0057  -0.0025   0.0033   0.00    2.9
2018/03/16 10:07:53.000   78.246711992   16.083842211   630.9859   2   9   0.0141   0.0127   0.0197   0.0056  -0.0025   0.0033   0.00    2.9
2018/03/16 10:07:54.000   78.246711942   16.083841961   630.9966   2   9   0.0141   0.0126   0.0196   0.0056  -0.0025   0.0033   0.00    2.9
2018/03/16 10:07:55.000   78.246711909   16.083841731   631.0066   2   9   0.0140   0.0126   0.0195   0.0056  -0.0025   0.0032   0.00    2.9
2018/03/16 10:07:56.000   78.246711865   16.083841472   631.0159   2   9   0.0140   0.0125   0.0194   0.0056  -0.0025   0.0032   0.00    2.9
2018/03/16 10:07:57.000   78.246711825   16.083841248   631.0260   2   9   0.0139   0.0125   0.0193   0.0056  -0.0025   0.0031   0.00    2.9
2018/03/16 10:07:58.000   78.246711780   16.083841024   631.0340   2   9   0.0139   0.0125   0.0193   0.0056  -0.0025   0.0031   0.00    2.9
2018/03/16 10:07:59.000   78.246711727   16.083840840   631.0407   2   9   0.0138   0.0124   0.0192   0.0056  -0.0025   0.0031   0.00    2.9
2018/03/16 10:08:00.000   78.246711670   16.083840685   631.0468   2   9   0.0138   0.0124   0.0191   0.0056  -0.0025   0.0030   0.00    2.9
2018/03/16 10:08:01.000   78.246711606   16.083840566   631.0463   2   9   0.0137   0.0124   0.0190   0.0055  -0.0025   0.0030   0.00    2.9
2018/03/16 10:08:02.000   78.246711536   16.083840445   631.0464   2   9   0.0137   0.0123   0.0189   0.0055  -0.0025   0.0030   0.00    2.9
2018/03/16 10:08:03.000   78.246711461   16.083840318   631.0441   2   9   0.0136   0.0123   0.0188   0.0055  -0.0025   0.0029   0.00    2.9
2018/03/16 10:08:04.000   78.246711394   16.083840189   631.0387   2   9   0.0136   0.0122   0.0188   0.0055  -0.0026   0.0029   0.00    2.8
2018/03/16 10:08:05.000   78.246711337   16.083840135   631.0282   2   9   0.0135   0.0122   0.0187   0.0055  -0.0026   0.0029   0.00    2.8
2018/03/16 10:08:06.000   78.246711289   16.083840156   631.0155   2   9   0.0135   0.0122   0.0186   0.0055  -0.0026   0.0028   0.00    2.8
2018/03/16 10:08:07.000   78.246711245   16.083840154   630.9994   2   9   0.0134   0.0121   0.0185   0.0055  -0.0026   0.0028   0.00    2.8
2018/03/16 10:08:08.000   78.246711199   16.083840165   630.9830   2   9   0.0134   0.0121   0.0184   0.0055  -0.0026   0.0028   0.00    2.9
2018/03/16 10:08:09.000   78.246711147   16.083840203   630.9636   2   9   0.0133   0.0121   0.0184   0.0054  -0.0026   0.0027   0.00    2.9
2018/03/16 10:08:10.000   78.246711101   16.083840255   630.9447   2   9   0.0133   0.0120   0.0183   0.0054  -0.0026   0.0027   0.00    2.9
2018/03/16 10:08:11.000   78.246711067   16.083840318   630.9242   2   9   0.0132   0.0120   0.0182   0.0054  -0.0026   0.0027   0.00    2.9
2018/03/16 10:08:12.000   78.246711037   16.083840410   630.9048   2   9   0.0132   0.0120   0.0181   0.0054  -0.0026   0.0026   0.00    2.9
2018/03/16 10:08:13.000   78.246710992   16.083840481   630.8899   2   9   0.0131   0.0119   0.0181   0.0054  -0.0026   0.0026   0.00    2.9
2018/03/16 10:08:14.000   78.246710949   16.083840503   630.8762   2   9   0.0131   0.0119   0.0180   0.0054  -0.0026   0.0026   0.00    2.9
2018/03/16 10:08:15.000   78.246710911   16.083840497   630.8655   2   9   0.0130   0.0118   0.0179   0.0054  -0.0026   0.0025   0.00    2.9
2018/03/16 10:08:16.000   78.246710876   16.083840470   630.8550   2   9   0.0130   0.0118   0.0178   0.0054  -0.0026   0.0025   0.00    2.9
2018/03/16 10:08:17.000   78.246710857   16.083840421   630.8438   2   9   0.0130   0.0118   0.0178   0.0053  -0.0026   0.0025   0.00    2.9
2018/03/16 10:08:18.000   78.246710844   16.083840387   630.8296   2   9   0.0129   0.0117   0.0177   0.0053  -0.0026   0.0024   0.00    2.9
2018/03/16 10:08:19.000   78.246710832   16.083840365   630.8151   2   9   0.0129   0.0117   0.0176   0.0053  -0.0026   0.0024   0.00    2.9
2018/03/16 10:08:20.000   78.246710811   16.083840349   630.7996   2   9   0.0128   0.0117   0.0175   0.0053  -0.0026   0.0024   0.00    2.9
2018/03/16 10:08:21.000   78.246710787   16.083840332   630.7858   2   9   0.0128   0.0116   0.0175   0.0053  -0.0026   0.0023   0.00    2.9
2018/03/16 10:08:22.000   78.246710742   16.083840322   630.7744   2   9   0.0127   0.0116   0.0174   0.0053  -0.0026   0.0023   0.00    2.9
2018/03/16 10:08:23.000   78.246710680   16.083840260   630.7642   2   9   0.0127   0.0116   0.0173   0.0053  -0.0026   0.0023   0.00    2.9
2018/03/16 10:08:24.000   78.246710616   16.083840266   630.7561   2   9   0.0126   0.0115   0.0173   0.0053  -0.0026   0.0023   0.00    2.9
2018/03/16 10:08:25.000   78.246710554   16.083840292   630.7471   2   9   0.0126   0.0115   0.0172   0.0052  -0.0026   0.0022   0.00    2.9
2018/03/16 10:08:26.000   78.246710494   16.083840323   630.7393   2   9   0.0126   0.0115   0.0171   0.0052  -0.0026   0.0022   0.00    2.9
2018/03/16 10:08:27.000   78.246710446   16.083840318   630.7345   2   9   0.0125   0.0114   0.0170   0.0052  -0.0026   0.0022   0.00    2.9
2018/03/16 10:08:28.000   78.246710399   16.083840316   630.7327   2   9   0.0125   0.0114   0.0170   0.0052  -0.0026   0.0021   0.00    2.9
2018/03/16 10:08:29.000   78.246710360   16.083840292   630.7316   2   9   0.0124   0.0114   0.0169   0.0052  -0.0026   0.0021   0.00    2.9
2018/03/16 10:08:30.000   78.246710317   16.083840277   630.7303   2   9   0.0124   0.0113   0.0168   0.0052  -0.0026   0.0021   0.00    2.9
2018/03/16 10:08:31.000   78.246710281   16.083840249   630.7288   2   9   0.0124   0.0113   0.0168   0.0052  -0.0026   0.0020   0.00    2.9
2018/03/16 10:08:32.000   78.246710244   16.083840161   630.7271   2   9   0.0123   0.0113   0.0167   0.0052  -0.0026   0.0020   0.00    2.9
2018/03/16 10:08:33.000   78.246710207   16.083840071   630.7257   2   9   0.0123   0.0113   0.0166   0.0051  -0.0026   0.0020   0.00    2.9
2018/03/16 10:08:34.000   78.246710175   16.083839927   630.7253   2   9   0.0122   0.0112   0.0166   0.0051  -0.0026   0.0019   0.00    2.9
2018/03/16 10:08:35.000   78.246710142   16.083839840   630.7248   2   9   0.0122   0.0112   0.0165   0.0051  -0.0026   0.0019   0.00    2.9
2018/03/16 10:08:36.000   78.246710122   16.083839743   630.7234   2   9   0.0121   0.0112   0.0164   0.0051  -0.0026   0.0019   0.00    3.0
2018/03/16 10:08:37.000   78.246710107   16.083839721   630.7224   2   9   0.0121   0.0111   0.0164   0.0051  -0.0026   0.0019   0.00    3.0
2018/03/16 10:08:38.000   78.246710096   16.083839760   630.7212   2   9   0.0121   0.0111   0.0163   0.0051  -0.0026   0.0018   0.00    3.0
2018/03/16 10:08:39.000   78.246710094   16.083839800   630.7203   2   9   0.0120   0.0111   0.0163   0.0051  -0.0026   0.0018   0.00    3.0
2018/03/16 10:08:40.000   78.246707681   16.083821237   630.3463   1   9   0.0004   0.0002   0.0012   0.0001   0.0002   0.0005   0.00    3.0
2018/03/16 10:08:41.000   78.246707681   16.083821240   630.3469   1   9   0.0004   0.0002   0.0012   0.0001   0.0002   0.0005   0.00    3.0
2018/03/16 10:08:42.000   78.246707682   16.083821244   630.3474   1   9   0.0004   0.0002   0.0012   0.0001   0.0002   0.0005   0.00    3.0
2018/03/16 10:08:43.000   78.246707682   16.083821248   630.3479   1   9   0.0004   0.0002   0.0012   0.0001   0.0002   0.0005   0.00    3.0
2018/03/16 10:08:44.000   78.246707682   16.083821252   630.3483   1   9   0.0004   0.0002   0.0012   0.0001   0.0002   0.0005   0.00    3.0
2018/03/16 10:08:45.000   78.246707683   16.083821255   630.3486   1   9   0.0004   0.0002   0.0012   0.0001   0.0002   0.0005   0.00    3.1
2018/03/16 10:08:46.000   78.246707683   16.083821258   630.3490   1   9   0.0004   0.0002   0.0012   0.0001   0.0002   0.0005   0.00    3.1
2018/03/16 10:08:47.000   78.246707683   16.083821260   630.3492   1   9   0.0004   0.0002   0.0012   0.0001   0.0002   0.0005   0.00    3.1
2018/03/16 10:08:48.000   78.246707683   16.083821262   630.3494   1   9   0.0004   0.0002   0.0012   0.0001   0.0002   0.0005   0.00    3.1
2018/03/16 10:08:49.000   78.246707684   16.083821264   630.3496   1   9   0.0004   0.0002   0.0012   0.0001   0.0002   0.0005   0.00    3.1
2018/03/16 10:08:50.000   78.246707684   16.083821267   630.3498   1   9   0.0004   0.0002   0.0012   0.0001   0.0002   0.0005   0.00    4.7
2018/03/16 10:08:51.000   78.246707684   16.083821270   630.3500   1   9   0.0004   0.0002   0.0012   0.0001   0.0002   0.0005   0.00    6.0
2018/03/16 10:08:52.000   78.246707684   16.083821273   630.3503   1   9   0.0004   0.0002   0.0012   0.0001   0.0002   0.0005   0.00    7.3
2018/03/16 10:08:53.000   78.246707684   16.083821278   630.3505   1   9   0.0004   0.0002   0.0012   0.0001   0.0002   0.0005   0.00    8.3
2018/03/16 10:08:54.000   78.246707685   16.083821281   630.3508   1   9   0.0004   0.0002   0.0012   0.0001   0.0002   0.0005   0.00    8.5
2018/03/16 10:08:55.000   78.246707685   16.083821283   630.3511   1   9   0.0004   0.0002   0.0012   0.0001   0.0002   0.0005   0.00    8.8
2018/03/16 10:08:56.000   78.246707685   16.083821286   630.3514   1   9   0.0004   0.0002   0.0012   0.0001   0.0002   0.0005   0.00    9.0
2018/03/16 10:08:57.000   78.246707686   16.083821289   630.3517   1   9   0.0004   0.0002   0.0012   0.0001   0.0002   0.0005   0.00    9.3
2018/03/16 10:08:58.000   78.246707686   16.083821292   630.3520   1   9   0.0004   0.0002   0.0012   0.0001   0.0002   0.0005   0.00    9.5
2018/03/16 10:08:59.000   78.246707687   16.083821295   630.3524   1   9   0.0004   0.0002   0.0012   0.0001   0.0002   0.0005   0.00    9.8
2018/03/16 10:09:00.000   78.246707688   16.083821297   630.3527   1   9   0.0003   0.0002   0.0012   0.0001   0.0002   0.0005   0.00   10.0
2018/03/16 10:09:01.000   78.246707688   16.083821300   630.3529   1   9   0.0003   0.0002   0.0012   0.0001   0.0002   0.0005   0.00   10.2
2018/03/16 10:09:02.000   78.246707688   16.083821303   630.3532   1   9   0.0003   0.0002   0.0012   0.0001   0.0002   0.0005   0.00   10.5
2018/03/16 10:09:03.000   78.246707689   16.083821305   630.3533   1   9   0.0003   0.0002   0.0012   0.0001   0.0002   0.0005   0.00   10.8
2018/03/16 10:09:04.000   78.246707689   16.083821308   630.3535   1   9   0.0003   0.0002   0.0012   0.0001   0.0002   0.0005   0.00   11.1
2018/03/16 10:09:05.000   78.246707689   16.083821310   630.3536   1   9   0.0003   0.0002   0.0012   0.0001   0.0002   0.0005   0.00   11.3
2018/03/16 10:09:06.000   78.246707689   16.083821313   630.3536   1   9   0.0003   0.0002   0.0012   0.0001   0.0002   0.0005   0.00   11.6
2018/03/16 10:09:07.000   78.246707689   16.083821315   630.3537   1   9   0.0003   0.0002   0.0012   0.0001   0.0002   0.0005   0.00   12.0
2018/03/16 10:09:08.000   78.246707689   16.083821317   630.3539   1   9   0.0003   0.0002   0.0012   0.0001   0.0002   0.0005   0.00   12.3
2018/03/16 10:09:09.000   78.246707689   16.083821319   630.3541   1   9   0.0003   0.0002   0.0012   0.0001   0.0002   0.0005   0.00   12.6
2018/03/16 10:09:10.000   78.246707689   16.083821321   630.3544   1   9   0.0003   0.0002   0.0012   0.0001   0.0002   0.0005   0.00   13.0
2018/03/16 10:09:11.000   78.246707689   16.083821321   630.3548   1   9   0.0003   0.0002   0.0012   0.0001   0.0002   0.0005   0.00   13.4
2018/03/16 10:09:12.000   78.246707689   16.083821321   630.3550   1   9   0.0003   0.0002   0.0012   0.0001   0.0002   0.0005   0.00   13.8
2018/03/16 10:09:13.000   78.246707688   16.083821322   630.3552   1   9   0.0003   0.0002   0.0012   0.0001   0.0002   0.0005   0.00   14.2
2018/03/16 10:09:14.000   78.246707688   16.083821322   630.3552   1   9   0.0003   0.0002   0.0012   0.0001   0.0002   0.0005   0.00   14.7
2018/03/16 10:09:15.000   78.246707687   16.083821323   630.3552   1   9   0.0003   0.0002   0.0012   0.0001   0.0002   0.0005   0.00   15.1
2018/03/16 10:09:16.000   78.246707686   16.083821324   630.3551   1   9   0.0003   0.0002   0.0012   0.0001   0.0002   0.0005   0.00   15.5
2018/03/16 10:09:17.000   78.246707685   16.083821324   630.3549   1   9   0.0003   0.0002   0.0012   0.0001   0.0002   0.0005   0.00   16.0
2018/03/16 10:09:18.000   78.246707685   16.083821324   630.3548   1   9   0.0003   0.0002   0.0012   0.0001   0.0002   0.0005   0.00   16.5
2018/03/16 10:09:19.000   78.246707684   16.083821323   630.3547   1   9   0.0003   0.0002   0.0012   0.0001   0.0002   0.0005   0.00   17.0
2018/03/16 10:09:20.000   78.246707683   16.083821323   630.3545   1   9   0.0003   0.0002   0.0012   0.0001   0.0002   0.0005   0.00   17.4
2018/03/16 10:09:21.000   78.246707683   16.083821322   630.3545   1   9   0.0003   0.0002   0.0012   0.0001   0.0002   0.0005   0.00   17.9
2018/03/16 10:09:22.000   78.246707683   16.083821321   630.3546   1   9   0.0003   0.0002   0.0012   0.0001   0.0002   0.0005   0.00   18.4
2018/03/16 10:09:23.000   78.246707682   16.083821319   630.3547   1   9   0.0003   0.0002   0.0012   0.0001   0.0002   0.0005   0.00   19.0
2018/03/16 10:09:24.000   78.246707682   16.083821318   630.3550   1   9   0.0003   0.0002   0.0012   0.0001   0.0002   0.0005   0.00   19.5
2018/03/16 10:09:25.000   78.246707682   16.083821317   630.3552   1   9   0.0003   0.0002   0.0012   0.0001   0.0002   0.0005   0.00   20.0
2018/03/16 10:09:26.000   78.246707682   16.083821316   630.3555   1   9   0.0003   0.0002   0.0012   0.0001   0.0002   0.0005   0.00   20.5
2018/03/16 10:09:27.000   78.246707681   16.083821316   630.3558   1   9   0.0003   0.0002   0.0012   0.0001   0.0002   0.0005   0.00   21.0
2018/03/16 10:09:28.000   78.246707681   16.083821317   630.3560   1   9   0.0003   0.0002   0.0012   0.0001   0.0002   0.0005   0.00   21.3
2018/03/16 10:09:29.000   78.246707680   16.083821318   630.3561   1   9   0.0003   0.0002   0.0012   0.0001   0.0002   0.0005   0.00   21.6
2018/03/16 10:09:30.000   78.246707680   16.083821320   630.3562   1   9   0.0003   0.0002   0.0012   0.0001   0.0002   0.0005   0.00   21.8
2018/03/16 10:09:31.000   78.246707679   16.083821323   630.3563   1   9   0.0003   0.0002   0.0012   0.0001   0.0002   0.0005   0.00   22.0
2018/03/16 10:09:32.000   78.246707678   16.083821326   630.3565   1   9   0.0003   0.0002   0.0012   0.0001   0.0002   0.0005   0.00   22.2
2018/03/16 10:09:33.000   78.246707678   16.083821329   630.3567   1   9   0.0003   0.0002   0.0012   0.0001   0.0002   0.0005   0.00   22.3
2018/03/16 10:09:34.000   78.246707678   16.083821333   630.3570   1   9   0.0003   0.0002   0.0012   0.0001   0.0002   0.0005   0.00   22.4
2018/03/16 10:09:35.000   78.246707678   16.083821336   630.3572   1   9   0.0003   0.0002   0.0012   0.0001   0.0002   0.0005   0.00   22.5
2018/03/16 10:09:36.000   78.246707679   16.083821339   630.3574   1   9   0.0003   0.0002   0.0012   0.0001   0.0002   0.0005   0.00   22.5
2018/03/16 10:09:37.000   78.246707679   16.083821341   630.3575   1   9   0.0003   0.0002   0.0012   0.0001   0.0002   0.0005   0.00   22.6
