% program   : RTKPOST ver.2.4.2
% inp file  : Z:\home\linda\Documents\Spring18\GitHub_Unis\data\processed_data\46250701.obs
% inp file  : Z:\home\linda\Documents\Spring18\GitHub_Unis\data\base_station_data\lyrs0700.18o
% inp file  : Z:\home\linda\Documents\Spring18\GitHub_Unis\data\processed_data\46250701.nav
% obs start : 2018/03/11 10:48:49.0 GPST (week1992  38929.0s)
% obs end   : 2018/03/11 11:09:39.0 GPST (week1992  40179.0s)
% pos mode  : static
% freqs     : L1+L2
% solution  : forward
% elev mask : 15.0 deg
% dynamics  : on
% tidecorr  : off
% ionos opt : iono-free
% tropo opt : saastamoinen
% ephemeris : broadcast
% navi sys  : gps glonass galileo qzss sbas
% amb res   : fix and hold
% amb glo   : on
% val thres : 3.0
% antenna1  :                       ( 0.0000  0.0000  0.0000)
% antenna2  :                       ( 0.0000  0.0000  0.0000)
% ref pos   : 78.228825638   15.397310064   495.6816
%
% (lat/lon/height=WGS84/ellipsoidal,Q=1:fix,2:float,3:sbas,4:dgps,5:single,6:ppp,ns=# of satellites)
%  GPST                  latitude(deg) longitude(deg)  height(m)   Q  ns   sdn(m)   sde(m)   sdu(m)  sdne(m)  sdeu(m)  sdun(m) age(s)  ratio
2018/03/11 10:48:49.000   78.254765030   16.249349857   343.6337   2   9   1.5174   0.8564   4.3002  -0.1841   0.5335   2.0703   0.00    1.5
2018/03/11 10:48:50.000   78.254769485   16.249369371   343.9793   2   9   1.0766   0.6062   3.0588  -0.1296   0.3794   1.4730   0.00    1.6
2018/03/11 10:48:51.000   78.254771218   16.249371605   344.0974   2   9   0.8798   0.4951   2.5010  -0.1058   0.3101   1.2044   0.00    1.7
2018/03/11 10:48:52.000   78.254777539   16.249377357   346.3226   2   9   0.7619   0.4289   2.1661  -0.0917   0.2685   1.0430   0.00    1.8
2018/03/11 10:48:53.000   78.254783403   16.249372353   347.6410   2   9   0.6812   0.3836   1.9362  -0.0822   0.2400   0.9321   0.00    1.8
2018/03/11 10:48:54.000   78.254783359   16.249369527   347.7050   2   9   0.6214   0.3502   1.7655  -0.0752   0.2188   0.8498   0.00    1.8
2018/03/11 10:48:55.000   78.254782540   16.249368505   347.1088   2   9   0.5747   0.3242   1.6321  -0.0698   0.2023   0.7853   0.00    1.8
2018/03/11 10:48:56.000   78.254780999   16.249366512   345.9642   2   9   0.5370   0.3033   1.5239  -0.0654   0.1889   0.7330   0.00    1.7
2018/03/11 10:48:57.000   78.254779712   16.249366085   345.1294   2   9   0.5055   0.2859   1.4336  -0.0618   0.1777   0.6893   0.00    1.7
2018/03/11 10:48:58.000   78.254779451   16.249367645   344.9777   2   9   0.4789   0.2713   1.3567  -0.0588   0.1682   0.6521   0.00    1.7
2018/03/11 10:48:59.000   78.254778859   16.249368327   344.7967   2   9   0.4558   0.2586   1.2901  -0.0563   0.1600   0.6198   0.00    1.6
2018/03/11 10:49:00.000   78.254779706   16.249367962   345.0070   2   9   0.4355   0.2476   1.2314  -0.0540   0.1527   0.5913   0.00    1.6
2018/03/11 10:49:01.000   78.254779700   16.249368093   345.2041   2   9   0.4176   0.2378   1.1793  -0.0521   0.1463   0.5659   0.00    1.6
2018/03/11 10:49:02.000   78.254780214   16.249368554   345.4043   2   9   0.4015   0.2292   1.1324  -0.0503   0.1405   0.5431   0.00    1.5
2018/03/11 10:49:03.000   78.254779577   16.249371651   345.5773   2   9   0.3870   0.2214   1.0900  -0.0488   0.1353   0.5224   0.00    1.5
2018/03/11 10:49:04.000   78.254778770   16.249371640   345.3798   2   9   0.3737   0.2143   1.0512  -0.0474   0.1306   0.5034   0.00    1.5
2018/03/11 10:49:05.000   78.254778704   16.249373111   345.1846   2   9   0.3616   0.2079   1.0155  -0.0461   0.1262   0.4860   0.00    1.5
2018/03/11 10:49:06.000   78.254778732   16.249372560   345.0366   2   9   0.3504   0.2020   0.9826  -0.0449   0.1222   0.4698   0.00    1.4
2018/03/11 10:49:07.000   78.254779044   16.249372250   345.2445   2   9   0.3401   0.1966   0.9520  -0.0438   0.1184   0.4548   0.00    1.4
2018/03/11 10:49:08.000   78.254779131   16.249369837   345.4940   2   9   0.3305   0.1916   0.9234  -0.0429   0.1150   0.4408   0.00    1.4
2018/03/11 10:49:09.000   78.254778912   16.249369901   345.8073   2   9   0.3215   0.1869   0.8967  -0.0419   0.1117   0.4276   0.00    1.4
2018/03/11 10:49:10.000   78.254779531   16.249369014   346.2423   2   9   0.3131   0.1826   0.8715  -0.0411   0.1086   0.4152   0.00    1.4
2018/03/11 10:49:11.000   78.254779431   16.249369398   346.3769   2   9   0.3052   0.1785   0.8478  -0.0403   0.1058   0.4035   0.00    1.3
2018/03/11 10:49:12.000   78.254779634   16.249369023   346.3999   2   9   0.2977   0.1747   0.8253  -0.0395   0.1031   0.3924   0.00    1.3
2018/03/11 10:49:13.000   78.254780356   16.249368568   346.6547   2   9   0.2906   0.1711   0.8041  -0.0388   0.1005   0.3818   0.00    1.3
2018/03/11 10:49:14.000   78.254780551   16.249366622   346.6615   2   9   0.2840   0.1678   0.7838  -0.0382   0.0980   0.3718   0.00    1.3
2018/03/11 10:49:15.000   78.254780354   16.249365251   346.4190   2   9   0.2776   0.1646   0.7646  -0.0375   0.0957   0.3622   0.00    1.3
2018/03/11 10:49:16.000   78.254779848   16.249365644   346.0658   2   9   0.2716   0.1616   0.7462  -0.0369   0.0935   0.3530   0.00    1.3
2018/03/11 10:49:17.000   78.254779933   16.249364663   345.9109   2   9   0.2658   0.1587   0.7286  -0.0363   0.0914   0.3443   0.00    1.3
2018/03/11 10:49:18.000   78.254780258   16.249364300   345.9250   2   9   0.2603   0.1560   0.7118  -0.0358   0.0893   0.3358   0.00    1.3
2018/03/11 10:49:19.000   78.254779987   16.249363340   345.9396   2   9   0.2550   0.1534   0.6956  -0.0353   0.0874   0.3278   0.00    1.3
2018/03/11 10:49:20.000   78.254779687   16.249364117   345.8986   2   9   0.2500   0.1509   0.6801  -0.0347   0.0855   0.3200   0.00    1.3
2018/03/11 10:49:21.000   78.254779263   16.249365411   345.7534   2   9   0.2452   0.1486   0.6652  -0.0342   0.0838   0.3125   0.00    1.3
2018/03/11 10:49:22.000   78.254778768   16.249366706   345.5961   2   9   0.2405   0.1463   0.6509  -0.0338   0.0820   0.3053   0.00    1.3
2018/03/11 10:49:23.000   78.254778322   16.249367299   345.5530   2   9   0.2360   0.1442   0.6370  -0.0333   0.0804   0.2984   0.00    1.3
2018/03/11 10:49:24.000   78.254778051   16.249366486   345.5996   2   9   0.2317   0.1421   0.6237  -0.0328   0.0788   0.2916   0.00    1.3
2018/03/11 10:49:25.000   78.254778321   16.249365046   345.6598   2   9   0.2276   0.1401   0.6108  -0.0324   0.0772   0.2852   0.00    1.3
2018/03/11 10:49:26.000   78.254778041   16.249364811   345.6223   2   9   0.2236   0.1382   0.5984  -0.0320   0.0757   0.2789   0.00    1.3
2018/03/11 10:49:27.000   78.254778113   16.249364553   345.6481   2   9   0.2198   0.1364   0.5864  -0.0315   0.0743   0.2728   0.00    1.3
2018/03/11 10:49:28.000   78.254778218   16.249364944   345.6090   2   9   0.2160   0.1346   0.5748  -0.0311   0.0729   0.2669   0.00    1.3
2018/03/11 10:49:29.000   78.254778617   16.249365921   345.6070   2   9   0.2124   0.1329   0.5635  -0.0307   0.0716   0.2612   0.00    1.3
2018/03/11 10:49:30.000   78.254778776   16.249366295   345.7114   2   9   0.2090   0.1312   0.5526  -0.0303   0.0703   0.2557   0.00    1.3
2018/03/11 10:49:31.000   78.254778640   16.249366250   345.7632   2   9   0.2056   0.1296   0.5421  -0.0299   0.0690   0.2503   0.00    1.3
2018/03/11 10:49:32.000   78.254778233   16.249365256   345.6940   2   9   0.2023   0.1281   0.5318  -0.0295   0.0678   0.2451   0.00    1.3
2018/03/11 10:49:33.000   78.254777947   16.249364793   345.6408   2   9   0.1992   0.1266   0.5219  -0.0292   0.0666   0.2400   0.00    1.3
2018/03/11 10:49:34.000   78.254778024   16.249364539   345.5511   2   9   0.1961   0.1252   0.5122  -0.0288   0.0654   0.2351   0.00    1.3
2018/03/11 10:49:35.000   78.254778222   16.249364472   345.4530   2   9   0.1932   0.1238   0.5029  -0.0284   0.0643   0.2303   0.00    1.3
2018/03/11 10:49:36.000   78.254778314   16.249364356   345.4433   2   9   0.1903   0.1224   0.4938  -0.0280   0.0632   0.2257   0.00    1.3
2018/03/11 10:49:37.000   78.254778171   16.249364963   345.3602   2   9   0.1875   0.1211   0.4849  -0.0277   0.0621   0.2212   0.00    1.3
2018/03/11 10:49:38.000   78.254778051   16.249364976   345.3126   2   9   0.1847   0.1198   0.4764  -0.0273   0.0611   0.2168   0.00    1.3
2018/03/11 10:49:39.000   78.254778040   16.249365774   345.2707   2   9   0.1821   0.1186   0.4680  -0.0269   0.0601   0.2125   0.00    1.3
2018/03/11 10:49:40.000   78.254777940   16.249366863   345.2751   2   9   0.1795   0.1174   0.4599  -0.0266   0.0591   0.2083   0.00    1.2
2018/03/11 10:49:41.000   78.254777985   16.249367164   345.2782   2   9   0.1770   0.1162   0.4520  -0.0262   0.0581   0.2043   0.00    1.2
2018/03/11 10:49:42.000   78.254777998   16.249366710   345.3015   2   9   0.1746   0.1150   0.4443  -0.0259   0.0572   0.2003   0.00    1.2
2018/03/11 10:49:43.000   78.254777830   16.249366113   345.2877   2   9   0.1722   0.1139   0.4368  -0.0255   0.0563   0.1965   0.00    1.2
2018/03/11 10:49:44.000   78.254778022   16.249365088   345.3109   2   9   0.1699   0.1128   0.4295  -0.0252   0.0554   0.1927   0.00    1.2
2018/03/11 10:49:45.000   78.254778154   16.249364103   345.2780   2   9   0.1677   0.1118   0.4224  -0.0248   0.0545   0.1891   0.00    1.2
2018/03/11 10:49:46.000   78.254778127   16.249364871   345.2229   2   9   0.1655   0.1107   0.4155  -0.0245   0.0536   0.1855   0.00    1.2
2018/03/11 10:49:47.000   78.254778290   16.249365716   345.1272   2   9   0.1634   0.1097   0.4088  -0.0242   0.0528   0.1820   0.00    1.2
2018/03/11 10:49:48.000   78.254778356   16.249366811   344.9904   2   9   0.1613   0.1087   0.4022  -0.0238   0.0520   0.1787   0.00    1.2
2018/03/11 10:49:49.000   78.254778279   16.249367156   344.9527   2   9   0.1593   0.1078   0.3958  -0.0235   0.0512   0.1754   0.00    1.2
2018/03/11 10:49:50.000   78.254778403   16.249366459   344.9877   2   9   0.1573   0.1068   0.3895  -0.0231   0.0504   0.1721   0.00    1.2
2018/03/11 10:49:51.000   78.254778653   16.249366631   345.0581   2   9   0.1553   0.1059   0.3834  -0.0228   0.0497   0.1690   0.00    1.2
2018/03/11 10:49:52.000   78.254778869   16.249366578   345.0883   2   9   0.1535   0.1050   0.3775  -0.0225   0.0489   0.1659   0.00    1.2
2018/03/11 10:49:53.000   78.254778860   16.249366552   345.0566   2   9   0.1516   0.1042   0.3717  -0.0221   0.0482   0.1629   0.00    1.2
2018/03/11 10:49:54.000   78.254778607   16.249366827   344.9317   2   9   0.1498   0.1033   0.3660  -0.0218   0.0475   0.1600   0.00    1.2
2018/03/11 10:54:13.000   78.254776623   16.249367565   344.3262   2   8   0.1136   0.0965   0.2346   0.0220   0.0315   0.0745   0.00    1.1
2018/03/11 10:54:14.000   78.254776088   16.249368005   344.1837   2   8   0.0992   0.0916   0.1902   0.0303   0.0197   0.0438   0.00    1.2
2018/03/11 10:54:15.000   78.254775601   16.249368505   344.0884   2   8   0.0904   0.0878   0.1657   0.0337   0.0071   0.0251   0.00    1.2
2018/03/11 10:54:16.000   78.254775318   16.249368849   344.0703   2   8   0.0841   0.0846   0.1498   0.0354  -0.0124   0.0061   0.00    1.1
2018/03/11 10:54:17.000   78.254775034   16.249369077   344.0636   2   8   0.0794   0.0819   0.1383   0.0362  -0.0169  -0.0165   0.00    1.0
2018/03/11 10:54:18.000   78.254774790   16.249369157   344.0586   2   8   0.0756   0.0796   0.1295   0.0365  -0.0194  -0.0211   0.00    1.0
2018/03/11 10:54:19.000   78.254774604   16.249368944   344.0574   2   8   0.0726   0.0775   0.1225   0.0366  -0.0209  -0.0234   0.00    1.0
2018/03/11 10:54:20.000   78.254774433   16.249369343   344.0597   2   8   0.0699   0.0757   0.1168   0.0365  -0.0218  -0.0247   0.00    1.1
2018/03/11 10:54:21.000   78.254774294   16.249369269   344.0715   2   8   0.0677   0.0741   0.1121   0.0363  -0.0225  -0.0255   0.00    1.1
2018/03/11 10:54:22.000   78.254774178   16.249369255   344.0642   2   8   0.0658   0.0726   0.1080   0.0361  -0.0230  -0.0259   0.00    1.1
2018/03/11 10:54:23.000   78.254774111   16.249369229   344.0687   2   8   0.0641   0.0712   0.1045   0.0358  -0.0233  -0.0261   0.00    1.1
2018/03/11 10:54:24.000   78.254774062   16.249369381   344.0759   2   8   0.0625   0.0700   0.1014   0.0356  -0.0235  -0.0262   0.00    1.1
2018/03/11 10:54:25.000   78.254774037   16.249369766   344.0856   2   8   0.0612   0.0688   0.0987   0.0353  -0.0236  -0.0262   0.00    1.1
2018/03/11 10:54:26.000   78.254774059   16.249370310   344.0971   2   8   0.0599   0.0678   0.0963   0.0350  -0.0237  -0.0262   0.00    1.1
2018/03/11 10:54:27.000   78.254774088   16.249370385   344.1064   2   8   0.0588   0.0668   0.0941   0.0347  -0.0237  -0.0261   0.00    1.1
2018/03/11 10:54:28.000   78.254774107   16.249370934   344.1186   2   8   0.0578   0.0658   0.0921   0.0344  -0.0237  -0.0260   0.00    1.2
2018/03/11 10:54:29.000   78.254774127   16.249371316   344.1244   2   8   0.0568   0.0650   0.0903   0.0341  -0.0237  -0.0258   0.00    1.2
2018/03/11 10:54:30.000   78.254774076   16.249371685   344.1265   2   8   0.0559   0.0642   0.0886   0.0338  -0.0237  -0.0257   0.00    1.2
2018/03/11 10:54:31.000   78.254774045   16.249371979   344.1312   2   8   0.0551   0.0634   0.0871   0.0335  -0.0236  -0.0255   0.00    1.2
2018/03/11 10:54:32.000   78.254773984   16.249371951   344.1311   2   8   0.0544   0.0627   0.0857   0.0332  -0.0235  -0.0254   0.00    1.2
2018/03/11 10:54:33.000   78.254773950   16.249372083   344.1300   2   8   0.0536   0.0620   0.0844   0.0330  -0.0235  -0.0252   0.00    1.2
2018/03/11 10:54:34.000   78.254773920   16.249372411   344.1300   2   8   0.0530   0.0614   0.0832   0.0327  -0.0234  -0.0251   0.00    1.2
2018/03/11 10:54:35.000   78.254773925   16.249372532   344.1302   2   8   0.0524   0.0607   0.0821   0.0325  -0.0233  -0.0249   0.00    1.2
2018/03/11 10:54:36.000   78.254773884   16.249372498   344.1329   2   8   0.0518   0.0602   0.0810   0.0322  -0.0232  -0.0247   0.00    1.2
2018/03/11 10:54:37.000   78.254773865   16.249372472   344.1382   2   8   0.0512   0.0596   0.0800   0.0320  -0.0231  -0.0246   0.00    1.2
2018/03/11 10:54:38.000   78.254773845   16.249372303   344.1322   2   8   0.0507   0.0591   0.0791   0.0318  -0.0231  -0.0244   0.00    1.2
2018/03/11 10:54:39.000   78.254773812   16.249372179   344.1275   2   8   0.0502   0.0586   0.0782   0.0315  -0.0230  -0.0243   0.00    1.2
2018/03/11 10:54:40.000   78.254773788   16.249372033   344.1192   2   8   0.0497   0.0581   0.0774   0.0313  -0.0229  -0.0241   0.00    1.2
2018/03/11 10:54:41.000   78.254773764   16.249371933   344.1180   2   8   0.0492   0.0576   0.0766   0.0311  -0.0228  -0.0240   0.00    1.2
2018/03/11 10:54:42.000   78.254773760   16.249371901   344.1161   2   8   0.0488   0.0571   0.0758   0.0309  -0.0227  -0.0238   0.00    1.2
2018/03/11 10:54:43.000   78.254773774   16.249371986   344.1156   2   8   0.0484   0.0567   0.0751   0.0307  -0.0226  -0.0237   0.00    1.2
2018/03/11 10:54:44.000   78.254773790   16.249372134   344.1166   2   8   0.0480   0.0563   0.0744   0.0305  -0.0225  -0.0235   0.00    1.2
2018/03/11 10:54:45.000   78.254773804   16.249372076   344.1164   2   8   0.0476   0.0559   0.0738   0.0303  -0.0224  -0.0234   0.00    1.2
2018/03/11 10:54:46.000   78.254773814   16.249372257   344.1174   2   8   0.0472   0.0555   0.0731   0.0301  -0.0223  -0.0232   0.00    1.2
2018/03/11 10:54:47.000   78.254773816   16.249372258   344.1165   2   8   0.0469   0.0551   0.0725   0.0299  -0.0222  -0.0231   0.00    1.3
2018/03/11 10:54:48.000   78.254773811   16.249372320   344.1143   2   8   0.0465   0.0548   0.0720   0.0298  -0.0221  -0.0230   0.00    1.3
2018/03/11 10:54:49.000   78.254773807   16.249372252   344.1139   2   8   0.0462   0.0544   0.0714   0.0296  -0.0221  -0.0228   0.00    1.3
2018/03/11 10:54:50.000   78.254773834   16.249372370   344.1102   2   8   0.0459   0.0541   0.0709   0.0294  -0.0220  -0.0227   0.00    1.3
2018/03/11 10:54:51.000   78.254773894   16.249372588   344.1030   2   8   0.0456   0.0537   0.0704   0.0293  -0.0219  -0.0226   0.00    1.3
2018/03/11 10:54:52.000   78.254773947   16.249372776   344.0986   2   8   0.0453   0.0534   0.0699   0.0291  -0.0218  -0.0225   0.00    1.3
2018/03/11 10:54:53.000   78.254773994   16.249373075   344.0993   2   8   0.0450   0.0531   0.0694   0.0289  -0.0217  -0.0224   0.00    1.3
2018/03/11 10:54:54.000   78.254774011   16.249373300   344.0961   2   8   0.0447   0.0528   0.0690   0.0288  -0.0216  -0.0222   0.00    1.3
2018/03/11 10:54:55.000   78.254773998   16.249373469   344.0948   2   8   0.0445   0.0525   0.0685   0.0286  -0.0215  -0.0221   0.00    1.3
2018/03/11 10:54:56.000   78.254773991   16.249373816   344.0954   2   8   0.0442   0.0522   0.0681   0.0285  -0.0215  -0.0220   0.00    1.3
2018/03/11 10:54:57.000   78.254773951   16.249373695   344.0978   2   8   0.0440   0.0519   0.0677   0.0283  -0.0214  -0.0219   0.00    1.3
2018/03/11 10:54:58.000   78.254773938   16.249373829   344.0962   2   8   0.0437   0.0517   0.0673   0.0282  -0.0213  -0.0218   0.00    1.3
2018/03/11 10:54:59.000   78.254773901   16.249373922   344.0978   2   8   0.0435   0.0514   0.0669   0.0281  -0.0212  -0.0217   0.00    1.3
2018/03/11 10:55:00.000   78.254773898   16.249374244   344.0991   2   8   0.0432   0.0511   0.0665   0.0279  -0.0211  -0.0216   0.00    1.3
2018/03/11 10:55:01.000   78.254773891   16.249374429   344.0990   2   8   0.0430   0.0509   0.0662   0.0278  -0.0211  -0.0215   0.00    1.3
2018/03/11 10:55:02.000   78.254773865   16.249374515   344.1018   2   8   0.0428   0.0506   0.0658   0.0277  -0.0210  -0.0214   0.00    1.3
2018/03/11 10:55:03.000   78.254773856   16.249374718   344.1012   2   8   0.0426   0.0504   0.0655   0.0275  -0.0209  -0.0213   0.00    1.3
2018/03/11 10:55:04.000   78.254773854   16.249374948   344.1010   2   8   0.0424   0.0501   0.0651   0.0274  -0.0208  -0.0212   0.00    1.3
2018/03/11 10:55:05.000   78.254773875   16.249375332   344.1001   2   8   0.0422   0.0499   0.0648   0.0273  -0.0208  -0.0211   0.00    1.2
2018/03/11 10:55:06.000   78.254773880   16.249375526   344.0996   2   8   0.0420   0.0497   0.0645   0.0272  -0.0207  -0.0210   0.00    1.2
2018/03/11 10:55:07.000   78.254773869   16.249375693   344.0985   2   8   0.0418   0.0495   0.0642   0.0270  -0.0206  -0.0209   0.00    1.2
2018/03/11 10:55:08.000   78.254773834   16.249375720   344.0997   2   8   0.0416   0.0492   0.0639   0.0269  -0.0205  -0.0208   0.00    1.2
2018/03/11 10:55:09.000   78.254773808   16.249375778   344.1006   2   8   0.0414   0.0490   0.0636   0.0268  -0.0205  -0.0207   0.00    1.2
2018/03/11 10:55:10.000   78.254773785   16.249375796   344.1013   2   8   0.0412   0.0488   0.0633   0.0267  -0.0204  -0.0206   0.00    1.2
2018/03/11 10:55:11.000   78.254773753   16.249375822   344.1018   2   8   0.0410   0.0486   0.0630   0.0266  -0.0203  -0.0205   0.00    1.2
2018/03/11 10:55:12.000   78.254773741   16.249375917   344.1020   2   8   0.0409   0.0484   0.0627   0.0265  -0.0203  -0.0204   0.00    1.2
2018/03/11 10:55:13.000   78.254773714   16.249375993   344.1028   2   8   0.0407   0.0482   0.0625   0.0264  -0.0202  -0.0204   0.00    1.2
2018/03/11 10:55:14.000   78.254773712   16.249376110   344.1035   2   8   0.0405   0.0480   0.0622   0.0263  -0.0201  -0.0203   0.00    1.2
2018/03/11 10:55:15.000   78.254773718   16.249376245   344.1033   2   8   0.0404   0.0478   0.0619   0.0261  -0.0201  -0.0202   0.00    1.2
2018/03/11 10:55:16.000   78.254773740   16.249376342   344.1035   2   8   0.0402   0.0476   0.0617   0.0260  -0.0200  -0.0201   0.00    1.2
2018/03/11 10:55:17.000   78.254773717   16.249376276   344.1065   2   8   0.0400   0.0475   0.0614   0.0259  -0.0199  -0.0200   0.00    1.2
2018/03/11 10:55:18.000   78.254773694   16.249376252   344.1088   2   8   0.0399   0.0473   0.0612   0.0258  -0.0199  -0.0199   0.00    1.2
2018/03/11 10:55:19.000   78.254773669   16.249376182   344.1103   2   8   0.0397   0.0471   0.0610   0.0257  -0.0198  -0.0199   0.00    1.2
2018/03/11 10:55:20.000   78.254773650   16.249376114   344.1126   2   8   0.0396   0.0469   0.0607   0.0256  -0.0197  -0.0198   0.00    1.2
2018/03/11 10:55:21.000   78.254773657   16.249376121   344.1147   2   8   0.0394   0.0468   0.0605   0.0255  -0.0197  -0.0197   0.00    1.1
2018/03/11 10:55:22.000   78.254773665   16.249376146   344.1174   2   8   0.0393   0.0466   0.0603   0.0255  -0.0196  -0.0196   0.00    1.1
2018/03/11 10:55:23.000   78.254773684   16.249376139   344.1193   2   8   0.0391   0.0464   0.0600   0.0254  -0.0196  -0.0196   0.00    1.1
2018/03/11 10:55:24.000   78.254773711   16.249376160   344.1208   2   8   0.0390   0.0463   0.0598   0.0253  -0.0195  -0.0195   0.00    1.1
2018/03/11 10:55:25.000   78.254773723   16.249376190   344.1242   2   8   0.0389   0.0461   0.0596   0.0252  -0.0194  -0.0194   0.00    1.1
2018/03/11 10:55:26.000   78.254773748   16.249376329   344.1262   2   8   0.0387   0.0459   0.0594   0.0251  -0.0194  -0.0193   0.00    1.1
2018/03/11 10:55:27.000   78.254773745   16.249376326   344.1284   2   8   0.0386   0.0458   0.0592   0.0250  -0.0193  -0.0193   0.00    1.1
2018/03/11 10:55:28.000   78.254773721   16.249376364   344.1313   2   8   0.0385   0.0456   0.0590   0.0249  -0.0193  -0.0192   0.00    1.1
2018/03/11 10:55:29.000   78.254773714   16.249376519   344.1319   2   8   0.0383   0.0455   0.0588   0.0248  -0.0192  -0.0191   0.00    1.1
2018/03/11 10:55:30.000   78.254773710   16.249376723   344.1331   2   8   0.0382   0.0453   0.0586   0.0247  -0.0191  -0.0191   0.00    1.1
2018/03/11 10:55:31.000   78.254773685   16.249376835   344.1370   2   8   0.0381   0.0452   0.0584   0.0246  -0.0191  -0.0190   0.00    1.1
2018/03/11 10:55:32.000   78.254773662   16.249376928   344.1423   2   8   0.0379   0.0450   0.0582   0.0246  -0.0190  -0.0189   0.00    1.1
2018/03/11 10:55:33.000   78.254773626   16.249376928   344.1475   2   8   0.0378   0.0449   0.0580   0.0245  -0.0190  -0.0189   0.00    1.1
2018/03/11 10:55:34.000   78.254773607   16.249377041   344.1518   2   8   0.0377   0.0447   0.0578   0.0244  -0.0189  -0.0188   0.00    1.1
2018/03/11 10:55:35.000   78.254773602   16.249377219   344.1540   2   8   0.0376   0.0446   0.0576   0.0243  -0.0189  -0.0187   0.00    1.1
2018/03/11 10:55:36.000   78.254773579   16.249377348   344.1566   2   8   0.0375   0.0444   0.0575   0.0242  -0.0188  -0.0187   0.00    1.1
2018/03/11 10:55:37.000   78.254773577   16.249377534   344.1593   2   8   0.0373   0.0443   0.0573   0.0242  -0.0187  -0.0186   0.00    1.1
2018/03/11 10:55:38.000   78.254773582   16.249377654   344.1624   2   8   0.0372   0.0442   0.0571   0.0241  -0.0187  -0.0185   0.00    1.1
2018/03/11 10:55:39.000   78.254773597   16.249377767   344.1628   2   8   0.0371   0.0440   0.0569   0.0240  -0.0186  -0.0185   0.00    1.0
2018/03/11 10:55:40.000   78.254773599   16.249377744   344.1635   2   8   0.0370   0.0439   0.0568   0.0239  -0.0186  -0.0184   0.00    1.0
2018/03/11 10:55:41.000   78.254773587   16.249377724   344.1651   2   8   0.0369   0.0438   0.0566   0.0238  -0.0185  -0.0183   0.00    1.0
2018/03/11 10:55:42.000   78.254773567   16.249377682   344.1643   2   8   0.0368   0.0436   0.0564   0.0238  -0.0185  -0.0183   0.00    1.0
2018/03/11 10:55:43.000   78.254773563   16.249377769   344.1632   2   8   0.0367   0.0435   0.0563   0.0237  -0.0184  -0.0182   0.00    1.0
2018/03/11 10:55:44.000   78.254773565   16.249377864   344.1632   2   8   0.0366   0.0434   0.0561   0.0236  -0.0184  -0.0182   0.00    1.0
2018/03/11 10:55:45.000   78.254773566   16.249377931   344.1646   2   8   0.0365   0.0433   0.0559   0.0236  -0.0183  -0.0181   0.00    1.0
2018/03/11 10:55:46.000   78.254773576   16.249378048   344.1661   2   8   0.0364   0.0431   0.0558   0.0235  -0.0183  -0.0181   0.00    1.0
2018/03/11 10:55:47.000   78.254773583   16.249378155   344.1668   2   8   0.0362   0.0430   0.0556   0.0234  -0.0182  -0.0180   0.00    1.0
2018/03/11 10:55:48.000   78.254773580   16.249378165   344.1687   2   8   0.0361   0.0429   0.0555   0.0233  -0.0182  -0.0179   0.00    1.0
2018/03/11 10:55:49.000   78.254773553   16.249378056   344.1705   2   8   0.0360   0.0428   0.0553   0.0233  -0.0181  -0.0179   0.00    1.0
2018/03/11 10:55:50.000   78.254773546   16.249378123   344.1720   2   8   0.0359   0.0426   0.0551   0.0232  -0.0181  -0.0178   0.00    1.0
2018/03/11 10:55:51.000   78.254773543   16.249378270   344.1744   2   8   0.0358   0.0425   0.0550   0.0231  -0.0180  -0.0178   0.00    1.0
2018/03/11 10:55:52.000   78.254773537   16.249378439   344.1764   2   8   0.0357   0.0424   0.0548   0.0231  -0.0180  -0.0177   0.00    1.0
2018/03/11 10:55:53.000   78.254773520   16.249378517   344.1796   2   8   0.0356   0.0423   0.0547   0.0230  -0.0179  -0.0177   0.00    1.0
2018/03/11 10:55:54.000   78.254773515   16.249378672   344.1819   2   8   0.0356   0.0422   0.0546   0.0229  -0.0179  -0.0176   0.00    1.0
2018/03/11 10:55:55.000   78.254773497   16.249378729   344.1861   2   8   0.0355   0.0421   0.0544   0.0229  -0.0178  -0.0175   0.00    1.0
2018/03/11 10:55:56.000   78.254773486   16.249378783   344.1881   2   8   0.0354   0.0420   0.0543   0.0228  -0.0178  -0.0175   0.00    1.0
2018/03/11 10:55:57.000   78.254773475   16.249378756   344.1905   2   8   0.0353   0.0418   0.0541   0.0227  -0.0177  -0.0174   0.00    1.0
2018/03/11 10:55:58.000   78.254773467   16.249378715   344.1918   2   8   0.0352   0.0417   0.0540   0.0227  -0.0177  -0.0174   0.00    1.0
2018/03/11 10:55:59.000   78.254773456   16.249378755   344.1932   2   8   0.0351   0.0416   0.0538   0.0226  -0.0176  -0.0173   0.00    1.0
2018/03/11 10:56:00.000   78.254773442   16.249378771   344.1924   2   8   0.0350   0.0415   0.0537   0.0225  -0.0176  -0.0173   0.00    1.1
2018/03/11 10:56:01.000   78.254773428   16.249378762   344.1923   2   8   0.0349   0.0414   0.0536   0.0225  -0.0175  -0.0172   0.00    1.1
2018/03/11 10:56:02.000   78.254773422   16.249378725   344.1927   2   8   0.0348   0.0413   0.0534   0.0224  -0.0175  -0.0172   0.00    1.1
2018/03/11 10:56:03.000   78.254773395   16.249378599   344.1929   2   8   0.0347   0.0412   0.0533   0.0224  -0.0175  -0.0171   0.00    1.1
2018/03/11 10:56:04.000   78.254773367   16.249378535   344.1922   2   8   0.0346   0.0411   0.0532   0.0223  -0.0174  -0.0171   0.00    1.1
2018/03/11 10:56:05.000   78.254773347   16.249378471   344.1920   2   8   0.0345   0.0410   0.0530   0.0222  -0.0174  -0.0170   0.00    1.1
2018/03/11 10:56:06.000   78.254773347   16.249378440   344.1912   2   8   0.0345   0.0409   0.0529   0.0222  -0.0173  -0.0170   0.00    1.1
2018/03/11 10:56:07.000   78.254773333   16.249378363   344.1935   2   8   0.0344   0.0408   0.0528   0.0221  -0.0173  -0.0169   0.00    1.1
2018/03/11 10:56:08.000   78.254773332   16.249378421   344.1928   2   8   0.0343   0.0407   0.0526   0.0221  -0.0172  -0.0169   0.00    1.1
2018/03/11 10:56:09.000   78.254773349   16.249378563   344.1925   2   8   0.0342   0.0406   0.0525   0.0220  -0.0172  -0.0168   0.00    1.1
2018/03/11 10:56:10.000   78.254773351   16.249378546   344.1932   2   8   0.0341   0.0405   0.0524   0.0219  -0.0171  -0.0168   0.00    1.1
2018/03/11 10:56:11.000   78.254773347   16.249378531   344.1948   2   8   0.0340   0.0404   0.0523   0.0219  -0.0171  -0.0167   0.00    1.1
2018/03/11 10:56:12.000   78.254773345   16.249378584   344.1950   2   8   0.0340   0.0403   0.0521   0.0218  -0.0171  -0.0167   0.00    1.1
2018/03/11 10:56:13.000   78.254773336   16.249378690   344.1966   2   8   0.0339   0.0402   0.0520   0.0218  -0.0170  -0.0166   0.00    1.1
2018/03/11 10:56:14.000   78.254773309   16.249378666   344.1975   2   8   0.0338   0.0401   0.0519   0.0217  -0.0170  -0.0166   0.00    1.1
2018/03/11 10:56:15.000   78.254773283   16.249378629   344.1993   2   8   0.0337   0.0400   0.0518   0.0216  -0.0169  -0.0165   0.00    1.1
2018/03/11 10:56:16.000   78.254773264   16.249378576   344.2006   2   8   0.0336   0.0399   0.0516   0.0216  -0.0169  -0.0165   0.00    1.1
2018/03/11 10:56:17.000   78.254773261   16.249378629   344.1997   2   8   0.0336   0.0398   0.0515   0.0215  -0.0168  -0.0164   0.00    1.1
2018/03/11 10:56:18.000   78.254773259   16.249378720   344.1997   2   8   0.0335   0.0397   0.0514   0.0215  -0.0168  -0.0164   0.00    1.1
2018/03/11 10:56:19.000   78.254773239   16.249378599   344.2011   2   8   0.0334   0.0396   0.0513   0.0214  -0.0168  -0.0164   0.00    1.1
2018/03/11 10:56:20.000   78.254773231   16.249378612   344.2013   2   8   0.0333   0.0395   0.0512   0.0214  -0.0167  -0.0163   0.00    1.1
2018/03/11 10:56:21.000   78.254773214   16.249378587   344.2009   2   8   0.0332   0.0394   0.0510   0.0213  -0.0167  -0.0163   0.00    1.1
2018/03/11 10:56:22.000   78.254773191   16.249378545   344.2013   2   8   0.0332   0.0393   0.0509   0.0213  -0.0166  -0.0162   0.00    1.1
2018/03/11 10:56:23.000   78.254773165   16.249378456   344.2006   2   8   0.0331   0.0393   0.0508   0.0212  -0.0166  -0.0162   0.00    1.1
2018/03/11 10:56:24.000   78.254773136   16.249378420   344.2007   2   8   0.0330   0.0392   0.0507   0.0212  -0.0165  -0.0161   0.00    1.1
2018/03/11 10:56:25.000   78.254773111   16.249378342   344.1998   2   8   0.0329   0.0391   0.0506   0.0211  -0.0165  -0.0161   0.00    1.1
2018/03/11 10:56:26.000   78.254773073   16.249378173   344.2001   2   8   0.0329   0.0390   0.0505   0.0211  -0.0165  -0.0160   0.00    1.2
2018/03/11 10:56:27.000   78.254773032   16.249378023   344.2005   2   8   0.0328   0.0389   0.0504   0.0210  -0.0164  -0.0160   0.00    1.2
2018/03/11 10:56:28.000   78.254772990   16.249377861   344.2023   2   8   0.0327   0.0388   0.0502   0.0210  -0.0164  -0.0160   0.00    1.2
2018/03/11 10:56:29.000   78.254772981   16.249377797   344.2015   2   8   0.0327   0.0387   0.0501   0.0209  -0.0163  -0.0159   0.00    1.2
2018/03/11 10:56:30.000   78.254772970   16.249377726   344.2005   2   8   0.0326   0.0386   0.0500   0.0209  -0.0163  -0.0159   0.00    1.2
2018/03/11 10:56:31.000   78.254772967   16.249377738   344.1990   2   8   0.0325   0.0386   0.0499   0.0208  -0.0163  -0.0158   0.00    1.2
2018/03/11 10:56:32.000   78.254772965   16.249377723   344.1983   2   8   0.0324   0.0385   0.0498   0.0208  -0.0162  -0.0158   0.00    1.2
2018/03/11 10:56:33.000   78.254772950   16.249377726   344.1993   2   8   0.0324   0.0384   0.0497   0.0207  -0.0162  -0.0157   0.00    1.2
2018/03/11 10:56:34.000   78.254772940   16.249377737   344.1981   2   8   0.0323   0.0383   0.0496   0.0207  -0.0161  -0.0157   0.00    1.2
2018/03/11 10:56:35.000   78.254772923   16.249377695   344.1978   2   8   0.0322   0.0382   0.0495   0.0206  -0.0161  -0.0157   0.00    1.2
2018/03/11 10:56:36.000   78.254772922   16.249377625   344.1950   2   8   0.0322   0.0381   0.0494   0.0206  -0.0161  -0.0156   0.00    1.2
2018/03/11 10:56:37.000   78.254772920   16.249377521   344.1917   2   8   0.0321   0.0381   0.0493   0.0205  -0.0160  -0.0156   0.00    1.2
2018/03/11 10:56:38.000   78.254772918   16.249377394   344.1870   2   8   0.0320   0.0380   0.0492   0.0205  -0.0160  -0.0155   0.00    1.2
2018/03/11 10:56:39.000   78.254772907   16.249377277   344.1827   2   8   0.0320   0.0379   0.0491   0.0204  -0.0160  -0.0155   0.00    1.2
2018/03/11 10:56:40.000   78.254772913   16.249377264   344.1769   2   8   0.0319   0.0378   0.0490   0.0204  -0.0159  -0.0155   0.00    1.2
2018/03/11 10:56:41.000   78.254772917   16.249377152   344.1717   2   8   0.0318   0.0377   0.0488   0.0203  -0.0159  -0.0154   0.00    1.2
2018/03/11 10:56:42.000   78.254772912   16.249376986   344.1675   2   8   0.0318   0.0377   0.0487   0.0203  -0.0158  -0.0154   0.00    1.2
2018/03/11 10:56:43.000   78.254772908   16.249376890   344.1624   2   8   0.0317   0.0376   0.0486   0.0202  -0.0158  -0.0153   0.00    1.2
2018/03/11 10:56:44.000   78.254772906   16.249376823   344.1578   2   8   0.0316   0.0375   0.0485   0.0202  -0.0158  -0.0153   0.00    1.2
2018/03/11 10:56:45.000   78.254772896   16.249376715   344.1547   2   8   0.0316   0.0374   0.0484   0.0201  -0.0157  -0.0153   0.00    1.2
2018/03/11 10:56:46.000   78.254772895   16.249376595   344.1533   2   8   0.0315   0.0373   0.0483   0.0201  -0.0157  -0.0152   0.00    1.2
2018/03/11 10:56:47.000   78.254772899   16.249376630   344.1516   2   8   0.0314   0.0373   0.0482   0.0200  -0.0157  -0.0152   0.00    1.2
2018/03/11 10:56:48.000   78.254772914   16.249376691   344.1490   2   8   0.0314   0.0372   0.0481   0.0200  -0.0156  -0.0151   0.00    1.2
2018/03/11 10:56:49.000   78.254772907   16.249376692   344.1481   2   8   0.0313   0.0371   0.0480   0.0200  -0.0156  -0.0151   0.00    1.2
2018/03/11 10:56:50.000   78.254772897   16.249376680   344.1481   2   8   0.0312   0.0370   0.0479   0.0199  -0.0155  -0.0151   0.00    1.2
2018/03/11 10:56:51.000   78.254772881   16.249376627   344.1480   2   8   0.0312   0.0370   0.0478   0.0199  -0.0155  -0.0150   0.00    1.2
2018/03/11 10:56:52.000   78.254772870   16.249376612   344.1463   2   8   0.0311   0.0369   0.0477   0.0198  -0.0155  -0.0150   0.00    1.2
2018/03/11 10:56:53.000   78.254772849   16.249376523   344.1458   2   8   0.0310   0.0368   0.0476   0.0198  -0.0154  -0.0149   0.00    1.2
2018/03/11 10:56:54.000   78.254772840   16.249376520   344.1451   2   8   0.0310   0.0367   0.0475   0.0197  -0.0154  -0.0149   0.00    1.2
2018/03/11 10:56:55.000   78.254772826   16.249376478   344.1445   2   8   0.0309   0.0367   0.0475   0.0197  -0.0154  -0.0149   0.00    1.2
2018/03/11 10:56:56.000   78.254772809   16.249376412   344.1435   2   8   0.0309   0.0366   0.0474   0.0197  -0.0153  -0.0148   0.00    1.2
2018/03/11 10:56:57.000   78.254772791   16.249376332   344.1425   2   8   0.0308   0.0365   0.0473   0.0196  -0.0153  -0.0148   0.00    1.2
2018/03/11 10:56:58.000   78.254772773   16.249376250   344.1424   2   8   0.0307   0.0364   0.0472   0.0196  -0.0152  -0.0148   0.00    1.2
2018/03/11 10:56:59.000   78.254772760   16.249376191   344.1411   2   8   0.0307   0.0364   0.0471   0.0195  -0.0152  -0.0147   0.00    1.2
2018/03/11 10:57:00.000   78.254772751   16.249376089   344.1401   2   8   0.0306   0.0363   0.0470   0.0195  -0.0152  -0.0147   0.00    1.2
2018/03/11 10:57:01.000   78.254772737   16.249375958   344.1384   2   8   0.0306   0.0362   0.0469   0.0194  -0.0151  -0.0147   0.00    1.2
2018/03/11 10:57:02.000   78.254772731   16.249375827   344.1366   2   8   0.0305   0.0362   0.0468   0.0194  -0.0151  -0.0146   0.00    1.2
2018/03/11 10:57:03.000   78.254772722   16.249375768   344.1345   2   8   0.0304   0.0361   0.0467   0.0194  -0.0151  -0.0146   0.00    1.2
2018/03/11 10:57:04.000   78.254772710   16.249375594   344.1343   2   8   0.0304   0.0360   0.0466   0.0193  -0.0150  -0.0145   0.00    1.2
2018/03/11 10:57:05.000   78.254772706   16.249375475   344.1326   2   8   0.0303   0.0360   0.0465   0.0193  -0.0150  -0.0145   0.00    1.3
2018/03/11 10:57:06.000   78.254772713   16.249375477   344.1312   2   8   0.0303   0.0359   0.0464   0.0192  -0.0150  -0.0145   0.00    1.3
2018/03/11 10:57:07.000   78.254772703   16.249375382   344.1321   2   8   0.0302   0.0358   0.0463   0.0192  -0.0149  -0.0144   0.00    1.3
2018/03/11 10:57:08.000   78.254772696   16.249375247   344.1322   2   8   0.0301   0.0357   0.0462   0.0192  -0.0149  -0.0144   0.00    1.3
2018/03/11 10:57:09.000   78.254772694   16.249375156   344.1318   2   8   0.0301   0.0357   0.0461   0.0191  -0.0149  -0.0144   0.00    1.3
2018/03/11 10:57:10.000   78.254772700   16.249375132   344.1305   2   8   0.0300   0.0356   0.0461   0.0191  -0.0148  -0.0143   0.00    1.3
2018/03/11 10:57:11.000   78.254772708   16.249375103   344.1302   2   8   0.0300   0.0355   0.0460   0.0190  -0.0148  -0.0143   0.00    1.3
2018/03/11 10:57:12.000   78.254772721   16.249375088   344.1295   2   8   0.0299   0.0355   0.0459   0.0190  -0.0148  -0.0143   0.00    1.3
2018/03/11 10:57:13.000   78.254772722   16.249375061   344.1290   2   8   0.0299   0.0354   0.0458   0.0190  -0.0147  -0.0142   0.00    1.3
2018/03/11 10:57:14.000   78.254772722   16.249375004   344.1265   2   8   0.0298   0.0353   0.0457   0.0189  -0.0147  -0.0142   0.00    1.3
2018/03/11 10:57:15.000   78.254772717   16.249374902   344.1244   2   8   0.0297   0.0353   0.0456   0.0189  -0.0147  -0.0142   0.00    1.3
2018/03/11 10:57:16.000   78.254772709   16.249374803   344.1233   2   8   0.0297   0.0352   0.0455   0.0188  -0.0146  -0.0141   0.00    1.3
2018/03/11 10:57:17.000   78.254772701   16.249374729   344.1215   2   8   0.0296   0.0351   0.0454   0.0188  -0.0146  -0.0141   0.00    1.3
2018/03/11 10:57:18.000   78.254772711   16.249374710   344.1193   2   8   0.0296   0.0351   0.0454   0.0188  -0.0146  -0.0141   0.00    1.3
2018/03/11 10:57:19.000   78.254772703   16.249374648   344.1185   2   8   0.0295   0.0350   0.0453   0.0187  -0.0145  -0.0140   0.00    1.3
2018/03/11 10:57:20.000   78.254772703   16.249374561   344.1168   2   8   0.0295   0.0349   0.0452   0.0187  -0.0145  -0.0140   0.00    1.3
2018/03/11 10:57:21.000   78.254772690   16.249374429   344.1166   2   8   0.0294   0.0349   0.0451   0.0187  -0.0145  -0.0140   0.00    1.3
2018/03/11 10:57:22.000   78.254772678   16.249374347   344.1164   2   8   0.0294   0.0348   0.0450   0.0186  -0.0144  -0.0139   0.00    1.3
2018/03/11 10:57:23.000   78.254772680   16.249374288   344.1156   2   8   0.0293   0.0348   0.0449   0.0186  -0.0144  -0.0139   0.00    1.3
2018/03/11 10:57:24.000   78.254772682   16.249374267   344.1158   2   8   0.0293   0.0347   0.0448   0.0185  -0.0144  -0.0139   0.00    1.3
2018/03/11 10:57:25.000   78.254772690   16.249374261   344.1159   2   8   0.0292   0.0346   0.0448   0.0185  -0.0143  -0.0138   0.00    1.3
2018/03/11 10:57:26.000   78.254772692   16.249374275   344.1168   2   8   0.0292   0.0346   0.0447   0.0185  -0.0143  -0.0138   0.00    1.3
2018/03/11 10:57:27.000   78.254772682   16.249374201   344.1195   2   8   0.0291   0.0345   0.0446   0.0184  -0.0143  -0.0138   0.00    1.3
2018/03/11 10:57:28.000   78.254772680   16.249374222   344.1208   2   8   0.0290   0.0344   0.0445   0.0184  -0.0142  -0.0137   0.00    1.3
2018/03/11 10:57:29.000   78.254772676   16.249374217   344.1220   2   8   0.0290   0.0344   0.0444   0.0184  -0.0142  -0.0137   0.00    1.3
2018/03/11 10:57:30.000   78.254772680   16.249374252   344.1225   2   8   0.0289   0.0343   0.0443   0.0183  -0.0142  -0.0137   0.00    1.3
2018/03/11 10:57:31.000   78.254772679   16.249374205   344.1244   2   8   0.0289   0.0343   0.0442   0.0183  -0.0141  -0.0136   0.00    1.3
2018/03/11 10:57:32.000   78.254772671   16.249374226   344.1250   2   8   0.0288   0.0342   0.0442   0.0183  -0.0141  -0.0136   0.00    1.3
2018/03/11 10:57:33.000   78.254772669   16.249374194   344.1261   2   8   0.0288   0.0341   0.0441   0.0182  -0.0141  -0.0136   0.00    1.3
2018/03/11 10:57:34.000   78.254772653   16.249374106   344.1268   2   8   0.0287   0.0341   0.0440   0.0182  -0.0140  -0.0135   0.00    1.3
2018/03/11 10:57:35.000   78.254772630   16.249374011   344.1281   2   8   0.0287   0.0340   0.0439   0.0181  -0.0140  -0.0135   0.00    1.3
2018/03/11 10:57:36.000   78.254772610   16.249373883   344.1292   2   8   0.0286   0.0340   0.0438   0.0181  -0.0140  -0.0135   0.00    1.3
2018/03/11 10:57:37.000   78.254772589   16.249373802   344.1301   2   8   0.0286   0.0339   0.0438   0.0181  -0.0139  -0.0134   0.00    1.3
2018/03/11 10:57:38.000   78.254772569   16.249373696   344.1312   2   8   0.0285   0.0338   0.0437   0.0180  -0.0139  -0.0134   0.00    1.3
2018/03/11 10:57:39.000   78.254772556   16.249373620   344.1313   2   8   0.0285   0.0338   0.0436   0.0180  -0.0139  -0.0134   0.00    1.3
2018/03/11 10:57:40.000   78.254772544   16.249373497   344.1310   2   8   0.0284   0.0337   0.0435   0.0180  -0.0138  -0.0134   0.00    1.3
2018/03/11 10:57:41.000   78.254772537   16.249373411   344.1312   2   8   0.0284   0.0337   0.0434   0.0179  -0.0138  -0.0133   0.00    1.3
2018/03/11 10:57:42.000   78.254772531   16.249373344   344.1302   2   8   0.0283   0.0336   0.0434   0.0179  -0.0138  -0.0133   0.00    1.3
2018/03/11 10:57:43.000   78.254772530   16.249373354   344.1295   2   8   0.0283   0.0335   0.0433   0.0179  -0.0138  -0.0133   0.00    1.3
2018/03/11 10:57:44.000   78.254772525   16.249373338   344.1293   2   8   0.0282   0.0335   0.0432   0.0178  -0.0137  -0.0132   0.00    1.3
2018/03/11 10:57:45.000   78.254772521   16.249373350   344.1306   2   8   0.0282   0.0334   0.0431   0.0178  -0.0137  -0.0132   0.00    1.3
2018/03/11 10:57:46.000   78.254772524   16.249373428   344.1322   2   8   0.0281   0.0334   0.0430   0.0178  -0.0137  -0.0132   0.00    1.3
2018/03/11 10:57:47.000   78.254772517   16.249373439   344.1341   2   8   0.0281   0.0333   0.0430   0.0177  -0.0136  -0.0131   0.00    1.3
2018/03/11 10:57:48.000   78.254772516   16.249373495   344.1359   2   8   0.0280   0.0333   0.0429   0.0177  -0.0136  -0.0131   0.00    1.3
2018/03/11 10:57:49.000   78.254772501   16.249373502   344.1384   2   8   0.0280   0.0332   0.0428   0.0177  -0.0136  -0.0131   0.00    1.3
2018/03/11 10:57:50.000   78.254772491   16.249373489   344.1408   2   8   0.0279   0.0331   0.0427   0.0176  -0.0135  -0.0131   0.00    1.3
2018/03/11 10:57:51.000   78.254772484   16.249373496   344.1417   2   8   0.0279   0.0331   0.0427   0.0176  -0.0135  -0.0130   0.00    1.3
2018/03/11 10:57:52.000   78.254772477   16.249373535   344.1435   2   8   0.0279   0.0330   0.0426   0.0176  -0.0135  -0.0130   0.00    1.3
2018/03/11 10:57:53.000   78.254772467   16.249373505   344.1448   2   8   0.0278   0.0330   0.0425   0.0175  -0.0134  -0.0130   0.00    1.3
2018/03/11 10:57:54.000   78.254772463   16.249373453   344.1465   2   8   0.0278   0.0329   0.0424   0.0175  -0.0134  -0.0129   0.00    1.3
2018/03/11 10:57:55.000   78.254772467   16.249373432   344.1462   2   8   0.0277   0.0329   0.0424   0.0175  -0.0134  -0.0129   0.00    1.3
2018/03/11 10:57:56.000   78.254772458   16.249373383   344.1465   2   8   0.0277   0.0328   0.0423   0.0174  -0.0134  -0.0129   0.00    1.3
2018/03/11 10:57:57.000   78.254772460   16.249373370   344.1455   2   8   0.0276   0.0328   0.0422   0.0174  -0.0133  -0.0128   0.00    1.3
2018/03/11 10:57:58.000   78.254772454   16.249373311   344.1446   2   8   0.0276   0.0327   0.0421   0.0174  -0.0133  -0.0128   0.00    1.3
2018/03/11 10:57:59.000   78.254772445   16.249373263   344.1435   2   8   0.0275   0.0327   0.0421   0.0174  -0.0133  -0.0128   0.00    1.3
2018/03/11 10:58:00.000   78.254772427   16.249373181   344.1435   2   8   0.0275   0.0326   0.0420   0.0173  -0.0132  -0.0128   0.00    1.3
2018/03/11 10:58:01.000   78.254772417   16.249373079   344.1441   2   8   0.0274   0.0325   0.0419   0.0173  -0.0132  -0.0127   0.00    1.3
2018/03/11 10:58:02.000   78.254772416   16.249373011   344.1451   2   8   0.0274   0.0325   0.0418   0.0173  -0.0132  -0.0127   0.00    1.3
2018/03/11 10:58:03.000   78.254772418   16.249373007   344.1462   2   8   0.0273   0.0324   0.0418   0.0172  -0.0131  -0.0127   0.00    1.3
2018/03/11 10:58:04.000   78.254772432   16.249373074   344.1473   2   8   0.0273   0.0324   0.0417   0.0172  -0.0131  -0.0127   0.00    1.3
2018/03/11 10:58:05.000   78.254772458   16.249373161   344.1482   2   8   0.0273   0.0323   0.0416   0.0172  -0.0131  -0.0126   0.00    1.3
2018/03/11 10:58:06.000   78.254772477   16.249373227   344.1490   2   8   0.0272   0.0323   0.0415   0.0171  -0.0131  -0.0126   0.00    1.3
2018/03/11 10:58:07.000   78.254772490   16.249373270   344.1504   2   8   0.0272   0.0322   0.0415   0.0171  -0.0130  -0.0126   0.00    1.3
2018/03/11 10:58:08.000   78.254772498   16.249373269   344.1519   2   8   0.0271   0.0322   0.0414   0.0171  -0.0130  -0.0125   0.00    1.3
2018/03/11 10:58:09.000   78.254772502   16.249373307   344.1523   2   8   0.0271   0.0321   0.0413   0.0170  -0.0130  -0.0125   0.00    1.3
2018/03/11 10:58:10.000   78.254772503   16.249373326   344.1534   2   8   0.0270   0.0321   0.0412   0.0170  -0.0129  -0.0125   0.00    1.3
2018/03/11 10:58:11.000   78.254772508   16.249373350   344.1530   2   8   0.0270   0.0320   0.0412   0.0170  -0.0129  -0.0125   0.00    1.3
2018/03/11 10:58:12.000   78.254772512   16.249373356   344.1532   2   8   0.0269   0.0320   0.0411   0.0170  -0.0129  -0.0124   0.00    1.3
2018/03/11 10:58:13.000   78.254772509   16.249373328   344.1532   2   8   0.0269   0.0319   0.0410   0.0169  -0.0129  -0.0124   0.00    1.3
2018/03/11 10:58:14.000   78.254772507   16.249373325   344.1527   2   8   0.0269   0.0319   0.0410   0.0169  -0.0128  -0.0124   0.00    1.3
2018/03/11 10:58:15.000   78.254772506   16.249373341   344.1514   2   8   0.0268   0.0318   0.0409   0.0169  -0.0128  -0.0123   0.00    1.3
2018/03/11 10:58:16.000   78.254772506   16.249373310   344.1513   2   8   0.0268   0.0318   0.0408   0.0168  -0.0128  -0.0123   0.00    1.3
2018/03/11 10:58:17.000   78.254772512   16.249373333   344.1512   2   8   0.0267   0.0317   0.0407   0.0168  -0.0127  -0.0123   0.00    1.3
2018/03/11 10:58:18.000   78.254772509   16.249373299   344.1506   2   8   0.0267   0.0317   0.0407   0.0168  -0.0127  -0.0123   0.00    1.3
2018/03/11 10:58:19.000   78.254772507   16.249373292   344.1506   2   8   0.0266   0.0316   0.0406   0.0168  -0.0127  -0.0122   0.00    1.3
2018/03/11 10:58:20.000   78.254772497   16.249373262   344.1506   2   8   0.0266   0.0316   0.0405   0.0167  -0.0127  -0.0122   0.00    1.2
2018/03/11 10:58:21.000   78.254772496   16.249373252   344.1501   2   8   0.0266   0.0315   0.0405   0.0167  -0.0126  -0.0122   0.00    1.2
2018/03/11 10:58:22.000   78.254772500   16.249373230   344.1508   2   8   0.0265   0.0315   0.0404   0.0167  -0.0126  -0.0122   0.00    1.2
2018/03/11 10:58:23.000   78.254772510   16.249373293   344.1510   2   8   0.0265   0.0314   0.0403   0.0166  -0.0126  -0.0121   0.00    1.2
2018/03/11 10:58:24.000   78.254772519   16.249373303   344.1518   2   8   0.0264   0.0314   0.0403   0.0166  -0.0125  -0.0121   0.00    1.2
2018/03/11 10:58:25.000   78.254772531   16.249373327   344.1511   2   8   0.0264   0.0313   0.0402   0.0166  -0.0125  -0.0121   0.00    1.2
2018/03/11 10:58:26.000   78.254772527   16.249373325   344.1514   2   8   0.0264   0.0313   0.0401   0.0166  -0.0125  -0.0121   0.00    1.2
2018/03/11 10:58:27.000   78.254772530   16.249373395   344.1512   2   8   0.0263   0.0312   0.0401   0.0165  -0.0125  -0.0120   0.00    1.2
2018/03/11 10:58:28.000   78.254772522   16.249373404   344.1520   2   8   0.0263   0.0312   0.0400   0.0165  -0.0124  -0.0120   0.00    1.2
2018/03/11 10:58:29.000   78.254772505   16.249373396   344.1525   2   8   0.0262   0.0311   0.0399   0.0165  -0.0124  -0.0120   0.00    1.2
2018/03/11 10:58:30.000   78.254772495   16.249373441   344.1533   2   8   0.0262   0.0311   0.0398   0.0164  -0.0124  -0.0119   0.00    1.2
2018/03/11 10:58:31.000   78.254772471   16.249373377   344.1554   2   8   0.0261   0.0310   0.0398   0.0164  -0.0123  -0.0119   0.00    1.2
2018/03/11 10:58:32.000   78.254772456   16.249373310   344.1566   2   8   0.0261   0.0310   0.0397   0.0164  -0.0123  -0.0119   0.00    1.2
2018/03/11 10:58:33.000   78.254772439   16.249373288   344.1570   2   8   0.0261   0.0309   0.0396   0.0164  -0.0123  -0.0119   0.00    1.2
2018/03/11 10:58:34.000   78.254772423   16.249373225   344.1575   2   8   0.0260   0.0309   0.0396   0.0163  -0.0123  -0.0118   0.00    1.2
2018/03/11 10:58:35.000   78.254772415   16.249373124   344.1572   2   8   0.0260   0.0308   0.0395   0.0163  -0.0122  -0.0118   0.00    1.2
2018/03/11 10:58:36.000   78.254772414   16.249373081   344.1561   2   8   0.0259   0.0308   0.0394   0.0163  -0.0122  -0.0118   0.00    1.2
2018/03/11 10:58:37.000   78.254772406   16.249373015   344.1563   2   8   0.0259   0.0307   0.0394   0.0163  -0.0122  -0.0118   0.00    1.2
2018/03/11 10:58:38.000   78.254772404   16.249372972   344.1570   2   8   0.0259   0.0307   0.0393   0.0162  -0.0122  -0.0117   0.00    1.2
2018/03/11 10:58:39.000   78.254772402   16.249372940   344.1573   2   8   0.0258   0.0307   0.0392   0.0162  -0.0121  -0.0117   0.00    1.2
2018/03/11 10:58:40.000   78.254772396   16.249372939   344.1581   2   8   0.0258   0.0306   0.0392   0.0162  -0.0121  -0.0117   0.00    1.2
2018/03/11 10:58:41.000   78.254772383   16.249372917   344.1595   2   8   0.0258   0.0306   0.0391   0.0161  -0.0121  -0.0117   0.00    1.2
2018/03/11 10:58:42.000   78.254772381   16.249372863   344.1598   2   8   0.0257   0.0305   0.0391   0.0161  -0.0121  -0.0116   0.00    1.2
2018/03/11 10:58:43.000   78.254772371   16.249372815   344.1612   2   8   0.0257   0.0305   0.0390   0.0161  -0.0120  -0.0116   0.00    1.2
2018/03/11 10:58:44.000   78.254772363   16.249372808   344.1637   2   8   0.0256   0.0304   0.0389   0.0161  -0.0120  -0.0116   0.00    1.2
2018/03/11 10:58:45.000   78.254772357   16.249372809   344.1654   2   8   0.0256   0.0304   0.0389   0.0160  -0.0120  -0.0116   0.00    1.2
2018/03/11 10:58:46.000   78.254772358   16.249372826   344.1670   2   8   0.0256   0.0303   0.0388   0.0160  -0.0119  -0.0115   0.00    1.2
2018/03/11 10:58:47.000   78.254772355   16.249372830   344.1689   2   8   0.0255   0.0303   0.0387   0.0160  -0.0119  -0.0115   0.00    1.2
2018/03/11 10:58:48.000   78.254772353   16.249372826   344.1708   2   8   0.0255   0.0302   0.0387   0.0160  -0.0119  -0.0115   0.00    1.2
2018/03/11 10:58:49.000   78.254772350   16.249372845   344.1718   2   8   0.0254   0.0302   0.0386   0.0159  -0.0119  -0.0115   0.00    1.2
2018/03/11 10:58:50.000   78.254772346   16.249372863   344.1725   2   8   0.0254   0.0302   0.0385   0.0159  -0.0118  -0.0114   0.00    1.2
2018/03/11 10:58:51.000   78.254772333   16.249372825   344.1741   2   8   0.0254   0.0301   0.0385   0.0159  -0.0118  -0.0114   0.00    1.2
2018/03/11 10:58:52.000   78.254772320   16.249372815   344.1760   2   8   0.0253   0.0301   0.0384   0.0159  -0.0118  -0.0114   0.00    1.2
2018/03/11 10:58:53.000   78.254772308   16.249372828   344.1781   2   8   0.0253   0.0300   0.0383   0.0158  -0.0118  -0.0114   0.00    1.2
2018/03/11 10:58:54.000   78.254772298   16.249372798   344.1796   2   8   0.0253   0.0300   0.0383   0.0158  -0.0117  -0.0114   0.00    1.2
2018/03/11 10:58:55.000   78.254772290   16.249372743   344.1812   2   8   0.0252   0.0299   0.0382   0.0158  -0.0117  -0.0113   0.00    1.2
2018/03/11 10:58:56.000   78.254772286   16.249372726   344.1827   2   8   0.0252   0.0299   0.0382   0.0158  -0.0117  -0.0113   0.00    1.2
2018/03/11 10:58:57.000   78.254772277   16.249372655   344.1847   2   8   0.0251   0.0298   0.0381   0.0157  -0.0117  -0.0113   0.00    1.2
2018/03/11 10:58:58.000   78.254772276   16.249372615   344.1865   2   8   0.0251   0.0298   0.0380   0.0157  -0.0116  -0.0113   0.00    1.2
2018/03/11 10:58:59.000   78.254772264   16.249372557   344.1882   2   8   0.0251   0.0298   0.0380   0.0157  -0.0116  -0.0112   0.00    1.2
2018/03/11 10:59:00.000   78.254772253   16.249372513   344.1892   2   8   0.0250   0.0297   0.0379   0.0157  -0.0116  -0.0112   0.00    1.2
2018/03/11 10:59:01.000   78.254772235   16.249372467   344.1906   2   8   0.0250   0.0297   0.0379   0.0156  -0.0116  -0.0112   0.00    1.2
2018/03/11 10:59:02.000   78.254772217   16.249372406   344.1924   2   8   0.0250   0.0296   0.0378   0.0156  -0.0115  -0.0112   0.00    1.2
2018/03/11 10:59:03.000   78.254772205   16.249372376   344.1941   2   8   0.0249   0.0296   0.0377   0.0156  -0.0115  -0.0111   0.00    1.2
2018/03/11 10:59:04.000   78.254772193   16.249372284   344.1957   2   8   0.0249   0.0295   0.0377   0.0156  -0.0115  -0.0111   0.00    1.2
2018/03/11 10:59:05.000   78.254772196   16.249372262   344.1954   2   8   0.0249   0.0295   0.0376   0.0155  -0.0115  -0.0111   0.00    1.2
2018/03/11 10:59:06.000   78.254772195   16.249372217   344.1955   2   8   0.0248   0.0295   0.0375   0.0155  -0.0114  -0.0111   0.00    1.2
2018/03/11 10:59:07.000   78.254772207   16.249372250   344.1957   2   8   0.0248   0.0294   0.0375   0.0155  -0.0114  -0.0110   0.00    1.2
2018/03/11 10:59:08.000   78.254772209   16.249372238   344.1951   2   8   0.0247   0.0294   0.0374   0.0155  -0.0114  -0.0110   0.00    1.2
2018/03/11 10:59:09.000   78.254772206   16.249372222   344.1947   2   8   0.0247   0.0293   0.0374   0.0154  -0.0114  -0.0110   0.00    1.2
2018/03/11 10:59:10.000   78.254772197   16.249372222   344.1948   2   8   0.0247   0.0293   0.0373   0.0154  -0.0113  -0.0110   0.00    1.2
2018/03/11 10:59:11.000   78.254772206   16.249372273   344.1938   2   8   0.0246   0.0293   0.0372   0.0154  -0.0113  -0.0110   0.00    1.2
2018/03/11 10:59:12.000   78.254772199   16.249372274   344.1943   2   8   0.0246   0.0292   0.0372   0.0154  -0.0113  -0.0109   0.00    1.2
2018/03/11 10:59:13.000   78.254772195   16.249372274   344.1947   2   8   0.0246   0.0292   0.0371   0.0153  -0.0113  -0.0109   0.00    1.2
2018/03/11 10:59:14.000   78.254772186   16.249372294   344.1951   2   8   0.0245   0.0291   0.0371   0.0153  -0.0112  -0.0109   0.00    1.2
2018/03/11 10:59:15.000   78.254772175   16.249372283   344.1958   2   8   0.0245   0.0291   0.0370   0.0153  -0.0112  -0.0109   0.00    1.2
2018/03/11 10:59:16.000   78.254772165   16.249372295   344.1961   2   8   0.0245   0.0290   0.0369   0.0153  -0.0112  -0.0108   0.00    1.2
2018/03/11 10:59:17.000   78.254772164   16.249372259   344.1963   2   8   0.0244   0.0290   0.0369   0.0153  -0.0112  -0.0108   0.00    1.2
2018/03/11 10:59:18.000   78.254772160   16.249372241   344.1963   2   8   0.0244   0.0290   0.0368   0.0152  -0.0111  -0.0108   0.00    1.2
2018/03/11 10:59:19.000   78.254772161   16.249372254   344.1961   2   8   0.0244   0.0289   0.0368   0.0152  -0.0111  -0.0108   0.00    1.2
2018/03/11 10:59:20.000   78.254772160   16.249372250   344.1956   2   8   0.0243   0.0289   0.0367   0.0152  -0.0111  -0.0107   0.00    1.2
2018/03/11 10:59:21.000   78.254772158   16.249372224   344.1965   2   8   0.0243   0.0288   0.0367   0.0152  -0.0111  -0.0107   0.00    1.2
2018/03/11 10:59:22.000   78.254772155   16.249372225   344.1976   2   8   0.0243   0.0288   0.0366   0.0151  -0.0110  -0.0107   0.00    1.2
2018/03/11 10:59:23.000   78.254772156   16.249372249   344.1983   2   8   0.0242   0.0288   0.0365   0.0151  -0.0110  -0.0107   0.00    1.2
2018/03/11 10:59:24.000   78.254772152   16.249372253   344.1989   2   8   0.0242   0.0287   0.0365   0.0151  -0.0110  -0.0107   0.00    1.2
2018/03/11 10:59:25.000   78.254772149   16.249372229   344.1983   2   8   0.0242   0.0287   0.0364   0.0151  -0.0110  -0.0106   0.00    1.2
2018/03/11 10:59:26.000   78.254772145   16.249372233   344.1981   2   8   0.0241   0.0286   0.0364   0.0150  -0.0109  -0.0106   0.00    1.2
2018/03/11 10:59:27.000   78.254772130   16.249372193   344.1990   2   8   0.0241   0.0286   0.0363   0.0150  -0.0109  -0.0106   0.00    1.2
2018/03/11 10:59:28.000   78.254772126   16.249372256   344.1991   2   8   0.0241   0.0286   0.0363   0.0150  -0.0109  -0.0106   0.00    1.2
2018/03/11 10:59:29.000   78.254772117   16.249372249   344.1995   2   8   0.0240   0.0285   0.0362   0.0150  -0.0109  -0.0105   0.00    1.2
2018/03/11 10:59:30.000   78.254772118   16.249372306   344.2000   2   8   0.0240   0.0285   0.0361   0.0150  -0.0108  -0.0105   0.00    1.2
2018/03/11 10:59:31.000   78.254772119   16.249372339   344.2002   2   8   0.0240   0.0285   0.0361   0.0149  -0.0108  -0.0105   0.00    1.2
2018/03/11 10:59:32.000   78.254772120   16.249372359   344.2005   2   8   0.0239   0.0284   0.0360   0.0149  -0.0108  -0.0105   0.00    1.2
2018/03/11 10:59:33.000   78.254772123   16.249372403   344.2017   2   8   0.0239   0.0284   0.0360   0.0149  -0.0108  -0.0105   0.00    1.2
2018/03/11 10:59:34.000   78.254772115   16.249372398   344.2025   2   8   0.0239   0.0283   0.0359   0.0149  -0.0107  -0.0104   0.00    1.2
2018/03/11 10:59:35.000   78.254772096   16.249372333   344.2038   2   8   0.0238   0.0283   0.0359   0.0148  -0.0107  -0.0104   0.00    1.2
2018/03/11 10:59:36.000   78.254772083   16.249372309   344.2046   2   8   0.0238   0.0283   0.0358   0.0148  -0.0107  -0.0104   0.00    1.2
2018/03/11 10:59:37.000   78.254772072   16.249372297   344.2051   2   8   0.0238   0.0282   0.0358   0.0148  -0.0107  -0.0104   0.00    1.2
2018/03/11 10:59:38.000   78.254772070   16.249372271   344.2050   2   8   0.0237   0.0282   0.0357   0.0148  -0.0107  -0.0104   0.00    1.2
2018/03/11 10:59:39.000   78.254772072   16.249372241   344.2055   2   8   0.0237   0.0281   0.0356   0.0148  -0.0106  -0.0103   0.00    1.2
2018/03/11 10:59:40.000   78.254772074   16.249372214   344.2059   2   8   0.0237   0.0281   0.0356   0.0147  -0.0106  -0.0103   0.00    1.2
2018/03/11 10:59:41.000   78.254772069   16.249372142   344.2066   2   8   0.0236   0.0281   0.0355   0.0147  -0.0106  -0.0103   0.00    1.2
2018/03/11 10:59:42.000   78.254772060   16.249372109   344.2067   2   8   0.0236   0.0280   0.0355   0.0147  -0.0106  -0.0103   0.00    1.2
2018/03/11 10:59:43.000   78.254772049   16.249372055   344.2072   2   8   0.0236   0.0280   0.0354   0.0147  -0.0105  -0.0102   0.00    1.2
2018/03/11 10:59:44.000   78.254772041   16.249371963   344.2070   2   8   0.0235   0.0280   0.0354   0.0147  -0.0105  -0.0102   0.00    1.2
2018/03/11 10:59:45.000   78.254772049   16.249371963   344.2057   2   8   0.0235   0.0279   0.0353   0.0146  -0.0105  -0.0102   0.00    1.2
2018/03/11 10:59:46.000   78.254772058   16.249371977   344.2048   2   8   0.0235   0.0279   0.0353   0.0146  -0.0105  -0.0102   0.00    1.2
2018/03/11 10:59:47.000   78.254772064   16.249372016   344.2036   2   8   0.0235   0.0279   0.0352   0.0146  -0.0104  -0.0102   0.00    1.2
2018/03/11 10:59:48.000   78.254772057   16.249371978   344.2038   2   8   0.0234   0.0278   0.0352   0.0146  -0.0104  -0.0101   0.00    1.2
2018/03/11 10:59:49.000   78.254772048   16.249371937   344.2049   2   8   0.0234   0.0278   0.0351   0.0145  -0.0104  -0.0101   0.00    1.2
2018/03/11 10:59:50.000   78.254772042   16.249371946   344.2054   2   8   0.0234   0.0277   0.0350   0.0145  -0.0104  -0.0101   0.00    1.2
2018/03/11 10:59:51.000   78.254772034   16.249371901   344.2061   2   8   0.0233   0.0277   0.0350   0.0145  -0.0103  -0.0101   0.00    1.2
2018/03/11 10:59:52.000   78.254772037   16.249371915   344.2057   2   8   0.0233   0.0277   0.0349   0.0145  -0.0103  -0.0101   0.00    1.2
2018/03/11 10:59:53.000   78.254772040   16.249371910   344.2059   2   8   0.0233   0.0276   0.0349   0.0145  -0.0103  -0.0100   0.00    1.2
2018/03/11 10:59:54.000   78.254772040   16.249371924   344.2057   2   8   0.0232   0.0276   0.0348   0.0144  -0.0103  -0.0100   0.00    1.2
2018/03/11 10:59:55.000   78.254772032   16.249371917   344.2061   2   8   0.0232   0.0276   0.0348   0.0144  -0.0103  -0.0100   0.00    1.2
2018/03/11 10:59:56.000   78.254772019   16.249371909   344.2065   2   8   0.0232   0.0275   0.0347   0.0144  -0.0102  -0.0100   0.00    1.2
2018/03/11 10:59:57.000   78.254772002   16.249371884   344.2068   2   8   0.0231   0.0275   0.0347   0.0144  -0.0102  -0.0100   0.00    1.2
2018/03/11 10:59:58.000   78.254771985   16.249371821   344.2076   2   8   0.0231   0.0275   0.0346   0.0144  -0.0102  -0.0099   0.00    1.2
2018/03/11 10:59:59.000   78.254771975   16.249371789   344.2080   2   8   0.0231   0.0274   0.0346   0.0143  -0.0102  -0.0099   0.00    1.2
2018/03/11 11:00:00.000   78.254771981   16.249371807   344.2076   2   8   0.0231   0.0274   0.0345   0.0143  -0.0101  -0.0099   0.00    1.2
