     2.11           OBSERVATION DATA    M (MIXED)           RINEX VERSION / TYPE
teqc  2018Mar15                         20180319 14:17:32UTCPGM / RUN BY / DATE
Linux 2.6.32-573.12.1.x86_64|x86_64|gcc -static|Linux 64|=+ COMMENT
END OF STATIC MODE OBSERVATION                              COMMENT
BIT 2 OF LLI FLAGS DATA COLLECTED UNDER A/S CONDITION       COMMENT
-Unknown-                                                   MARKER NAME
4625                                                        MARKER NUMBER
-Unknown-           -Unknown-                               OBSERVER / AGENCY
5127468778          TRIMBLE             4.63                REC # / TYPE / VERS
47477114                            NONE                    ANT # / TYPE
 -3298977.3383        0.0000  5440395.6774                  APPROX POSITION XYZ
        0.0000        0.0000        0.0000                  ANTENNA: DELTA H/E/N
     1     1                                                WAVELENGTH FACT L1/2
     7    L1    L2    C1    P1    P2    S1    S2            # / TYPES OF OBSERV
    18                                                      LEAP SECONDS
 SNR is mapped to RINEX snr flag value [0-9]                COMMENT
  L1 & L2: min(max(int(snr_dBHz/6), 0), 9)                  COMMENT
  2018     3    11    12     7    4.0000000     GPS         TIME OF FIRST OBS
                                                            END OF HEADER
 18  3 11 12  7  4.0000000  0 16R05R13G08R04G17R14R21R12R22G28G11G01
                                G10G24G15G13
                  85848593.271 5  20648257.406                    20648258.434
                        35.200
                  80337889.675 6  19343195.227                    19343195.801
                        40.200
 125310289.067 6  97644435.84344  23845762.703                    23845769.148
        40.100          26.200
                  84777104.227 7  20354822.141                    20354823.023
                        42.600
 127168757.712 7  99092572.74444  24199415.602                    24199419.063
        45.700          26.700
                  86435113.034 7  20847866.961                    20847869.852
                        42.200
                  88640742.656 7  21297396.805                    21297400.184
                        42.300
                                  22688612.094

                  85739720.617 7  20651064.250                    20651066.238
                        42.700
 113684428.649 7  88585277.76845  21633428.102                    21633430.539
        46.600          35.400
 119489822.520 7  93108963.97544  22738158.320                    22738160.574
        45.700          28.600
 124910557.818 7  97332919.15944  23769689.492                    23769695.391
        43.400          26.200
 116948569.606 7  91128773.28945  22254573.609                    22254579.242
        45.300          33.900
 116934267.893 7  91117632.88045  22251851.516                    22251857.129
        46.400          35.900
 115003076.029 8  89612796.65546  21884357.828                    21884361.168
        48.000          36.600
 119991678.233 7  93500028.22544  22833656.977                    22833659.695
        43.100          26.700
 18  3 11 12  7  5.0000000  0 16R05R13G08R04G17R14R21R12R22G28G11G01
                                G10G24G15G13
                  85847315.706 5  20647950.234                    20647950.770
                        35.000
                  80338642.090 6  19343375.813                    19343376.742
                        40.300
 125313681.348 6  97647079.18844  23846408.016                    23846414.922
        40.800          25.600
                  84779152.458 7  20355314.547                    20355315.066
                        42.400
 127165724.572 7  99090209.25744  24198838.742                    24198842.254
        46.000          27.800
                  86432762.555 7  20847300.172                    20847302.316
                        42.000
                  88643090.670 6  21297961.211                    21297963.816
                        41.600
                                  22689487.336

                  85738561.881 7  20650785.977                    20650787.605
                        42.600
 113685997.955 7  88586500.60045  21633726.297                    21633728.750
        46.400          35.100
 119488635.536 7  93108039.03944  22737932.000                    22737934.789
        45.000          29.400
 124907875.488 7  97330829.02444  23769178.352                    23769184.543
        43.600          26.800
 116948115.164 7  91128419.17945  22254487.133                    22254492.559
        45.100          34.400
 116931739.989 7  91115663.08646  22251370.797                    22251376.363
        46.800          36.200
 115005564.617 8  89614735.81446  21884831.516                    21884834.492
        48.100          36.300
 119995396.973 7  93502925.94844  22834364.633                    22834367.504
        43.200          26.200
 18  3 11 12  7  6.0000000  0 16R05R13G08R04G17R14R21R12R22G28G11G01
                                G10G24G15G13
                  85846038.788 5  20647642.664                    20647643.914
                        34.600
                  80339395.147 6  19343557.867                    19343558.008
                        40.200
 125317074.009 6  97649722.82844  23847054.203                    23847060.555
        41.000          26.100
                  84781201.324 7  20355806.594                    20355806.727
                        42.600
 127162691.695 7  99087845.96944  24198261.266                    24198264.879
        45.400          26.500
                  86430412.478 6  20846733.000                    20846735.703
                        41.700
                  88645439.262 6  21298526.734                    21298527.570
                        41.300
                                  22690363.367

                  85737403.822 7  20650507.297                    20650508.773
                        42.100
 113687567.794 7  88587723.85345  21634025.344                    21634027.941
        46.800          34.600
 119487449.208 7  93107114.63644  22737704.875                    22737709.008
        44.500          29.000
 124905193.567 7  97328739.20944  23768668.438                    23768674.496
        43.800          26.500
 116947661.387 7  91128065.58445  22254400.586                    22254406.766
        45.100          34.000
 116929212.508 7  91113693.61645  22250889.883                    22250895.816
        46.400          35.900
 115008053.740 8  89616675.39446  21885305.445                    21885308.316
        48.800          36.600
 119999116.031 7  93505823.93244  22835072.672                    22835075.320
        43.700          24.700
 18  3 11 12  7  7.0000000  0 16R05R13G08R04G17R14R21R12R22G28G11G01
                                G10G24G15G13
                  85844762.512 5  20647336.242                    20647337.473
                        34.800
                  80340148.911 6  19343738.867                    19343739.816
                        40.400
 125320467.090 6  97652366.78344  23847699.828                    23847705.984
        41.400          25.000
                  84783250.845 7  20356297.945                    20356298.574
                        42.800
 127159659.073 7  99085482.88244  24197683.820                    24197687.738
        45.200          25.600
                  86428062.869 6  20846165.867                    20846168.508
                        41.600
                  88647788.443 6  21299091.492                    21299091.453
                        41.600
                                  22691235.008

                  85736246.472 7  20650228.086                    20650230.074
                        42.300
 113689138.188 7  88588947.52745  21634323.977                    21634326.395
        46.600          35.000
 119486263.568 7  93106190.76544  22737478.844                    22737483.477
        43.800          28.400
 124902512.143 7  97326649.77844  23768158.063                    23768164.188
        43.900          26.500
 116947208.341 7  91127712.56345  22254314.758                    22254320.145
        45.700          34.000
 116926685.489 7  91111724.51446  22250408.773                    22250414.605
        46.200          36.500
 115010543.489 7  89618615.46646  21885778.391                    21885782.168
        47.700          36.400
 120002835.514 7  93508722.25544  22835780.125                    22835782.250
        44.200          24.800
 18  3 11 12  7  8.0000000  0 16R05R13G08R04G17R14R21R12R22G28G11G01
                                G10G24G15G13
                  85843486.920 5  20647029.250                    20647030.254
                        35.100
                  80340903.374 6  19343920.227                    19343920.805
                        40.200
 125323860.623 6  97655011.09444  23848345.328                    23848352.012
        41.600          25.500
                  84785301.029 7  20356790.891                    20356791.223
                        42.400
 127156626.717 7  99083119.99944  24197106.914                    24197110.789
        44.600          26.000
                  86425713.709 6  20845600.594                    20845602.305
                        41.900
                  88650138.236 7  21299656.234                    21299656.359
                        42.200
                                  22692112.617

                  85735089.829 7  20649949.406                    20649951.367
                        42.400
 113690709.183 7  88590171.68445  21634623.102                    21634625.633
        47.000          35.400
 119485078.660 7  93105267.47344  22737253.938                    22737257.797
        43.900          29.000
 124899831.161 7  97324560.68944  23767648.297                    23767654.234
        43.900          26.900
 116946755.995 7  91127360.07745  22254229.102                    22254234.313
        45.600          34.000
 116924158.939 7  91109755.77446  22249927.172                    22249933.988
        46.000          36.300
 115013033.826 8  89620555.98146  21886253.102                    21886256.016
        48.500          36.900
 120006555.378 7  93511620.86744  22836488.477                    22836489.996
        45.100          25.600
 18  3 11 12  7  9.0000000  0 16R05R13G08R04G17R14R21R12R22G28G11G01
                                G10G24G15G13
                  85842211.954 5  20646722.016                    20646723.996
                        34.400
                  80341658.485 6  19344101.742                    19344102.941
                        40.200
 125327254.536 6  97657655.70244  23848991.484                    23848997.535
        41.400          27.000
                  84787351.854 7  20357283.133                    20357283.871
                        42.400
 127153594.607 7  99080757.32044  24196529.695                    24196533.406
        44.200          25.400
                  86423364.973 7  20845033.789                    20845035.414
                        42.100
                  88652488.662 7  21300220.484                    21300220.875
                        42.400
                                  22692986.930

                  85733933.894 7  20649670.992                    20649672.902
                        42.100
 113692280.717 7  88591396.25345  21634921.828                    21634924.531
        46.700          35.300
 119483894.451 7  93104344.73344  22737029.953                    22737032.563
        44.300          28.900
 124897150.623 7  97322471.95544  23767136.836                    23767144.176
        43.200          26.200
 116946304.353 7  91127008.14645  22254142.461                    22254148.512
        45.300          34.400
 116921632.833 7  91107787.38246  22249447.180                    22249452.973
        46.100          36.000
 115015524.723 8  89622496.94446  21886727.313                    21886730.074
        48.400          36.600
 120010275.622 7  93514519.76544  22837196.234                    22837197.625
        45.500          26.400
 18  3 11 12  7 10.0000000  0 16R05R13G08R04G17R14R21R12R22G28G11G01
                                G10G24G15G13
                  85840937.682 5  20646415.414                    20646417.309
                        34.900
                  80342414.297 6  19344284.375                    19344284.906
                        39.900
 125330648.873 6  97660300.64944  23849637.555                    23849643.266
        41.300          27.200
                  84789403.269 7  20357775.750                    20357776.316
                        42.400
 127150562.794 7  99078394.87544  24195952.367                    24195956.250
        44.100          25.600
                  86421016.639 6  20844467.383                    20844469.305
                        41.800
                  88654839.678 7  21300787.094                    21300786.574
                        42.700
                                  22693858.844

                  85732778.637 7  20649393.367                    20649394.027
                        42.100
 113693852.794 7  88592621.24545  21635221.328                    21635223.508
        46.700          35.000
 119482710.959 7  93103422.54444  22736804.813                    22736806.672
        44.600          28.100
 124894470.539 7  97320383.57844  23766627.344                    23766634.371
        43.300          27.500
 116945853.417 7  91126656.76045  22254056.492                    22254062.523
        45.200          34.000
 116919107.202 7  91105819.35945  22248966.484                    22248972.508
        46.300          35.800
 115018016.229 7  89624438.39045  21887199.891                    21887204.617
        47.200          35.700
 120013996.236 7  93517418.95644  22837904.148                    22837905.258
        46.100          27.200
 18  3 11 12  7 11.0000000  0 16R05R13G08R04G17R14R21R12R22G28G11G01
                                G10G24G15G13
                  85839664.005 5  20646108.656                    20646110.918
                        35.200
                  80343170.744 6  19344467.406                    19344467.137
                        40.000
 125334043.567 6  97662945.86744  23850283.867                    23850289.629
        41.700          28.900
                  84791455.315 7  20358268.391                    20358268.934
                        42.400
 127147531.180 7  99076032.58344  24195375.195                    24195379.738
        43.700          24.300
                  86418668.715 6  20843901.414                    20843903.145
                        41.900
                  88657191.295 7  21301351.789                    21301351.887
                        42.400
                                  22694734.906

                  85731624.058 7  20649114.711                    20649116.457
                        42.300
 113695425.436 7  88593846.68245  21635520.695                    21635523.070
        46.600          35.100
 119481528.146 7  93102500.86644  22736580.055                    22736582.313
        45.100          28.500
 124891790.910 7  97318295.56344  23766117.633                    23766124.789
        42.700          27.200
 116945403.122 7  91126305.88745  22253970.406                    22253977.074
        45.400          34.000
 116916581.993 7  91103851.66445  22248486.211                    22248491.773
        45.900          35.800
 115020508.317 8  89626380.26946  21887675.359                    21887678.082
        48.400          36.500
 120017717.218 7  93520318.43744  22838612.563                    22838613.531
        46.300          28.000
 18  3 11 12  7 12.0000000  0 16R05R13G08R04G17R14R21R12R22G28G11G01
                                G10G24G15G13
                  85838391.065 5  20645803.305                    20645804.508
                        35.100
                  80343927.919 6  19344649.453                    19344649.711
                        40.600
 125337438.721 6  97665591.42644  23850929.258                    23850935.715
        41.700          25.700
                  84793508.033 7  20358760.617                    20358761.457
                        42.100
 127144499.912 7  99073670.55844  24194798.938                    24194802.695
        43.700          24.200
                  86416321.252 7  20843334.688                    20843336.293
                        42.100
                  88659543.509 7  21301916.680                    21301917.672
                        42.000
                                  22695610.977

                  85730470.216 7  20648836.984                    20648838.840
                        42.400
 113696998.668 7  88595072.57745  21635819.984                    21635822.734
        46.600          35.500
 119480346.069 7  93101579.74644  22736354.859                    22736357.227
        44.700          27.400
 124889111.757 7  97316207.91544  23765607.680                    23765615.012
        42.300          27.100
 116944953.627 7  91125955.63545  22253885.008                    22253891.191
        44.700          34.300
 116914057.317 7  91101884.38345  22248005.297                    22248011.582
        46.100          35.800
 115023000.973 8  89628322.58846  21888150.523                    21888152.770
        49.200          36.500
 120021438.630 7  93523218.23844  22839320.594                    22839321.301
        47.100          28.300
 18  3 11 12  7 13.0000000  0 16R05R13G08R04G17R14R21R12R22G28G11G01
                                G10G24G15G13
                  85837118.745 5  20645498.141                    20645498.879
                        35.200
                  80344685.741 6  19344831.664                    19344831.969
                        40.500
 125340834.258 6  97668237.30044  23851575.688                    23851582.031
        41.900          28.000
                  84795561.369 7  20359254.336                    20359254.762
                        42.300
 127141468.816 7  99071308.67044  24194221.844                    24194225.980
        43.900          25.200
                  86413974.192 6  20842768.641                    20842771.258
                        41.900
                  88661896.298 6  21302481.773                    21302482.469
                        41.700
                                  22696485.398

                  85729317.037 7  20648559.266                    20648560.820
                        42.400
 113698572.413 7  88596298.87345  21636119.477                    21636121.938
        46.400          35.200
 119479164.639 7  93100659.13444  22736129.563                    22736132.574
        44.300          28.000
 124886433.037 6  97314120.60444  23765097.555                    23765105.715
        41.900          27.300
 116944504.763 7  91125605.87145  22253799.375                    22253805.531
        44.600          34.100
 116911533.027 7  91099917.40446  22247525.453                    22247531.348
        46.300          36.200
 115025494.208 8  89630265.37646  21888623.195                    21888627.504
        48.700          36.200
 120025160.367 7  93526118.29344  22840028.555                    22840030.105
        47.200          28.900
 18  3 11 12  7 14.0000000  0 16R05R13G08R04G17R14R21R12R22G28G11G01
                                G10G24G15G13
                  85835847.080 5  20645192.156                    20645192.813
                        34.700
                  80345444.260 6  19345014.336                    19345014.789
                        40.100
 125344230.227 7  97670883.51044  23852221.813                    23852227.891
        42.200          27.300
                  84797615.376 7  20359748.266                    20359747.918
                        42.200
 127138438.033 7  99068947.03144  24193645.125                    24193648.953
        44.300          25.600
                  86411627.580 6  20842202.789                    20842205.117
                        41.600
                  88664249.719 6  21303046.328                    21303047.676
                        41.700
                                  22697358.070

                  85728164.604 7  20648281.680                    20648283.148
                        42.400
 113700146.746 7  88597525.62945  21636419.055                    21636421.121
        46.800          35.100
 119477983.918 7  93099739.08844  22735904.484                    22735907.770
        44.200          27.800
 124883754.782 6  97312033.65744  23764587.688                    23764595.965
        41.500          27.400
 116944056.642 7  91125256.68845  22253714.313                    22253720.418
        45.100          34.900
 116909009.251 7  91097950.82745  22247045.273                    22247050.801
        46.800          35.900
 115027988.056 8  89632208.63346  21889098.539                    21889102.047
        49.100          36.000
 120028882.528 7  93529018.67444  22840737.070                    22840738.238
        47.000          29.300
 18  3 11 12  7 15.0000000  0 16R05R13G08R04G17R14R21R12R22G28G11G01
                                G10G24G15G13
                  85834576.033 5  20644887.258                    20644886.859
                        34.800
                  80346203.420 6  19345196.695                    19345197.609
                        39.800
 125347626.586 6  97673530.02544  23852868.156                    23852874.492
        41.900          27.900
                  84799669.993 7  20360240.672                    20360240.605
                        42.400
 127135407.482 7  99066585.56444  24193068.023                    24193072.539
        44.400          26.700
                  86409281.385 6  20841636.008                    20841639.191
                        41.700
                  88666603.750 6  21303610.398                    21303612.852
                        41.900
                                  22698236.820

                  85727012.841 7  20648003.938                    20648005.520
                        42.200
 113701721.617 7  88598752.79845  21636718.633                    21636721.148
        46.700          35.200
 119476803.886 7  93098819.59044  22735680.055                    22735683.332
        44.300          28.200
 124881076.945 6  97309947.04744  23764078.219                    23764085.977
        40.700          26.200
 116943609.185 7  91124908.02645  22253629.875                    22253635.219
        45.900          34.800
 116906485.873 7  91095984.56045  22246564.516                    22246570.578
        46.500          35.500
 115030482.462 8  89634152.32346  21889573.758                    21889576.281
        49.900          36.600
 120032605.027 7  93531919.32445  22841445.305                    22841447.270
        46.800          31.100
 18  3 11 12  7 16.0000000  0 16R05R13G08R04G17R14R21R12R22G28G11G01
                                G10G24G15G13
                  85833305.680 5  20644580.445                    20644581.465
                        35.000
                  80346963.283 6  19345379.984                    19345380.332
                        40.200
 125351023.386 6  97676176.88044  23853514.453                    23853520.535
        41.700          27.100
                  84801725.274 7  20360734.133                    20360734.402
                        42.400
 127132377.246 7  99064224.34744  24192491.938                    24192495.820
        44.200          26.100
                  86406935.613 6  20841070.891                    20841073.262
                        41.700
                  88668958.424 7  21304175.727                    21304178.430
                        42.100
                                  22699109.945

                  85725861.831 7  20647726.977                    20647728.727
                        42.100
 113703297.097 7  88599980.44745  21637018.500                    21637021.082
        47.400          35.000
 119475624.599 7  93097900.67344  22735456.586                    22735458.898
        44.100          28.100
 124878399.603 6  97307860.82244  23763568.992                    23763576.547
        40.900          25.600
 116943162.494 7  91124559.95245  22253545.008                    22253549.969
        46.000          34.700
 116903963.016 7  91094018.69446  22246084.125                    22246091.207
        46.400          36.200
 115032977.477 8  89636096.49546  21890047.563                    21890051.438
        49.100          36.000
 120036327.944 7  93534820.30145  22842153.773                    22842156.301
        46.400          30.300
 18  3 11 12  7 17.0000000  0 16R05R13G08R04G17R14R21R12R22G28G11G01
                                G10G24G15G13
                  85832035.959 5  20644274.102                    20644275.801
                        35.200
                  80347723.872 6  19345562.594                    19345563.590
                        40.400
 125354420.658 6  97678824.09244  23854161.133                    23854167.020
        41.700          27.100
                  84803781.210 7  20361227.508                    20361227.906
                        42.400
 127129347.306 7  99061863.36444  24191915.453                    24191919.238
        45.000          27.200
                  86404590.313 6  20840505.852                    20840507.699
                        41.600
                  88671313.720 7  21304742.305                    21304744.723
                        42.300
                                  22699983.281

                  85724711.543 7  20647450.313                    20647451.488
                        42.300
 113704873.167 7  88601208.54845  21637318.641                    21637320.906
        46.800          35.300
 119474446.062 7  93096982.33344  22735231.992                    22735234.387
        43.400          28.300
 124875722.745 6  97305774.97644  23763059.938                    23763067.926
        40.900          26.700
 116942716.526 7  91124212.44645  22253459.813                    22253465.500
        46.000          34.500
 116901440.641 7  91092053.20545  22245605.219                    22245611.039
        45.900          35.700
 115035473.148 8  89638041.18245  21890522.742                    21890526.293
        48.200          35.800
 120040051.290 7  93537721.61745  22842862.031                    22842864.980
        46.100          30.800
 18  3 11 12  7 18.0000000  0 16R05R13G08R04G17R14R21R12R22G28G11G01
                                G10G24G15G13
                  85830766.939 5  20643968.977                    20643970.773
                        34.800
                  80348485.153 6  19345746.180                    19345746.625
                        40.000
 125357818.334 6  97681471.62044  23854806.984                    23854813.387
        41.600          26.700
                  84805837.803 7  20361721.266                    20361721.902
                        42.500
 127126317.641 7  99059502.59844  24191338.961                    24191342.570
        45.200          27.300
                  86402245.465 6  20839940.031                    20839941.918
                        41.700
                  88673669.579 7  21305309.914                    21305310.973
                        42.100
                                  22700861.617

                  85723561.971 7  20647173.164                    20647174.707
                        42.200
 113706449.811 7  88602437.10045  21637618.563                    21637620.770
        46.900          35.200
 119473268.220 7  93096064.52444  22735007.961                    22735010.387
        43.500          27.500
 124873046.387 6  97303689.52244  23762550.547                    23762558.234
        40.600          25.600
 116942271.318 7  91123865.52645  22253374.922                    22253380.961
        46.200          34.100
 116898918.764 7  91090088.11145  22245124.828                    22245131.121
        46.300          35.400
 115037969.372 7  89639986.29645  21890997.906                    21891001.477
        47.900          35.800
 120043775.034 7  93540623.24144  22843570.102                    22843573.672
        45.400          29.700
 18  3 11 12  7 19.0000000  0 16R05R13G08R04G17R14R21R12R22G28G11G01
                                G10G24G15G13
                  85829498.598 5  20643664.133                    20643665.926
                        35.300
                  80349247.075 6  19345929.594                    19345930.363
                        40.300
 125361216.437 6  97684119.49544  23855453.602                    23855460.391
        41.300          27.000
                  84807895.020 7  20362215.797                    20362216.328
                        42.600
 127123288.231 7  99057142.02044  24190762.734                    24190766.496
        45.800          27.400
                  86399901.058 6  20839374.242                    20839376.660
                        41.900
                  88676026.032 7  21305876.492                    21305876.898
                        42.400
                                  22701735.477

                  85722413.076 7  20646896.641                    20646897.969
                        42.400
 113708026.991 7  88603666.07045  21637918.695                    21637921.457
        46.600          34.800
 119472091.051 7  93095147.24744  22734784.000                    22734786.168
        44.100          29.100
 124870370.479 6  97301604.40544  23762041.398                    23762049.035
        41.000          24.700
 116941826.759 7  91123519.10645  22253289.883                    22253296.363
        46.200          34.200
 116896397.331 7  91088123.35845  22244644.750                    22244651.129
        46.000          35.800
 115040466.223 7  89641931.90045  21891471.391                    21891476.477
        46.900          35.800
 120047499.143 7  93543525.13744  22844278.703                    22844282.664
        44.500          29.800
 18  3 11 12  7 20.0000000  0 16R05R13G08R04G17R14R21R12R22G28G11G01
                                G10G24G15G13
                  85828230.948 5  20643360.164                    20643360.801
                        34.700
                  80350009.711 6  19346112.914                    19346113.668
                        40.000
 125364614.943 6  97686767.68044  23856100.914                    23856106.969
        40.600          24.900
                  84809952.849 7  20362709.820                    20362710.160
                        42.500
 127120259.137 7  99054781.68244  24190186.406                    24190189.980
        45.900          27.100
                  86397557.098 6  20838808.594                    20838811.066
                        41.700
                  88678383.171 6  21306443.117                    21306444.391
                        41.900
                                  22702609.539

                  85721264.897 7  20646619.508                    20646620.891
                        42.100
 113709604.776 7  88604895.51845  21638218.578                    21638221.180
        46.700          35.100
 119470914.632 7  93094230.57044  22734560.898                    22734562.285
        45.000          28.700
 124867695.060 6  97299519.64644  23761532.711                    23761539.602
        41.600          26.500
 116941382.962 7  91123173.27845  22253205.359                    22253211.789
        45.500          34.400
 116893876.388 7  91086158.98846  22244164.977                    22244171.293
        46.600          36.500
 115042963.697 8  89643877.96545  21891948.609                    21891951.289
        48.600          35.800
 120051223.639 7  93546427.34344  22844986.570                    22844991.512
        44.100          29.400
 18  3 11 12  7 21.0000000  0 16R05R13G08R04G17R14R21R12R22G28G11G01
                                G10G24G15G13
                  85826963.925 5  20643054.867                    20643056.430
                        35.100
                  80350772.996 6  19346296.844                    19346297.348
                        39.900
 125368013.874 6  97689416.19544  23856746.820                    23856753.684
        40.300          24.200
                  84812011.311 7  20363203.930                    20363203.641
                        42.700
 127117230.275 7  99052421.53744  24189610.359                    24189614.117
        46.400          28.000
                  86395213.539 7  20838243.258                    20838245.781
                        42.100
                  88680740.907 6  21307008.133                    21307010.090
                        41.800
                                  22703486.594

                  85720117.411 7  20646343.641                    20646344.734
                        42.100
 113711183.109 7  88606125.38945  21638519.039                    21638521.816
        46.400          35.200
 119469738.924 7  93093314.43144  22734337.883                    22734338.660
        45.300          28.100
 124865020.057 7  97297435.22944  23761023.070                    23761030.266
        42.500          25.300
 116940939.813 7  91122827.95645  22253119.977                    22253127.305
        44.500          34.200
 116891355.910 7  91084194.98045  22243685.758                    22243691.750
        46.100          35.900
 115045461.672 8  89645824.42046  21892424.859                    21892427.066
        49.700          36.300
 120054948.535 7  93549329.84944  22845695.227                    22845700.750
        43.800          29.600
 18  3 11 12  7 22.0000000  0 16R05R13G08R04G17R14R21R12R22G28G11G01
                                G10G24G15G13
                  85825697.587 5  20642751.156                    20642751.520
                        35.700
                  80351536.968 6  19346481.375                    19346481.215
                        39.900
 125371413.218 6  97692065.02444  23857394.070                    23857400.902
        40.600          26.700
                  84814070.436 7  20363698.148                    20363698.332
                        42.400
 127114201.705 7  99050061.61244  24189033.891                    24189037.520
        46.300          28.200
                  86392870.398 6  20837678.172                    20837680.508
                        41.800
                  88683099.252 6  21307575.711                    21307576.488
                        41.600
                                  22704363.250

                  85718970.641 7  20646067.305                    20646068.512
                        42.100
 113712761.996 7  88607355.69245  21638819.602                    21638822.078
        46.900          35.200
 119468563.938 7  93092398.83744  22734113.781                    22734114.863
        45.600          27.700
 124862345.539 7  97295351.19544  23760515.266                    23760521.754
        43.100          26.000
 116940497.395 7  91122483.21845  22253036.063                    22253043.582
        43.700          34.400
 116888835.898 7  91082231.33446  22243206.281                    22243211.836
        46.300          36.200
 115047960.300 7  89647771.42245  21892898.070                    21892902.820
        47.500          35.900
 120058673.841 7  93552232.67844  22846402.938                    22846409.785
        42.700          28.700
 18  3 11 12  7 23.0000000  0 16R05R13G08R04G17R14R21R12R22G28G11G01
                                G10G24G15G13
                  85824431.890 5  20642446.492                    20642447.160
                        35.300
                  80352301.609 6  19346664.766                    19346665.512
                        40.100
 125374812.934 6  97694714.14044  23858041.203                    23858047.949
        40.600          25.800
                  84816130.238 7  20364192.430                    20364193.109
                        42.100
 127111173.378 7  99047701.87044  24188457.508                    24188461.105
        46.600          27.900
                  86390527.683 6  20837113.492                    20837115.500
                        41.800
                  88685458.171 6  21308142.031                    21308142.840
                        41.900
                                  22705234.898

                  85717824.555 7  20645791.594                    20645792.605
                        42.200
 113714341.457 7  88608586.43845  21639120.352                    21639122.582
        47.200          35.100
 119467389.633 7  93091483.77544  22733889.477                    22733891.441
        44.500          28.100
 124859671.479 7  97293267.50544  23760006.148                    23760012.570
        43.600          25.100
 116940055.659 7  91122139.02045  22252952.273                    22252959.859
        43.100          34.700
 116886316.358 7  91080268.05645  22242726.680                    22242732.598
        46.700          35.900
 115050459.550 8  89649718.89045  21893374.641                    21893377.406
        48.800          35.500
 120062399.499 6  93555135.77244  22847112.234                    22847118.711
        41.700          27.400
 18  3 11 12  7 24.0000000  0 16R05R13G08R04G17R14R21R12R22G28G11G01
                                G10G24G15G13
                  85823166.855 5  20642141.039                    20642143.301
                        35.100
                  80353066.949 6  19346849.570                    19346849.762
                        40.200
 125378213.079 6  97697363.59144  23858688.445                    23858694.941
        40.600          25.300
                  84818190.697 7  20364687.219                    20364687.770
                        42.400
 127108145.348 7  99045342.36744  24187881.000                    24187885.266
        46.400          27.700
                  86388185.414 6  20836548.063                    20836550.719
                        41.800
                  88687817.710 7  21308710.031                    21308709.820
                        42.100
                                  22706112.938

                  85716679.207 7  20645515.367                    20645516.711
                        42.400
 113715921.497 7  88609817.64345  21639421.047                    21639423.629
        47.200          35.000
 119466216.020 7  93090569.26544  22733664.836                    22733668.363
        43.400          28.600
 124856997.899 7  97291184.18744  23759497.711                    23759503.867
        43.900          25.300
 116939614.674 7  91121795.42045  22252868.977                    22252875.172
        42.500          34.000
 116883797.308 7  91078305.16146  22242246.852                    22242253.148
        46.700          36.600
 115052959.307 8  89651666.73846  21893852.578                    21893853.176
        51.100          36.500
 120066125.574 6  93558039.18844  22847822.047                    22847827.867
        41.000          27.900
 18  3 11 12  7 25.0000000  0 16R05R13G08R04G17R14R21R12R22G28G11G01
                                G10G24G15G13
                  85821902.463 5  20641836.500                    20641838.344
                        35.000
                  80353832.956 6  19347034.109                    19347034.836
                        40.400
 125381613.679 6  97700013.40344  23859335.508                    23859342.051
        40.200          26.200
                  84820251.768 7  20365182.500                    20365182.691
                        42.000
 127105117.578 7  99042983.06744  24187305.031                    24187308.910
        46.500          27.500
                  86385843.614 7  20835983.281                    20835985.789
                        42.100
                  88690177.852 7  21309276.766                    21309277.184
                        42.200
                                  22706990.297

                  85715534.552 7  20645239.359                    20645240.957
                        42.300
 113717502.081 7  88611049.26645  21639721.773                    21639724.098
        47.000          34.800
 119465043.107 7  93089655.31544  22733441.211                    22733445.273
        42.600          28.200
 124854324.767 7  97289101.22344  23758988.344                    23758995.133
        43.900          26.900
 116939174.410 7  91121452.37345  22252785.445                    22252791.625
        42.800          33.200
 116881278.737 7  91076342.63645  22241767.992                    22241774.090
        47.000          35.800
 115055459.678 8  89653615.09846  21894326.039                    21894329.918
        49.500          36.000
 120069852.049 6  93560942.91744  22848531.180                    22848536.621
        41.100          26.200
 18  3 11 12  7 26.0000000  0 16R05R13G08R04G17R14R21R12R22G28G11G01
                                G10G24G15G13
                  85820638.763 5  20641533.516                    20641535.012
                        35.100
                  80354599.645 6  19347218.836                    19347219.297
                        40.000
 125385014.673 6  97702663.52744  23859982.820                    23859989.000
        41.400          25.800
                  84822313.485 7  20365677.539                    20365677.855
                        42.100
 127102090.070 7  99040623.97444  24186728.883                    24186732.539
        46.100          26.700
                  86383502.224 6  20835418.523                    20835420.703
                        41.900
                  88692538.597 7  21309842.992                    21309844.727
                        42.200
                                  22707861.875

                  85714390.604 7  20644964.586                    20644966.039
                        42.200
 113719083.219 7  88612281.32045  21640022.125                    21640025.082
        47.200          34.600
 119463870.908 7  93088741.93044  22733218.883                    22733222.008
        42.300          28.500
 124851652.089 7  97287018.60444  23758479.922                    23758486.273
        44.300          26.600
 116938734.807 7  91121109.83845  22252702.227                    22252707.738
        43.300          34.200
 116878760.596 7  91074380.44945  22241289.023                    22241294.930
        46.500          35.700
 115057960.685 8  89655563.94846  21894800.852                    21894805.063
        48.500          36.600
 120073578.851 6  93563846.89244  22849240.430                    22849245.922
        41.200          26.900
 18  3 11 12  7 27.0000000  0 16R05R13G08R04G17R14R21R12R22G28G11G01
                                G10G24G15G13
                  85819375.740 5  20641229.828                    20641230.938
                        35.500
                  80355367.010 6  19347403.031                    19347404.027
                        40.000
 125388416.073 6  97705313.97444  23860630.406                    23860636.785
        41.500          26.700
                  84824375.821 6  20366172.406                    20366173.027
                        41.900
 127099062.855 7  99038265.10344  24186153.289                    24186156.887
        46.200          27.000
                  86381161.273 7  20834853.797                    20834856.430
                        42.300
                  88694899.953 7  21310409.961                    21310412.125
                        42.600
                                  22708739.563

                  85713247.358 7  20644688.852                    20644690.250
                        42.400
 113720664.950 7  88613513.83745  21640323.625                    21640326.105
        47.200          34.900
 119462699.412 7  93087829.09644  22732995.781                    22732999.199
        42.100          28.000
 124848979.869 7  97284936.34544  23757971.367                    23757977.836
        43.800          26.000
 116938295.975 7  91120767.90945  22252619.000                    22252624.090
        43.900          34.000
 116876242.955 7  91072418.65446  22240809.094                    22240815.344
        47.000          36.000
 115060462.234 8  89657513.19646  21895279.063                    21895281.273
        50.200          36.100
 120077306.105 6  93566751.22344  22849950.453                    22849955.281
        41.100          26.800
 18  3 11 12  7 28.0000000  0 16R05R13G08R04G17R14R21R12R22G28G11G01
                                G10G24G15G13
                  85818113.358 5  20640925.734                    20640927.563
                        35.400
                  80356135.072 6  19347587.766                    19347588.586
                        40.200
 125391817.917 6  97707964.77644  23861277.578                    23861284.324
        41.600          26.800
                  84826438.844 7  20366667.563                    20366668.410
                        42.100
 127096035.917 7  99035906.44844  24185577.281                    24185580.563
        46.100          27.500
                  86378820.741 7  20834289.141                    20834291.551
                        42.200
                  88697261.919 7  21310976.906                    21310979.609
                        42.300
                                  22709614.570

                  85712104.826 7  20644413.258                    20644414.918
                        42.300
 113722247.240 7  88614746.78645  21640624.563                    21640627.273
        47.400          35.200
 119461528.618 7  93086916.80344  22732773.852                    22732776.195
        42.400          28.600
 124846308.183 7  97282854.50244  23757462.742                    23757469.020
        43.800          25.900
 116937857.840 7  91120426.50545  22252535.883                    22252540.914
        44.900          34.200
 116873725.774 7  91070457.21346  22240330.328                    22240336.957
        46.500          36.100
 115062964.382 8  89659462.92946  21895753.805                    21895757.891
        49.200          36.200
 120081033.738 6  93569655.85144  22850660.859                    22850664.652
        41.600          26.800
 18  3 11 12  7 29.0000000  0 16R05R13G08R04G17R14R21R12R22G28G11G01
                                G10G24G15G13
                  85816851.617 5  20640622.383                    20640623.977
                        35.600
                  80356903.780 6  19347773.383                    19347773.145
                        39.900
 125395220.167 7  97710615.87444  23861924.992                    23861931.539
        42.100          26.400
                  84828502.468 7  20367163.195                    20367163.840
                        42.300
 127093009.232 7  99033547.98844  24185001.156                    24185004.793
        45.900          27.500
                  86376480.647 7  20833724.859                    20833727.473
                        42.300
                  88699624.467 7  21311544.469                    21311547.887
                        42.300
                                  22710489.711

                  85710962.980 7  20644138.695                    20644140.145
                        42.300
 113723830.091 7  88615980.17645  21640925.945                    21640928.613
        47.300          34.900
 119460358.572 7  93086005.08844  22732551.938                    22732553.574
        43.000          27.500
 124843636.883 7  97280772.96144  23756953.648                    23756960.285
        42.600          25.400
 116937420.386 7  91120085.62845  22252452.984                    22252457.879
        45.600          34.000
 116871209.047 7  91068496.12246  22239852.109                    22239857.625
        46.600          36.500
 115065467.149 8  89661413.13946  21896230.234                    21896233.438
        49.200          36.100
 120084761.731 7  93572560.77344  22851370.289                    22851373.559
        42.500          26.600
 18  3 11 12  7 30.0000000  0 16R05R13G08R04G17R14R21R12R22G28G11G01
                                G10G24G15G13
                  85815590.547 5  20640319.320                    20640320.613
                        35.200
                  80357673.185 6  19347958.375                    19347958.621
                        39.900
 125398622.830 6  97713267.29644  23862572.883                    23862578.730
        41.900          28.100
                  84830566.749 7  20367659.211                    20367659.535
                        42.000
 127089982.814 7  99031189.74744  24184425.195                    24184428.832
        46.000          27.000
                  86374141.008 6  20833161.688                    20833163.316
                        41.800
                  88701987.656 6  21312113.555                    21312114.953
                        41.900
                                  22711364.977

                  85709821.827 7  20643863.602                    20643865.051
                        42.000
 113725413.500 7  88617214.00445  21641226.680                    21641229.336
        47.200          35.500
 119459189.194 6  93085093.87644  22732329.219                    22732331.555
        41.700          29.100
 124840966.075 7  97278691.81144  23756444.961                    23756452.324
        42.800          25.200
 116936983.678 7  91119745.33045  22252369.367                    22252374.473
        45.400          34.100
 116868692.796 7  91066535.40646  22239372.969                    22239378.938
        47.000          36.500
 115067970.465 8  89663363.75846  21896707.453                    21896709.980
        50.200          36.100
 120088490.111 7  93575466.00444  22852080.023                    22852082.910
        43.300          26.700
 18  3 11 12  7 31.0000000  0 16R05R13G08R04G17R14R21R12R22G28G11G01
                                G10G24G15G13
                  85814330.141 5  20640016.156                    20640017.289
                        35.800
                  80358443.250 6  19348143.672                    19348144.336
                        40.500
 125402025.876 7  97715919.02944  23863219.953                    23863226.488
        42.200          26.900
                  84832631.656 7  20368154.328                    20368155.512
                        42.400
 127086956.666 7  99028831.70744  24183849.414                    24183852.773
        46.000          27.100
                  86371801.786 7  20832596.984                    20832599.016
                        42.100
                  88704351.447 6  21312682.336                    21312682.570
                        41.900
                                  22712241.367

                  85708681.412 7  20643589.547                    20643590.598
                        42.400
 113726997.491 7  88618448.28645  21641528.727                    21641531.250
        47.900          35.800
 119458020.552 6  93084183.23444  22732106.125                    22732108.824
        41.600          29.200
 124838295.710 7  97276611.00844  23755937.648                    23755944.254
        43.000          26.100
 116936547.664 7  91119405.57345  22252286.172                    22252291.426
        46.000          34.200
 116866176.986 7  91064575.04046  22238894.094                    22238900.309
        46.100          36.500
 115070474.419 8  89665314.90045  21897182.172                    21897186.840
        48.100          35.900
 120092218.864 7  93578371.52444  22852790.219                    22852793.027
        44.300          26.400
 18  3 11 12  7 32.0000000  0 16R05R13G08R04G17R14R21R12R22G28G11G01
                                G10G24G15G13
                  85813070.440 5  20639712.617                    20639714.125
                        35.600
                  80359214.044 6  19348329.609                    19348329.957
                        40.000
 125405429.382 7  97718571.11444  23863868.023                    23863873.805
        42.000          25.800
                  84834697.233 7  20368650.266                    20368650.641
                        42.300
 127083930.819 7  99026473.89744  24183273.305                    24183277.020
        45.700          27.200
                  86369463.012 6  20832032.953                    20832034.555
                        41.900
                  88706715.844 6  21313249.563                    21313249.703
                        41.400
                                  22713118.242

                  85707541.727 7  20643315.188                    20643315.660
                        42.200
 113728582.046 8  88619683.00145  21641830.484                    21641832.715
        48.200          35.500
 119456852.624 6  93083273.14944  22731883.688                    22731886.910
        40.200          28.200
 124835625.860 7  97274530.59944  23755429.117                    23755436.000
        42.500          27.000
 116936112.385 7  91119066.38445  22252202.938                    22252208.664
        45.800          34.600
 116863661.678 7  91062615.05646  22238415.477                    22238421.750
        45.700          36.100
 115072978.990 7  89667266.50645  21897660.250                    21897662.914
        47.900          35.400
 120095948.034 7  93581277.37644  22853500.070                    22853502.066
        45.400          26.100
 18  3 11 12  7 33.0000000  0 16R05R13G08R04G17R14R21R12R22G28G11G01
                                G10G24G15G13
                  85811811.427 5  20639410.477                    20639411.480
                        35.800
                  80359985.542 6  19348515.328                    19348515.590
                        40.100
 125408833.346 6  97721223.56144  23864515.188                    23864521.844
        41.400          27.400
                  84836763.496 7  20369146.531                    20369147.258
                        42.200
 127080905.289 7  99024116.34244  24182697.297                    24182701.281
        45.100          26.700
                  86367124.691 6  20831468.258                    20831471.152
                        41.700
                  88709080.857 6  21313817.961                    21313818.309
                        41.300
                                  22713992.852

                  85706402.771 7  20643039.125                    20643041.473
                        42.100
 113730167.221 7  88620918.20645  21642131.773                    21642133.988
        47.100          35.000
 119455685.439 6  93082363.65844  22731660.805                    22731664.332
        39.900          28.300
 124832956.531 6  97272450.59744  23754920.852                    23754928.438
        41.400          27.000
 116935677.874 7  91118727.78745  22252120.578                    22252126.168
        46.000          34.000
 116861146.883 7  91060655.47945  22237937.328                    22237943.223
        45.600          35.800
 115075484.124 8  89669218.54046  21898138.883                    21898139.887
        50.200          36.100
 120099677.627 7  93584183.55844  22854209.547                    22854211.582
        45.900          27.600
 18  3 11 12  7 34.0000000  0 16R05R13G08R04G17R14R21R12R22G28G11G01
                                G10G24G15G13
                  85810553.144 5  20639107.930                    20639108.469
                        34.800
                  80360757.746 6  19348700.828                    19348701.320
                        39.500
 125412237.748 6  97723876.34244  23865162.891                    23865169.422
        41.100          26.500
                  84838830.437 7  20369643.078                    20369643.566
                        42.200
 127077880.076 7  99021759.04144  24182121.531                    24182126.000
        45.000          24.800
                  86364786.848 6  20830905.180                    20830906.992
                        41.900
                  88711446.535 6  21314385.695                    21314386.457
                        41.600
                                  22714869.211

                  85705264.568 6  20642766.078                    20642767.422
                        41.900
 113731753.005 7  88622153.88345  21642433.461                    21642435.707
        46.700          35.400
 119454518.991 6  93081454.75844  22731439.930                    22731442.473
        40.000          28.600
 124830287.642 6  97270370.94444  23754413.117                    23754420.684
        41.100          25.300
 116935244.096 7  91118389.77145  22252038.156                    22252043.699
        46.700          34.200
 116858632.586 7  91058696.28745  22237458.555                    22237464.457
        45.800          35.800
 115077989.912 8  89671171.12246  21898612.992                    21898617.902
        48.000          36.000
 120103407.629 7  93587090.06344  22854919.594                    22854921.309
        46.600          26.200
 18  3 11 12  7 35.0000000  0 16R05R13G08R04G17R14R21R12R22G28G11G01
                                G10G24G15G13
                  85809295.493 5  20638806.047                    20638806.492
                        35.500
                  80361530.657 6  19348886.984                    19348887.820
                        39.700
 125415642.576 6  97726529.44744  23865811.047                    23865817.738
        40.800          26.400
                  84840898.041 7  20370139.141                    20370139.457
                        42.100
 127074855.127 7  99019401.93944  24181545.766                    24181549.922
        45.100          25.800
                  86362449.474 6  20830341.164                    20830342.980
                        41.800
                  88713812.867 6  21314955.539                    21314955.516
                        41.800
                                  22715745.695

                  85704127.059 7  20642492.281                    20642493.543
                        42.200
 113733339.356 7  88623389.99845  21642735.625                    21642737.953
        47.000          35.300
 119453353.267 6  93080546.43144  22731218.813                    22731220.293
        41.100          28.600
 124827619.274 6  97268291.69444  23753905.492                    23753912.816
        41.100          25.700
 116934811.062 7  91118052.33645  22251955.531                    22251961.496
        47.000          34.100
 116856118.776 7  91056737.47945  22236979.758                    22236985.926
        46.300          35.700
 115080496.380 7  89673124.22246  21899089.133                    21899093.641
        47.400          36.100
 120107138.040 7  93589996.89744  22855629.242                    22855630.648
        47.000          26.500
 18  3 11 12  7 36.0000000  0 16R05R13G08R04G17R14R21R12R22G28G11G01
                                G10G24G15G13
                  85808038.490 5  20638503.766                    20638504.180
                        35.000
                  80362304.245 6  19349073.156                    19349073.949
                        39.400
 125419047.824 6  97729182.88144  23866458.922                    23866465.930
        40.400          25.300
                  84842966.263 7  20370636.031                    20370636.172
                        42.200
