% program   : RTKPOST ver.2.4.2
% inp file  : C:\users\linda\My Documents\Documents\Spring18\GitHub_Unis\data\processed_data\46250704.obs
% inp file  : C:\users\linda\My Documents\Documents\Spring18\GitHub_Unis\data\processed_data\46250704.nav
% obs start : 2018/03/11 12:07:04.0 GPST (week1992  43624.0s)
% obs end   : 2018/03/11 12:22:36.0 GPST (week1992  44556.0s)
% pos mode  : single
% elev mask : 15.0 deg
% ionos opt : broadcast
% tropo opt : saastamoinen
% ephemeris : broadcast
%
% (lat/lon/height=WGS84/ellipsoidal,Q=1:fix,2:float,3:sbas,4:dgps,5:single,6:ppp,ns=# of satellites)
%  GPST                  latitude(deg) longitude(deg)  height(m)   Q  ns   sdn(m)   sde(m)   sdu(m)  sdne(m)  sdeu(m)  sdun(m) age(s)  ratio
2018/03/11 12:07:04.000   78.256428040   16.214761939   425.4259   5   9   1.7545   2.4469   9.6695  -0.3895   3.8076   1.5125   0.00    0.0
2018/03/11 12:07:05.000   78.256430584   16.214781569   426.1731   5   9   1.7544   2.4470   9.6714  -0.3898   3.8081   1.5120   0.00    0.0
2018/03/11 12:07:06.000   78.256432620   16.214799894   427.2752   5   9   1.7543   2.4470   9.6732  -0.3902   3.8086   1.5115   0.00    0.0
2018/03/11 12:07:07.000   78.256429311   16.214811611   428.0616   5   9   1.7542   2.4471   9.6751  -0.3905   3.8091   1.5110   0.00    0.0
2018/03/11 12:07:08.000   78.256430090   16.214792121   426.3100   5   9   1.7541   2.4472   9.6770  -0.3908   3.8096   1.5104   0.00    0.0
2018/03/11 12:07:09.000   78.256430161   16.214782017   424.6883   5   9   1.7540   2.4472   9.6788  -0.3912   3.8101   1.5099   0.00    0.0
2018/03/11 12:07:10.000   78.256426138   16.214769822   425.8389   5   9   1.7539   2.4473   9.6807  -0.3915   3.8106   1.5094   0.00    0.0
2018/03/11 12:07:11.000   78.256428654   16.214763133   424.3918   5   9   1.7538   2.4474   9.6826  -0.3918   3.8111   1.5089   0.00    0.0
2018/03/11 12:07:12.000   78.256431798   16.214760975   423.5239   5   9   1.7538   2.4474   9.6844  -0.3922   3.8116   1.5083   0.00    0.0
2018/03/11 12:07:13.000   78.256428790   16.214774152   425.7431   5   9   1.7537   2.4475   9.6863  -0.3925   3.8121   1.5078   0.00    0.0
2018/03/11 12:07:14.000   78.256431099   16.214786749   425.1663   5   9   1.7536   2.4476   9.6881  -0.3928   3.8126   1.5073   0.00    0.0
2018/03/11 12:07:15.000   78.256428508   16.214789454   423.8066   5   9   1.7535   2.4476   9.6900  -0.3932   3.8131   1.5067   0.00    0.0
2018/03/11 12:07:16.000   78.256425998   16.214766778   424.4542   5   9   1.7534   2.4477   9.6918  -0.3935   3.8136   1.5062   0.00    0.0
2018/03/11 12:07:17.000   78.256426979   16.214779107   425.1322   5   9   1.7533   2.4477   9.6937  -0.3939   3.8141   1.5057   0.00    0.0
2018/03/11 12:07:18.000   78.256427108   16.214766004   423.9714   5   9   1.7532   2.4478   9.6955  -0.3942   3.8146   1.5051   0.00    0.0
2018/03/11 12:07:19.000   78.256425614   16.214751911   425.9198   5   9   1.7531   2.4479   9.6974  -0.3945   3.8151   1.5046   0.00    0.0
2018/03/11 12:07:20.000   78.256424630   16.214744613   423.9329   5   9   1.7530   2.4479   9.6992  -0.3949   3.8155   1.5041   0.00    0.0
2018/03/11 12:07:21.000   78.256429951   16.214720027   421.6246   5   9   1.7529   2.4480   9.7010  -0.3952   3.8160   1.5035   0.00    0.0
2018/03/11 12:07:22.000   78.256421168   16.214725319   424.8660   5   9   1.7528   2.4481   9.7029  -0.3955   3.8165   1.5030   0.00    0.0
2018/03/11 12:07:23.000   78.256423930   16.214742541   424.1736   5   9   1.7527   2.4481   9.7047  -0.3959   3.8170   1.5024   0.00    0.0
2018/03/11 12:07:24.000   78.256428902   16.214769803   422.9592   5   9   1.7526   2.4482   9.7065  -0.3962   3.8175   1.5019   0.00    0.0
2018/03/11 12:07:25.000   78.256425997   16.214787265   425.9709   5   9   1.7525   2.4482   9.7084  -0.3965   3.8179   1.5014   0.00    0.0
2018/03/11 12:07:26.000   78.256421796   16.214789713   427.4981   5   9   1.7525   2.4483   9.7102  -0.3969   3.8184   1.5008   0.00    0.0
2018/03/11 12:07:27.000   78.256427230   16.214782847   425.1270   5   9   1.7524   2.4484   9.7120  -0.3972   3.8189   1.5003   0.00    0.0
2018/03/11 12:07:28.000   78.256426264   16.214776610   426.3815   5   9   1.7523   2.4484   9.7138  -0.3976   3.8194   1.4997   0.00    0.0
2018/03/11 12:07:29.000   78.256425000   16.214781297   424.9139   5   9   1.7522   2.4485   9.7157  -0.3979   3.8199   1.4992   0.00    0.0
2018/03/11 12:07:30.000   78.256428513   16.214785208   424.8557   5   9   1.7521   2.4485   9.7175  -0.3982   3.8203   1.4986   0.00    0.0
2018/03/11 12:07:31.000   78.256428999   16.214774941   427.1107   5   9   1.7520   2.4486   9.7193  -0.3986   3.8208   1.4981   0.00    0.0
2018/03/11 12:07:32.000   78.256432625   16.214776461   425.1546   5   9   1.7519   2.4487   9.7211  -0.3989   3.8213   1.4976   0.00    0.0
2018/03/11 12:07:33.000   78.256436295   16.214805753   423.3807   5   9   1.7518   2.4487   9.7229  -0.3992   3.8217   1.4970   0.00    0.0
2018/03/11 12:07:34.000   78.256430193   16.214781356   425.3084   5   9   1.7517   2.4488   9.7247  -0.3996   3.8222   1.4965   0.00    0.0
2018/03/11 12:07:35.000   78.256426802   16.214755973   424.9800   5   9   1.7516   2.4488   9.7265  -0.3999   3.8227   1.4959   0.00    0.0
2018/03/11 12:07:36.000   78.256431764   16.214737222   421.2807   5   9   1.7515   2.4489   9.7283  -0.4003   3.8231   1.4954   0.00    0.0
2018/03/11 12:07:37.000   78.256429819   16.214725179   422.9446   5   9   1.7514   2.4489   9.7301  -0.4006   3.8236   1.4948   0.00    0.0
2018/03/11 12:07:38.000   78.256427017   16.214726699   425.2561   5   9   1.7513   2.4490   9.7319  -0.4009   3.8241   1.4943   0.00    0.0
2018/03/11 12:07:39.000   78.256433236   16.214735349   423.0030   5   9   1.7513   2.4491   9.7337  -0.4013   3.8245   1.4937   0.00    0.0
2018/03/11 12:07:40.000   78.256431004   16.214758126   425.3557   5   9   1.7512   2.4491   9.7355  -0.4016   3.8250   1.4932   0.00    0.0
2018/03/11 12:07:41.000   78.256430385   16.214766484   426.5200   5   9   1.7511   2.4492   9.7373  -0.4019   3.8254   1.4926   0.00    0.0
2018/03/11 12:07:42.000   78.256429240   16.214759320   423.2020   5   9   1.7510   2.4492   9.7391  -0.4023   3.8259   1.4921   0.00    0.0
2018/03/11 12:07:43.000   78.256421880   16.214745906   423.6900   5   9   1.7509   2.4493   9.7409  -0.4026   3.8264   1.4915   0.00    0.0
2018/03/11 12:07:44.000   78.256419148   16.214725269   422.9586   5   9   1.7508   2.4493   9.7427  -0.4030   3.8268   1.4910   0.00    0.0
2018/03/11 12:07:45.000   78.256421137   16.214760333   422.1211   5   9   1.7507   2.4494   9.7444  -0.4033   3.8273   1.4904   0.00    0.0
2018/03/11 12:07:46.000   78.256418232   16.214783553   424.3998   5   9   1.7506   2.4494   9.7462  -0.4036   3.8277   1.4898   0.00    0.0
2018/03/11 12:07:47.000   78.256416988   16.214795674   426.2842   5   9   1.7505   2.4495   9.7480  -0.4040   3.8282   1.4893   0.00    0.0
2018/03/11 12:07:48.000   78.256422634   16.214789145   425.2754   5   9   1.7504   2.4496   9.7498  -0.4043   3.8286   1.4887   0.00    0.0
2018/03/11 12:07:49.000   78.256426102   16.214797746   424.9051   5   9   1.7503   2.4496   9.7515  -0.4047   3.8291   1.4882   0.00    0.0
2018/03/11 12:07:50.000   78.256428391   16.214773366   426.9459   5   9   1.7503   2.4497   9.7533  -0.4050   3.8295   1.4876   0.00    0.0
2018/03/11 12:07:51.000   78.256429269   16.214765644   425.5500   5   9   1.7502   2.4497   9.7551  -0.4053   3.8300   1.4870   0.00    0.0
2018/03/11 12:07:52.000   78.256433455   16.214767583   424.4874   5   9   1.7501   2.4498   9.7568  -0.4057   3.8304   1.4865   0.00    0.0
2018/03/11 12:07:53.000   78.256434698   16.214775918   426.4585   5   9   1.7500   2.4498   9.7586  -0.4060   3.8309   1.4859   0.00    0.0
2018/03/11 12:07:54.000   78.256434792   16.214761152   426.4736   5   9   1.7499   2.4499   9.7604  -0.4063   3.8313   1.4854   0.00    0.0
2018/03/11 12:07:55.000   78.256436543   16.214750853   424.6812   5   9   1.7498   2.4499   9.7621  -0.4067   3.8318   1.4848   0.00    0.0
2018/03/11 12:07:56.000   78.256439972   16.214751195   426.2481   5   9   1.7497   2.4500   9.7639  -0.4070   3.8322   1.4842   0.00    0.0
2018/03/11 12:07:57.000   78.256438100   16.214763608   426.7228   5   9   1.7496   2.4500   9.7656  -0.4074   3.8326   1.4837   0.00    0.0
2018/03/11 12:07:58.000   78.256438862   16.214768975   426.1639   5   9   1.7495   2.4501   9.7674  -0.4077   3.8331   1.4831   0.00    0.0
2018/03/11 12:07:59.000   78.256433727   16.214785956   427.6754   5   9   1.7494   2.4501   9.7691  -0.4080   3.8335   1.4825   0.00    0.0
2018/03/11 12:08:00.000   78.256430170   16.214786851   426.9740   5   9   1.7493   2.4502   9.7709  -0.4084   3.8339   1.4820   0.00    0.0
2018/03/11 12:08:01.000   78.256431318   16.214800733   424.9955   5   9   1.7493   2.4502   9.7726  -0.4087   3.8344   1.4814   0.00    0.0
2018/03/11 12:08:02.000   78.256427782   16.214786350   425.6933   5   9   1.7492   2.4503   9.7744  -0.4091   3.8348   1.4808   0.00    0.0
2018/03/11 12:08:03.000   78.256423473   16.214777149   425.3369   5   9   1.7491   2.4503   9.7761  -0.4094   3.8352   1.4803   0.00    0.0
2018/03/11 12:08:04.000   78.256426306   16.214779518   423.8089   5   9   1.7490   2.4504   9.7778  -0.4097   3.8357   1.4797   0.00    0.0
2018/03/11 12:08:05.000   78.256425363   16.214797674   426.3391   5   9   1.7489   2.4504   9.7796  -0.4101   3.8361   1.4791   0.00    0.0
2018/03/11 12:08:06.000   78.256423760   16.214778241   424.4125   5   9   1.7488   2.4505   9.7813  -0.4104   3.8365   1.4786   0.00    0.0
2018/03/11 12:08:07.000   78.256422229   16.214770938   424.1178   5   9   1.7487   2.4505   9.7830  -0.4108   3.8370   1.4780   0.00    0.0
2018/03/11 12:08:08.000   78.256419952   16.214755034   425.4340   5   9   1.7486   2.4506   9.7847  -0.4111   3.8374   1.4774   0.00    0.0
2018/03/11 12:08:09.000   78.256421479   16.214761904   424.6569   5   9   1.7485   2.4506   9.7865  -0.4114   3.8378   1.4768   0.00    0.0
2018/03/11 12:08:10.000   78.256423378   16.214782294   424.1296   5   9   1.7484   2.4506   9.7882  -0.4118   3.8382   1.4763   0.00    0.0
2018/03/11 12:08:11.000   78.256425618   16.214782871   427.6649   5   9   1.7484   2.4507   9.7899  -0.4121   3.8387   1.4757   0.00    0.0
2018/03/11 12:08:12.000   78.256431446   16.214781505   426.0183   5   9   1.7483   2.4507   9.7916  -0.4125   3.8391   1.4751   0.00    0.0
2018/03/11 12:08:13.000   78.256436695   16.214788752   426.4195   5   9   1.7482   2.4508   9.7933  -0.4128   3.8395   1.4745   0.00    0.0
2018/03/11 12:08:14.000   78.256434606   16.214802705   428.0430   5   9   1.7481   2.4508   9.7950  -0.4131   3.8399   1.4739   0.00    0.0
2018/03/11 12:08:15.000   78.256435924   16.214799184   427.4870   5   9   1.7480   2.4509   9.7968  -0.4135   3.8403   1.4734   0.00    0.0
2018/03/11 12:08:16.000   78.256435086   16.214789678   425.9249   5   9   1.7479   2.4509   9.7985  -0.4138   3.8408   1.4728   0.00    0.0
2018/03/11 12:08:17.000   78.256433227   16.214787485   427.6814   5   9   1.7478   2.4510   9.8002  -0.4142   3.8412   1.4722   0.00    0.0
2018/03/11 12:08:18.000   78.256435203   16.214757854   425.3911   5   9   1.7477   2.4510   9.8019  -0.4145   3.8416   1.4716   0.00    0.0
2018/03/11 12:08:19.000   78.256432911   16.214749056   424.3838   5   9   1.7476   2.4510   9.8036  -0.4148   3.8420   1.4710   0.00    0.0
2018/03/11 12:08:20.000   78.256428857   16.214746989   427.3822   5   9   1.7475   2.4511   9.8052  -0.4152   3.8424   1.4705   0.00    0.0
2018/03/11 12:08:21.000   78.256432391   16.214765556   425.3823   5   9   1.7475   2.4511   9.8069  -0.4155   3.8428   1.4699   0.00    0.0
2018/03/11 12:08:22.000   78.256430551   16.214781988   425.3593   5   9   1.7474   2.4512   9.8086  -0.4159   3.8432   1.4693   0.00    0.0
2018/03/11 12:08:23.000   78.256428279   16.214788998   427.7520   5   9   1.7473   2.4512   9.8103  -0.4162   3.8436   1.4687   0.00    0.0
2018/03/11 12:08:24.000   78.256429740   16.214773279   424.4644   5   9   1.7472   2.4513   9.8120  -0.4165   3.8440   1.4681   0.00    0.0
2018/03/11 12:08:25.000   78.256431683   16.214775286   424.2422   5   9   1.7471   2.4513   9.8137  -0.4169   3.8444   1.4675   0.00    0.0
2018/03/11 12:08:26.000   78.256430134   16.214802136   426.9231   5   9   1.7470   2.4513   9.8154  -0.4172   3.8448   1.4669   0.00    0.0
2018/03/11 12:08:27.000   78.256430131   16.214798254   425.3015   5   9   1.7469   2.4514   9.8170  -0.4176   3.8452   1.4664   0.00    0.0
2018/03/11 12:08:28.000   78.256429051   16.214806530   426.2411   5   9   1.7468   2.4514   9.8187  -0.4179   3.8456   1.4658   0.00    0.0
2018/03/11 12:08:29.000   78.256426342   16.214773157   424.5855   5   9   1.7468   2.4515   9.8204  -0.4182   3.8460   1.4652   0.00    0.0
2018/03/11 12:08:30.000   78.256426773   16.214771398   423.9716   5   9   1.7467   2.4515   9.8221  -0.4186   3.8464   1.4646   0.00    0.0
2018/03/11 12:08:31.000   78.256425747   16.214754924   423.1564   5   9   1.7466   2.4515   9.8237  -0.4189   3.8468   1.4640   0.00    0.0
2018/03/11 12:08:32.000   78.256420692   16.214747473   425.0312   5   9   1.7465   2.4516   9.8254  -0.4193   3.8472   1.4634   0.00    0.0
2018/03/11 12:08:33.000   78.256422725   16.214732421   421.9708   5   9   1.7464   2.4516   9.8270  -0.4196   3.8476   1.4628   0.00    0.0
2018/03/11 12:08:34.000   78.256424624   16.214740256   422.5206   5   9   1.7463   2.4516   9.8287  -0.4199   3.8480   1.4622   0.00    0.0
2018/03/11 12:08:35.000   78.256422448   16.214775851   425.3693   5   9   1.7462   2.4517   9.8304  -0.4203   3.8484   1.4616   0.00    0.0
2018/03/11 12:08:36.000   78.256424700   16.214772339   426.2996   5   9   1.7461   2.4517   9.8320  -0.4206   3.8488   1.4610   0.00    0.0
2018/03/11 12:08:37.000   78.256427570   16.214782746   426.9842   5   9   1.7460   2.4518   9.8337  -0.4210   3.8492   1.4604   0.00    0.0
2018/03/11 12:08:38.000   78.256432218   16.214802677   428.0474   5   9   1.7460   2.4518   9.8353  -0.4213   3.8496   1.4598   0.00    0.0
2018/03/11 12:08:39.000   78.256432609   16.214814676   429.1966   5   9   1.7459   2.4518   9.8369  -0.4217   3.8500   1.4592   0.00    0.0
2018/03/11 12:08:40.000   78.256429957   16.214826090   429.2161   5   9   1.7458   2.4519   9.8386  -0.4220   3.8503   1.4586   0.00    0.0
2018/03/11 12:08:41.000   78.256433356   16.214792308   427.0606   5   9   1.7457   2.4519   9.8402  -0.4223   3.8507   1.4580   0.00    0.0
2018/03/11 12:08:42.000   78.256429603   16.214780727   425.4091   5   9   1.7456   2.4519   9.8419  -0.4227   3.8511   1.4574   0.00    0.0
2018/03/11 12:08:43.000   78.256429316   16.214756373   425.5984   5   9   1.7455   2.4520   9.8435  -0.4230   3.8515   1.4568   0.00    0.0
2018/03/11 12:08:44.000   78.256431940   16.214753920   425.2891   5   9   1.7454   2.4520   9.8451  -0.4234   3.8519   1.4562   0.00    0.0
2018/03/11 12:08:45.000   78.256434080   16.214753081   424.6612   5   9   1.7453   2.4520   9.8468  -0.4237   3.8522   1.4556   0.00    0.0
2018/03/11 12:08:46.000   78.256429953   16.214770415   425.6007   5   9   1.7453   2.4521   9.8484  -0.4240   3.8526   1.4550   0.00    0.0
2018/03/11 12:08:47.000   78.256433536   16.214769625   426.0133   5   9   1.7452   2.4521   9.8500  -0.4244   3.8530   1.4544   0.00    0.0
2018/03/11 12:08:48.000   78.256430255   16.214773378   424.2746   5   9   1.7451   2.4521   9.8516  -0.4247   3.8534   1.4538   0.00    0.0
2018/03/11 12:08:49.000   78.256428439   16.214772854   425.1282   5   9   1.7450   2.4522   9.8532  -0.4251   3.8537   1.4532   0.00    0.0
2018/03/11 12:08:50.000   78.256425541   16.214760684   423.3447   5   9   1.7449   2.4522   9.8548  -0.4254   3.8541   1.4526   0.00    0.0
2018/03/11 12:08:51.000   78.256428545   16.214766956   423.8376   5   9   1.7448   2.4522   9.8565  -0.4258   3.8545   1.4520   0.00    0.0
2018/03/11 12:08:52.000   78.256422705   16.214771665   425.6561   5   9   1.7447   2.4523   9.8581  -0.4261   3.8548   1.4514   0.00    0.0
2018/03/11 12:08:53.000   78.256427572   16.214783361   425.3168   5   9   1.7446   2.4523   9.8597  -0.4264   3.8552   1.4508   0.00    0.0
2018/03/11 12:08:54.000   78.256428024   16.214795843   425.8048   5   9   1.7446   2.4523   9.8613  -0.4268   3.8556   1.4502   0.00    0.0
2018/03/11 12:08:55.000   78.256423146   16.214787810   426.7648   5   9   1.7445   2.4524   9.8629  -0.4271   3.8559   1.4496   0.00    0.0
2018/03/11 12:08:56.000   78.256424012   16.214772090   425.5008   5   9   1.7444   2.4524   9.8645  -0.4275   3.8563   1.4490   0.00    0.0
2018/03/11 12:08:57.000   78.256426619   16.214769088   424.4944   5   9   1.7443   2.4524   9.8661  -0.4278   3.8567   1.4483   0.00    0.0
2018/03/11 12:08:58.000   78.256425721   16.214763491   425.7502   5   9   1.7442   2.4524   9.8677  -0.4281   3.8570   1.4477   0.00    0.0
2018/03/11 12:08:59.000   78.256425740   16.214750376   425.7384   5   9   1.7441   2.4525   9.8693  -0.4285   3.8574   1.4471   0.00    0.0
2018/03/11 12:09:00.000   78.256424885   16.214742742   423.4446   5   9   1.7440   2.4525   9.8708  -0.4288   3.8577   1.4465   0.00    0.0
2018/03/11 12:09:01.000   78.256425065   16.214755968   424.4901   5   9   1.7440   2.4525   9.8724  -0.4292   3.8581   1.4459   0.00    0.0
2018/03/11 12:09:02.000   78.256426614   16.214758204   425.9718   5   9   1.7439   2.4526   9.8740  -0.4295   3.8584   1.4453   0.00    0.0
2018/03/11 12:09:03.000   78.256428132   16.214784417   425.9525   5   9   1.7438   2.4526   9.8756  -0.4299   3.8588   1.4447   0.00    0.0
2018/03/11 12:09:04.000   78.256431646   16.214794697   427.5833   5   9   1.7437   2.4526   9.8772  -0.4302   3.8591   1.4440   0.00    0.0
2018/03/11 12:09:05.000   78.256428949   16.214791400   426.1148   5   9   1.7436   2.4526   9.8787  -0.4305   3.8595   1.4434   0.00    0.0
2018/03/11 12:09:06.000   78.256426304   16.214778941   423.9825   5   9   1.7435   2.4527   9.8803  -0.4309   3.8598   1.4428   0.00    0.0
2018/03/11 12:09:07.000   78.256422514   16.214769745   423.6181   5   9   1.7434   2.4527   9.8819  -0.4312   3.8602   1.4422   0.00    0.0
2018/03/11 12:09:08.000   78.256421040   16.214781594   423.2943   5   9   1.7433   2.4527   9.8834  -0.4316   3.8605   1.4416   0.00    0.0
2018/03/11 12:09:09.000   78.256423668   16.214794953   424.8351   5   9   1.7433   2.4527   9.8850  -0.4319   3.8609   1.4409   0.00    0.0
2018/03/11 12:09:10.000   78.256422829   16.214796658   424.1803   5   9   1.7432   2.4528   9.8865  -0.4323   3.8612   1.4403   0.00    0.0
2018/03/11 12:09:11.000   78.256423913   16.214798571   425.2739   5   9   1.7431   2.4528   9.8881  -0.4326   3.8616   1.4397   0.00    0.0
2018/03/11 12:09:12.000   78.256426082   16.214795542   426.0543   5   9   1.7430   2.4528   9.8897  -0.4329   3.8619   1.4391   0.00    0.0
2018/03/11 12:09:13.000   78.256426427   16.214799643   425.0184   5   9   1.7429   2.4528   9.8912  -0.4333   3.8622   1.4384   0.00    0.0
2018/03/11 12:09:14.000   78.256427562   16.214806135   426.9062   5   9   1.7428   2.4529   9.8928  -0.4336   3.8626   1.4378   0.00    0.0
2018/03/11 12:09:15.000   78.256426991   16.214796498   427.8963   5   9   1.7427   2.4529   9.8943  -0.4340   3.8629   1.4372   0.00    0.0
2018/03/11 12:09:16.000   78.256428747   16.214756591   424.8308   5   9   1.7427   2.4529   9.8958  -0.4343   3.8633   1.4366   0.00    0.0
2018/03/11 12:09:17.000   78.256428000   16.214747610   423.7486   5   9   1.7426   2.4529   9.8974  -0.4346   3.8636   1.4359   0.00    0.0
2018/03/11 12:09:18.000   78.256426781   16.214733487   424.3001   5   9   1.7425   2.4529   9.8989  -0.4350   3.8639   1.4353   0.00    0.0
2018/03/11 12:09:19.000   78.256427288   16.214736947   425.2330   5   9   1.7424   2.4530   9.9004  -0.4353   3.8643   1.4347   0.00    0.0
2018/03/11 12:09:20.000   78.256431431   16.214748471   424.1393   5   9   1.7423   2.4530   9.9020  -0.4357   3.8646   1.4341   0.00    0.0
2018/03/11 12:09:21.000   78.256430223   16.214758874   426.2973   5   9   1.7422   2.4530   9.9035  -0.4360   3.8649   1.4334   0.00    0.0
2018/03/11 12:09:22.000   78.256425821   16.214761003   426.6415   5   9   1.7422   2.4530   9.9050  -0.4364   3.8652   1.4328   0.00    0.0
2018/03/11 12:09:23.000   78.256425342   16.214765848   424.2959   5   9   1.7421   2.4530   9.9065  -0.4367   3.8656   1.4322   0.00    0.0
2018/03/11 12:09:24.000   78.256422411   16.214779641   424.2727   5   9   1.7420   2.4531   9.9081  -0.4370   3.8659   1.4315   0.00    0.0
2018/03/11 12:09:25.000   78.256419362   16.214784183   424.1365   5   9   1.7419   2.4531   9.9096  -0.4374   3.8662   1.4309   0.00    0.0
2018/03/11 12:09:26.000   78.256423480   16.214786022   423.6622   5   9   1.7418   2.4531   9.9111  -0.4377   3.8665   1.4303   0.00    0.0
2018/03/11 12:09:27.000   78.256423286   16.214800937   425.0982   5   9   1.7417   2.4531   9.9126  -0.4381   3.8668   1.4296   0.00    0.0
2018/03/11 12:09:28.000   78.256421258   16.214797205   427.5035   5   9   1.7416   2.4531   9.9141  -0.4384   3.8672   1.4290   0.00    0.0
2018/03/11 12:09:29.000   78.256426100   16.214774330   424.9759   5   9   1.7416   2.4532   9.9156  -0.4388   3.8675   1.4283   0.00    0.0
2018/03/11 12:09:30.000   78.256427262   16.214777058   425.1678   5   9   1.7415   2.4532   9.9171  -0.4391   3.8678   1.4277   0.00    0.0
2018/03/11 12:09:31.000   78.256426262   16.214762181   426.2009   5   9   1.7414   2.4532   9.9186  -0.4394   3.8681   1.4271   0.00    0.0
2018/03/11 12:09:32.000   78.256427349   16.214776766   426.9776   5   9   1.7413   2.4532   9.9201  -0.4398   3.8684   1.4264   0.00    0.0
2018/03/11 12:09:33.000   78.256430241   16.214789782   426.1383   5   9   1.7412   2.4532   9.9216  -0.4401   3.8687   1.4258   0.00    0.0
2018/03/11 12:09:34.000   78.256429596   16.214767051   425.9861   5   9   1.7411   2.4532   9.9231  -0.4405   3.8690   1.4251   0.00    0.0
2018/03/11 12:09:35.000   78.256426789   16.214768710   426.9238   5   9   1.7411   2.4533   9.9246  -0.4408   3.8693   1.4245   0.00    0.0
2018/03/11 12:09:36.000   78.256427688   16.214764147   426.5773   5   9   1.7410   2.4533   9.9260  -0.4412   3.8696   1.4239   0.00    0.0
2018/03/11 12:09:37.000   78.256429745   16.214786845   426.2899   5   9   1.7409   2.4533   9.9275  -0.4415   3.8700   1.4232   0.00    0.0
2018/03/11 12:09:38.000   78.256433371   16.214788464   427.4424   5   9   1.7408   2.4533   9.9290  -0.4418   3.8703   1.4226   0.00    0.0
2018/03/11 12:09:39.000   78.256431355   16.214778907   427.2127   5   9   1.7407   2.4533   9.9305  -0.4422   3.8706   1.4219   0.00    0.0
2018/03/11 12:09:40.000   78.256430173   16.214776215   426.8237   5   9   1.7406   2.4533   9.9319  -0.4425   3.8709   1.4213   0.00    0.0
2018/03/11 12:09:41.000   78.256429510   16.214765777   425.4794   5   9   1.7405   2.4533   9.9334  -0.4429   3.8712   1.4206   0.00    0.0
2018/03/11 12:09:42.000   78.256429677   16.214779932   426.1047   5   9   1.7405   2.4533   9.9349  -0.4432   3.8715   1.4200   0.00    0.0
2018/03/11 12:09:43.000   78.256429048   16.214769352   424.8353   5   9   1.7404   2.4534   9.9363  -0.4436   3.8717   1.4193   0.00    0.0
2018/03/11 12:09:44.000   78.256428931   16.214764870   425.0089   5   9   1.7403   2.4534   9.9378  -0.4439   3.8720   1.4187   0.00    0.0
2018/03/11 12:09:45.000   78.256427236   16.214749520   424.1617   5   9   1.7402   2.4534   9.9392  -0.4442   3.8723   1.4180   0.00    0.0
2018/03/11 12:09:46.000   78.256430051   16.214786193   424.0715   5   9   1.7401   2.4534   9.9407  -0.4446   3.8726   1.4174   0.00    0.0
2018/03/11 12:09:47.000   78.256426946   16.214788147   424.1942   5   9   1.7400   2.4534   9.9421  -0.4449   3.8729   1.4167   0.00    0.0
2018/03/11 12:09:48.000   78.256421160   16.214768196   425.1803   5   9   1.7400   2.4534   9.9436  -0.4453   3.8732   1.4161   0.00    0.0
2018/03/11 12:09:49.000   78.256418647   16.214761972   422.6293   5   9   1.7399   2.4534   9.9450  -0.4456   3.8735   1.4154   0.00    0.0
2018/03/11 12:09:50.000   78.256424015   16.214754782   422.1470   5   9   1.7398   2.4534   9.9465  -0.4459   3.8738   1.4148   0.00    0.0
2018/03/11 12:09:51.000   78.256420364   16.214765958   425.8451   5   9   1.7397   2.4534   9.9479  -0.4463   3.8741   1.4141   0.00    0.0
2018/03/11 12:09:52.000   78.256421063   16.214765827   426.6048   5   9   1.7396   2.4535   9.9493  -0.4466   3.8743   1.4135   0.00    0.0
2018/03/11 12:09:53.000   78.256423853   16.214771156   424.5825   5   9   1.7395   2.4535   9.9508  -0.4470   3.8746   1.4128   0.00    0.0
2018/03/11 12:09:54.000   78.256420415   16.214756275   426.1540   5   9   1.7395   2.4535   9.9522  -0.4473   3.8749   1.4121   0.00    0.0
2018/03/11 12:09:55.000   78.256425190   16.214770296   426.2777   5   9   1.7394   2.4535   9.9536  -0.4477   3.8752   1.4115   0.00    0.0
2018/03/11 12:09:56.000   78.256427339   16.214770586   423.2434   5   9   1.7393   2.4535   9.9550  -0.4480   3.8755   1.4108   0.00    0.0
2018/03/11 12:09:57.000   78.256425200   16.214781090   427.1642   5   9   1.7392   2.4535   9.9565  -0.4483   3.8757   1.4102   0.00    0.0
2018/03/11 12:09:58.000   78.256428782   16.214774614   426.1963   5   9   1.7391   2.4535   9.9579  -0.4487   3.8760   1.4095   0.00    0.0
2018/03/11 12:09:59.000   78.256432047   16.214771185   423.0087   5   9   1.7390   2.4535   9.9593  -0.4490   3.8763   1.4088   0.00    0.0
2018/03/11 12:10:00.000   78.256428218   16.214754626   425.8455   5   9   1.7390   2.4535   9.9607  -0.4494   3.8765   1.4082   0.00    0.0
2018/03/11 12:10:01.000   78.256423716   16.214742319   427.2386   5   9   1.7389   2.4535   9.9621  -0.4497   3.8768   1.4075   0.00    0.0
2018/03/11 12:10:02.000   78.256431700   16.214754367   423.2275   5   9   1.7388   2.4535   9.9635  -0.4501   3.8771   1.4068   0.00    0.0
2018/03/11 12:10:03.000   78.256431820   16.214756750   423.9425   5   9   1.7387   2.4535   9.9649  -0.4504   3.8774   1.4062   0.00    0.0
2018/03/11 12:10:04.000   78.256424522   16.214764521   427.7309   5   9   1.7386   2.4535   9.9663  -0.4507   3.8776   1.4055   0.00    0.0
2018/03/11 12:10:05.000   78.256428645   16.214768461   425.9844   5   9   1.7386   2.4535   9.9677  -0.4511   3.8779   1.4048   0.00    0.0
2018/03/11 12:10:06.000   78.256427510   16.214749742   422.8080   5   9   1.7385   2.4535   9.9691  -0.4514   3.8781   1.4042   0.00    0.0
2018/03/11 12:10:07.000   78.256425907   16.214768687   425.2681   5   9   1.7384   2.4535   9.9705  -0.4518   3.8784   1.4035   0.00    0.0
2018/03/11 12:10:08.000   78.256426788   16.214760948   425.2930   5   9   1.7383   2.4535   9.9718  -0.4521   3.8787   1.4028   0.00    0.0
2018/03/11 12:10:09.000   78.256423706   16.214768195   424.0097   5   9   1.7382   2.4535   9.9732  -0.4525   3.8789   1.4022   0.00    0.0
2018/03/11 12:10:10.000   78.256426035   16.214776475   425.5112   5   9   1.7381   2.4535   9.9746  -0.4528   3.8792   1.4015   0.00    0.0
2018/03/11 12:10:11.000   78.256426803   16.214775277   426.3763   5   9   1.7381   2.4535   9.9760  -0.4531   3.8794   1.4008   0.00    0.0
2018/03/11 12:10:12.000   78.256426653   16.214775754   425.7957   5   9   1.7380   2.4535   9.9774  -0.4535   3.8797   1.4001   0.00    0.0
2018/03/11 12:10:13.000   78.256424413   16.214767795   426.0803   5   9   1.7379   2.4535   9.9787  -0.4538   3.8799   1.3995   0.00    0.0
2018/03/11 12:10:14.000   78.256424055   16.214765653   425.8698   5   9   1.7378   2.4535   9.9801  -0.4542   3.8802   1.3988   0.00    0.0
2018/03/11 12:10:15.000   78.256423916   16.214761014   423.7594   5   9   1.7377   2.4535   9.9814  -0.4545   3.8804   1.3981   0.00    0.0
2018/03/11 12:10:16.000   78.256421004   16.214747142   423.6422   5   9   1.7377   2.4535   9.9828  -0.4548   3.8807   1.3974   0.00    0.0
2018/03/11 12:10:17.000   78.256422206   16.214760826   425.1362   5   9   1.7376   2.4535   9.9842  -0.4552   3.8809   1.3968   0.00    0.0
2018/03/11 12:10:18.000   78.256425610   16.214750936   424.4270   5   9   1.7375   2.4535   9.9855  -0.4555   3.8812   1.3961   0.00    0.0
2018/03/11 12:10:19.000   78.256426361   16.214774343   424.3868   5   9   1.7374   2.4535   9.9869  -0.4559   3.8814   1.3954   0.00    0.0
2018/03/11 12:10:20.000   78.256426461   16.214748468   423.6754   5   9   1.7373   2.4535   9.9882  -0.4562   3.8816   1.3947   0.00    0.0
2018/03/11 12:10:21.000   78.256425537   16.214771957   426.0478   5   9   1.7372   2.4535   9.9895  -0.4566   3.8819   1.3940   0.00    0.0
2018/03/11 12:10:22.000   78.256424396   16.214782072   426.0721   5   9   1.7372   2.4535   9.9909  -0.4569   3.8821   1.3934   0.00    0.0
2018/03/11 12:10:23.000   78.256427016   16.214769609   424.4464   5   9   1.7371   2.4535   9.9922  -0.4572   3.8824   1.3927   0.00    0.0
2018/03/11 12:10:24.000   78.256426487   16.214755189   424.4118   5   9   1.7370   2.4535   9.9936  -0.4576   3.8826   1.3920   0.00    0.0
2018/03/11 12:10:25.000   78.256422716   16.214746750   424.8486   5   9   1.7369   2.4535   9.9949  -0.4579   3.8828   1.3913   0.00    0.0
2018/03/11 12:10:26.000   78.256424220   16.214750824   424.1033   5   9   1.7368   2.4535   9.9962  -0.4583   3.8831   1.3906   0.00    0.0
2018/03/11 12:10:27.000   78.256426055   16.214751441   425.5266   5   9   1.7368   2.4535   9.9975  -0.4586   3.8833   1.3899   0.00    0.0
2018/03/11 12:10:28.000   78.256427747   16.214764816   425.4582   5   9   1.7367   2.4535   9.9988  -0.4590   3.8835   1.3893   0.00    0.0
2018/03/11 12:10:29.000   78.256429523   16.214762123   425.7518   5   9   1.7366   2.4535  10.0002  -0.4593   3.8837   1.3886   0.00    0.0
2018/03/11 12:10:30.000   78.256426657   16.214762423   425.2695   5   9   1.7365   2.4535  10.0015  -0.4596   3.8840   1.3879   0.00    0.0
2018/03/11 12:10:31.000   78.256427078   16.214770976   426.2532   5   9   1.7364   2.4535  10.0028  -0.4600   3.8842   1.3872   0.00    0.0
2018/03/11 12:10:32.000   78.256429567   16.214771286   424.8423   5   9   1.7364   2.4535  10.0041  -0.4603   3.8844   1.3865   0.00    0.0
2018/03/11 12:10:33.000   78.256426869   16.214763643   425.1961   5   9   1.7363   2.4535  10.0054  -0.4607   3.8846   1.3858   0.00    0.0
2018/03/11 12:10:34.000   78.256422414   16.214736440   424.1950   5   9   1.7362   2.4535  10.0067  -0.4610   3.8849   1.3851   0.00    0.0
2018/03/11 12:10:35.000   78.256420968   16.214738105   423.6961   5   9   1.7361   2.4535  10.0080  -0.4613   3.8851   1.3844   0.00    0.0
2018/03/11 12:10:36.000   78.256421682   16.214743679   423.2370   5   9   1.7360   2.4534  10.0093  -0.4617   3.8853   1.3837   0.00    0.0
2018/03/11 12:10:37.000   78.256421773   16.214746360   423.7023   5   9   1.7360   2.4534  10.0106  -0.4620   3.8855   1.3831   0.00    0.0
2018/03/11 12:10:38.000   78.256422302   16.214770229   422.8118   5   9   1.7359   2.4534  10.0119  -0.4624   3.8857   1.3824   0.00    0.0
2018/03/11 12:10:39.000   78.256425361   16.214777282   424.8080   5   9   1.7358   2.4534  10.0131  -0.4627   3.8859   1.3817   0.00    0.0
2018/03/11 12:10:40.000   78.256427234   16.214777055   425.5522   5   9   1.7357   2.4534  10.0144  -0.4631   3.8861   1.3810   0.00    0.0
2018/03/11 12:10:41.000   78.256430101   16.214819296   426.9567   5   9   1.7356   2.4534  10.0157  -0.4634   3.8863   1.3803   0.00    0.0
2018/03/11 12:10:42.000   78.256428946   16.214792393   425.7227   5   9   1.7356   2.4534  10.0170  -0.4637   3.8865   1.3796   0.00    0.0
2018/03/11 12:10:43.000   78.256426885   16.214782578   427.1616   5   9   1.7355   2.4534  10.0182  -0.4641   3.8867   1.3789   0.00    0.0
2018/03/11 12:10:44.000   78.256424502   16.214770311   424.6085   5   9   1.7354   2.4534  10.0195  -0.4644   3.8870   1.3782   0.00    0.0
2018/03/11 12:10:45.000   78.256427339   16.214744607   422.9756   5   9   1.7353   2.4533  10.0208  -0.4648   3.8872   1.3775   0.00    0.0
2018/03/11 12:10:46.000   78.256426387   16.214751349   424.7566   5   9   1.7352   2.4533  10.0220  -0.4651   3.8874   1.3768   0.00    0.0
2018/03/11 12:10:47.000   78.256424994   16.214760191   427.1562   5   9   1.7352   2.4533  10.0233  -0.4654   3.8876   1.3761   0.00    0.0
2018/03/11 12:10:48.000   78.256428803   16.214755440   424.8332   5   9   1.7351   2.4533  10.0245  -0.4658   3.8877   1.3754   0.00    0.0
2018/03/11 12:10:49.000   78.256431105   16.214780635   427.0903   5   9   1.7350   2.4533  10.0258  -0.4661   3.8879   1.3747   0.00    0.0
2018/03/11 12:10:50.000   78.256431447   16.214781479   427.1381   5   9   1.7349   2.4533  10.0270  -0.4665   3.8881   1.3739   0.00    0.0
2018/03/11 12:10:51.000   78.256430455   16.214781512   424.7427   5   9   1.7348   2.4533  10.0283  -0.4668   3.8883   1.3732   0.00    0.0
2018/03/11 12:10:52.000   78.256429308   16.214773478   426.1283   5   9   1.7348   2.4532  10.0295  -0.4671   3.8885   1.3725   0.00    0.0
2018/03/11 12:10:53.000   78.256428273   16.214744658   426.1568   5   9   1.7347   2.4532  10.0308  -0.4675   3.8887   1.3718   0.00    0.0
2018/03/11 12:10:54.000   78.256429514   16.214737314   422.3423   5   9   1.7346   2.4532  10.0320  -0.4678   3.8889   1.3711   0.00    0.0
2018/03/11 12:10:55.000   78.256427998   16.214738354   422.7733   5   9   1.7345   2.4532  10.0332  -0.4682   3.8891   1.3704   0.00    0.0
2018/03/11 12:10:56.000   78.256422367   16.214740817   426.9976   5   9   1.7344   2.4532  10.0345  -0.4685   3.8893   1.3697   0.00    0.0
2018/03/11 12:10:57.000   78.256427243   16.214769605   425.6774   5   9   1.7344   2.4532  10.0357  -0.4689   3.8895   1.3690   0.00    0.0
2018/03/11 12:10:58.000   78.256429119   16.214765911   425.1287   5   9   1.7343   2.4532  10.0369  -0.4692   3.8896   1.3683   0.00    0.0
2018/03/11 12:10:59.000   78.256427084   16.214780175   426.8977   5   9   1.7342   2.4531  10.0381  -0.4695   3.8898   1.3676   0.00    0.0
2018/03/11 12:11:00.000   78.256429476   16.214786645   426.4703   5   9   1.7341   2.4531  10.0393  -0.4699   3.8900   1.3669   0.00    0.0
2018/03/11 12:11:01.000   78.256427206   16.214791613   425.7166   5   9   1.7341   2.4531  10.0405  -0.4702   3.8902   1.3661   0.00    0.0
2018/03/11 12:11:02.000   78.256422910   16.214786854   426.2254   5   9   1.7340   2.4531  10.0417  -0.4706   3.8903   1.3654   0.00    0.0
2018/03/11 12:11:03.000   78.256426366   16.214784304   423.8972   5   9   1.7339   2.4531  10.0429  -0.4709   3.8905   1.3647   0.00    0.0
2018/03/11 12:11:04.000   78.256423499   16.214767328   423.1702   5   9   1.7338   2.4530  10.0441  -0.4712   3.8907   1.3640   0.00    0.0
2018/03/11 12:11:05.000   78.256416163   16.214757443   425.4956   5   9   1.7337   2.4530  10.0453  -0.4716   3.8909   1.3633   0.00    0.0
2018/03/11 12:11:06.000   78.256422567   16.214768046   423.4151   5   9   1.7337   2.4530  10.0465  -0.4719   3.8910   1.3626   0.00    0.0
2018/03/11 12:11:07.000   78.256427815   16.214777033   424.1144   5   9   1.7336   2.4530  10.0477  -0.4723   3.8912   1.3618   0.00    0.0
2018/03/11 12:11:08.000   78.256426516   16.214776891   427.3372   5   9   1.7335   2.4530  10.0489  -0.4726   3.8914   1.3611   0.00    0.0
2018/03/11 12:11:09.000   78.256430569   16.214791153   429.2905   5   9   1.7334   2.4529  10.0501  -0.4729   3.8915   1.3604   0.00    0.0
2018/03/11 12:11:10.000   78.256430862   16.214790203   427.6082   5   9   1.7334   2.4529  10.0513  -0.4733   3.8917   1.3597   0.00    0.0
2018/03/11 12:11:11.000   78.256431237   16.214773286   426.1463   5   9   1.7333   2.4529  10.0524  -0.4736   3.8918   1.3590   0.00    0.0
2018/03/11 12:11:12.000   78.256430872   16.214758772   425.2858   5   9   1.7332   2.4529  10.0536  -0.4740   3.8920   1.3582   0.00    0.0
2018/03/11 12:11:13.000   78.256432774   16.214761037   425.5999   5   9   1.7331   2.4528  10.0548  -0.4743   3.8922   1.3575   0.00    0.0
2018/03/11 12:11:14.000   78.256432330   16.214768591   427.3583   5   9   1.7330   2.4528  10.0560  -0.4746   3.8923   1.3568   0.00    0.0
2018/03/11 12:11:15.000   78.256433163   16.214767695   426.6729   5   9   1.7330   2.4528  10.0571  -0.4750   3.8925   1.3561   0.00    0.0
2018/03/11 12:11:16.000   78.256433622   16.214755453   424.6277   5   9   1.7329   2.4528  10.0583  -0.4753   3.8926   1.3553   0.00    0.0
2018/03/11 12:11:17.000   78.256428334   16.214763446   425.9175   5   9   1.7328   2.4527  10.0594  -0.4757   3.8928   1.3546   0.00    0.0
2018/03/11 12:11:18.000   78.256427727   16.214791211   427.1553   5   9   1.7327   2.4527  10.0606  -0.4760   3.8929   1.3539   0.00    0.0
2018/03/11 12:11:19.000   78.256430892   16.214810559   427.3716   5   9   1.7327   2.4527  10.0617  -0.4763   3.8931   1.3532   0.00    0.0
2018/03/11 12:11:20.000   78.256431901   16.214789099   424.9241   5   9   1.7326   2.4527  10.0629  -0.4767   3.8932   1.3524   0.00    0.0
2018/03/11 12:11:21.000   78.256427959   16.214770291   424.9613   5   9   1.7325   2.4526  10.0640  -0.4770   3.8934   1.3517   0.00    0.0
2018/03/11 12:11:22.000   78.256425693   16.214749313   425.9429   5   9   1.7324   2.4526  10.0651  -0.4774   3.8935   1.3510   0.00    0.0
2018/03/11 12:11:23.000   78.256425302   16.214770671   424.3308   5   9   1.7323   2.4526  10.0663  -0.4777   3.8936   1.3502   0.00    0.0
2018/03/11 12:11:24.000   78.256427914   16.214776310   424.8663   5   9   1.7323   2.4525  10.0674  -0.4780   3.8938   1.3495   0.00    0.0
2018/03/11 12:11:25.000   78.256422906   16.214773269   425.2006   5   9   1.7322   2.4525  10.0685  -0.4784   3.8939   1.3488   0.00    0.0
2018/03/11 12:11:26.000   78.256420072   16.214753846   425.8622   5   9   1.7321   2.4525  10.0697  -0.4787   3.8941   1.3480   0.00    0.0
2018/03/11 12:11:27.000   78.256423773   16.214752533   424.5448   5   9   1.7320   2.4525  10.0708  -0.4790   3.8942   1.3473   0.00    0.0
2018/03/11 12:11:28.000   78.256424233   16.214751352   422.8252   5   9   1.7320   2.4524  10.0719  -0.4794   3.8943   1.3466   0.00    0.0
2018/03/11 12:11:29.000   78.256421406   16.214753422   424.3175   5   9   1.7319   2.4524  10.0730  -0.4797   3.8945   1.3458   0.00    0.0
2018/03/11 12:11:30.000   78.256424125   16.214771211   425.5771   5   9   1.7318   2.4524  10.0741  -0.4801   3.8946   1.3451   0.00    0.0
2018/03/11 12:11:31.000   78.256426559   16.214776650   425.2795   5   9   1.7317   2.4523  10.0752  -0.4804   3.8947   1.3443   0.00    0.0
2018/03/11 12:11:32.000   78.256427871   16.214778849   425.7854   5   9   1.7317   2.4523  10.0763  -0.4807   3.8948   1.3436   0.00    0.0
2018/03/11 12:11:33.000   78.256426344   16.214768406   425.3753   5   9   1.7316   2.4523  10.0774  -0.4811   3.8950   1.3429   0.00    0.0
2018/03/11 12:11:34.000   78.256430806   16.214766113   424.6632   5   9   1.7315   2.4522  10.0785  -0.4814   3.8951   1.3421   0.00    0.0
2018/03/11 12:11:35.000   78.256431849   16.214781703   425.8866   5   9   1.7314   2.4522  10.0796  -0.4818   3.8952   1.3414   0.00    0.0
2018/03/11 12:11:36.000   78.256430698   16.214796080   428.5733   5   9   1.7314   2.4522  10.0807  -0.4821   3.8953   1.3406   0.00    0.0
2018/03/11 12:11:37.000   78.256437022   16.214796615   427.6675   5   9   1.7313   2.4521  10.0818  -0.4824   3.8954   1.3399   0.00    0.0
2018/03/11 12:11:38.000   78.256436424   16.214785360   426.7354   5   9   1.7312   2.4521  10.0829  -0.4828   3.8956   1.3391   0.00    0.0
2018/03/11 12:11:39.000   78.256430407   16.214777243   428.1076   5   9   1.7311   2.4521  10.0839  -0.4831   3.8957   1.3384   0.00    0.0
2018/03/11 12:11:40.000   78.256435045   16.214793217   426.5139   5   9   1.7311   2.4520  10.0850  -0.4835   3.8958   1.3377   0.00    0.0
2018/03/11 12:11:41.000   78.256437309   16.214801226   426.2932   5   9   1.7310   2.4520  10.0861  -0.4838   3.8959   1.3369   0.00    0.0
2018/03/11 12:11:42.000   78.256431767   16.214768599   426.6998   5   9   1.7309   2.4520  10.0872  -0.4841   3.8960   1.3362   0.00    0.0
2018/03/11 12:11:43.000   78.256427814   16.214755252   425.9643   5   9   1.7308   2.4519  10.0882  -0.4845   3.8961   1.3354   0.00    0.0
2018/03/11 12:11:44.000   78.256430550   16.214766511   423.9140   5   9   1.7307   2.4519  10.0893  -0.4848   3.8962   1.3347   0.00    0.0
2018/03/11 12:11:45.000   78.256427285   16.214776481   426.1854   5   9   1.7307   2.4519  10.0903  -0.4851   3.8963   1.3339   0.00    0.0
2018/03/11 12:11:46.000   78.256428170   16.214789614   426.9085   5   9   1.7306   2.4518  10.0914  -0.4855   3.8964   1.3332   0.00    0.0
2018/03/11 12:11:47.000   78.256427017   16.214761764   424.0405   5   9   1.7305   2.4518  10.0924  -0.4858   3.8965   1.3324   0.00    0.0
2018/03/11 12:11:48.000   78.256421037   16.214749089   423.5819   5   9   1.7304   2.4517  10.0935  -0.4862   3.8966   1.3317   0.00    0.0
2018/03/11 12:11:49.000   78.256422235   16.214738881   424.6005   5   9   1.7304   2.4517  10.0945  -0.4865   3.8967   1.3309   0.00    0.0
2018/03/11 12:11:50.000   78.256426539   16.214753101   421.9759   5   9   1.7303   2.4517  10.0956  -0.4868   3.8968   1.3302   0.00    0.0
2018/03/11 12:11:51.000   78.256426291   16.214774198   424.2577   5   9   1.7302   2.4516  10.0966  -0.4872   3.8969   1.3294   0.00    0.0
2018/03/11 12:11:52.000   78.256421114   16.214771626   426.4190   5   9   1.7301   2.4516  10.0976  -0.4875   3.8970   1.3286   0.00    0.0
2018/03/11 12:11:53.000   78.256423543   16.214773028   423.0081   5   9   1.7301   2.4515  10.0986  -0.4878   3.8971   1.3279   0.00    0.0
2018/03/11 12:11:54.000   78.256427074   16.214775726   422.0061   5   9   1.7300   2.4515  10.0997  -0.4882   3.8972   1.3271   0.00    0.0
2018/03/11 12:11:55.000   78.256425252   16.214765482   424.4842   5   9   1.7299   2.4515  10.1007  -0.4885   3.8973   1.3264   0.00    0.0
2018/03/11 12:11:56.000   78.256422892   16.214774567   426.2723   5   9   1.7298   2.4514  10.1017  -0.4889   3.8974   1.3256   0.00    0.0
2018/03/11 12:11:57.000   78.256432263   16.214781653   425.9997   5   9   1.7298   2.4514  10.1027  -0.4892   3.8975   1.3248   0.00    0.0
2018/03/11 12:11:58.000   78.256435480   16.214797089   428.1597   5   9   1.7297   2.4513  10.1037  -0.4895   3.8975   1.3241   0.00    0.0
2018/03/11 12:11:59.000   78.256432727   16.214773561   428.9276   5   9   1.7296   2.4513  10.1047  -0.4899   3.8976   1.3233   0.00    0.0
2018/03/11 12:12:00.000   78.256431475   16.214780533   429.6284   5   9   1.7296   2.4513  10.1057  -0.4902   3.8977   1.3226   0.00    0.0
2018/03/11 12:12:01.000   78.256431810   16.214769060   427.8576   5   9   1.7295   2.4512  10.1067  -0.4905   3.8978   1.3218   0.00    0.0
2018/03/11 12:12:02.000   78.256433521   16.214774552   428.3710   5   9   1.7294   2.4512  10.1077  -0.4909   3.8979   1.3210   0.00    0.0
2018/03/11 12:12:03.000   78.256431867   16.214776841   427.5508   5   9   1.7293   2.4511  10.1087  -0.4912   3.8979   1.3203   0.00    0.0
2018/03/11 12:12:04.000   78.256431854   16.214773409   426.1100   5   9   1.7293   2.4511  10.1097  -0.4915   3.8980   1.3195   0.00    0.0
2018/03/11 12:12:05.000   78.256430839   16.214764569   425.8506   5   9   1.7292   2.4510  10.1107  -0.4919   3.8981   1.3187   0.00    0.0
2018/03/11 12:12:06.000   78.256429436   16.214752245   425.2714   5   9   1.7291   2.4510  10.1117  -0.4922   3.8981   1.3180   0.00    0.0
2018/03/11 12:12:07.000   78.256431794   16.214760029   425.0325   5   9   1.7290   2.4509  10.1126  -0.4926   3.8982   1.3172   0.00    0.0
2018/03/11 12:12:08.000   78.256432041   16.214784034   424.8634   5   9   1.7290   2.4509  10.1136  -0.4929   3.8983   1.3164   0.00    0.0
2018/03/11 12:12:09.000   78.256427648   16.214791034   427.2108   5   9   1.7289   2.4508  10.1146  -0.4932   3.8983   1.3157   0.00    0.0
2018/03/11 12:12:10.000   78.256425494   16.214780043   426.7768   5   9   1.7288   2.4508  10.1155  -0.4936   3.8984   1.3149   0.00    0.0
2018/03/11 12:12:11.000   78.256426948   16.214761887   422.9922   5   9   1.7287   2.4507  10.1165  -0.4939   3.8985   1.3141   0.00    0.0
2018/03/11 12:12:12.000   78.256424028   16.214757716   423.2687   5   9   1.7287   2.4507  10.1175  -0.4942   3.8985   1.3133   0.00    0.0
2018/03/11 12:12:13.000   78.256419681   16.214775942   427.1443   5   9   1.7286   2.4506  10.1184  -0.4946   3.8986   1.3126   0.00    0.0
2018/03/11 12:12:14.000   78.256423925   16.214786943   423.1572   5   9   1.7285   2.4506  10.1194  -0.4949   3.8986   1.3118   0.00    0.0
2018/03/11 12:12:15.000   78.256423502   16.214783967   421.6475   5   9   1.7284   2.4505  10.1203  -0.4952   3.8987   1.3110   0.00    0.0
2018/03/11 12:12:16.000   78.256421167   16.214780644   423.8726   5   9   1.7284   2.4505  10.1213  -0.4956   3.8988   1.3102   0.00    0.0
2018/03/11 12:12:18.000   78.256428259   16.214761920   421.9134   5   9   1.7282   2.4504  10.1231  -0.4962   3.8989   1.3087   0.00    0.0
2018/03/11 12:12:19.000   78.256425528   16.214766685   425.7892   5   9   1.7282   2.4503  10.1241  -0.4966   3.8989   1.3079   0.00    0.0
2018/03/11 12:12:20.000   78.256426588   16.214742973   423.8951   5   9   1.7281   2.4503  10.1250  -0.4969   3.8989   1.3071   0.00    0.0
2018/03/11 12:12:21.000   78.256427954   16.214754214   423.9258   5   9   1.7280   2.4502  10.1259  -0.4972   3.8990   1.3063   0.00    0.0
2018/03/11 12:12:22.000   78.256428711   16.214759574   427.0363   5   9   1.7279   2.4502  10.1268  -0.4976   3.8990   1.3056   0.00    0.0
2018/03/11 12:12:23.000   78.256429099   16.214769118   428.6537   5   9   1.7279   2.4501  10.1277  -0.4979   3.8991   1.3048   0.00    0.0
2018/03/11 12:12:24.000   78.256434346   16.214761493   425.4146   5   9   1.7278   2.4501  10.1287  -0.4983   3.8991   1.3040   0.00    0.0
2018/03/11 12:12:25.000   78.256431491   16.214758706   426.1931   5   9   1.7277   2.4500  10.1296  -0.4986   3.8992   1.3032   0.00    0.0
2018/03/11 12:12:26.000   78.256428158   16.214750345   426.8735   5   9   1.7276   2.4500  10.1305  -0.4989   3.8992   1.3024   0.00    0.0
2018/03/11 12:12:27.000   78.256433411   16.214776798   425.3785   5   9   1.7276   2.4499  10.1314  -0.4993   3.8992   1.3016   0.00    0.0
2018/03/11 12:12:28.000   78.256435794   16.214793409   426.4572   5   9   1.7275   2.4499  10.1323  -0.4996   3.8993   1.3008   0.00    0.0
2018/03/11 12:12:29.000   78.256431889   16.214792986   427.3931   5   9   1.7274   2.4498  10.1332  -0.4999   3.8993   1.3001   0.00    0.0
2018/03/11 12:12:30.000   78.256427388   16.214770127   425.8050   5   9   1.7274   2.4498  10.1341  -0.5003   3.8993   1.2993   0.00    0.0
2018/03/11 12:12:31.000   78.256428175   16.214779517   424.2630   5   9   1.7273   2.4497  10.1349  -0.5006   3.8993   1.2985   0.00    0.0
2018/03/11 12:12:32.000   78.256429042   16.214771517   424.7762   5   9   1.7272   2.4496  10.1358  -0.5009   3.8994   1.2977   0.00    0.0
2018/03/11 12:12:33.000   78.256428381   16.214776077   423.6095   5   9   1.7271   2.4496  10.1367  -0.5013   3.8994   1.2969   0.00    0.0
2018/03/11 12:12:34.000   78.256427366   16.214791161   425.7716   5   9   1.7271   2.4495  10.1376  -0.5016   3.8994   1.2961   0.00    0.0
2018/03/11 12:12:35.000   78.256428468   16.214794112   425.6818   5   9   1.7270   2.4495  10.1385  -0.5019   3.8994   1.2953   0.00    0.0
2018/03/11 12:12:36.000   78.256427710   16.214800343   426.2139   5   9   1.7269   2.4494  10.1393  -0.5023   3.8995   1.2945   0.00    0.0
2018/03/11 12:12:37.000   78.256424778   16.214790838   426.1802   5   9   1.7269   2.4493  10.1402  -0.5026   3.8995   1.2937   0.00    0.0
2018/03/11 12:12:38.000   78.256424377   16.214761383   425.0942   5   9   1.7268   2.4493  10.1410  -0.5029   3.8995   1.2929   0.00    0.0
2018/03/11 12:12:39.000   78.256423332   16.214746700   424.2201   5   9   1.7267   2.4492  10.1419  -0.5033   3.8995   1.2921   0.00    0.0
2018/03/11 12:12:40.000   78.256422441   16.214743661   424.0683   5   9   1.7266   2.4492  10.1428  -0.5036   3.8995   1.2914   0.00    0.0
2018/03/11 12:12:41.000   78.256423466   16.214738896   424.4753   5   9   1.7266   2.4491  10.1436  -0.5039   3.8995   1.2906   0.00    0.0
2018/03/11 12:12:42.000   78.256425627   16.214755640   423.5780   5   9   1.7265   2.4490  10.1444  -0.5043   3.8995   1.2898   0.00    0.0
2018/03/11 12:12:43.000   78.256424052   16.214776135   424.6396   5   9   1.7264   2.4490  10.1453  -0.5046   3.8995   1.2890   0.00    0.0
2018/03/11 12:12:44.000   78.256424412   16.214744471   425.2457   5   9   1.7264   2.4489  10.1461  -0.5049   3.8995   1.2882   0.00    0.0
2018/03/11 12:12:45.000   78.256427054   16.214772566   425.6192   5   9   1.7263   2.4489  10.1470  -0.5053   3.8995   1.2874   0.00    0.0
2018/03/11 12:12:46.000   78.256429312   16.214763815   425.4072   5   9   1.7262   2.4488  10.1478  -0.5056   3.8996   1.2865   0.00    0.0
2018/03/11 12:12:47.000   78.256428086   16.214771691   425.9352   5   9   1.7261   2.4487  10.1486  -0.5059   3.8996   1.2857   0.00    0.0
2018/03/11 12:12:48.000   78.256427639   16.214777263   426.6358   5   9   1.7261   2.4487  10.1494  -0.5063   3.8995   1.2849   0.00    0.0
2018/03/11 12:12:49.000   78.256430515   16.214775122   425.5699   5   9   1.7260   2.4486  10.1503  -0.5066   3.8995   1.2841   0.00    0.0
2018/03/11 12:12:50.000   78.256428603   16.214785685   426.4462   5   9   1.7259   2.4485  10.1511  -0.5069   3.8995   1.2833   0.00    0.0
2018/03/11 12:12:51.000   78.256424923   16.214765693   425.2288   5   9   1.7259   2.4485  10.1519  -0.5072   3.8995   1.2825   0.00    0.0
2018/03/11 12:12:52.000   78.256427020   16.214780182   424.2161   5   9   1.7258   2.4484  10.1527  -0.5076   3.8995   1.2817   0.00    0.0
2018/03/11 12:12:53.000   78.256430589   16.214776678   424.2197   5   9   1.7257   2.4483  10.1535  -0.5079   3.8995   1.2809   0.00    0.0
2018/03/11 12:12:54.000   78.256431950   16.214784948   426.9440   5   9   1.7256   2.4483  10.1543  -0.5082   3.8995   1.2801   0.00    0.0
2018/03/11 12:12:55.000   78.256429375   16.214807197   428.1786   5   9   1.7256   2.4482  10.1551  -0.5086   3.8995   1.2793   0.00    0.0
2018/03/11 12:12:56.000   78.256428021   16.214779461   425.9274   5   9   1.7255   2.4481  10.1559  -0.5089   3.8995   1.2785   0.00    0.0
2018/03/11 12:12:57.000   78.256427746   16.214761106   425.0967   5   9   1.7254   2.4481  10.1567  -0.5092   3.8995   1.2777   0.00    0.0
2018/03/11 12:12:58.000   78.256426707   16.214766967   427.2257   5   9   1.7254   2.4480  10.1574  -0.5096   3.8994   1.2769   0.00    0.0
2018/03/11 12:12:59.000   78.256428293   16.214760315   425.8558   5   9   1.7253   2.4479  10.1582  -0.5099   3.8994   1.2761   0.00    0.0
2018/03/11 12:13:00.000   78.256428970   16.214759584   426.4769   5   9   1.7252   2.4479  10.1590  -0.5102   3.8994   1.2752   0.00    0.0
2018/03/11 12:13:01.000   78.256426760   16.214744064   425.6629   5   9   1.7252   2.4478  10.1598  -0.5106   3.8994   1.2744   0.00    0.0
2018/03/11 12:13:02.000   78.256427338   16.214760073   425.7614   5   9   1.7251   2.4477  10.1605  -0.5109   3.8993   1.2736   0.00    0.0
2018/03/11 12:13:03.000   78.256430298   16.214767277   426.8646   5   9   1.7250   2.4477  10.1613  -0.5112   3.8993   1.2728   0.00    0.0
2018/03/11 12:13:04.000   78.256425944   16.214768764   425.0013   5   9   1.7249   2.4476  10.1621  -0.5115   3.8993   1.2720   0.00    0.0
2018/03/11 12:13:05.000   78.256425171   16.214775253   425.7332   5   9   1.7249   2.4475  10.1628  -0.5119   3.8993   1.2712   0.00    0.0
2018/03/11 12:13:06.000   78.256422455   16.214773676   425.2230   5   9   1.7248   2.4475  10.1636  -0.5122   3.8992   1.2703   0.00    0.0
2018/03/11 12:13:07.000   78.256424103   16.214782741   425.4437   5   9   1.7247   2.4474  10.1643  -0.5125   3.8992   1.2695   0.00    0.0
2018/03/11 12:13:08.000   78.256424041   16.214790766   425.1834   5   9   1.7247   2.4473  10.1651  -0.5129   3.8992   1.2687   0.00    0.0
2018/03/11 12:13:09.000   78.256422955   16.214799466   425.7880   5   9   1.7246   2.4472  10.1658  -0.5132   3.8991   1.2679   0.00    0.0
2018/03/11 12:13:10.000   78.256423612   16.214787240   424.9965   5   9   1.7245   2.4472  10.1666  -0.5135   3.8991   1.2671   0.00    0.0
2018/03/11 12:13:11.000   78.256424838   16.214769241   423.3451   5   9   1.7245   2.4471  10.1673  -0.5139   3.8990   1.2662   0.00    0.0
2018/03/11 12:13:12.000   78.256425894   16.214769851   422.2477   5   9   1.7244   2.4470  10.1680  -0.5142   3.8990   1.2654   0.00    0.0
2018/03/11 12:13:13.000   78.256425828   16.214772845   422.8296   5   9   1.7243   2.4469  10.1687  -0.5145   3.8989   1.2646   0.00    0.0
2018/03/11 12:13:14.000   78.256429516   16.214779472   424.4488   5   9   1.7242   2.4469  10.1695  -0.5148   3.8989   1.2638   0.00    0.0
2018/03/11 12:13:15.000   78.256428344   16.214782731   426.1052   5   9   1.7242   2.4468  10.1702  -0.5152   3.8988   1.2629   0.00    0.0
2018/03/11 12:13:16.000   78.256426526   16.214766791   427.1474   5   9   1.7241   2.4467  10.1709  -0.5155   3.8988   1.2621   0.00    0.0
2018/03/11 12:13:17.000   78.256428709   16.214746406   424.9660   5   9   1.7240   2.4466  10.1716  -0.5158   3.8987   1.2613   0.00    0.0
2018/03/11 12:13:18.000   78.256425136   16.214739355   424.4375   5   9   1.7240   2.4466  10.1723  -0.5162   3.8987   1.2605   0.00    0.0
2018/03/11 12:13:19.000   78.256423898   16.214757927   426.4834   5   9   1.7239   2.4465  10.1730  -0.5165   3.8986   1.2596   0.00    0.0
2018/03/11 12:13:20.000   78.256424695   16.214773075   427.4604   5   9   1.7238   2.4464  10.1737  -0.5168   3.8986   1.2588   0.00    0.0
2018/03/11 12:13:21.000   78.256428449   16.214781216   425.9242   5   9   1.7238   2.4463  10.1744  -0.5171   3.8985   1.2580   0.00    0.0
2018/03/11 12:13:22.000   78.256425189   16.214757587   425.0113   5   9   1.7237   2.4463  10.1751  -0.5175   3.8985   1.2571   0.00    0.0
2018/03/11 12:13:23.000   78.256420290   16.214741058   426.2989   5   9   1.7236   2.4462  10.1758  -0.5178   3.8984   1.2563   0.00    0.0
2018/03/11 12:13:24.000   78.256426995   16.214750444   424.4203   5   9   1.7236   2.4461  10.1765  -0.5181   3.8983   1.2555   0.00    0.0
2018/03/11 12:13:25.000   78.256429125   16.214762981   424.8295   5   9   1.7235   2.4460  10.1771  -0.5185   3.8983   1.2546   0.00    0.0
2018/03/11 12:13:26.000   78.256430476   16.214798137   428.9955   5   9   1.7234   2.4459  10.1778  -0.5188   3.8982   1.2538   0.00    0.0
2018/03/11 12:13:27.000   78.256431405   16.214804990   427.7355   5   9   1.7234   2.4459  10.1785  -0.5191   3.8981   1.2530   0.00    0.0
2018/03/11 12:13:28.000   78.256426338   16.214774995   425.8235   5   9   1.7233   2.4458  10.1792  -0.5194   3.8981   1.2521   0.00    0.0
2018/03/11 12:13:29.000   78.256423875   16.214771494   425.1455   5   9   1.7232   2.4457  10.1798  -0.5198   3.8980   1.2513   0.00    0.0
2018/03/11 12:13:30.000   78.256425053   16.214776437   424.4636   5   9   1.7232   2.4456  10.1805  -0.5201   3.8979   1.2504   0.00    0.0
2018/03/11 12:13:31.000   78.256427328   16.214803062   424.1899   5   9   1.7231   2.4455  10.1811  -0.5204   3.8978   1.2496   0.00    0.0
2018/03/11 12:13:32.000   78.256422791   16.214784548   425.8972   5   9   1.7230   2.4454  10.1818  -0.5207   3.8978   1.2488   0.00    0.0
2018/03/11 12:13:33.000   78.256425169   16.214795943   427.0050   5   9   1.7229   2.4454  10.1824  -0.5211   3.8977   1.2479   0.00    0.0
2018/03/11 12:13:34.000   78.256427959   16.214776763   423.7616   5   9   1.7229   2.4453  10.1831  -0.5214   3.8976   1.2471   0.00    0.0
2018/03/11 12:13:35.000   78.256423647   16.214780359   423.3742   5   9   1.7228   2.4452  10.1837  -0.5217   3.8975   1.2462   0.00    0.0
2018/03/11 12:13:36.000   78.256421369   16.214779949   427.5192   5   9   1.7227   2.4451  10.1844  -0.5220   3.8974   1.2454   0.00    0.0
2018/03/11 12:13:37.000   78.256424544   16.214781596   426.0853   5   9   1.7227   2.4450  10.1850  -0.5224   3.8973   1.2446   0.00    0.0
2018/03/11 12:13:38.000   78.256426640   16.214782475   424.6632   5   9   1.7226   2.4449  10.1856  -0.5227   3.8972   1.2437   0.00    0.0
2018/03/11 12:13:39.000   78.256421745   16.214775708   425.8375   5   9   1.7225   2.4449  10.1862  -0.5230   3.8972   1.2429   0.00    0.0
2018/03/11 12:13:40.000   78.256420231   16.214742083   424.9034   5   9   1.7225   2.4448  10.1869  -0.5233   3.8971   1.2420   0.00    0.0
2018/03/11 12:13:41.000   78.256424566   16.214752165   423.5430   5   9   1.7224   2.4447  10.1875  -0.5237   3.8970   1.2412   0.00    0.0
2018/03/11 12:13:42.000   78.256426485   16.214747036   424.1342   5   9   1.7223   2.4446  10.1881  -0.5240   3.8969   1.2403   0.00    0.0
2018/03/11 12:13:43.000   78.256425416   16.214762006   426.9808   5   9   1.7223   2.4445  10.1887  -0.5243   3.8968   1.2395   0.00    0.0
2018/03/11 12:13:44.000   78.256428053   16.214768414   427.0086   5   9   1.7222   2.4444  10.1893  -0.5246   3.8967   1.2386   0.00    0.0
2018/03/11 12:13:45.000   78.256428658   16.214761406   424.8048   5   9   1.7221   2.4443  10.1899  -0.5250   3.8966   1.2378   0.00    0.0
2018/03/11 12:13:46.000   78.256424408   16.214757506   426.2448   5   9   1.7221   2.4442  10.1905  -0.5253   3.8965   1.2369   0.00    0.0
2018/03/11 12:13:47.000   78.256427517   16.214752034   424.2056   5   9   1.7220   2.4442  10.1911  -0.5256   3.8964   1.2361   0.00    0.0
2018/03/11 12:13:48.000   78.256429576   16.214786563   425.9614   5   9   1.7219   2.4441  10.1917  -0.5259   3.8963   1.2352   0.00    0.0
2018/03/11 12:13:49.000   78.256427197   16.214788194   426.4204   5   9   1.7219   2.4440  10.1923  -0.5263   3.8961   1.2344   0.00    0.0
2018/03/11 12:13:50.000   78.256427001   16.214786249   426.6413   5   9   1.7218   2.4439  10.1928  -0.5266   3.8960   1.2335   0.00    0.0
2018/03/11 12:13:51.000   78.256430397   16.214783104   425.2825   5   9   1.7217   2.4438  10.1934  -0.5269   3.8959   1.2326   0.00    0.0
2018/03/11 12:13:52.000   78.256430990   16.214764538   423.9491   5   9   1.7217   2.4437  10.1940  -0.5272   3.8958   1.2318   0.00    0.0
2018/03/11 12:13:53.000   78.256429354   16.214767864   426.2277   5   9   1.7216   2.4436  10.1945  -0.5276   3.8957   1.2309   0.00    0.0
2018/03/11 12:13:54.000   78.256426652   16.214795485   429.9516   5   9   1.7215   2.4435  10.1951  -0.5279   3.8956   1.2301   0.00    0.0
2018/03/11 12:13:55.000   78.256432223   16.214786412   425.1671   5   9   1.7215   2.4434  10.1957  -0.5282   3.8955   1.2292   0.00    0.0
2018/03/11 12:13:56.000   78.256429972   16.214777548   425.0496   5   9   1.7214   2.4433  10.1962  -0.5285   3.8953   1.2283   0.00    0.0
2018/03/11 12:13:57.000   78.256422920   16.214769509   429.4663   5   9   1.7213   2.4432  10.1968  -0.5289   3.8952   1.2275   0.00    0.0
2018/03/11 12:13:58.000   78.256427365   16.214773563   428.7296   5   9   1.7213   2.4432  10.1973  -0.5292   3.8951   1.2266   0.00    0.0
2018/03/11 12:13:59.000   78.256433122   16.214775437   424.8367   5   9   1.7212   2.4431  10.1979  -0.5295   3.8950   1.2258   0.00    0.0
2018/03/11 12:14:00.000   78.256427193   16.214760337   426.6255   5   9   1.7211   2.4430  10.1984  -0.5298   3.8948   1.2249   0.00    0.0
2018/03/11 12:14:01.000   78.256419749   16.214764724   427.9573   5   9   1.7211   2.4429  10.1989  -0.5301   3.8947   1.2240   0.00    0.0
