     2.11           OBSERVATION DATA    M (MIXED)           RINEX VERSION / TYPE
teqc  2018Mar15                         20180319 14:17:32UTCPGM / RUN BY / DATE
Linux 2.6.32-573.12.1.x86_64|x86_64|gcc -static|Linux 64|=+ COMMENT
END OF STATIC MODE OBSERVATION                              COMMENT
BIT 2 OF LLI FLAGS DATA COLLECTED UNDER A/S CONDITION       COMMENT
-Unknown-                                                   MARKER NAME
4625                                                        MARKER NUMBER
-Unknown-           -Unknown-                               OBSERVER / AGENCY
5127468778          TRIMBLE             4.63                REC # / TYPE / VERS
47477114                            NONE                    ANT # / TYPE
  2987588.5862        0.0000  5616259.1068                  APPROX POSITION XYZ
        0.0000        0.0000        0.0000                  ANTENNA: DELTA H/E/N
     1     1                                                WAVELENGTH FACT L1/2
     7    L1    L2    C1    P1    P2    S1    S2            # / TYPES OF OBSERV
    18                                                      LEAP SECONDS
 SNR is mapped to RINEX snr flag value [0-9]                COMMENT
  L1 & L2: min(max(int(snr_dBHz/6), 0), 9)                  COMMENT
  2018     3    11    11    29    1.0000000     GPS         TIME OF FIRST OBS
                                                            END OF HEADER
 18  3 11 11 29  1.0000000  0 17G11R21R04R13R14G20R22R03G24G28R05G30
                                R12G10G08G15G13
 124618981.714 7  97105847.51843  23714235.672                    23714238.238
        42.700          23.200
                  85626518.815 7  20573181.883                    20573182.309
                        42.600
                  82491347.301 7  19806016.500                    19806016.898
                        43.300
                  80998002.868 6  19502131.672                    19502132.473
                        41.000
                  93336207.201 6  22512387.859                    22512390.543
                        41.200
 123828308.036 7  96489645.49343  23563754.211                    23563755.746
        44.500          19.000
                  90634774.572 7  21830077.016                    21830078.566
                        42.600
                  91305550.209 7  21929973.063                    21929974.215
                        42.300
 124493151.963 7  97007688.26445  23690261.242                    23690267.996
        43.200          30.000
 112387058.613 8  87574376.94445  21386555.398                    21386557.910
        48.200          35.200
                  90895496.146 5  21862136.945                    21862139.137
                        34.100
 122872081.999 7  95744497.46945  23381781.094                    23381786.566
        45.400          31.900
                                  21006944.352

 120483907.072 7  93883597.68145  22927325.781                    22927331.555
        43.000          32.400
 119584103.754 7  93182437.12345  22756098.500                    22756104.957
        45.600          33.400
 111741622.816 8  87071409.06546  21263725.008                    21263727.324
        52.100          38.100
 113440745.449 8  88395395.25546  21587056.883                    21587059.117
        49.700          36.200
 18  3 11 11 29  2.0000000  0 17G11R21R04R13R14G20R22R03G24G28R05G30
                                R12G10G08G15G13
 124616440.505 7  97103867.36043  23713751.992                    23713754.184
        42.600          22.800
                  85627294.839 7  20573367.359                    20573368.914
                        42.600
                  82491807.333 7  19806127.531                    19806127.793
                        43.300
                  80997222.863 6  19501944.211                    19501945.133
                        40.900
                  93333132.761 6  22511646.430                    22511649.438
                        40.700
 123831944.230 7  96492478.98543  23564445.969                    23564447.242
        44.800          19.900
                  90632272.955 7  21829474.141                    21829475.828
                        42.600
                  91308979.909 7  21930797.086                    21930798.594
                        42.800
 124489821.928 7  97005093.43844  23689627.602                    23689633.934
        42.900          29.900
 112387289.995 8  87574557.23845  21386599.125                    21386601.918
        48.500          35.500
                  90892982.012 5  21861531.977                    21861534.770
                        34.200
 122875888.063 7  95747463.23445  23382504.844                    23382510.492
        45.800          31.700
                                  21007653.469

 120482004.923 7  93882115.49145  22926963.992                    22926969.684
        43.700          32.900
 119586335.010 7  93184175.77045  22756523.563                    22756529.309
        45.800          33.500
 111742631.540 8  87072195.08446  21263916.438                    21263919.723
        52.100          37.900
 113443374.458 8  88397443.84946  21587556.250                    21587559.438
        49.400          36.300
 18  3 11 11 29  3.0000000  0 17G11R21R04R13R14G20R22R03G24G28R05G30
                                R12G10G08G15G13
 124613899.800 7  97101887.61644  23713268.422                    23713270.645
        43.300          24.600
                  85628071.651 7  20573554.055                    20573555.270
                        42.300
                  82492268.105 7  19806237.898                    19806238.121
                        43.500
                  80996443.518 6  19501756.016                    19501756.785
                        41.300
                  93330058.513 6  22510904.250                    22510907.168
                        39.800
 123835580.783 7  96495312.71243  23565137.938                    23565139.176
        44.700          21.800
                  90629771.832 7  21828870.922                    21828874.211
                        42.400
                  91312409.963 7  21931620.867                    21931622.438
                        42.900
 124486492.164 7  97002498.81944  23688993.852                    23689000.449
        43.000          29.900
 112387522.019 8  87574738.03345  21386644.078                    21386646.027
        48.400          35.800
                  90890468.296 5  21860927.859                    21860930.113
                        33.800
 122879694.399 7  95750429.22345  23383228.969                    23383235.293
        45.500          30.800
                                  21008364.305

 120480103.356 7  93880633.76345  22926602.117                    22926608.004
        43.600          33.600
 119588566.872 7  93185914.89545  22756947.484                    22756953.934
        46.000          33.400
 111743640.986 8  87072981.66246  21264108.797                    21264111.594
        52.600          38.300
 113446004.078 8  88399492.91446  21588056.141                    21588060.000
        49.100          36.000
 18  3 11 11 29  4.0000000  0 17G11R21R04R13R14G20R22R03G24G28R05G30
                                R12G10G08G15G13
 124611359.548 7  97099908.21244  23712785.867                    23712787.352
        44.000          24.400
                  85628849.180 7  20573741.063                    20573741.785
                        42.600
                  82492729.604 7  19806348.414                    19806349.051
                        43.100
                  80995664.780 6  19501568.180                    19501569.723
                        41.000
                  93326984.445 6  22510162.281                    22510163.746
                        38.900
 123839217.655 7  96498146.64944  23565829.734                    23565830.980
        44.700          24.200
                  90627271.161 7  21828270.086                    21828270.930
                        42.100
                  91315840.335 7  21932445.117                    21932446.125
                        43.200
 124483162.625 7  96999904.37744  23688360.563                    23688366.910
        43.400          29.100
 112387754.600 8  87574919.27145  21386688.086                    21386690.090
        48.200          35.200
                  90887954.989 5  21860323.602                    21860324.898
                        34.200
 122883501.071 7  95753395.47045  23383951.492                    23383959.273
        42.600          30.700
                                  21009071.758

 120478202.299 7  93879152.42845  22926240.266                    22926247.027
        43.700          33.600
 119590799.310 7  93187654.46545  22757371.813                    22757378.684
        46.200          33.300
 111744651.089 8  87073768.75446  21264301.039                    21264304.145
        52.900          38.400
 113448634.257 8  88401542.40146  21588556.641                    21588560.313
        48.800          36.100
 18  3 11 11 29  5.0000000  0 17G11R21R04R13R14G20R22R03G24G28R05G30
                                R12G10G08G15G13
 124608819.826 7  97097929.20644  23712303.305                    23712303.961
        45.100          24.000
                  85629627.497 7  20573927.984                    20573929.227
                        42.400
                  82493191.865 7  19806460.086                    19806460.332
                        43.000
                  80994886.741 6  19501380.469                    19501381.449
                        41.100
                  93323910.631 6  22509419.391                    22509422.543
                        38.300
 123842854.912 7  96500980.86844  23566521.656                    23566523.359
        43.900          24.700
                  90624771.004 7  21827668.844                    21827668.574
                        42.400
                  91319271.088 7  21933268.734                    21933269.984
                        43.000
 124479833.357 7  96997310.13944  23687726.586                    23687732.977
        43.100          29.000
 112387987.837 8  87575101.01245  21386732.023                    21386734.516
        48.000          35.400
                  90885442.130 5  21859718.523                    21859720.910
                        33.200
 122887308.041 7  95756361.92145  23384677.594                    23384683.570
        44.100          31.200
                                  21009781.828

 120476301.842 7  93877671.55445  22925878.711                    22925885.246
        43.600          33.600
 119593032.416 7  93189394.56645  22757796.820                    22757802.883
        46.000          33.700
 111745661.928 8  87074556.42646  21264493.383                    21264496.039
        52.500          38.700
 113451265.021 8  88403592.34246  21589057.875                    21589060.828
        49.100          36.100
 18  3 11 11 29  6.0000000  0 17G11R21R04R13R14G20R22R03G24G28R05G30
                                R12G10G08G15G13
 124606280.633 7  97095950.59543  23711819.266                    23711820.629
        44.900          23.800
                  85630406.604 7  20574115.797                    20574116.031
                        42.300
                  82493654.899 7  19806570.648                    19806570.746
                        43.300
                  80994109.366 6  19501194.133                    19501195.332
                        41.100
                  93320837.051 6  22508677.758                    22508680.246
                        38.200
 123846492.533 7  96503815.36544  23567213.336                    23567216.098
        43.600          26.900
                  90622271.316 7  21827066.148                    21827067.277
                        42.300
                  91322702.197 7  21934093.383                    21934094.297
                        42.600
 124476504.369 7  96994716.12144  23687093.234                    23687099.242
        42.900          28.800
 112388221.700 8  87575283.24345  21386776.586                    21386779.098
        48.200          35.700
                  90882929.711 5  21859114.164                    21859115.953
                        31.900
 122891115.305 7  95759328.60045  23385402.773                    23385407.824
        45.300          31.000
                                  21010490.867

 120474401.961 7  93876191.13045  22925517.328                    22925524.047
        44.200          34.300
 119595266.160 7  93191135.15645  22758221.797                    22758228.086
        46.500          33.700
 111746673.505 8  87075344.67346  21264685.656                    21264688.664
        52.600          38.300
 113453896.415 8  88405642.77046  21589558.570                    21589561.313
        49.300          36.500
 18  3 11 11 29  7.0000000  0 17G11R21R04R13R14G20R22R03G24G28R05G30
                                R12G10G08G15G13
 124603741.883 7  97093972.31844  23711336.273                    23711337.816
        44.600          25.100
                  85631186.427 7  20574302.984                    20574303.926
                        42.100
                  82494118.669 7  19806682.070                    19806682.246
                        43.400
                  80993332.645 6  19501007.172                    19501007.820
                        40.900
                  93317763.677 6  22507936.914                    22507938.934
                        37.800
 123850130.493 7  96506650.12444  23567905.117                    23567908.457
        42.700          25.600
                  90619772.064 7  21826462.422                    21826465.129
                        42.100
                  91326133.607 7  21934917.273                    21934918.105
                        42.600
 124473175.652 7  96992122.30444  23686460.031                    23686465.672
        43.200          28.600
 112388456.158 7  87575465.93645  21386821.359                    21386823.895
        47.800          34.900
                  90880417.694 5  21858510.953                    21858512.629
                        32.800
 122894922.803 7  95762295.47945  23386127.297                    23386132.953
        45.800          31.300
                                  21011201.570

 120472502.650 7  93874711.14945  22925156.328                    22925163.039
        44.400          34.800
 119597500.473 7  93192876.18545  22758646.789                    22758653.039
        46.700          33.400
 111747685.768 8  87076133.45646  21264878.266                    21264881.090
        52.300          38.500
 113456528.351 8  88407693.62846  21590059.477                    21590062.602
        48.700          36.300
 18  3 11 11 29  8.0000000  0 17G11R21R04R13R14G20R22R03G24G28R05G30
                                R12G10G08G15G13
 124601203.568 7  97091994.38544  23710853.172                    23710854.594
        44.200          24.700
                  85631966.965 7  20574490.469                    20574491.281
                        42.000
                  82494583.096 7  19806793.172                    19806793.742
                        43.100
                  80992556.519 6  19500820.648                    19500821.047
                        41.100
                  93314690.474 6  22507196.008                    22507198.352
                        38.900
 123853768.745 7  96509485.09544  23568596.945                    23568600.949
        42.000          26.000
                  90617273.235 7  21825860.086                    21825863.395
                        42.100
                  91329565.336 7  21935740.633                    21935742.520
                        42.300
 124469847.093 7  96989528.61044  23685827.023                    23685832.121
        42.900          28.600
 112388691.169 7  87575649.06245  21386866.102                    21386868.543
        47.700          34.800
                  90877906.050 5  21857907.055                    21857907.969
                        32.400
 122898730.589 7  95765262.59045  23386850.352                    23386857.836
        44.700          31.200
                                  21011911.313

 120470603.845 7  93873231.56845  22924794.508                    22924802.008
        44.900          34.900
 119599735.335 7  93194617.64945  22759072.266                    22759078.617
        46.700          33.100
 111748698.686 8  87076922.73846  21265070.773                    21265074.227
        51.900          38.400
 113459160.816 8  88409744.89746  21590560.164                    21590563.461
        49.000          36.500
 18  3 11 11 29  9.0000000  0 17G11R21R04R13R14G20R22R03G24G28R05G30
                                R12G10G08G15G13
 124598665.776 7  97090016.89244  23710370.078                    23710372.117
        43.700          25.800
                  85632748.323 7  20574677.211                    20574679.051
                        42.100
                  82495048.297 7  19806905.219                    19806905.430
                        43.100
                  80991781.058 6  19500633.586                    19500634.359
                        40.800
                  93311617.534 6  22506456.180                    22506457.148
                        39.300
 123857407.417 6  96512320.40044  23569288.313                    23569293.480
        40.900          26.500
                  90614774.965 7  21825260.922                    21825261.785
                        42.200
                  91332997.412 7  21936565.047                    21936567.285
                        42.100
 124466518.831 7  96986935.15144  23685193.203                    23685198.621
        42.400          29.000
 112388926.858 8  87575832.71545  21386910.828                    21386913.195
        48.000          35.700
                  90875394.866 5  21857302.719                    21857303.582
                        32.200
 122902538.690 7  95768229.94545  23387575.695                    23387582.152
        45.200          30.600
                                  21012620.531

 120468705.633 7  93871752.44545  22924433.469                    22924440.848
        45.000          35.200
 119601970.854 7  93196359.61845  22759497.063                    22759504.023
        46.200          33.500
 111749712.356 8  87077712.61646  21265263.531                    21265266.906
        51.300          38.300
 113461793.938 8  88411796.68046  21591061.531                    21591064.418
        49.100          36.200
 18  3 11 11 29 10.0000000  0 17G11R21R04R13R14G20R22R03G24G28R05G30
                                R12G10G08G15G13
 124596128.486 7  97088039.78144  23709887.117                    23709888.773
        43.300          24.500
                  85633530.433 7  20574866.094                    20574867.027
                        42.200
                  82495514.214 7  19807016.852                    19807017.285
                        43.200
                  80991006.259 6  19500446.578                    19500448.117
                        40.800
                  93308544.830 6  22505715.867                    22505717.219
                        40.200
 123861046.450 6  96515155.98244  23569980.789                    23569986.332
        40.100          25.900
                  90612277.148 7  21824658.758                    21824660.383
                        42.100
                  91336429.826 7  21937389.336                    21937390.855
                        42.100
 124463190.845 7  96984341.92344  23684559.914                    23684565.285
        42.500          29.600
 112389163.143 7  87576016.83145  21386955.516                    21386958.563
        47.800          35.500
                  90872884.103 5  21856698.258                    21856699.066
                        31.900
 122906347.095 7  95771197.53745  23388299.992                    23388306.961
        44.600          31.800
                                  21013331.242

 120466808.000 7  93870273.77345  22924072.797                    22924079.891
        45.300          34.900
 119604206.995 7  93198102.07145  22759922.523                    22759929.539
        45.600          32.800
 111750726.727 8  87078503.03046  21265456.617                    21265460.098
        51.200          38.500
 113464427.610 8  88413848.88846  21591563.484                    21591565.324
        49.600          36.100
 18  3 11 11 29 11.0000000  0 17G11R21R04R13R14G20R22R03G24G28R05G30
                                R12G10G08G15G13
 124593591.707 7  97086063.07444  23709404.172                    23709406.332
        43.000          25.400
                  85634313.280 7  20575053.305                    20575055.023
                        42.100
                  82495980.891 7  19807129.000                    19807129.441
                        43.100
                  80990232.139 6  19500260.984                    19500261.832
                        40.600
                  93305472.353 6  22504975.250                    22504976.621
                        40.900
 123864685.814 6  96517991.82044  23570673.406                    23570679.066
        39.800          24.500
                  90609779.793 7  21824056.297                    21824058.695
                        42.100
                  91339862.612 7  21938213.906                    21938215.676
                        42.300
 124459863.119 7  96981748.89244  23683926.734                    23683932.098
        42.300          29.800
 112389400.060 7  87576201.43945  21387000.688                    21387003.516
        47.700          35.800
                  90870373.760 5  21856092.891                    21856095.578
                        31.800
 122910155.829 7  95774165.38145  23389025.563                    23389031.609
        44.700          31.400
                                  21014041.484

 120464910.934 7  93868795.54545  22923711.742                    22923718.883
        45.800          35.200
 119606443.770 7  93199845.01445  22760348.461                    22760355.020
        45.200          32.500
 111751741.813 8  87079294.00446  21265650.281                    21265653.438
        51.900          38.100
 113467061.872 8  88415901.55846  21592064.602                    21592066.695
        50.100          36.300
 18  3 11 11 29 12.0000000  0 17G11R21R04R13R14G20R22R03G24G28R05G30
                                R12G10G08G15G13
 124591055.424 7  97084086.76244  23708921.688                    23708923.695
        42.600          24.700
                  85635096.873 7  20575241.742                    20575242.832
                        42.300
                  82496448.298 7  19807241.328                    19807242.160
                        43.000
                  80989458.659 6  19500074.172                    19500074.609
                        40.600
                  93302400.104 6  22504234.695                    22504236.188
                        41.600
 123868325.563 6  96520827.94644  23571366.500                    23571371.824
        39.900          25.900
                  90607282.923 7  21823455.422                    21823457.746
                        42.200
                  91343295.729 7  21939038.094                    21939039.703
                        42.500
 124456535.662 7  96979156.07045  23683293.398                    23683299.445
        42.700          30.000
 112389637.582 7  87576386.52445  21387045.938                    21387048.289
        47.500          35.300
                  90867863.876 5  21855489.742                    21855491.629
                        33.100
 122913964.804 7  95777133.40445  23389750.953                    23389756.730
        45.400          31.200
                                  21014751.758

 120463014.443 7  93867317.76345  22923350.938                    22923357.746
        45.500          34.600
 119608681.162 7  93201588.43845  22760773.844                    22760780.879
        45.200          32.700
 111752757.630 8  87080085.54446  21265843.461                    21265846.031
        51.900          38.100
 113469696.697 8  88417954.68146  21592565.570                    21592568.336
        50.000          36.300
 18  3 11 11 29 13.0000000  0 17G11R21R04R13R14G20R22R03G24G28R05G30
                                R12G10G08G15G13
 124588519.482 7  97082110.70244  23708438.922                    23708441.492
        42.200          24.500
                  85635881.196 6  20575429.828                    20575431.754
                        41.900
                  82496916.383 7  19807353.641                    19807354.070
                        42.500
                  80988685.776 6  19499887.969                    19499889.676
                        40.000
                  93299328.003 6  22503493.398                    22503495.594
                        41.400
 123871965.535 6  96523664.26244  23572059.266                    23572064.355
        40.700          25.100
                  90604786.409 7  21822851.953                    21822856.027
                        42.300
                  91346729.141 6  21939863.430                    21939865.477
                        41.900
 124453208.388 7  96976563.39644  23682660.641                    23682666.043
        42.700          29.800
 112389875.632 7  87576572.01945  21387091.492                    21387094.055
        47.800          35.200
                  90865354.360 5  21854886.852                    21854888.070
                        32.500
 122917773.981 7  95780101.59145  23390475.922                    23390481.566
        45.400          30.100
                                  21015461.375

 120461118.412 7  93865840.33845  22922990.023                    22922996.887
        45.500          34.900
 119610919.051 7  93203332.25545  22761199.758                    22761206.426
        44.700          32.600
 111753774.050 8  87080877.56146  21266037.000                    21266039.898
        52.200          37.500
 113472332.046 8  88420008.20745  21593066.391                    21593069.551
        49.500          35.800
 18  3 11 11 29 14.0000000  0 17G11R21R04R13R14G20R22R03G24G28R05G30
                                R12G10G08G15G13
 124585984.007 7  97080135.01244  23707956.867                    23707959.324
        42.300          25.200
                  85636666.264 6  20575619.375                    20575620.254
                        41.900
                  82497385.190 7  19807466.180                    19807466.863
                        42.500
                  80987913.511 6  19499701.961                    19499703.215
                        40.400
                  93296256.084 6  22502752.969                    22502755.375
                        41.800
 123875605.820 6  96526500.81544  23572752.914                    23572757.262
        41.600          25.300
                  90602290.404 7  21822253.141                    21822254.160
                        42.400
                  91350162.879 6  21940688.109                    21940689.602
                        41.800
 124449881.340 7  96973970.89544  23682027.508                    23682033.285
        43.000          29.800
 112390114.277 7  87576757.97545  21387136.672                    21387139.215
        47.900          34.900
                  90862845.256 5  21854283.469                    21854285.574
                        33.700
 122921583.447 7  95783070.01745  23391199.914                    23391206.195
        44.800          30.700
                                  21016172.609

 120459222.928 7  93864363.33845  22922629.367                    22922636.180
        45.100          34.100
 119613157.563 7  93205076.55145  22761626.219                    22761632.391
        44.600          31.500
 111754791.147 8  87081670.10546  21266230.633                    21266233.770
        52.300          37.400
 113474967.938 8  88422062.15645  21593567.695                    21593571.313
        49.300          35.300
 18  3 11 11 29 15.0000000  0 17G11R21R04R13R14G20R22R03G24G28R05G30
                                R12G10G08G15G13
 124583449.116 7  97078159.79444  23707474.445                    23707477.020
        43.200          24.700
                  85637452.151 6  20575808.297                    20575809.559
                        41.700
                  82497854.795 7  19807579.125                    19807579.855
                        42.400
                  80987141.984 6  19499516.680                    19499517.254
                        40.200
                  93293184.461 7  22502011.320                    22502014.887
                        42.100
 123879246.530 7  96529337.70444  23573446.375                    23573450.582
        42.500          25.400
                  90599794.950 7  21821652.430                    21821653.328
                        42.400
                  91353597.010 7  21941513.344                    21941515.125
                        42.100
 124446554.628 7  96971378.65744  23681393.922                    23681400.000
        42.800          29.600
 112390353.595 8  87576944.46145  21387182.008                    21387184.434
        48.200          35.000
                  90860336.660 5  21853680.414                    21853682.277
                        33.900
 122925393.271 7  95786038.71445  23391924.867                    23391931.227
        45.100          31.200
                                  21016881.055

 120457328.074 7  93862886.82745  22922269.180                    22922275.477
        45.200          33.100
 119615396.765 7  93206821.39145  22762052.086                    22762058.313
        43.900          31.600
 111755809.036 8  87082463.27046  21266424.117                    21266427.148
        52.200          37.500
 113477604.517 8  88424116.62945  21594070.180                    21594073.051
        49.000          35.200
 18  3 11 11 29 16.0000000  0 17G11R21R04R13R14G20R22R03G24G28R05G30
                                R12G10G08G15G13
 124580914.681 7  97076184.91544  23706992.867                    23706994.270
        44.400          24.500
                  85638238.732 6  20575996.883                    20575998.246
                        41.700
                  82498325.093 7  19807691.586                    19807691.855
                        42.200
                  80986371.068 6  19499331.375                    19499331.594
                        40.400
                  93290113.041 7  22501270.188                    22501273.484
                        42.300
 123882887.574 7  96532174.86144  23574139.273                    23574143.457
        42.800          24.400
                  90597299.927 6  21821051.109                    21821052.055
                        41.900
                  91357031.458 6  21942337.281                    21942339.117
                        41.900
 124443228.121 7  96968786.58044  23680761.086                    23680766.938
        43.300          28.700
 112390593.500 8  87577131.40045  21387227.711                    21387230.301
        48.600          34.700
                  90857828.473 5  21853077.594                    21853079.633
                        34.500
 122929203.365 7  95789007.63245  23392648.859                    23392656.434
        43.800          30.000
                                  21017593.453

 120455433.752 7  93861410.72945  22921908.633                    22921914.820
        44.900          32.300
 119617636.523 7  93208566.65045  22762477.914                    22762484.641
        43.400          30.500
 111756827.587 8  87083256.94746  21266617.938                    21266620.633
        51.900          37.700
 113480241.595 8  88426171.48945  21594572.008                    21594574.750
        49.100          35.000
 18  3 11 11 29 17.0000000  0 17G11R21R04R13R14G20R22R03G24G28R05G30
                                R12G10G08G15G13
 124578380.845 7  97074210.50343  23706510.586                    23706512.727
        44.700          23.400
                  85639026.154 6  20576186.773                    20576187.852
                        41.900
                  82498796.241 7  19807804.969                    19807805.430
                        42.600
                  80985600.903 6  19499146.055                    19499145.789
                        40.500
                  93287041.917 7  22500528.914                    22500532.926
                        42.000
 123886529.008 7  96535012.34444  23574832.375                    23574836.176
        42.600          24.000
                  90594805.448 6  21820450.672                    21820451.828
                        41.300
                  91360466.305 6  21943162.813                    21943164.770
                        41.800
 124439901.990 7  96966194.79444  23680128.359                    23680134.184
        43.200          28.100
 112390834.091 8  87577318.86845  21387273.703                    21387275.844
        48.100          34.500
                  90855320.791 5  21852474.617                    21852476.926
                        34.600
 122933013.848 7  95791976.83244  23393374.156                    23393381.336
        43.500          29.900
                                  21018302.742

 120453540.087 7  93859935.14245  22921547.547                    22921553.930
        44.100          31.400
 119619877.030 7  93210312.49145  22762904.563                    22762910.953
        42.600          32.100
 111757846.920 8  87084051.23646  21266812.266                    21266815.090
        51.800          37.400
 113482879.351 8  88428226.87945  21595074.133                    21595077.223
        48.900          35.200
 18  3 11 11 29 18.0000000  0 17G11R21R04R13R14G20R22R03G24G28R05G30
                                R12G10G08G15G13
 124575847.500 7  97072236.46644  23706028.828                    23706030.906
        45.200          24.700
                  85639814.352 6  20576375.203                    20576377.180
                        41.800
                  82499268.131 7  19807918.359                    19807918.184
                        42.400
                  80984831.360 6  19498960.430                    19498961.137
                        40.500
                  93283971.003 6  22499787.484                    22499791.887
                        41.400
 123890170.771 7  96537850.08243  23575525.539                    23575529.246
        43.000          22.800
                  90592311.380 6  21819848.078                    21819851.102
                        41.900
                  91363901.477 7  21943987.516                    21943990.129
                        42.100
 124436576.108 7  96963603.20544  23679495.109                    23679501.332
        42.700          28.200
 112391075.300 7  87577506.81545  21387319.664                    21387322.098
        47.800          34.900
                  90852813.557 5  21851871.445                    21851874.070
                        34.600
 122936824.587 7  95794946.21545  23394100.469                    23394106.273
        45.200          30.200
                                  21019013.867

 120451646.955 7  93858459.97345  22921187.406                    22921193.566
        43.200          31.300
 119622118.099 6  93212058.76745  22763331.375                    22763337.398
        41.800          32.100
 111758866.961 8  87084846.07046  21267005.703                    21267008.574
        51.900          37.500
 113485517.680 8  88430282.72245  21595575.602                    21595578.789
        48.500          35.700
 18  3 11 11 29 19.0000000  0 17G11R21R04R13R14G20R22R03G24G28R05G30
                                R12G10G08G15G13
 124573314.632 7  97070262.77244  23705546.289                    23705548.910
        44.600          25.100
                  85640603.286 6  20576565.188                    20576566.953
                        41.900
                  82499740.762 7  19808032.078                    19808032.320
                        42.300
                  80984062.482 6  19498775.180                    19498775.996
                        40.700
                  93280900.299 6  22499045.523                    22499050.141
                        41.000
 123893812.911 7  96540688.12643  23576218.461                    23576222.773
        43.000          22.200
                  90589817.861 6  21819248.414                    21819250.004
                        41.800
                  91367336.992 7  21944812.352                    21944814.793
                        42.000
 124433250.488 7  96961011.81044  23678862.477                    23678868.215
        42.700          27.900
 112391317.121 8  87577695.24445  21387365.555                    21387368.082
        48.200          34.500
                  90850306.728 5  21851269.781                    21851270.961
                        34.300
 122940635.617 7  95797915.82845  23394826.188                    23394831.445
        46.500          31.500
                                  21019725.492

 120449754.416 7  93856985.27045  22920826.742                    22920833.004
        42.900          30.700
 119624359.803 7  93213805.52945  22763758.383                    22763764.090
        42.700          32.400
 111759887.724 8  87085641.47646  21267199.844                    21267202.922
        51.400          37.300
 113488156.626 8  88432339.03445  21596077.945                    21596081.230
        48.500          35.400
 18  3 11 11 29 20.0000000  0 17G11R21R04R13R14G20R22R03G24G28R05G30
                                R12G10G08G15G13
 124570782.274 7  97068289.49144  23705063.656                    23705066.930
        43.100          24.600
                  85641393.004 7  20576754.711                    20576756.426
                        42.000
                  82500214.158 7  19808145.555                    19808145.789
                        42.100
                  80983294.264 6  19498590.492                    19498590.863
                        40.200
                  93277829.853 6  22498304.258                    22498309.863
                        40.400
 123897455.424 7  96543526.46043  23576911.148                    23576915.695
        42.800          20.600
                  90587324.838 6  21818647.914                    21818649.824
                        41.600
                  91370772.861 6  21945637.992                    21945639.984
                        41.600
 124429925.173 7  96958420.64844  23678229.555                    23678235.434
        42.600          28.000
 112391559.590 8  87577884.18245  21387411.789                    21387414.078
        48.100          34.300
                  90847800.385 5  21850665.742                    21850668.461
                        34.200
 122944446.931 7  95800885.69944  23395551.406                    23395557.465
        46.300          28.800
                                  21020435.773

 120447862.451 7  93855511.01744  22920466.211                    22920472.578
        42.500          29.600
 119626602.127 7  93215552.78045  22764185.797                    22764190.727
        43.600          32.400
 111760909.211 8  87086437.43546  21267394.695                    21267397.578
        51.700          37.100
 113490796.162 8  88434395.81045  21596581.086                    21596583.102
        49.200          35.700
 18  3 11 11 29 21.0000000  0 17G11R21R04R13R14G20R22R03G24G28R05G30
                                R12G10G08G15G13
 124568250.383 7  97066316.59144  23704581.617                    23704585.215
        42.000          24.700
                  85642183.466 6  20576944.406                    20576945.859
                        41.900
                  82500688.241 7  19808258.906                    19808259.762
                        42.400
                  80982526.700 6  19498405.086                    19498406.355
                        40.400
                  93274759.563 6  22497563.930                    22497569.137
                        39.100
 123901098.298 6  96546365.10143  23577604.313                    23577608.516
        41.800          18.600
                  90584832.273 6  21818049.305                    21818048.945
                        41.500
                  91374209.030 6  21946462.711                    21946465.637
                        41.800
 124426600.070 6  96955829.65244  23677596.297                    23677602.254
        41.900          27.400
 112391802.632 8  87578073.56545  21387457.961                    21387460.566
        48.200          34.700
                  90845294.419 5  21850063.289                    21850065.871
                        33.700
 122948258.583 7  95803855.83944  23396275.102                    23396282.355
        44.300          29.500
                                  21021147.039

 120445971.019 6  93854037.17544  22920106.172                    22920112.695
        41.800          29.600
 119628845.030 7  93217300.48845  22764612.859                    22764617.469
        44.500          32.600
 111761931.382 8  87087233.93646  21267588.938                    21267592.094
        51.700          37.300
 113493436.240 8  88436453.01545  21597083.602                    21597086.063
        49.600          35.900
 18  3 11 11 29 22.0000000  0 17G11R21R04R13R14G20R22R03G24G28R05G30
                                R12G10G08G15G13
 124565718.920 6  97064344.02644  23704099.844                    23704103.379
        41.700          24.100
                  85642974.666 7  20577134.367                    20577136.141
                        42.300
                  82501163.024 7  19808373.688                    19808373.559
                        42.100
                  80981759.765 6  19498220.656                    19498221.926
                        40.400
                  93271689.521 6  22496824.008                    22496827.309
                        38.200
 123904741.433 6  96549203.97543  23578297.172                    23578301.922
        41.500          18.300
                  90582340.149 6  21817448.375                    21817449.340
                        41.600
                  91377645.556 6  21947288.680                    21947290.941
                        41.800
 124423275.235 6  96953238.87144  23676964.117                    23676969.527
        41.700          28.400
 112392046.271 8  87578263.41145  21387504.367                    21387506.707
        48.200          34.900
                  90842788.846 5  21849460.188                    21849462.848
                        33.600
 122952070.481 7  95806826.15745  23397001.148                    23397007.645
        44.900          30.200
                                  21021858.906

 120444080.119 6  93852563.74244  22919746.500                    22919752.504
        41.800          29.500
 119631088.530 7  93219048.66945  22765039.867                    22765045.152
        44.900          32.400
 111762954.262 8  87088030.98046  21267783.750                    21267786.641
        51.600          37.800
 113496076.881 8  88438510.66246  21597586.078                    21597588.531
        50.100          36.000
 18  3 11 11 29 23.0000000  0 17G11R21R04R13R14G20R22R03G24G28R05G30
                                R12G10G08G15G13
 124563187.989 7  97062371.89444  23703618.469                    23703621.863
        42.600          24.000
                  85643766.647 7  20577324.852                    20577326.227
                        42.200
                  82501638.538 6  19808487.734                    19808487.969
                        41.900
                  80980993.503 6  19498034.977                    19498037.164
                        40.300
                  93268619.669 6  22496085.250                    22496086.230
                        37.700
 123908384.959 6  96552043.15142  23578990.523                    23578994.516
        41.100          17.400
                  90579848.458 6  21816845.594                    21816848.938
                        41.800
                  91381082.413 6  21948114.930                    21948116.465
                        41.800
 124419950.673 7  96950648.30344  23676331.875                    23676337.043
        42.300          28.500
 112392290.557 8  87578453.76445  21387550.984                    21387553.367
        48.200          34.800
                  90840283.706 5  21848857.734                    21848859.918
                        33.100
 122955882.695 7  95809796.69444  23397726.672                    23397732.918
        44.900          29.900
                                  21022570.148

 120442189.798 6  93851090.76644  22919386.180                    22919392.371
        40.500          28.900
 119633332.655 7  93220797.34445  22765466.969                    22765471.828
        45.300          32.600
 111763977.827 8  87088828.55746  21267978.805                    21267981.512
        51.900          37.900
 113498718.109 8  88440568.77145  21598088.250                    21598091.602
        49.900          35.600
 18  3 11 11 29 24.0000000  0 17G11R21R04R13R14G20R22R03G24G28R05G30
                                R12G10G08G15G13
 124560657.547 7  97060400.14544  23703137.508                    23703140.484
        43.300          24.300
                  85644559.382 7  20577515.320                    20577516.727
                        42.400
                  82502114.796 6  19808601.664                    19808601.418
                        41.900
                  80980227.899 6  19497852.102                    19497852.887
                        40.500
                  93265550.045 6  22495345.266                    22495345.168
                        37.400
 123912028.860 6  96554882.62242  23579682.250                    23579687.453
        40.500          17.800
                  90577357.295 6  21816246.852                    21816249.070
                        41.500
                  91384519.632 7  21948940.320                    21948941.727
                        42.100
 124416626.356 7  96948057.92944  23675698.734                    23675704.305
        42.200          28.100
 112392535.423 8  87578644.56945  21387597.742                    21387599.953
        48.500          34.900
                  90837778.999 5  21848254.289                    21848257.445
                        32.200
 122959695.149 7  95812767.41545  23398453.711                    23398458.551
        47.000          30.200
                                  21023280.945

 120440300.025 6  93849618.21144  22919026.664                    22919032.594
        40.400          29.900
 119635577.369 7  93222546.47045  22765893.375                    22765899.039
        46.100          32.600
 111765002.115 8  87089626.70446  21268173.984                    21268176.316
        52.300          37.300
 113501359.931 8  88442627.34045  21598590.719                    21598594.188
        49.400          35.700
 18  3 11 11 29 25.0000000  0 17G11R21R04R13R14G20R22R03G24G28R05G30
                                R12G10G08G15G13
 124558127.630 7  97058428.78244  23702656.414                    23702659.172
        43.900          25.900
                  85645352.861 7  20577705.844                    20577707.492
                        42.100
                  82502591.799 7  19808716.609                    19808716.648
                        42.300
                  80979462.922 6  19497667.672                    19497668.359
                        40.100
                  93262480.627 6  22494605.383                    22494604.719
                        38.100
 123915673.137 6  96557722.35143  23580376.508                    23580380.879
        39.900          18.600
                  90574866.576 6  21815646.445                    21815648.699
                        41.800
                  91387957.187 7  21949765.828                    21949767.164
                        42.100
 124413302.285 7  96945467.74444  23675066.492                    23675071.676
        43.000          29.200
 112392780.895 8  87578835.83945  21387644.297                    21387646.547
        49.000          35.100
                  90835274.694 5  21847652.555                    21847654.625
                        30.400
 122963507.900 7  95815738.39645  23399178.953                    23399184.438
        46.900          31.000
                                  21023991.867

 120438410.812 6  93848146.10344  22918667.211                    22918673.254
        40.100          28.500
 119637822.701 7  93224296.08145  22766320.820                    22766326.363
        46.000          32.900
 111766027.103 8  87090425.39646  21268369.031                    21268371.477
        52.500          37.700
 113504002.336 8  88444686.36545  21599093.008                    21599096.531
        48.900          35.700
 18  3 11 11 29 26.0000000  0 17G11R21R04R13R14G20R22R03G24G28R05G30
                                R12G10G08G15G13
 124555598.007 7  97056457.65144  23702174.234                    23702177.855
        43.900          25.100
                  85646146.968 6  20577896.891                    20577898.121
                        41.900
                  82503069.434 7  19808831.844                    19808831.625
                        42.400
                  80978698.458 6  19497483.203                    19497484.605
                        39.800
                  93259411.303 6  22493865.461                    22493864.445
                        38.400
 123919317.522 6  96560562.09743  23581070.023                    23581074.449
        39.600          20.600
                  90572376.229 6  21815049.203                    21815048.949
                        41.600
                  91391394.930 7  21950591.750                    21950592.883
                        42.400
 124409978.289 7  96942877.61145  23674434.266                    23674439.664
        43.300          30.800
 112393026.851 8  87579027.49545  21387690.617                    21387693.754
        48.400          35.200
                  90832770.715 4  21847049.625                    21847052.504
                        29.300
 122967320.774 7  95818709.48545  23399902.938                    23399910.094
        45.000          30.500
                                  21024704.047

 120436522.006 6  93846674.31344  22918308.500                    22918313.301
        40.200          28.900
 119640068.483 7  93226046.04945  22766748.367                    22766753.781
        45.800          32.700
 111767052.620 8  87091224.50646  21268563.852                    21268566.422
        52.700          38.300
 113506645.149 8  88446745.69545  21599596.016                    21599599.508
        48.800          35.900
 18  3 11 11 29 27.0000000  0 17G11R21R04R13R14G20R22R03G24G28R05G30
                                R12G10G08G15G13
 124553068.895 7  97054486.90044  23701692.781                    23701696.820
        43.700          25.600
                  85646941.841 6  20578089.117                    20578089.184
                        41.900
                  82503547.809 7  19808946.320                    19808946.117
                        42.400
                  80977934.669 6  19497299.344                    19497300.125
                        39.900
                  93256342.229 6  22493125.570                    22493124.156
                        39.500
 123922962.300 6  96563402.14543  23581764.023                    23581768.168
        39.700          21.100
                  90569886.339 6  21814449.086                    21814449.887
                        41.500
                  91394833.036 7  21951416.977                    21951418.172
                        42.200
 124406654.576 7  96940287.70644  23673801.211                    23673807.082
        43.000          29.100
 112393273.409 8  87579219.61345  21387737.992                    21387740.328
        48.600          34.300
                  90830267.163 4  21846447.141                    21846449.270
                        28.400
 122971133.969 7  95821680.82444  23400627.953                    23400635.383
        42.900          29.600
                                  21025415.797

 120434633.802 6  93845202.98844  22917949.344                    22917953.613
        41.300          29.700
 119642314.901 7  93227796.50445  22767174.930                    22767181.281
        46.400          32.600
 111768078.860 8  87092024.17546  21268758.867                    21268762.195
        52.800          37.900
 113509288.538 8  88448805.47345  21600099.039                    21600102.320
        49.100          35.200
 18  3 11 11 29 28.0000000  0 17G11R21R04R13R14G20R22R03G24G28R05G30
                                R12G10G08G15G13
 124550540.300 7  97052516.56743  23701211.813                    23701215.883
        43.600          23.800
                  85647737.525 6  20578279.766                    20578280.668
                        41.900
                  82504026.929 6  19809060.805                    19809061.355
                        41.900
                  80977171.570 6  19497115.680                    19497117.113
                        39.800
                  93253273.403 6  22492385.844                    22492385.754
                        39.800
 123926607.465 6  96566242.48743  23582458.055                    23582461.844
        40.000          21.800
                  90567396.911 6  21813847.453                    21813849.938
                        41.800
                  91398271.515 7  21952242.656                    21952244.559
                        42.200
 124403331.142 7  96937698.01344  23673169.430                    23673174.637
        42.400          28.500
 112393520.638 8  87579412.26045  21387784.852                    21387787.504
        48.300          34.700
                  90827764.077 5  21845845.641                    21845846.867
                        30.000
 122974947.539 7  95824652.41944  23401354.195                    23401360.820
        43.200          29.400
                                  21026127.531

 120432746.158 6  93843732.10445  22917590.648                    22917594.680
        41.800          30.100
 119644561.944 7  93229547.45445  22767602.922                    22767609.172
        46.800          33.200
 111769105.859 8  87092824.43846  21268954.008                    21268957.477
        52.500          37.600
 113511932.553 8  88450865.73445  21600602.031                    21600605.715
        48.300          35.700
 18  3 11 11 29 29.0000000  0 17G11R21R04R13R14G20R22R03G24G28R05G30
                                R12G10G08G15G13
 124548012.155 7  97050546.59944  23700730.938                    23700734.801
        43.800          25.600
                  85648533.926 6  20578470.750                    20578471.629
                        41.800
                  82504506.763 6  19809175.750                    19809177.031
                        41.900
                  80976409.080 6  19496932.391                    19496933.273
                        40.000
                  93250204.779 6  22491645.477                    22491645.977
                        40.800
 123930252.936 6  96569083.06143  23583152.539                    23583155.328
        40.400          23.600
                  90564907.983 6  21813248.938                    21813250.039
                        41.900
                  91401710.326 7  21953067.883                    21953070.418
                        42.500
 124400007.946 7  96935108.51444  23672536.789                    23672542.410
        42.400          29.100
 112393768.419 8  87579605.33945  21387832.313                    21387834.750
        48.100          34.600
                  90825261.354 5  21845243.945                    21845244.605
                        30.300
 122978761.303 7  95827624.16444  23402081.617                    23402086.449
        44.600          29.300
                                  21026839.016

 120430859.083 7  93842261.65745  22917231.539                    22917235.664
        42.500          30.900
 119646809.584 7  93231298.86545  22768030.188                    22768037.059
        46.300          32.800
 111770133.508 8  87093625.21046  21269149.680                    21269153.117
        52.200          37.700
 113514577.125 8  88452926.43645  21601105.141                    21601108.637
        48.200          35.900
 18  3 11 11 29 30.0000000  0 17G11R21R04R13R14G20R22R03G24G28R05G30
                                R12G10G08G15G13
 124545484.552 7  97048577.03644  23700249.961                    23700253.621
        43.900          25.400
                  85649331.101 6  20578662.320                    20578663.145
                        41.500
                  82504987.334 6  19809291.492                    19809291.770
                        41.900
                  80975647.290 6  19496749.008                    19496750.309
                        40.100
                  93247136.412 6  22490904.930                    22490907.621
                        41.300
 123933898.749 6  96571923.92544  23583845.648                    23583849.188
        41.600          25.700
                  90562419.548 6  21812648.398                    21812651.039
                        41.400
                  91405149.483 7  21953894.164                    21953896.016
                        42.400
 124396685.023 7  96932519.22444  23671904.070                    23671909.793
        42.400          27.800
 112394016.834 8  87579798.91045  21387879.055                    21387881.785
        48.200          34.400
                  90822759.090 5  21844641.797                    21844642.895
                        30.900
 122982575.355 7  95830596.13344  23402807.539                    23402812.082
        46.400          29.700
                                  21027550.492

 120428972.589 7  93840791.65045  22916872.266                    22916876.707
        43.000          31.900
 119649057.830 7  93233050.75145  22768458.289                    22768464.914
        46.300          32.600
 111771161.908 8  87094426.55546  21269345.281                    21269348.602
        51.500          37.400
 113517222.295 8  88454987.60145  21601609.211                    21601612.344
        48.300          34.900
 18  3 11 11 29 31.0000000  0 17G11R21R04R13R14G20R22R03G24G28R05G30
                                R12G10G08G15G13
 124542957.409 7  97046607.83144  23699769.195                    23699773.082
        43.800          26.900
                  85650128.998 6  20578854.664                    20578855.246
                        41.400
                  82505468.646 7  19809407.336                    19809407.652
                        42.000
                  80974886.110 6  19496566.000                    19496566.887
                        39.900
                  93244068.261 6  22490163.633                    22490167.594
                        41.800
 123937544.897 7  96574765.06744  23584540.391                    23584543.758
        42.500          26.400
