% program   : RTKPOST ver.2.4.2
% inp file  : Z:\home\linda\Documents\Spring18\GitHub_Unis\data\processed_data\46250725.obs
% inp file  : Z:\home\linda\Documents\Spring18\GitHub_Unis\data\processed_data\46250725.nav
% obs start : 2018/03/13 13:24:36.0 GPST (week1992 221076.0s)
% obs end   : 2018/03/13 13:59:19.0 GPST (week1992 223159.0s)
% pos mode  : single
% elev mask : 15.0 deg
% ionos opt : broadcast
% tropo opt : saastamoinen
% ephemeris : broadcast
% navi sys  : gps glonass galileo qzss sbas
%
% (lat/lon/height=WGS84/ellipsoidal,Q=1:fix,2:float,3:sbas,4:dgps,5:single,6:ppp,ns=# of satellites)
%  GPST                  latitude(deg) longitude(deg)  height(m)   Q  ns   sdn(m)   sde(m)   sdu(m)  sdne(m)  sdeu(m)  sdun(m) age(s)  ratio
2018/03/13 13:24:36.000   78.250525085   16.137584000   620.7414   5   9   1.8711   1.6165   6.4388  -0.6092  -1.2922   2.2259   0.00    0.0
2018/03/13 13:24:37.000   78.250515753   16.137601652   618.3697   5   9   1.8713   1.6166   6.4386  -0.6094  -1.2924   2.2265   0.00    0.0
2018/03/13 13:24:38.000   78.250522054   16.137588894   618.0792   5   9   1.8715   1.6166   6.4385  -0.6095  -1.2925   2.2270   0.00    0.0
2018/03/13 13:24:39.000   78.250527048   16.137565253   621.4855   5   9   1.8716   1.6167   6.4383  -0.6097  -1.2927   2.2275   0.00    0.0
2018/03/13 13:24:40.000   78.250524346   16.137566777   620.4551   5   9   1.8718   1.6167   6.4381  -0.6098  -1.2928   2.2280   0.00    0.0
2018/03/13 13:24:41.000   78.250523776   16.137579077   619.6377   5   9   1.8720   1.6167   6.4379  -0.6100  -1.2930   2.2285   0.00    0.0
2018/03/13 13:24:42.000   78.250527841   16.137575694   619.4078   5   9   1.8721   1.6168   6.4377  -0.6101  -1.2931   2.2290   0.00    0.0
2018/03/13 13:24:43.000   78.250527532   16.137573801   619.8001   5   9   1.8723   1.6168   6.4376  -0.6103  -1.2933   2.2295   0.00    0.0
2018/03/13 13:24:44.000   78.250527714   16.137583434   619.2250   5   9   1.8725   1.6169   6.4374  -0.6105  -1.2934   2.2301   0.00    0.0
2018/03/13 13:24:45.000   78.250526329   16.137588613   618.7850   5   9   1.8727   1.6169   6.4372  -0.6106  -1.2936   2.2306   0.00    0.0
2018/03/13 13:24:46.000   78.250525643   16.137594530   618.7204   5   9   1.8728   1.6170   6.4370  -0.6108  -1.2937   2.2311   0.00    0.0
2018/03/13 13:24:47.000   78.250523694   16.137591744   618.5891   5   9   1.8730   1.6170   6.4368  -0.6109  -1.2938   2.2316   0.00    0.0
2018/03/13 13:24:48.000   78.250525703   16.137588098   619.0984   5   9   1.8732   1.6171   6.4367  -0.6111  -1.2940   2.2321   0.00    0.0
2018/03/13 13:24:49.000   78.250526810   16.137573673   619.5556   5   9   1.8733   1.6171   6.4365  -0.6112  -1.2941   2.2326   0.00    0.0
2018/03/13 13:24:50.000   78.250527882   16.137578292   619.6254   5   9   1.8735   1.6171   6.4363  -0.6114  -1.2943   2.2331   0.00    0.0
2018/03/13 13:24:51.000   78.250527691   16.137611558   619.4205   5   9   1.8737   1.6172   6.4361  -0.6115  -1.2944   2.2337   0.00    0.0
2018/03/13 13:24:52.000   78.250526607   16.137591077   620.0164   5   9   1.8738   1.6172   6.4359  -0.6117  -1.2946   2.2342   0.00    0.0
2018/03/13 13:24:53.000   78.250526029   16.137579625   620.4548   5   9   1.8740   1.6173   6.4357  -0.6119  -1.2947   2.2347   0.00    0.0
2018/03/13 13:24:54.000   78.250521490   16.137596108   619.1866   5   9   1.8742   1.6173   6.4356  -0.6120  -1.2949   2.2352   0.00    0.0
2018/03/13 13:24:55.000   78.250520623   16.137589882   619.7295   5   9   1.8744   1.6174   6.4354  -0.6122  -1.2950   2.2357   0.00    0.0
2018/03/13 13:24:56.000   78.250521971   16.137574519   619.6002   5   9   1.8745   1.6174   6.4352  -0.6123  -1.2952   2.2362   0.00    0.0
2018/03/13 13:24:57.000   78.250524496   16.137561547   620.0773   5   9   1.8747   1.6175   6.4350  -0.6125  -1.2953   2.2367   0.00    0.0
2018/03/13 13:24:58.000   78.250526870   16.137562567   620.6382   5   9   1.8749   1.6175   6.4348  -0.6126  -1.2954   2.2372   0.00    0.0
2018/03/13 13:24:59.000   78.250527038   16.137572527   619.2261   5   9   1.8750   1.6176   6.4346  -0.6128  -1.2956   2.2377   0.00    0.0
2018/03/13 13:25:00.000   78.250525951   16.137579889   619.2900   5   9   1.8752   1.6176   6.4344  -0.6130  -1.2957   2.2382   0.00    0.0
2018/03/13 13:25:01.000   78.250526533   16.137581959   620.2395   5   9   1.8754   1.6176   6.4343  -0.6131  -1.2959   2.2387   0.00    0.0
2018/03/13 13:25:02.000   78.250523590   16.137588945   620.9022   5   9   1.8755   1.6177   6.4341  -0.6133  -1.2960   2.2392   0.00    0.0
2018/03/13 13:25:03.000   78.250518463   16.137621112   617.9250   5   9   1.8757   1.6177   6.4339  -0.6134  -1.2962   2.2398   0.00    0.0
2018/03/13 13:25:04.000   78.250519232   16.137599231   618.1224   5   9   1.8759   1.6178   6.4337  -0.6136  -1.2963   2.2403   0.00    0.0
2018/03/13 13:25:05.000   78.250519450   16.137610008   617.1502   5   9   1.8761   1.6178   6.4335  -0.6137  -1.2965   2.2408   0.00    0.0
2018/03/13 13:25:06.000   78.250521822   16.137592493   619.8070   5   9   1.8762   1.6179   6.4333  -0.6139  -1.2966   2.2413   0.00    0.0
2018/03/13 13:25:07.000   78.250523085   16.137582528   619.4305   5   9   1.8764   1.6179   6.4331  -0.6140  -1.2968   2.2418   0.00    0.0
2018/03/13 13:25:08.000   78.250521478   16.137590827   617.2794   5   9   1.8766   1.6180   6.4329  -0.6142  -1.2969   2.2423   0.00    0.0
2018/03/13 13:25:09.000   78.250525353   16.137566486   619.5233   5   9   1.8767   1.6180   6.4327  -0.6144  -1.2970   2.2428   0.00    0.0
2018/03/13 13:25:10.000   78.250526361   16.137562793   620.1725   5   9   1.8769   1.6180   6.4325  -0.6145  -1.2972   2.2433   0.00    0.0
2018/03/13 13:25:11.000   78.250527256   16.137548669   621.8048   5   9   1.8771   1.6181   6.4323  -0.6147  -1.2973   2.2438   0.00    0.0
2018/03/13 13:25:12.000   78.250525995   16.137582415   619.4709   5   9   1.8772   1.6181   6.4321  -0.6148  -1.2975   2.2443   0.00    0.0
2018/03/13 13:25:13.000   78.250528135   16.137584241   621.4824   5   9   1.8774   1.6182   6.4319  -0.6150  -1.2976   2.2448   0.00    0.0
2018/03/13 13:25:14.000   78.250523949   16.137585770   620.5654   5   9   1.8776   1.6182   6.4318  -0.6151  -1.2978   2.2453   0.00    0.0
2018/03/13 13:25:15.000   78.250528611   16.137585957   619.2007   5   9   1.8778   1.6183   6.4316  -0.6153  -1.2979   2.2458   0.00    0.0
2018/03/13 13:25:16.000   78.250528723   16.137589554   620.4519   5   9   1.8779   1.6183   6.4314  -0.6154  -1.2980   2.2463   0.00    0.0
2018/03/13 13:25:17.000   78.250526012   16.137590056   619.0709   5   9   1.8781   1.6184   6.4312  -0.6156  -1.2982   2.2468   0.00    0.0
2018/03/13 13:25:18.000   78.250526818   16.137586788   620.3601   5   9   1.8783   1.6184   6.4310  -0.6158  -1.2983   2.2473   0.00    0.0
2018/03/13 13:25:19.000   78.250525233   16.137581690   619.3995   5   9   1.8784   1.6185   6.4308  -0.6159  -1.2985   2.2478   0.00    0.0
2018/03/13 13:25:20.000   78.250524018   16.137578277   620.8625   5   9   1.8786   1.6185   6.4306  -0.6161  -1.2986   2.2483   0.00    0.0
2018/03/13 13:25:21.000   78.250522529   16.137593793   618.6652   5   9   1.8788   1.6185   6.4304  -0.6162  -1.2988   2.2488   0.00    0.0
2018/03/13 13:25:22.000   78.250524152   16.137578503   620.2612   5   9   1.8790   1.6186   6.4302  -0.6164  -1.2989   2.2493   0.00    0.0
2018/03/13 13:25:23.000   78.250520659   16.137586168   618.9684   5   9   1.8791   1.6186   6.4300  -0.6165  -1.2991   2.2498   0.00    0.0
2018/03/13 13:25:24.000   78.250523169   16.137598068   619.4540   5   9   1.8793   1.6187   6.4298  -0.6167  -1.2992   2.2503   0.00    0.0
2018/03/13 13:25:25.000   78.250524485   16.137582631   620.2729   5   9   1.8795   1.6187   6.4296  -0.6168  -1.2993   2.2508   0.00    0.0
2018/03/13 13:25:26.000   78.250524535   16.137581592   619.9765   5   9   1.8796   1.6188   6.4294  -0.6170  -1.2995   2.2513   0.00    0.0
2018/03/13 13:25:27.000   78.250527737   16.137567044   620.8426   5   9   1.8798   1.6188   6.4292  -0.6172  -1.2996   2.2518   0.00    0.0
2018/03/13 13:25:28.000   78.250528710   16.137568643   620.0154   5   9   1.8800   1.6189   6.4290  -0.6173  -1.2998   2.2523   0.00    0.0
2018/03/13 13:25:29.000   78.250527543   16.137575409   619.6711   5   9   1.8801   1.6189   6.4287  -0.6175  -1.2999   2.2528   0.00    0.0
2018/03/13 13:25:30.000   78.250527587   16.137584519   618.7283   5   9   1.8803   1.6190   6.4285  -0.6176  -1.3000   2.2533   0.00    0.0
2018/03/13 13:25:31.000   78.250524690   16.137569149   619.8812   5   9   1.8805   1.6190   6.4283  -0.6178  -1.3002   2.2538   0.00    0.0
2018/03/13 13:25:32.000   78.250523765   16.137584396   618.7904   5   9   1.8807   1.6190   6.4281  -0.6179  -1.3003   2.2543   0.00    0.0
2018/03/13 13:25:33.000   78.250523140   16.137600926   619.7806   5   9   1.8808   1.6191   6.4279  -0.6181  -1.3005   2.2548   0.00    0.0
2018/03/13 13:25:34.000   78.250520712   16.137585829   619.4307   5   9   1.8810   1.6191   6.4277  -0.6182  -1.3006   2.2553   0.00    0.0
2018/03/13 13:25:35.000   78.250522594   16.137573731   620.6993   5   9   1.8812   1.6192   6.4275  -0.6184  -1.3008   2.2558   0.00    0.0
2018/03/13 13:25:36.000   78.250521729   16.137586444   619.8595   5   9   1.8813   1.6192   6.4273  -0.6185  -1.3009   2.2563   0.00    0.0
2018/03/13 13:25:37.000   78.250518871   16.137592629   619.0257   5   9   1.8815   1.6193   6.4271  -0.6187  -1.3010   2.2567   0.00    0.0
2018/03/13 13:25:38.000   78.250522672   16.137568180   620.0845   5   9   1.8817   1.6193   6.4269  -0.6189  -1.3012   2.2572   0.00    0.0
2018/03/13 13:25:39.000   78.250525847   16.137577673   619.2291   5   9   1.8819   1.6194   6.4267  -0.6190  -1.3013   2.2577   0.00    0.0
2018/03/13 13:25:40.000   78.250525271   16.137575566   619.3677   5   9   1.8820   1.6194   6.4265  -0.6192  -1.3015   2.2582   0.00    0.0
2018/03/13 13:25:41.000   78.250529065   16.137579759   619.3884   5   9   1.8822   1.6195   6.4263  -0.6193  -1.3016   2.2587   0.00    0.0
2018/03/13 13:25:42.000   78.250529632   16.137581648   619.4390   5   9   1.8824   1.6195   6.4260  -0.6195  -1.3017   2.2592   0.00    0.0
2018/03/13 13:25:43.000   78.250528909   16.137594056   618.8052   5   9   1.8825   1.6196   6.4258  -0.6196  -1.3019   2.2597   0.00    0.0
2018/03/13 13:25:44.000   78.250526458   16.137586249   620.8338   5   9   1.8827   1.6196   6.4256  -0.6198  -1.3020   2.2602   0.00    0.0
2018/03/13 13:25:45.000   78.250526955   16.137587123   620.5305   5   9   1.8829   1.6196   6.4254  -0.6199  -1.3022   2.2607   0.00    0.0
2018/03/13 13:25:46.000   78.250523438   16.137588990   619.7442   5   9   1.8831   1.6197   6.4252  -0.6201  -1.3023   2.2612   0.00    0.0
2018/03/13 13:25:47.000   78.250519269   16.137588128   620.2943   5   9   1.8832   1.6197   6.4250  -0.6202  -1.3024   2.2617   0.00    0.0
2018/03/13 13:25:48.000   78.250521677   16.137571454   621.6585   5   9   1.8834   1.6198   6.4248  -0.6204  -1.3026   2.2621   0.00    0.0
2018/03/13 13:25:49.000   78.250523774   16.137581319   619.3552   5   9   1.8836   1.6198   6.4245  -0.6206  -1.3027   2.2626   0.00    0.0
2018/03/13 13:25:50.000   78.250524650   16.137580031   619.8356   5   9   1.8837   1.6199   6.4243  -0.6207  -1.3029   2.2631   0.00    0.0
2018/03/13 13:25:51.000   78.250526291   16.137582197   619.8126   5   9   1.8839   1.6199   6.4241  -0.6209  -1.3030   2.2636   0.00    0.0
2018/03/13 13:25:52.000   78.250525121   16.137582416   619.0357   5   9   1.8841   1.6200   6.4239  -0.6210  -1.3031   2.2641   0.00    0.0
2018/03/13 13:25:53.000   78.250524529   16.137586742   619.3471   5   9   1.8843   1.6200   6.4237  -0.6212  -1.3033   2.2646   0.00    0.0
2018/03/13 13:25:54.000   78.250527698   16.137604092   620.2581   5   9   1.8844   1.6201   6.4235  -0.6213  -1.3034   2.2651   0.00    0.0
2018/03/13 13:25:55.000   78.250527524   16.137590084   619.6578   5   9   1.8846   1.6201   6.4232  -0.6215  -1.3036   2.2656   0.00    0.0
2018/03/13 13:25:56.000   78.250526846   16.137592038   619.2575   5   9   1.8848   1.6201   6.4230  -0.6216  -1.3037   2.2660   0.00    0.0
2018/03/13 13:25:57.000   78.250529885   16.137593432   619.8575   5   9   1.8849   1.6202   6.4228  -0.6218  -1.3038   2.2665   0.00    0.0
2018/03/13 13:25:58.000   78.250533385   16.137582003   619.5008   5   9   1.8851   1.6202   6.4226  -0.6219  -1.3040   2.2670   0.00    0.0
2018/03/13 13:25:59.000   78.250532661   16.137552360   620.6310   5   9   1.8853   1.6203   6.4224  -0.6221  -1.3041   2.2675   0.00    0.0
2018/03/13 13:26:00.000   78.250531409   16.137577451   620.0787   5   9   1.8855   1.6203   6.4221  -0.6222  -1.3043   2.2680   0.00    0.0
2018/03/13 13:26:01.000   78.250523975   16.137573162   620.3169   5   9   1.8856   1.6204   6.4219  -0.6224  -1.3044   2.2685   0.00    0.0
2018/03/13 13:26:02.000   78.250520069   16.137601404   619.1312   5   9   1.8858   1.6204   6.4217  -0.6226  -1.3045   2.2690   0.00    0.0
2018/03/13 13:26:03.000   78.250517237   16.137618719   619.5047   5   9   1.8860   1.6205   6.4215  -0.6227  -1.3047   2.2694   0.00    0.0
2018/03/13 13:26:04.000   78.250519574   16.137601538   618.8132   5   9   1.8861   1.6205   6.4212  -0.6229  -1.3048   2.2699   0.00    0.0
2018/03/13 13:26:05.000   78.250521151   16.137596384   618.8510   5   9   1.8863   1.6206   6.4210  -0.6230  -1.3050   2.2704   0.00    0.0
2018/03/13 13:26:06.000   78.250520091   16.137598523   618.8900   5   9   1.8865   1.6206   6.4208  -0.6232  -1.3051   2.2709   0.00    0.0
2018/03/13 13:26:07.000   78.250520431   16.137598561   619.2429   5   9   1.8867   1.6207   6.4206  -0.6233  -1.3052   2.2714   0.00    0.0
2018/03/13 13:26:08.000   78.250528991   16.137572082   621.0600   5   9   1.8868   1.6207   6.4203  -0.6235  -1.3054   2.2718   0.00    0.0
2018/03/13 13:26:09.000   78.250528104   16.137577296   619.7727   5   9   1.8870   1.6207   6.4201  -0.6236  -1.3055   2.2723   0.00    0.0
2018/03/13 13:26:10.000   78.250530940   16.137558485   620.7521   5   9   1.8872   1.6208   6.4199  -0.6238  -1.3056   2.2728   0.00    0.0
2018/03/13 13:26:11.000   78.250528309   16.137573674   619.6696   5   9   1.8874   1.6208   6.4197  -0.6239  -1.3058   2.2733   0.00    0.0
2018/03/13 13:26:12.000   78.250527610   16.137573658   621.1723   5   9   1.8875   1.6209   6.4194  -0.6241  -1.3059   2.2738   0.00    0.0
2018/03/13 13:26:13.000   78.250524529   16.137614293   618.0404   5   9   1.8877   1.6209   6.4192  -0.6242  -1.3061   2.2742   0.00    0.0
2018/03/13 13:26:14.000   78.250522582   16.137597374   618.4957   5   9   1.8879   1.6210   6.4190  -0.6244  -1.3062   2.2747   0.00    0.0
2018/03/13 13:26:15.000   78.250523029   16.137595479   618.0320   5   9   1.8880   1.6210   6.4188  -0.6245  -1.3063   2.2752   0.00    0.0
2018/03/13 13:26:16.000   78.250522500   16.137581831   620.0453   5   9   1.8882   1.6211   6.4185  -0.6247  -1.3065   2.2757   0.00    0.0
2018/03/13 13:26:17.000   78.250522443   16.137584183   619.9137   5   9   1.8884   1.6211   6.4183  -0.6249  -1.3066   2.2762   0.00    0.0
2018/03/13 13:26:18.000   78.250528788   16.137558568   620.0345   5   9   1.8886   1.6212   6.4181  -0.6250  -1.3067   2.2766   0.00    0.0
2018/03/13 13:26:19.000   78.250530939   16.137567628   619.9416   5   9   1.8887   1.6212   6.4178  -0.6252  -1.3069   2.2771   0.00    0.0
2018/03/13 13:26:20.000   78.250527493   16.137583787   619.5343   5   9   1.8889   1.6213   6.4176  -0.6253  -1.3070   2.2776   0.00    0.0
2018/03/13 13:26:21.000   78.250527089   16.137600169   619.4297   5   9   1.8891   1.6213   6.4174  -0.6255  -1.3072   2.2781   0.00    0.0
2018/03/13 13:26:22.000   78.250523476   16.137610815   617.6034   5   9   1.8893   1.6213   6.4171  -0.6256  -1.3073   2.2785   0.00    0.0
2018/03/13 13:26:23.000   78.250520716   16.137600649   619.0848   5   9   1.8894   1.6214   6.4169  -0.6258  -1.3074   2.2790   0.00    0.0
2018/03/13 13:26:24.000   78.250516842   16.137612668   616.8492   5   9   1.8896   1.6214   6.4167  -0.6259  -1.3076   2.2795   0.00    0.0
2018/03/13 13:26:25.000   78.250519127   16.137594670   618.2120   5   9   1.8898   1.6215   6.4164  -0.6261  -1.3077   2.2800   0.00    0.0
2018/03/13 13:26:26.000   78.250518379   16.137599901   617.5958   5   9   1.8899   1.6215   6.4162  -0.6262  -1.3078   2.2804   0.00    0.0
2018/03/13 13:26:27.000   78.250523841   16.137577774   619.7370   5   9   1.8901   1.6216   6.4160  -0.6264  -1.3080   2.2809   0.00    0.0
2018/03/13 13:26:28.000   78.250528783   16.137555263   619.5056   5   9   1.8903   1.6216   6.4157  -0.6265  -1.3081   2.2814   0.00    0.0
2018/03/13 13:26:29.000   78.250533149   16.137548182   620.8422   5   9   1.8905   1.6217   6.4155  -0.6267  -1.3082   2.2819   0.00    0.0
2018/03/13 13:26:30.000   78.250527614   16.137581567   620.2882   5   9   1.8906   1.6217   6.4152  -0.6268  -1.3084   2.2823   0.00    0.0
2018/03/13 13:26:31.000   78.250526051   16.137600574   618.7070   5   9   1.8908   1.6218   6.4150  -0.6270  -1.3085   2.2828   0.00    0.0
2018/03/13 13:26:32.000   78.250524817   16.137579011   620.1434   5   9   1.8910   1.6218   6.4148  -0.6271  -1.3087   2.2833   0.00    0.0
2018/03/13 13:26:33.000   78.250518872   16.137620385   617.5226   5   9   1.8911   1.6219   6.4145  -0.6273  -1.3088   2.2837   0.00    0.0
2018/03/13 13:26:34.000   78.250520059   16.137582915   619.2095   5   9   1.8913   1.6219   6.4143  -0.6274  -1.3089   2.2842   0.00    0.0
2018/03/13 13:26:35.000   78.250521712   16.137609384   617.6992   5   9   1.8915   1.6220   6.4140  -0.6276  -1.3091   2.2847   0.00    0.0
2018/03/13 13:26:36.000   78.250522025   16.137570033   619.2758   5   9   1.8917   1.6220   6.4138  -0.6277  -1.3092   2.2852   0.00    0.0
2018/03/13 13:26:37.000   78.250525691   16.137586714   617.9968   5   9   1.8918   1.6220   6.4136  -0.6279  -1.3093   2.2856   0.00    0.0
2018/03/13 13:26:38.000   78.250528772   16.137559134   620.5763   5   9   1.8920   1.6221   6.4133  -0.6280  -1.3095   2.2861   0.00    0.0
2018/03/13 13:26:39.000   78.250529308   16.137576612   619.7378   5   9   1.8922   1.6221   6.4131  -0.6282  -1.3096   2.2866   0.00    0.0
2018/03/13 13:26:40.000   78.250522268   16.137591216   620.1148   5   9   1.8924   1.6222   6.4128  -0.6284  -1.3097   2.2870   0.00    0.0
2018/03/13 13:26:41.000   78.250523983   16.137583480   618.8132   5   9   1.8925   1.6222   6.4126  -0.6285  -1.3099   2.2875   0.00    0.0
2018/03/13 13:26:42.000   78.250526144   16.137586641   619.0168   5   9   1.8927   1.6223   6.4123  -0.6287  -1.3100   2.2880   0.00    0.0
2018/03/13 13:26:43.000   78.250524483   16.137593950   620.0228   5   9   1.8929   1.6223   6.4121  -0.6288  -1.3101   2.2884   0.00    0.0
2018/03/13 13:26:44.000   78.250525648   16.137607844   617.8367   5   9   1.8931   1.6224   6.4119  -0.6290  -1.3103   2.2889   0.00    0.0
2018/03/13 13:26:45.000   78.250529352   16.137585075   619.2239   5   9   1.8932   1.6224   6.4116  -0.6291  -1.3104   2.2894   0.00    0.0
2018/03/13 13:26:46.000   78.250525416   16.137584215   618.6072   5   9   1.8934   1.6225   6.4114  -0.6293  -1.3105   2.2898   0.00    0.0
2018/03/13 13:26:47.000   78.250525688   16.137551057   620.8724   5   9   1.8936   1.6225   6.4111  -0.6294  -1.3107   2.2903   0.00    0.0
2018/03/13 13:26:48.000   78.250527109   16.137571899   618.9793   5   9   1.8937   1.6226   6.4109  -0.6296  -1.3108   2.2908   0.00    0.0
2018/03/13 13:26:49.000   78.250524658   16.137579671   620.5174   5   9   1.8939   1.6226   6.4106  -0.6297  -1.3109   2.2912   0.00    0.0
2018/03/13 13:26:50.000   78.250519731   16.137622375   618.4526   5   9   1.8941   1.6226   6.4104  -0.6299  -1.3111   2.2917   0.00    0.0
2018/03/13 13:26:51.000   78.250526545   16.137596850   620.7885   5   9   1.8943   1.6227   6.4101  -0.6300  -1.3112   2.2922   0.00    0.0
2018/03/13 13:26:52.000   78.250521598   16.137604473   617.3119   5   9   1.8944   1.6227   6.4099  -0.6302  -1.3113   2.2926   0.00    0.0
2018/03/13 13:26:53.000   78.250521639   16.137603548   618.4882   5   9   1.8946   1.6228   6.4096  -0.6303  -1.3115   2.2931   0.00    0.0
2018/03/13 13:26:54.000   78.250524184   16.137607674   618.0053   5   9   1.8948   1.6228   6.4094  -0.6305  -1.3116   2.2936   0.00    0.0
2018/03/13 13:26:55.000   78.250524332   16.137567536   620.0690   5   9   1.8950   1.6229   6.4091  -0.6306  -1.3117   2.2940   0.00    0.0
2018/03/13 13:26:56.000   78.250525330   16.137560129   620.1673   5   9   1.8951   1.6229   6.4089  -0.6308  -1.3119   2.2945   0.00    0.0
2018/03/13 13:26:57.000   78.250525589   16.137576114   619.3575   5   9   1.8953   1.6230   6.4086  -0.6309  -1.3120   2.2949   0.00    0.0
2018/03/13 13:26:58.000   78.250528070   16.137566823   620.1401   5   9   1.8955   1.6230   6.4084  -0.6311  -1.3121   2.2954   0.00    0.0
2018/03/13 13:26:59.000   78.250526590   16.137574491   620.3894   5   9   1.8956   1.6231   6.4081  -0.6312  -1.3123   2.2959   0.00    0.0
2018/03/13 13:27:00.000   78.250524271   16.137585099   620.5752   5   9   1.8958   1.6231   6.4078  -0.6314  -1.3124   2.2963   0.00    0.0
2018/03/13 13:27:01.000   78.250526717   16.137590425   618.6612   5   9   1.8960   1.6232   6.4076  -0.6315  -1.3125   2.2968   0.00    0.0
2018/03/13 13:27:02.000   78.250525537   16.137579711   620.4080   5   9   1.8962   1.6232   6.4073  -0.6317  -1.3127   2.2972   0.00    0.0
2018/03/13 13:27:03.000   78.250526398   16.137587814   620.1760   5   9   1.8963   1.6233   6.4071  -0.6318  -1.3128   2.2977   0.00    0.0
2018/03/13 13:27:04.000   78.250522001   16.137584883   620.3432   5   9   1.8965   1.6233   6.4068  -0.6320  -1.3129   2.2982   0.00    0.0
2018/03/13 13:27:05.000   78.250523053   16.137589057   618.4548   5   9   1.8967   1.6234   6.4066  -0.6321  -1.3131   2.2986   0.00    0.0
2018/03/13 13:27:06.000   78.250525399   16.137573305   619.4865   5   9   1.8969   1.6234   6.4063  -0.6323  -1.3132   2.2991   0.00    0.0
2018/03/13 13:27:07.000   78.250525638   16.137596216   619.6249   5   9   1.8970   1.6234   6.4061  -0.6324  -1.3133   2.2995   0.00    0.0
2018/03/13 13:27:08.000   78.250526259   16.137604692   618.7888   5   9   1.8972   1.6235   6.4058  -0.6326  -1.3135   2.3000   0.00    0.0
2018/03/13 13:27:09.000   78.250528488   16.137591388   619.5350   5   9   1.8974   1.6235   6.4055  -0.6327  -1.3136   2.3004   0.00    0.0
2018/03/13 13:27:10.000   78.250525283   16.137595642   619.1080   5   9   1.8976   1.6236   6.4053  -0.6329  -1.3137   2.3009   0.00    0.0
2018/03/13 13:27:11.000   78.250527554   16.137585273   620.0453   5   9   1.8977   1.6236   6.4050  -0.6330  -1.3139   2.3014   0.00    0.0
2018/03/13 13:27:12.000   78.250528504   16.137570073   620.6014   5   9   1.8979   1.6237   6.4048  -0.6332  -1.3140   2.3018   0.00    0.0
2018/03/13 13:27:13.000   78.250525001   16.137560945   620.2358   5   9   1.8981   1.6237   6.4045  -0.6333  -1.3141   2.3023   0.00    0.0
2018/03/13 13:27:14.000   78.250526918   16.137574580   619.8120   5   9   1.8983   1.6238   6.4042  -0.6335  -1.3143   2.3027   0.00    0.0
2018/03/13 13:27:15.000   78.250526477   16.137589163   619.9832   5   9   1.8984   1.6238   6.4040  -0.6336  -1.3144   2.3032   0.00    0.0
2018/03/13 13:27:16.000   78.250527911   16.137592502   619.4291   5   9   1.8986   1.6239   6.4037  -0.6338  -1.3145   2.3036   0.00    0.0
2018/03/13 13:27:17.000   78.250528458   16.137575641   619.5756   5   9   1.8988   1.6239   6.4034  -0.6339  -1.3147   2.3041   0.00    0.0
2018/03/13 13:27:18.000   78.250528648   16.137602926   619.0516   5   9   1.8989   1.6240   6.4032  -0.6341  -1.3148   2.3045   0.00    0.0
2018/03/13 13:27:19.000   78.250528865   16.137580399   620.7784   5   9   1.8991   1.6240   6.4029  -0.6342  -1.3149   2.3050   0.00    0.0
2018/03/13 13:27:20.000   78.250526145   16.137581985   619.1626   5   9   1.8993   1.6241   6.4027  -0.6344  -1.3150   2.3055   0.00    0.0
2018/03/13 13:27:21.000   78.250522398   16.137577682   619.6082   5   9   1.8995   1.6241   6.4024  -0.6345  -1.3152   2.3059   0.00    0.0
2018/03/13 13:27:22.000   78.250524073   16.137580121   619.4774   5   9   1.8996   1.6242   6.4021  -0.6347  -1.3153   2.3064   0.00    0.0
2018/03/13 13:27:23.000   78.250524998   16.137580761   619.5540   5   9   1.8998   1.6242   6.4019  -0.6348  -1.3154   2.3068   0.00    0.0
2018/03/13 13:27:24.000   78.250525266   16.137577714   619.3620   5   9   1.9000   1.6242   6.4016  -0.6350  -1.3156   2.3073   0.00    0.0
2018/03/13 13:27:25.000   78.250526056   16.137585075   619.7194   5   9   1.9002   1.6243   6.4013  -0.6351  -1.3157   2.3077   0.00    0.0
2018/03/13 13:27:26.000   78.250526312   16.137597186   618.3001   5   9   1.9003   1.6243   6.4011  -0.6353  -1.3158   2.3082   0.00    0.0
2018/03/13 13:27:27.000   78.250527426   16.137593363   619.5887   5   9   1.9005   1.6244   6.4008  -0.6354  -1.3160   2.3086   0.00    0.0
2018/03/13 13:27:28.000   78.250522192   16.137594833   620.1510   5   9   1.9007   1.6244   6.4005  -0.6356  -1.3161   2.3091   0.00    0.0
2018/03/13 13:27:29.000   78.250523440   16.137581850   620.6956   5   9   1.9009   1.6245   6.4002  -0.6357  -1.3162   2.3095   0.00    0.0
2018/03/13 13:27:30.000   78.250526305   16.137569763   619.8354   5   9   1.9010   1.6245   6.4000  -0.6359  -1.3163   2.3100   0.00    0.0
2018/03/13 13:27:31.000   78.250526132   16.137574118   620.4647   5   9   1.9012   1.6246   6.3997  -0.6360  -1.3165   2.3104   0.00    0.0
2018/03/13 13:27:32.000   78.250524823   16.137579743   620.0753   5   9   1.9014   1.6246   6.3994  -0.6362  -1.3166   2.3109   0.00    0.0
2018/03/13 13:27:33.000   78.250528142   16.137591739   618.7899   5   9   1.9016   1.6247   6.3992  -0.6363  -1.3167   2.3113   0.00    0.0
2018/03/13 13:27:34.000   78.250531451   16.137595396   619.7133   5   9   1.9017   1.6247   6.3989  -0.6365  -1.3169   2.3117   0.00    0.0
2018/03/13 13:27:35.000   78.250530206   16.137606620   619.9233   5   9   1.9019   1.6248   6.3986  -0.6366  -1.3170   2.3122   0.00    0.0
2018/03/13 13:27:36.000   78.250533765   16.137593125   620.7418   5   9   1.9021   1.6248   6.3983  -0.6368  -1.3171   2.3126   0.00    0.0
2018/03/13 13:27:37.000   78.250532409   16.137601356   621.0395   5   9   1.9022   1.6249   6.3981  -0.6369  -1.3172   2.3131   0.00    0.0
2018/03/13 13:27:38.000   78.250525238   16.137586500   620.5434   5   9   1.9024   1.6249   6.3978  -0.6371  -1.3174   2.3135   0.00    0.0
2018/03/13 13:27:39.000   78.250523679   16.137589474   619.9696   5   9   1.9026   1.6250   6.3975  -0.6372  -1.3175   2.3140   0.00    0.0
2018/03/13 13:27:40.000   78.250522757   16.137571604   620.0995   5   9   1.9028   1.6250   6.3972  -0.6374  -1.3176   2.3144   0.00    0.0
2018/03/13 13:27:41.000   78.250524158   16.137576936   620.4838   5   9   1.9029   1.6250   6.3970  -0.6375  -1.3178   2.3149   0.00    0.0
2018/03/13 13:27:42.000   78.250519393   16.137599053   620.0538   5   9   1.9031   1.6251   6.3967  -0.6377  -1.3179   2.3153   0.00    0.0
2018/03/13 13:27:43.000   78.250521262   16.137590862   619.1554   5   9   1.9033   1.6251   6.3964  -0.6378  -1.3180   2.3158   0.00    0.0
2018/03/13 13:27:44.000   78.250530433   16.137583303   620.3173   5   9   1.9035   1.6252   6.3961  -0.6380  -1.3181   2.3162   0.00    0.0
2018/03/13 13:27:45.000   78.250525994   16.137580133   619.4490   5   9   1.9036   1.6252   6.3959  -0.6381  -1.3183   2.3166   0.00    0.0
2018/03/13 13:27:46.000   78.250524164   16.137585286   619.4131   5   9   1.9038   1.6253   6.3956  -0.6383  -1.3184   2.3171   0.00    0.0
2018/03/13 13:27:47.000   78.250528038   16.137579346   620.9741   5   9   1.9040   1.6253   6.3953  -0.6384  -1.3185   2.3175   0.00    0.0
2018/03/13 13:27:48.000   78.250524513   16.137588125   620.3997   5   9   1.9042   1.6254   6.3950  -0.6386  -1.3187   2.3180   0.00    0.0
2018/03/13 13:27:49.000   78.250523893   16.137596753   619.9860   5   9   1.9043   1.6254   6.3947  -0.6387  -1.3188   2.3184   0.00    0.0
2018/03/13 13:27:50.000   78.250523515   16.137588467   620.1375   5   9   1.9045   1.6255   6.3945  -0.6389  -1.3189   2.3189   0.00    0.0
2018/03/13 13:27:51.000   78.250523386   16.137599067   619.0882   5   9   1.9047   1.6255   6.3942  -0.6390  -1.3190   2.3193   0.00    0.0
2018/03/13 13:27:52.000   78.250524870   16.137609785   618.6670   5   9   1.9049   1.6256   6.3939  -0.6392  -1.3192   2.3197   0.00    0.0
2018/03/13 13:27:53.000   78.250522251   16.137598313   618.9029   5   9   1.9050   1.6256   6.3936  -0.6393  -1.3193   2.3202   0.00    0.0
2018/03/13 13:27:54.000   78.250522880   16.137597231   620.4237   5   9   1.9052   1.6257   6.3933  -0.6395  -1.3194   2.3206   0.00    0.0
2018/03/13 13:27:55.000   78.250521799   16.137587561   620.4543   5   9   1.9054   1.6257   6.3930  -0.6396  -1.3195   2.3211   0.00    0.0
2018/03/13 13:27:56.000   78.250521499   16.137586456   620.2300   5   9   1.9056   1.6258   6.3928  -0.6398  -1.3197   2.3215   0.00    0.0
2018/03/13 13:27:57.000   78.250524901   16.137580270   620.8475   5   9   1.9057   1.6258   6.3925  -0.6399  -1.3198   2.3219   0.00    0.0
2018/03/13 13:27:58.000   78.250525046   16.137580083   619.6228   5   9   1.9059   1.6259   6.3922  -0.6401  -1.3199   2.3224   0.00    0.0
2018/03/13 13:27:59.000   78.250524779   16.137597758   618.2840   5   9   1.9061   1.6259   6.3919  -0.6402  -1.3200   2.3228   0.00    0.0
2018/03/13 13:28:00.000   78.250526610   16.137597285   618.6709   5   9   1.9063   1.6260   6.3916  -0.6404  -1.3202   2.3232   0.00    0.0
2018/03/13 13:28:01.000   78.250528928   16.137603999   618.7612   5   9   1.9064   1.6260   6.3913  -0.6405  -1.3203   2.3237   0.00    0.0
2018/03/13 13:28:02.000   78.250529025   16.137600108   619.1425   5   9   1.9066   1.6260   6.3910  -0.6407  -1.3204   2.3241   0.00    0.0
2018/03/13 13:28:03.000   78.250528930   16.137602776   620.0311   5   9   1.9068   1.6261   6.3908  -0.6408  -1.3206   2.3245   0.00    0.0
2018/03/13 13:28:04.000   78.250527588   16.137574456   622.1683   5   9   1.9070   1.6261   6.3905  -0.6409  -1.3207   2.3250   0.00    0.0
2018/03/13 13:28:05.000   78.250529318   16.137577824   620.7795   5   9   1.9071   1.6262   6.3902  -0.6411  -1.3208   2.3254   0.00    0.0
2018/03/13 13:28:06.000   78.250528013   16.137578752   621.0358   5   9   1.9073   1.6262   6.3899  -0.6412  -1.3209   2.3259   0.00    0.0
2018/03/13 13:28:07.000   78.250525262   16.137583412   621.2683   5   9   1.9075   1.6263   6.3896  -0.6414  -1.3211   2.3263   0.00    0.0
2018/03/13 13:28:08.000   78.250520573   16.137605037   619.1112   5   9   1.9077   1.6263   6.3893  -0.6415  -1.3212   2.3267   0.00    0.0
2018/03/13 13:28:09.000   78.250520852   16.137603851   618.2347   5   9   1.9078   1.6264   6.3890  -0.6417  -1.3213   2.3272   0.00    0.0
2018/03/13 13:28:10.000   78.250522286   16.137593341   618.8582   5   9   1.9080   1.6264   6.3887  -0.6418  -1.3214   2.3276   0.00    0.0
2018/03/13 13:28:11.000   78.250521026   16.137610246   618.4188   5   9   1.9082   1.6265   6.3884  -0.6420  -1.3216   2.3280   0.00    0.0
2018/03/13 13:28:12.000   78.250525642   16.137607618   620.2480   5   9   1.9084   1.6265   6.3881  -0.6421  -1.3217   2.3285   0.00    0.0
2018/03/13 13:28:13.000   78.250524278   16.137587116   620.5613   5   9   1.9085   1.6266   6.3878  -0.6423  -1.3218   2.3289   0.00    0.0
2018/03/13 13:28:14.000   78.250528856   16.137576021   620.2481   5   9   1.9087   1.6266   6.3875  -0.6424  -1.3219   2.3293   0.00    0.0
2018/03/13 13:28:15.000   78.250528306   16.137578787   620.6549   5   9   1.9089   1.6267   6.3873  -0.6426  -1.3221   2.3298   0.00    0.0
2018/03/13 13:28:16.000   78.250532566   16.137574381   621.2485   5   9   1.9090   1.6267   6.3870  -0.6427  -1.3222   2.3302   0.00    0.0
2018/03/13 13:28:17.000   78.250529610   16.137601235   619.3432   5   9   1.9092   1.6268   6.3867  -0.6429  -1.3223   2.3306   0.00    0.0
2018/03/13 13:28:18.000   78.250526001   16.137592760   619.8219   5   9   1.9094   1.6268   6.3864  -0.6430  -1.3224   2.3310   0.00    0.0
2018/03/13 13:28:19.000   78.250523906   16.137599021   618.9791   5   9   1.9096   1.6269   6.3861  -0.6432  -1.3225   2.3315   0.00    0.0
2018/03/13 13:28:20.000   78.250520831   16.137610642   619.6277   5   9   1.9097   1.6269   6.3858  -0.6433  -1.3227   2.3319   0.00    0.0
2018/03/13 13:28:21.000   78.250525694   16.137597343   620.4335   5   9   1.9099   1.6270   6.3855  -0.6435  -1.3228   2.3323   0.00    0.0
2018/03/13 13:28:22.000   78.250527740   16.137579689   620.1280   5   9   1.9101   1.6270   6.3852  -0.6436  -1.3229   2.3328   0.00    0.0
2018/03/13 13:28:23.000   78.250528851   16.137603713   618.9354   5   9   1.9103   1.6270   6.3849  -0.6437  -1.3230   2.3332   0.00    0.0
2018/03/13 13:28:24.000   78.250530558   16.137583162   621.4399   5   9   1.9104   1.6271   6.3846  -0.6439  -1.3232   2.3336   0.00    0.0
2018/03/13 13:28:25.000   78.250530289   16.137592490   619.7435   5   9   1.9106   1.6271   6.3843  -0.6440  -1.3233   2.3340   0.00    0.0
2018/03/13 13:28:26.000   78.250524408   16.137588286   619.1738   5   9   1.9108   1.6272   6.3840  -0.6442  -1.3234   2.3345   0.00    0.0
2018/03/13 13:28:27.000   78.250523836   16.137603992   619.5903   5   9   1.9110   1.6272   6.3837  -0.6443  -1.3235   2.3349   0.00    0.0
2018/03/13 13:28:28.000   78.250521742   16.137585758   620.4643   5   9   1.9111   1.6273   6.3834  -0.6445  -1.3237   2.3353   0.00    0.0
2018/03/13 13:28:29.000   78.250523217   16.137594320   620.1073   5   9   1.9113   1.6273   6.3831  -0.6446  -1.3238   2.3357   0.00    0.0
2018/03/13 13:28:30.000   78.250523318   16.137604422   619.4388   5   9   1.9115   1.6274   6.3828  -0.6448  -1.3239   2.3362   0.00    0.0
2018/03/13 13:28:31.000   78.250527742   16.137591274   619.8569   5   9   1.9117   1.6274   6.3825  -0.6449  -1.3240   2.3366   0.00    0.0
2018/03/13 13:28:32.000   78.250530695   16.137582825   620.5658   5   9   1.9118   1.6275   6.3822  -0.6451  -1.3241   2.3370   0.00    0.0
2018/03/13 13:28:33.000   78.250531220   16.137590795   619.7233   5   9   1.9120   1.6275   6.3819  -0.6452  -1.3243   2.3374   0.00    0.0
2018/03/13 13:28:34.000   78.250528243   16.137589046   619.2120   5   9   1.9122   1.6276   6.3816  -0.6454  -1.3244   2.3379   0.00    0.0
2018/03/13 13:28:35.000   78.250525304   16.137581883   619.7603   5   9   1.9124   1.6276   6.3813  -0.6455  -1.3245   2.3383   0.00    0.0
2018/03/13 13:28:36.000   78.250522380   16.137585518   620.4153   5   9   1.9125   1.6277   6.3810  -0.6457  -1.3246   2.3387   0.00    0.0
2018/03/13 13:28:37.000   78.250515674   16.137600946   619.5682   5   9   1.9127   1.6277   6.3806  -0.6458  -1.3248   2.3391   0.00    0.0
2018/03/13 13:28:38.000   78.250520372   16.137574112   620.5379   5   9   1.9129   1.6278   6.3803  -0.6459  -1.3249   2.3396   0.00    0.0
2018/03/13 13:28:39.000   78.250521675   16.137577870   621.3029   5   9   1.9131   1.6278   6.3800  -0.6461  -1.3250   2.3400   0.00    0.0
2018/03/13 13:28:40.000   78.250525217   16.137589725   621.1006   5   9   1.9132   1.6279   6.3797  -0.6462  -1.3251   2.3404   0.00    0.0
2018/03/13 13:28:41.000   78.250531026   16.137589905   619.5920   5   9   1.9134   1.6279   6.3794  -0.6464  -1.3252   2.3408   0.00    0.0
2018/03/13 13:28:42.000   78.250532335   16.137566400   620.4752   5   9   1.9136   1.6280   6.3791  -0.6465  -1.3254   2.3412   0.00    0.0
2018/03/13 13:28:43.000   78.250525726   16.137593043   619.6814   5   9   1.9138   1.6280   6.3788  -0.6467  -1.3255   2.3417   0.00    0.0
2018/03/13 13:28:44.000   78.250524792   16.137592244   620.3377   5   9   1.9139   1.6281   6.3785  -0.6468  -1.3256   2.3421   0.00    0.0
2018/03/13 13:28:45.000   78.250523604   16.137590409   619.4726   5   9   1.9141   1.6281   6.3782  -0.6470  -1.3257   2.3425   0.00    0.0
2018/03/13 13:28:46.000   78.250520236   16.137598019   619.6598   5   9   1.9143   1.6282   6.3779  -0.6471  -1.3258   2.3429   0.00    0.0
2018/03/13 13:28:47.000   78.250520449   16.137600076   620.6390   5   9   1.9145   1.6282   6.3776  -0.6473  -1.3260   2.3433   0.00    0.0
2018/03/13 13:28:48.000   78.250527458   16.137597438   618.9105   5   9   1.9146   1.6283   6.3773  -0.6474  -1.3261   2.3438   0.00    0.0
2018/03/13 13:28:49.000   78.250529254   16.137586774   619.5797   5   9   1.9148   1.6283   6.3769  -0.6476  -1.3262   2.3442   0.00    0.0
2018/03/13 13:28:50.000   78.250529438   16.137593138   619.4674   5   9   1.9150   1.6283   6.3766  -0.6477  -1.3263   2.3446   0.00    0.0
2018/03/13 13:28:51.000   78.250529951   16.137577251   620.3870   5   9   1.9152   1.6284   6.3763  -0.6478  -1.3265   2.3450   0.00    0.0
2018/03/13 13:28:52.000   78.250524517   16.137587542   619.7586   5   9   1.9153   1.6284   6.3760  -0.6480  -1.3266   2.3454   0.00    0.0
2018/03/13 13:28:53.000   78.250522439   16.137591251   620.8244   5   9   1.9155   1.6285   6.3757  -0.6481  -1.3267   2.3458   0.00    0.0
2018/03/13 13:28:54.000   78.250520905   16.137602637   618.9635   5   9   1.9157   1.6285   6.3754  -0.6483  -1.3268   2.3463   0.00    0.0
2018/03/13 13:28:55.000   78.250522702   16.137589647   620.8647   5   9   1.9159   1.6286   6.3751  -0.6484  -1.3269   2.3467   0.00    0.0
2018/03/13 13:28:56.000   78.250523816   16.137605128   618.6396   5   9   1.9160   1.6286   6.3747  -0.6486  -1.3271   2.3471   0.00    0.0
2018/03/13 13:28:57.000   78.250527433   16.137582254   620.0792   5   9   1.9162   1.6287   6.3744  -0.6487  -1.3272   2.3475   0.00    0.0
2018/03/13 13:28:58.000   78.250532161   16.137583880   619.6492   5   9   1.9164   1.6287   6.3741  -0.6489  -1.3273   2.3479   0.00    0.0
2018/03/13 13:28:59.000   78.250527828   16.137605740   619.5993   5   9   1.9166   1.6288   6.3738  -0.6490  -1.3274   2.3483   0.00    0.0
2018/03/13 13:29:00.000   78.250530724   16.137598673   619.6910   5   9   1.9167   1.6288   6.3735  -0.6492  -1.3275   2.3487   0.00    0.0
2018/03/13 13:29:01.000   78.250530389   16.137573652   620.2166   5   9   1.9169   1.6289   6.3732  -0.6493  -1.3276   2.3492   0.00    0.0
2018/03/13 13:29:02.000   78.250523766   16.137597459   619.7114   5   9   1.9171   1.6289   6.3728  -0.6494  -1.3278   2.3496   0.00    0.0
2018/03/13 13:29:03.000   78.250521674   16.137577287   620.3467   5   9   1.9173   1.6290   6.3725  -0.6496  -1.3279   2.3500   0.00    0.0
2018/03/13 13:29:04.000   78.250523139   16.137607436   619.5071   5   9   1.9174   1.6290   6.3722  -0.6497  -1.3280   2.3504   0.00    0.0
2018/03/13 13:29:05.000   78.250525959   16.137575839   619.7178   5   9   1.9176   1.6291   6.3719  -0.6499  -1.3281   2.3508   0.00    0.0
2018/03/13 13:29:06.000   78.250527783   16.137602047   619.5403   5   9   1.9178   1.6291   6.3716  -0.6500  -1.3282   2.3512   0.00    0.0
2018/03/13 13:29:07.000   78.250527417   16.137584704   620.0240   5   9   1.9180   1.6292   6.3712  -0.6502  -1.3284   2.3516   0.00    0.0
2018/03/13 13:29:08.000   78.250526535   16.137571769   621.4857   5   9   1.9181   1.6292   6.3709  -0.6503  -1.3285   2.3520   0.00    0.0
2018/03/13 13:29:09.000   78.250524338   16.137575050   621.4639   5   9   1.9183   1.6293   6.3706  -0.6505  -1.3286   2.3525   0.00    0.0
2018/03/13 13:29:10.000   78.250517456   16.137595047   619.6330   5   9   1.9185   1.6293   6.3703  -0.6506  -1.3287   2.3529   0.00    0.0
2018/03/13 13:29:11.000   78.250521726   16.137582878   621.1531   5   9   1.9187   1.6294   6.3699  -0.6508  -1.3288   2.3533   0.00    0.0
2018/03/13 13:29:12.000   78.250520459   16.137599222   619.5747   5   9   1.9188   1.6294   6.3696  -0.6509  -1.3289   2.3537   0.00    0.0
2018/03/13 13:29:13.000   78.250521948   16.137597886   620.1529   5   9   1.9190   1.6295   6.3693  -0.6510  -1.3291   2.3541   0.00    0.0
2018/03/13 13:29:14.000   78.250525904   16.137597037   619.0626   5   9   1.9192   1.6295   6.3690  -0.6512  -1.3292   2.3545   0.00    0.0
2018/03/13 13:29:15.000   78.250531602   16.137595392   617.8117   5   9   1.9194   1.6296   6.3686  -0.6513  -1.3293   2.3549   0.00    0.0
2018/03/13 13:29:16.000   78.250539530   16.137585029   620.1261   5   9   1.9195   1.6296   6.3683  -0.6515  -1.3294   2.3553   0.00    0.0
2018/03/13 13:29:17.000   78.250532041   16.137600798   620.3134   5   9   1.9197   1.6297   6.3680  -0.6516  -1.3295   2.3557   0.00    0.0
2018/03/13 13:29:18.000   78.250523281   16.137584862   620.6880   5   9   1.9199   1.6297   6.3677  -0.6518  -1.3297   2.3561   0.00    0.0
2018/03/13 13:29:19.000   78.250523010   16.137574252   621.1033   5   9   1.9201   1.6297   6.3673  -0.6519  -1.3298   2.3565   0.00    0.0
2018/03/13 13:29:20.000   78.250516190   16.137597119   620.0845   5   9   1.9202   1.6298   6.3670  -0.6521  -1.3299   2.3569   0.00    0.0
2018/03/13 13:29:21.000   78.250516200   16.137611522   619.8378   5   9   1.9204   1.6298   6.3667  -0.6522  -1.3300   2.3573   0.00    0.0
2018/03/13 13:29:22.000   78.250523426   16.137583733   620.3196   5   9   1.9206   1.6299   6.3664  -0.6523  -1.3301   2.3577   0.00    0.0
2018/03/13 13:29:23.000   78.250525852   16.137587607   619.4400   5   9   1.9208   1.6299   6.3660  -0.6525  -1.3302   2.3582   0.00    0.0
2018/03/13 13:29:24.000   78.250524533   16.137594604   619.8559   5   9   1.9209   1.6300   6.3657  -0.6526  -1.3304   2.3586   0.00    0.0
2018/03/13 13:29:25.000   78.250530170   16.137594684   619.5259   5   9   1.9211   1.6300   6.3654  -0.6528  -1.3305   2.3590   0.00    0.0
2018/03/13 13:29:26.000   78.250534630   16.137566383   621.4360   5   9   1.9213   1.6301   6.3650  -0.6529  -1.3306   2.3594   0.00    0.0
2018/03/13 13:29:27.000   78.250527096   16.137600672   619.5382   5   9   1.9215   1.6301   6.3647  -0.6531  -1.3307   2.3598   0.00    0.0
2018/03/13 13:29:28.000   78.250524385   16.137593147   620.6050   5   9   1.9216   1.6302   6.3644  -0.6532  -1.3308   2.3602   0.00    0.0
2018/03/13 13:29:29.000   78.250524693   16.137593070   618.7250   5   9   1.9218   1.6302   6.3640  -0.6533  -1.3309   2.3606   0.00    0.0
2018/03/13 13:29:30.000   78.250524784   16.137597043   619.8247   5   9   1.9220   1.6303   6.3637  -0.6535  -1.3310   2.3610   0.00    0.0
2018/03/13 13:29:31.000   78.250524418   16.137608458   618.3851   5   9   1.9222   1.6303   6.3634  -0.6536  -1.3312   2.3614   0.00    0.0
2018/03/13 13:29:32.000   78.250527422   16.137585448   619.7797   5   9   1.9223   1.6304   6.3630  -0.6538  -1.3313   2.3618   0.00    0.0
2018/03/13 13:29:33.000   78.250525374   16.137571097   619.7303   5   9   1.9225   1.6304   6.3627  -0.6539  -1.3314   2.3622   0.00    0.0
2018/03/13 13:29:34.000   78.250521732   16.137584672   619.6005   5   9   1.9227   1.6305   6.3624  -0.6541  -1.3315   2.3626   0.00    0.0
2018/03/13 13:29:35.000   78.250520414   16.137584034   621.0233   5   9   1.9229   1.6305   6.3620  -0.6542  -1.3316   2.3630   0.00    0.0
2018/03/13 13:29:36.000   78.250520546   16.137575511   621.1144   5   9   1.9230   1.6306   6.3617  -0.6544  -1.3317   2.3634   0.00    0.0
2018/03/13 13:29:37.000   78.250519138   16.137579124   620.2803   5   9   1.9232   1.6306   6.3614  -0.6545  -1.3319   2.3638   0.00    0.0
2018/03/13 13:29:38.000   78.250518514   16.137591516   620.5777   5   9   1.9234   1.6307   6.3610  -0.6546  -1.3320   2.3642   0.00    0.0
2018/03/13 13:29:39.000   78.250522957   16.137593220   619.8436   5   9   1.9236   1.6307   6.3607  -0.6548  -1.3321   2.3646   0.00    0.0
2018/03/13 13:29:40.000   78.250527301   16.137600974   619.9680   5   9   1.9237   1.6308   6.3604  -0.6549  -1.3322   2.3650   0.00    0.0
2018/03/13 13:29:41.000   78.250529960   16.137594730   619.2372   5   9   1.9239   1.6308   6.3600  -0.6551  -1.3323   2.3654   0.00    0.0
2018/03/13 13:29:42.000   78.250534001   16.137591153   618.8942   5   9   1.9241   1.6309   6.3597  -0.6552  -1.3324   2.3658   0.00    0.0
2018/03/13 13:29:43.000   78.250538687   16.137591933   619.5835   5   9   1.9243   1.6309   6.3593  -0.6554  -1.3325   2.3662   0.00    0.0
2018/03/13 13:29:44.000   78.250525374   16.137603295   620.2511   5   9   1.9244   1.6310   6.3590  -0.6555  -1.3327   2.3666   0.00    0.0
2018/03/13 13:29:45.000   78.250518686   16.137598958   620.0329   5   9   1.9246   1.6310   6.3587  -0.6556  -1.3328   2.3670   0.00    0.0
2018/03/13 13:29:46.000   78.250521613   16.137567813   621.6383   5   9   1.9248   1.6311   6.3583  -0.6558  -1.3329   2.3674   0.00    0.0
2018/03/13 13:29:47.000   78.250516753   16.137597791   620.0164   5   9   1.9250   1.6311   6.3580  -0.6559  -1.3330   2.3677   0.00    0.0
2018/03/13 13:29:48.000   78.250521812   16.137609532   619.9780   5   9   1.9251   1.6312   6.3576  -0.6561  -1.3331   2.3681   0.00    0.0
2018/03/13 13:29:49.000   78.250527082   16.137572821   621.1112   5   9   1.9253   1.6312   6.3573  -0.6562  -1.3332   2.3685   0.00    0.0
2018/03/13 13:29:50.000   78.250525944   16.137591004   618.9905   5   9   1.9255   1.6313   6.3569  -0.6564  -1.3333   2.3689   0.00    0.0
2018/03/13 13:29:51.000   78.250531183   16.137587222   620.0507   5   9   1.9257   1.6313   6.3566  -0.6565  -1.3334   2.3693   0.00    0.0
2018/03/13 13:29:52.000   78.250533680   16.137588869   618.8229   5   9   1.9258   1.6314   6.3563  -0.6566  -1.3336   2.3697   0.00    0.0
2018/03/13 13:29:53.000   78.250532023   16.137583221   619.8572   5   9   1.9260   1.6314   6.3559  -0.6568  -1.3337   2.3701   0.00    0.0
2018/03/13 13:29:54.000   78.250527074   16.137605880   620.2117   5   9   1.9262   1.6315   6.3556  -0.6569  -1.3338   2.3705   0.00    0.0
2018/03/13 13:29:55.000   78.250526834   16.137599748   620.2713   5   9   1.9264   1.6315   6.3552  -0.6571  -1.3339   2.3709   0.00    0.0
2018/03/13 13:29:56.000   78.250527145   16.137588087   619.2292   5   9   1.9265   1.6316   6.3549  -0.6572  -1.3340   2.3713   0.00    0.0
2018/03/13 13:29:57.000   78.250523872   16.137603066   619.7281   5   9   1.9267   1.6316   6.3545  -0.6574  -1.3341   2.3717   0.00    0.0
2018/03/13 13:29:58.000   78.250524080   16.137605457   618.4822   5   9   1.9269   1.6317   6.3542  -0.6575  -1.3342   2.3721   0.00    0.0
2018/03/13 13:29:59.000   78.250526826   16.137559589   621.8622   5   9   1.9271   1.6317   6.3538  -0.6576  -1.3343   2.3725   0.00    0.0
2018/03/13 13:30:00.000   78.250520503   16.137601702   619.1800   5   9   1.9272   1.6318   6.3535  -0.6578  -1.3345   2.3729   0.00    0.0
2018/03/13 13:30:01.000   78.250518703   16.137587674   620.6522   5   9   1.9274   1.6318   6.3531  -0.6579  -1.3346   2.3732   0.00    0.0
2018/03/13 13:30:02.000   78.250523642   16.137582666   619.8169   5   9   1.9276   1.6318   6.3528  -0.6581  -1.3347   2.3736   0.00    0.0
2018/03/13 13:30:03.000   78.250524949   16.137585414   620.7345   5   9   1.9278   1.6319   6.3524  -0.6582  -1.3348   2.3740   0.00    0.0
2018/03/13 13:30:04.000   78.250520784   16.137604450   618.4355   5   9   1.9279   1.6319   6.3521  -0.6583  -1.3349   2.3744   0.00    0.0
2018/03/13 13:30:05.000   78.250524086   16.137591095   620.0415   5   9   1.9281   1.6320   6.3517  -0.6585  -1.3350   2.3748   0.00    0.0
2018/03/13 13:30:06.000   78.250530267   16.137607156   619.4155   5   9   1.9283   1.6320   6.3514  -0.6586  -1.3351   2.3752   0.00    0.0
2018/03/13 13:30:07.000   78.250536613   16.137581282   620.9335   5   9   1.9285   1.6321   6.3510  -0.6588  -1.3352   2.3756   0.00    0.0
2018/03/13 13:30:08.000   78.250530073   16.137596070   618.7658   5   9   1.9286   1.6321   6.3507  -0.6589  -1.3354   2.3760   0.00    0.0
2018/03/13 13:30:09.000   78.250534729   16.137569976   621.8312   5   9   1.9288   1.6322   6.3503  -0.6591  -1.3355   2.3763   0.00    0.0
2018/03/13 13:30:10.000   78.250525148   16.137585177   619.4355   5   9   1.9290   1.6322   6.3500  -0.6592  -1.3356   2.3767   0.00    0.0
2018/03/13 13:30:11.000   78.250517059   16.137597737   620.4080   5   9   1.9292   1.6323   6.3496  -0.6593  -1.3357   2.3771   0.00    0.0
2018/03/13 13:30:12.000   78.250517814   16.137590939   619.9427   5   9   1.9293   1.6323   6.3493  -0.6595  -1.3358   2.3775   0.00    0.0
2018/03/13 13:30:13.000   78.250520491   16.137584903   620.3959   5   9   1.9295   1.6324   6.3489  -0.6596  -1.3359   2.3779   0.00    0.0
2018/03/13 13:30:14.000   78.250521144   16.137606053   619.8481   5   9   1.9297   1.6324   6.3486  -0.6598  -1.3360   2.3783   0.00    0.0
2018/03/13 13:30:15.000   78.250525653   16.137574161   620.6944   5   9   1.9299   1.6325   6.3482  -0.6599  -1.3361   2.3787   0.00    0.0
2018/03/13 13:30:16.000   78.250530013   16.137586400   619.6729   5   9   1.9300   1.6325   6.3479  -0.6600  -1.3362   2.3790   0.00    0.0
2018/03/13 13:30:17.000   78.250531084   16.137587277   620.0695   5   9   1.9302   1.6326   6.3475  -0.6602  -1.3363   2.3794   0.00    0.0
2018/03/13 13:30:18.000   78.250530661   16.137590294   618.7576   5   9   1.9304   1.6326   6.3471  -0.6603  -1.3365   2.3798   0.00    0.0
2018/03/13 13:30:19.000   78.250528673   16.137595529   619.2388   5   9   1.9306   1.6327   6.3468  -0.6605  -1.3366   2.3802   0.00    0.0
2018/03/13 13:30:20.000   78.250526459   16.137603160   619.5176   5   9   1.9307   1.6327   6.3464  -0.6606  -1.3367   2.3806   0.00    0.0
2018/03/13 13:30:21.000   78.250523707   16.137588678   619.8801   5   9   1.9309   1.6328   6.3461  -0.6608  -1.3368   2.3810   0.00    0.0
2018/03/13 13:30:22.000   78.250522823   16.137586030   619.0945   5   9   1.9311   1.6328   6.3457  -0.6609  -1.3369   2.3813   0.00    0.0
2018/03/13 13:30:23.000   78.250527732   16.137587558   620.9259   5   9   1.9313   1.6329   6.3453  -0.6610  -1.3370   2.3817   0.00    0.0
2018/03/13 13:30:24.000   78.250523978   16.137594791   619.1661   5   9   1.9314   1.6329   6.3450  -0.6612  -1.3371   2.3821   0.00    0.0
2018/03/13 13:30:25.000   78.250526339   16.137581269   619.5376   5   9   1.9316   1.6330   6.3446  -0.6613  -1.3372   2.3825   0.00    0.0
2018/03/13 13:30:26.000   78.250522570   16.137590569   618.5422   5   9   1.9318   1.6330   6.3443  -0.6615  -1.3373   2.3829   0.00    0.0
2018/03/13 13:30:27.000   78.250523780   16.137578033   620.6019   5   9   1.9320   1.6331   6.3439  -0.6616  -1.3374   2.3832   0.00    0.0
2018/03/13 13:30:28.000   78.250518111   16.137595911   619.3384   5   9   1.9321   1.6331   6.3435  -0.6617  -1.3375   2.3836   0.00    0.0
2018/03/13 13:30:29.000   78.250522139   16.137592737   619.6882   5   9   1.9323   1.6332   6.3432  -0.6619  -1.3377   2.3840   0.00    0.0
2018/03/13 13:30:30.000   78.250522071   16.137592292   620.2246   5   9   1.9325   1.6332   6.3428  -0.6620  -1.3378   2.3844   0.00    0.0
2018/03/13 13:30:31.000   78.250523667   16.137583700   620.4137   5   9   1.9327   1.6333   6.3425  -0.6622  -1.3379   2.3848   0.00    0.0
2018/03/13 13:30:32.000   78.250527844   16.137586518   618.2698   5   9   1.9328   1.6333   6.3421  -0.6623  -1.3380   2.3851   0.00    0.0
2018/03/13 13:30:33.000   78.250530064   16.137592638   621.2235   5   9   1.9330   1.6334   6.3417  -0.6624  -1.3381   2.3855   0.00    0.0
2018/03/13 13:30:34.000   78.250532316   16.137601847   619.7891   5   9   1.9332   1.6334   6.3414  -0.6626  -1.3382   2.3859   0.00    0.0
2018/03/13 13:30:35.000   78.250533726   16.137573578   619.8898   5   9   1.9334   1.6335   6.3410  -0.6627  -1.3383   2.3863   0.00    0.0
2018/03/13 13:30:36.000   78.250526158   16.137581199   619.4874   5   9   1.9335   1.6335   6.3406  -0.6629  -1.3384   2.3866   0.00    0.0
2018/03/13 13:30:37.000   78.250523248   16.137594715   620.2270   5   9   1.9337   1.6336   6.3403  -0.6630  -1.3385   2.3870   0.00    0.0
2018/03/13 13:30:38.000   78.250519341   16.137591130   619.2201   5   9   1.9339   1.6336   6.3399  -0.6631  -1.3386   2.3874   0.00    0.0
2018/03/13 13:30:39.000   78.250519353   16.137595284   619.4057   5   9   1.9341   1.6337   6.3395  -0.6633  -1.3387   2.3878   0.00    0.0
2018/03/13 13:30:40.000   78.250517947   16.137591632   619.4352   5   9   1.9342   1.6337   6.3392  -0.6634  -1.3388   2.3881   0.00    0.0
2018/03/13 13:30:41.000   78.250524070   16.137596210   620.7783   5   9   1.9344   1.6338   6.3388  -0.6636  -1.3389   2.3885   0.00    0.0
2018/03/13 13:30:42.000   78.250525258   16.137591294   618.8329   5   9   1.9346   1.6338   6.3384  -0.6637  -1.3391   2.3889   0.00    0.0
2018/03/13 13:30:43.000   78.250527665   16.137581968   619.2478   5   9   1.9348   1.6339   6.3381  -0.6638  -1.3392   2.3893   0.00    0.0
2018/03/13 13:30:44.000   78.250528362   16.137589849   619.7304   5   9   1.9349   1.6339   6.3377  -0.6640  -1.3393   2.3896   0.00    0.0
2018/03/13 13:30:45.000   78.250530346   16.137587015   620.2896   5   9   1.9351   1.6340   6.3373  -0.6641  -1.3394   2.3900   0.00    0.0
2018/03/13 13:30:46.000   78.250525057   16.137593644   620.3578   5   9   1.9353   1.6340   6.3369  -0.6643  -1.3395   2.3904   0.00    0.0
2018/03/13 13:30:47.000   78.250521034   16.137601289   617.9370   5   9   1.9355   1.6341   6.3366  -0.6644  -1.3396   2.3908   0.00    0.0
2018/03/13 13:30:48.000   78.250521991   16.137581808   618.3164   5   9   1.9356   1.6341   6.3362  -0.6645  -1.3397   2.3911   0.00    0.0
2018/03/13 13:30:49.000   78.250519593   16.137590137   618.9760   5   9   1.9358   1.6342   6.3358  -0.6647  -1.3398   2.3915   0.00    0.0
2018/03/13 13:30:50.000   78.250520857   16.137598450   619.0136   5   9   1.9360   1.6342   6.3355  -0.6648  -1.3399   2.3919   0.00    0.0
2018/03/13 13:30:51.000   78.250521906   16.137592531   618.6385   5   9   1.9362   1.6343   6.3351  -0.6650  -1.3400   2.3922   0.00    0.0
2018/03/13 13:30:52.000   78.250528227   16.137567458   620.3620   5   9   1.9363   1.6343   6.3347  -0.6651  -1.3401   2.3926   0.00    0.0
2018/03/13 13:30:53.000   78.250526188   16.137576371   619.4815   5   9   1.9365   1.6344   6.3343  -0.6652  -1.3402   2.3930   0.00    0.0
2018/03/13 13:30:54.000   78.250527315   16.137574318   619.4897   5   9   1.9367   1.6344   6.3340  -0.6654  -1.3403   2.3933   0.00    0.0
2018/03/13 13:30:55.000   78.250525919   16.137589773   619.9382   5   9   1.9369   1.6345   6.3336  -0.6655  -1.3404   2.3937   0.00    0.0
2018/03/13 13:30:56.000   78.250526105   16.137599012   619.6360   5   9   1.9370   1.6345   6.3332  -0.6657  -1.3405   2.3941   0.00    0.0
2018/03/13 13:30:57.000   78.250522474   16.137604458   619.3937   5   9   1.9372   1.6346   6.3328  -0.6658  -1.3406   2.3944   0.00    0.0
2018/03/13 13:30:58.000   78.250523470   16.137584414   618.9213   5   9   1.9374   1.6346   6.3325  -0.6659  -1.3407   2.3948   0.00    0.0
2018/03/13 13:30:59.000   78.250526702   16.137580123   618.2105   5   9   1.9376   1.6347   6.3321  -0.6661  -1.3408   2.3952   0.00    0.0
2018/03/13 13:31:00.000   78.250525801   16.137589366   618.0756   5   9   1.9377   1.6347   6.3317  -0.6662  -1.3410   2.3955   0.00    0.0
2018/03/13 13:31:01.000   78.250527736   16.137592557   619.0065   5   9   1.9379   1.6348   6.3313  -0.6663  -1.3411   2.3959   0.00    0.0
2018/03/13 13:31:02.000   78.250525961   16.137585996   619.8614   5   9   1.9381   1.6348   6.3309  -0.6665  -1.3412   2.3963   0.00    0.0
2018/03/13 13:31:03.000   78.250522884   16.137579737   619.1723   5   9   1.9383   1.6349   6.3306  -0.6666  -1.3413   2.3966   0.00    0.0
2018/03/13 13:31:04.000   78.250526729   16.137574301   621.7367   5   9   1.9384   1.6349   6.3302  -0.6668  -1.3414   2.3970   0.00    0.0
2018/03/13 13:31:05.000   78.250523116   16.137591664   620.3671   5   9   1.9386   1.6350   6.3298  -0.6669  -1.3415   2.3974   0.00    0.0
2018/03/13 13:31:06.000   78.250522115   16.137587824   619.8625   5   9   1.9388   1.6350   6.3294  -0.6670  -1.3416   2.3977   0.00    0.0
2018/03/13 13:31:07.000   78.250523647   16.137594621   619.4287   5   9   1.9390   1.6351   6.3290  -0.6672  -1.3417   2.3981   0.00    0.0
2018/03/13 13:31:08.000   78.250523375   16.137596263   619.2873   5   9   1.9391   1.6351   6.3287  -0.6673  -1.3418   2.3985   0.00    0.0
2018/03/13 13:31:09.000   78.250524189   16.137588350   619.0101   5   9   1.9393   1.6352   6.3283  -0.6675  -1.3419   2.3988   0.00    0.0
2018/03/13 13:31:10.000   78.250525494   16.137562644   619.2752   5   9   1.9395   1.6352   6.3279  -0.6676  -1.3420   2.3992   0.00    0.0
2018/03/13 13:31:11.000   78.250525460   16.137574674   619.6798   5   9   1.9396   1.6353   6.3275  -0.6677  -1.3421   2.3996   0.00    0.0
2018/03/13 13:31:12.000   78.250523743   16.137578343   619.6904   5   9   1.9398   1.6353   6.3271  -0.6679  -1.3422   2.3999   0.00    0.0
2018/03/13 13:31:13.000   78.250524962   16.137581726   619.5064   5   9   1.9400   1.6354   6.3268  -0.6680  -1.3423   2.4003   0.00    0.0
2018/03/13 13:31:14.000   78.250525338   16.137576141   619.7113   5   9   1.9402   1.6354   6.3264  -0.6682  -1.3424   2.4006   0.00    0.0
2018/03/13 13:31:15.000   78.250523418   16.137592507   618.8796   5   9   1.9403   1.6355   6.3260  -0.6683  -1.3425   2.4010   0.00    0.0
2018/03/13 13:31:16.000   78.250523078   16.137596905   619.9096   5   9   1.9405   1.6355   6.3256  -0.6684  -1.3426   2.4014   0.00    0.0
2018/03/13 13:31:17.000   78.250521921   16.137581898   619.1107   5   9   1.9407   1.6356   6.3252  -0.6686  -1.3427   2.4017   0.00    0.0
2018/03/13 13:31:18.000   78.250520560   16.137595133   618.6513   5   9   1.9409   1.6356   6.3248  -0.6687  -1.3428   2.4021   0.00    0.0
2018/03/13 13:31:19.000   78.250520588   16.137583487   619.7043   5   9   1.9410   1.6357   6.3244  -0.6688  -1.3429   2.4024   0.00    0.0
2018/03/13 13:31:20.000   78.250524188   16.137587007   618.5567   5   9   1.9412   1.6357   6.3241  -0.6690  -1.3430   2.4028   0.00    0.0
2018/03/13 13:31:21.000   78.250523665   16.137576237   619.7553   5   9   1.9414   1.6358   6.3237  -0.6691  -1.3431   2.4032   0.00    0.0
2018/03/13 13:31:22.000   78.250526565   16.137583790   619.1317   5   9   1.9416   1.6358   6.3233  -0.6693  -1.3432   2.4035   0.00    0.0
2018/03/13 13:31:23.000   78.250527398   16.137588545   619.2374   5   9   1.9417   1.6359   6.3229  -0.6694  -1.3433   2.4039   0.00    0.0
2018/03/13 13:31:24.000   78.250529671   16.137584974   619.3498   5   9   1.9419   1.6359   6.3225  -0.6695  -1.3434   2.4042   0.00    0.0
2018/03/13 13:31:25.000   78.250524863   16.137592620   619.7004   5   9   1.9421   1.6360   6.3221  -0.6697  -1.3435   2.4046   0.00    0.0
2018/03/13 13:31:26.000   78.250522596   16.137595582   617.9338   5   9   1.9423   1.6360   6.3217  -0.6698  -1.3436   2.4050   0.00    0.0
2018/03/13 13:31:27.000   78.250521679   16.137583269   619.1368   5   9   1.9424   1.6361   6.3213  -0.6699  -1.3437   2.4053   0.00    0.0
2018/03/13 13:31:28.000   78.250519821   16.137578239   620.1751   5   9   1.9426   1.6361   6.3209  -0.6701  -1.3438   2.4057   0.00    0.0
2018/03/13 13:31:29.000   78.250516050   16.137577768   619.2162   5   9   1.9428   1.6362   6.3205  -0.6702  -1.3439   2.4060   0.00    0.0
2018/03/13 13:31:30.000   78.250519565   16.137574494   619.2829   5   9   1.9430   1.6362   6.3202  -0.6704  -1.3440   2.4064   0.00    0.0
2018/03/13 13:31:31.000   78.250520456   16.137570306   620.0940   5   9   1.9431   1.6363   6.3198  -0.6705  -1.3441   2.4067   0.00    0.0
2018/03/13 13:31:32.000   78.250517910   16.137590355   617.5412   5   9   1.9433   1.6363   6.3194  -0.6706  -1.3442   2.4071   0.00    0.0
