% program   : RTKPOST ver.2.4.2
% inp file  : Z:\home\linda\Documents\Spring18\GitHub_Unis\data\processed_data\46250723.obs
% inp file  : Z:\home\linda\Documents\Spring18\GitHub_Unis\data\processed_data\46250723.nav
% obs start : 2018/03/13 12:56:14.0 GPST (week1992 219374.0s)
% obs end   : 2018/03/13 13:11:18.0 GPST (week1992 220278.0s)
% pos mode  : single
% elev mask : 15.0 deg
% ionos opt : broadcast
% tropo opt : saastamoinen
% ephemeris : broadcast
% navi sys  : gps glonass galileo qzss sbas
%
% (lat/lon/height=WGS84/ellipsoidal,Q=1:fix,2:float,3:sbas,4:dgps,5:single,6:ppp,ns=# of satellites)
%  GPST                  latitude(deg) longitude(deg)  height(m)   Q  ns   sdn(m)   sde(m)   sdu(m)  sdne(m)  sdeu(m)  sdun(m) age(s)  ratio
2018/03/13 12:56:14.000   78.254770932   16.249371957   343.6937   5   9   1.6546   1.7449   6.9513   0.3973   0.7096   1.2402   0.00    0.0
2018/03/13 12:56:15.000   78.254773272   16.249357592   342.8834   5   9   1.6546   1.7449   6.9507   0.3973   0.7083   1.2402   0.00    0.0
2018/03/13 12:56:16.000   78.254771839   16.249355970   343.7740   5   9   1.6546   1.7449   6.9502   0.3973   0.7070   1.2402   0.00    0.0
2018/03/13 12:56:17.000   78.254767048   16.249366861   341.9915   5   9   1.6546   1.7449   6.9496   0.3974   0.7056   1.2403   0.00    0.0
2018/03/13 12:56:18.000   78.254770343   16.249345972   342.1498   5   9   1.6546   1.7449   6.9491   0.3974   0.7043   1.2403   0.00    0.0
2018/03/13 12:56:19.000   78.254773011   16.249323874   343.4601   5   9   1.6546   1.7450   6.9485   0.3974   0.7030   1.2404   0.00    0.0
2018/03/13 12:56:20.000   78.254770470   16.249324960   342.9201   5   9   1.6546   1.7450   6.9480   0.3974   0.7016   1.2404   0.00    0.0
2018/03/13 12:56:21.000   78.254772046   16.249321456   342.3074   5   9   1.6546   1.7450   6.9474   0.3974   0.7003   1.2404   0.00    0.0
2018/03/13 12:56:22.000   78.254776682   16.249333833   342.2137   5   9   1.6546   1.7450   6.9469   0.3974   0.6990   1.2405   0.00    0.0
2018/03/13 12:56:23.000   78.254774340   16.249349267   343.4464   5   9   1.6546   1.7450   6.9463   0.3974   0.6976   1.2405   0.00    0.0
2018/03/13 12:56:24.000   78.254771281   16.249361053   342.8723   5   9   1.6546   1.7451   6.9458   0.3974   0.6963   1.2406   0.00    0.0
2018/03/13 12:56:25.000   78.254771008   16.249342011   342.9873   5   9   1.6546   1.7451   6.9452   0.3974   0.6949   1.2406   0.00    0.0
2018/03/13 12:56:26.000   78.254775359   16.249341929   345.2061   5   9   1.6546   1.7451   6.9447   0.3974   0.6936   1.2406   0.00    0.0
2018/03/13 12:56:27.000   78.254769780   16.249365418   344.4219   5   9   1.6546   1.7451   6.9441   0.3974   0.6922   1.2407   0.00    0.0
2018/03/13 12:56:28.000   78.254773455   16.249365075   345.1168   5   9   1.6546   1.7452   6.9435   0.3974   0.6909   1.2407   0.00    0.0
2018/03/13 12:56:29.000   78.254777156   16.249361512   345.9952   5   9   1.6546   1.7452   6.9430   0.3974   0.6895   1.2408   0.00    0.0
2018/03/13 12:56:30.000   78.254771397   16.249367670   342.7680   5   9   1.6547   1.7452   6.9424   0.3974   0.6881   1.2408   0.00    0.0
2018/03/13 12:56:31.000   78.254774022   16.249362282   344.5784   5   9   1.6547   1.7452   6.9419   0.3975   0.6868   1.2408   0.00    0.0
2018/03/13 12:56:32.000   78.254773831   16.249351326   345.4044   5   9   1.6547   1.7452   6.9413   0.3975   0.6854   1.2409   0.00    0.0
2018/03/13 12:56:33.000   78.254770890   16.249359489   344.4559   5   9   1.6547   1.7453   6.9407   0.3975   0.6841   1.2409   0.00    0.0
2018/03/13 12:56:34.000   78.254769994   16.249364645   343.1310   5   9   1.6547   1.7453   6.9402   0.3975   0.6827   1.2410   0.00    0.0
2018/03/13 12:56:35.000   78.254779046   16.249338700   345.2327   5   9   1.6547   1.7453   6.9396   0.3975   0.6813   1.2410   0.00    0.0
2018/03/13 12:56:36.000   78.254775699   16.249361207   344.0566   5   9   1.6547   1.7453   6.9391   0.3975   0.6799   1.2411   0.00    0.0
2018/03/13 12:56:37.000   78.254773802   16.249367011   342.8166   5   9   1.6547   1.7453   6.9385   0.3975   0.6786   1.2411   0.00    0.0
2018/03/13 12:56:38.000   78.254777155   16.249358129   345.3732   5   9   1.6547   1.7454   6.9379   0.3975   0.6772   1.2411   0.00    0.0
2018/03/13 12:56:39.000   78.254773892   16.249359243   343.4403   5   9   1.6547   1.7454   6.9374   0.3975   0.6758   1.2412   0.00    0.0
2018/03/13 12:56:40.000   78.254769906   16.249372246   342.4498   5   9   1.6547   1.7454   6.9368   0.3975   0.6744   1.2412   0.00    0.0
2018/03/13 12:56:41.000   78.254772912   16.249346082   345.0984   5   9   1.6547   1.7454   6.9362   0.3975   0.6730   1.2413   0.00    0.0
2018/03/13 12:56:42.000   78.254771484   16.249340244   345.8545   5   9   1.6547   1.7455   6.9357   0.3975   0.6716   1.2413   0.00    0.0
2018/03/13 12:56:43.000   78.254764119   16.249346392   342.9757   5   9   1.6547   1.7455   6.9351   0.3975   0.6702   1.2414   0.00    0.0
2018/03/13 12:56:44.000   78.254764696   16.249336958   343.2350   5   9   1.6547   1.7455   6.9345   0.3975   0.6688   1.2414   0.00    0.0
2018/03/13 12:56:45.000   78.254764469   16.249342695   343.1566   5   9   1.6547   1.7455   6.9340   0.3976   0.6674   1.2415   0.00    0.0
2018/03/13 12:56:46.000   78.254766564   16.249347960   342.0218   5   9   1.6547   1.7455   6.9334   0.3976   0.6660   1.2415   0.00    0.0
2018/03/13 12:56:47.000   78.254771386   16.249343958   342.2163   5   9   1.6547   1.7456   6.9328   0.3976   0.6646   1.2415   0.00    0.0
2018/03/13 12:56:48.000   78.254775226   16.249336987   342.7683   5   9   1.6547   1.7456   6.9323   0.3976   0.6632   1.2416   0.00    0.0
2018/03/13 12:56:49.000   78.254770558   16.249343469   341.6999   5   9   1.6547   1.7456   6.9317   0.3976   0.6618   1.2416   0.00    0.0
2018/03/13 12:56:50.000   78.254769838   16.249324268   343.7218   5   9   1.6548   1.7456   6.9311   0.3976   0.6604   1.2417   0.00    0.0
2018/03/13 12:56:51.000   78.254771210   16.249342399   345.3615   5   9   1.6548   1.7457   6.9305   0.3976   0.6590   1.2417   0.00    0.0
2018/03/13 12:56:52.000   78.254766964   16.249363032   345.2659   5   9   1.6548   1.7457   6.9300   0.3976   0.6576   1.2418   0.00    0.0
2018/03/13 12:56:53.000   78.254770120   16.249365279   345.1556   5   9   1.6548   1.7457   6.9294   0.3976   0.6561   1.2418   0.00    0.0
2018/03/13 12:56:54.000   78.254771480   16.249361160   344.6437   5   9   1.6548   1.7457   6.9288   0.3976   0.6547   1.2419   0.00    0.0
2018/03/13 12:56:55.000   78.254773370   16.249365957   345.4755   5   9   1.6548   1.7457   6.9283   0.3976   0.6533   1.2419   0.00    0.0
2018/03/13 12:56:56.000   78.254776406   16.249354119   345.1233   5   9   1.6548   1.7458   6.9277   0.3976   0.6519   1.2420   0.00    0.0
2018/03/13 12:56:57.000   78.254774897   16.249354744   345.0890   5   9   1.6548   1.7458   6.9271   0.3976   0.6504   1.2420   0.00    0.0
2018/03/13 12:56:58.000   78.254772310   16.249362426   343.9638   5   9   1.6548   1.7458   6.9265   0.3976   0.6490   1.2421   0.00    0.0
2018/03/13 12:56:59.000   78.254773096   16.249350936   343.7341   5   9   1.6548   1.7458   6.9260   0.3976   0.6475   1.2421   0.00    0.0
2018/03/13 12:57:00.000   78.254772829   16.249359080   342.9442   5   9   1.6548   1.7459   6.9254   0.3977   0.6461   1.2421   0.00    0.0
2018/03/13 12:57:01.000   78.254776525   16.249359183   343.5853   5   9   1.6548   1.7459   6.9248   0.3977   0.6447   1.2422   0.00    0.0
2018/03/13 12:57:02.000   78.254778549   16.249349051   343.3598   5   9   1.6548   1.7459   6.9242   0.3977   0.6432   1.2422   0.00    0.0
2018/03/13 12:57:03.000   78.254775345   16.249346285   342.9512   5   9   1.6548   1.7459   6.9236   0.3977   0.6418   1.2423   0.00    0.0
2018/03/13 12:57:04.000   78.254774848   16.249345198   345.3089   5   9   1.6548   1.7459   6.9231   0.3977   0.6403   1.2423   0.00    0.0
2018/03/13 12:57:05.000   78.254777059   16.249329014   346.0893   5   9   1.6548   1.7460   6.9225   0.3977   0.6389   1.2424   0.00    0.0
2018/03/13 12:57:06.000   78.254769758   16.249355109   343.7345   5   9   1.6549   1.7460   6.9219   0.3977   0.6374   1.2424   0.00    0.0
2018/03/13 12:57:07.000   78.254771079   16.249361159   344.1983   5   9   1.6549   1.7460   6.9213   0.3977   0.6359   1.2425   0.00    0.0
2018/03/13 12:57:08.000   78.254773841   16.249338018   344.8537   5   9   1.6549   1.7460   6.9207   0.3977   0.6345   1.2425   0.00    0.0
2018/03/13 12:57:09.000   78.254766478   16.249360695   342.9487   5   9   1.6549   1.7461   6.9202   0.3977   0.6330   1.2426   0.00    0.0
2018/03/13 12:57:10.000   78.254769618   16.249348263   342.6729   5   9   1.6549   1.7461   6.9196   0.3977   0.6315   1.2426   0.00    0.0
2018/03/13 12:57:11.000   78.254772789   16.249348196   343.8735   5   9   1.6549   1.7461   6.9190   0.3977   0.6300   1.2427   0.00    0.0
2018/03/13 12:57:12.000   78.254769644   16.249360025   343.4248   5   9   1.6549   1.7461   6.9184   0.3977   0.6286   1.2427   0.00    0.0
2018/03/13 12:57:13.000   78.254766248   16.249364084   342.7374   5   9   1.6549   1.7462   6.9178   0.3977   0.6271   1.2428   0.00    0.0
2018/03/13 12:57:14.000   78.254767462   16.249337823   343.9724   5   9   1.6549   1.7462   6.9172   0.3977   0.6256   1.2428   0.00    0.0
2018/03/13 12:57:15.000   78.254767003   16.249309344   342.5739   5   9   1.6549   1.7462   6.9167   0.3977   0.6241   1.2429   0.00    0.0
2018/03/13 12:57:16.000   78.254768014   16.249316036   342.3024   5   9   1.6549   1.7462   6.9161   0.3978   0.6226   1.2429   0.00    0.0
2018/03/13 12:57:17.000   78.254771076   16.249290573   343.4199   5   9   1.6549   1.7462   6.9155   0.3978   0.6211   1.2430   0.00    0.0
2018/03/13 12:57:18.000   78.254773227   16.249328238   344.5099   5   9   1.6549   1.7463   6.9149   0.3978   0.6196   1.2430   0.00    0.0
2018/03/13 12:57:19.000   78.254769447   16.249339596   342.5230   5   9   1.6549   1.7463   6.9143   0.3978   0.6181   1.2431   0.00    0.0
2018/03/13 12:57:20.000   78.254775902   16.249337898   345.4568   5   9   1.6550   1.7463   6.9137   0.3978   0.6166   1.2431   0.00    0.0
2018/03/13 12:57:21.000   78.254773549   16.249363060   345.1964   5   9   1.6550   1.7463   6.9131   0.3978   0.6151   1.2432   0.00    0.0
2018/03/13 12:57:22.000   78.254771756   16.249380090   344.1066   5   9   1.6550   1.7464   6.9126   0.3978   0.6136   1.2432   0.00    0.0
2018/03/13 12:57:23.000   78.254775737   16.249361576   345.5262   5   9   1.6550   1.7464   6.9120   0.3978   0.6121   1.2433   0.00    0.0
2018/03/13 12:57:24.000   78.254775072   16.249378610   345.5568   5   9   1.6550   1.7464   6.9114   0.3978   0.6106   1.2433   0.00    0.0
2018/03/13 12:57:25.000   78.254775766   16.249376935   343.6545   5   9   1.6550   1.7464   6.9108   0.3978   0.6090   1.2434   0.00    0.0
2018/03/13 12:57:26.000   78.254778539   16.249378774   344.8160   5   9   1.6550   1.7465   6.9102   0.3978   0.6075   1.2434   0.00    0.0
2018/03/13 12:57:27.000   78.254775892   16.249378469   343.8650   5   9   1.6550   1.7465   6.9096   0.3978   0.6060   1.2435   0.00    0.0
2018/03/13 12:57:28.000   78.254771835   16.249389035   343.0426   5   9   1.6550   1.7465   6.9090   0.3978   0.6045   1.2436   0.00    0.0
2018/03/13 12:57:29.000   78.254776415   16.249349045   343.4445   5   9   1.6550   1.7465   6.9084   0.3978   0.6029   1.2436   0.00    0.0
2018/03/13 12:57:30.000   78.254777317   16.249342104   344.7746   5   9   1.6550   1.7466   6.9078   0.3978   0.6014   1.2437   0.00    0.0
2018/03/13 12:57:31.000   78.254771465   16.249345873   343.2386   5   9   1.6550   1.7466   6.9072   0.3978   0.5998   1.2437   0.00    0.0
2018/03/13 12:57:32.000   78.254773035   16.249330255   344.4145   5   9   1.6550   1.7466   6.9066   0.3979   0.5983   1.2438   0.00    0.0
2018/03/13 12:57:33.000   78.254774220   16.249349340   345.9347   5   9   1.6551   1.7466   6.9060   0.3979   0.5967   1.2438   0.00    0.0
2018/03/13 12:57:34.000   78.254772578   16.249370015   345.6019   5   9   1.6551   1.7467   6.9054   0.3979   0.5952   1.2439   0.00    0.0
2018/03/13 12:57:35.000   78.254776444   16.249354051   345.0637   5   9   1.6551   1.7467   6.9049   0.3979   0.5936   1.2439   0.00    0.0
2018/03/13 12:57:36.000   78.254774156   16.249361323   342.9544   5   9   1.6551   1.7467   6.9043   0.3979   0.5921   1.2440   0.00    0.0
2018/03/13 12:57:37.000   78.254770820   16.249366074   342.0221   5   9   1.6551   1.7467   6.9037   0.3979   0.5905   1.2440   0.00    0.0
2018/03/13 12:57:38.000   78.254772547   16.249355353   343.0250   5   9   1.6551   1.7467   6.9031   0.3979   0.5889   1.2441   0.00    0.0
2018/03/13 12:57:39.000   78.254766276   16.249355095   341.7768   5   9   1.6551   1.7468   6.9025   0.3979   0.5873   1.2441   0.00    0.0
2018/03/13 12:57:40.000   78.254769461   16.249351740   342.5031   5   9   1.6551   1.7468   6.9019   0.3979   0.5858   1.2442   0.00    0.0
2018/03/13 12:57:41.000   78.254772205   16.249357028   345.2332   5   9   1.6551   1.7468   6.9013   0.3979   0.5842   1.2443   0.00    0.0
2018/03/13 12:57:42.000   78.254765662   16.249379317   342.6680   5   9   1.6551   1.7468   6.9007   0.3979   0.5826   1.2443   0.00    0.0
2018/03/13 12:57:43.000   78.254774150   16.249361726   345.0461   5   9   1.6551   1.7469   6.9001   0.3979   0.5810   1.2444   0.00    0.0
2018/03/13 12:57:44.000   78.254777089   16.249345901   346.4265   5   9   1.6552   1.7469   6.8995   0.3979   0.5794   1.2444   0.00    0.0
2018/03/13 12:57:45.000   78.254771394   16.249360889   344.7217   5   9   1.6552   1.7469   6.8989   0.3979   0.5778   1.2445   0.00    0.0
2018/03/13 12:57:46.000   78.254774895   16.249355624   345.1208   5   9   1.6552   1.7469   6.8983   0.3979   0.5762   1.2445   0.00    0.0
2018/03/13 12:57:47.000   78.254775255   16.249352709   345.2232   5   9   1.6552   1.7470   6.8977   0.3979   0.5746   1.2446   0.00    0.0
2018/03/13 12:57:48.000   78.254773415   16.249359872   342.9722   5   9   1.6552   1.7470   6.8971   0.3979   0.5730   1.2446   0.00    0.0
2018/03/13 12:57:49.000   78.254779627   16.249354220   344.7909   5   9   1.6552   1.7470   6.8965   0.3979   0.5714   1.2447   0.00    0.0
2018/03/13 12:57:50.000   78.254777708   16.249343967   345.2773   5   9   1.6552   1.7470   6.8959   0.3980   0.5698   1.2448   0.00    0.0
2018/03/13 12:57:51.000   78.254771831   16.249361286   343.4026   5   9   1.6552   1.7471   6.8952   0.3980   0.5681   1.2448   0.00    0.0
2018/03/13 12:57:52.000   78.254773947   16.249351846   344.5656   5   9   1.6552   1.7471   6.8946   0.3980   0.5665   1.2449   0.00    0.0
2018/03/13 12:57:53.000   78.254776991   16.249349628   344.2179   5   9   1.6552   1.7471   6.8940   0.3980   0.5649   1.2449   0.00    0.0
2018/03/13 12:57:54.000   78.254774004   16.249379050   342.7867   5   9   1.6552   1.7471   6.8934   0.3980   0.5633   1.2450   0.00    0.0
2018/03/13 12:57:55.000   78.254775506   16.249367693   343.4321   5   9   1.6553   1.7472   6.8928   0.3980   0.5616   1.2450   0.00    0.0
2018/03/13 12:57:56.000   78.254774978   16.249361918   344.2944   5   9   1.6553   1.7472   6.8922   0.3980   0.5600   1.2451   0.00    0.0
2018/03/13 12:57:57.000   78.254768153   16.249371951   343.7736   5   9   1.6553   1.7472   6.8916   0.3980   0.5583   1.2452   0.00    0.0
2018/03/13 12:57:58.000   78.254773497   16.249365169   346.5580   5   9   1.6553   1.7472   6.8910   0.3980   0.5567   1.2452   0.00    0.0
2018/03/13 12:57:59.000   78.254776275   16.249350367   348.1336   5   9   1.6553   1.7473   6.8904   0.3980   0.5550   1.2453   0.00    0.0
2018/03/13 12:58:00.000   78.254768994   16.249359063   345.8564   5   9   1.6553   1.7473   6.8898   0.3980   0.5533   1.2453   0.00    0.0
2018/03/13 12:58:01.000   78.254772718   16.249347647   344.9805   5   9   1.6553   1.7473   6.8892   0.3980   0.5517   1.2454   0.00    0.0
2018/03/13 12:58:02.000   78.254777378   16.249353800   343.9912   5   9   1.6553   1.7473   6.8886   0.3980   0.5500   1.2455   0.00    0.0
2018/03/13 12:58:03.000   78.254773477   16.249361288   340.8670   5   9   1.6553   1.7474   6.8880   0.3980   0.5483   1.2455   0.00    0.0
2018/03/13 12:58:04.000   78.254773108   16.249330639   341.2559   5   9   1.6553   1.7474   6.8873   0.3980   0.5466   1.2456   0.00    0.0
2018/03/13 12:58:05.000   78.254774405   16.249318234   343.3537   5   9   1.6554   1.7474   6.8867   0.3980   0.5450   1.2456   0.00    0.0
2018/03/13 12:58:06.000   78.254772513   16.249350773   343.5436   5   9   1.6554   1.7474   6.8861   0.3980   0.5433   1.2457   0.00    0.0
2018/03/13 12:58:07.000   78.254767991   16.249356978   344.7036   5   9   1.6554   1.7475   6.8855   0.3980   0.5416   1.2458   0.00    0.0
2018/03/13 12:58:08.000   78.254773470   16.249354164   345.6745   5   9   1.6554   1.7475   6.8849   0.3980   0.5399   1.2458   0.00    0.0
2018/03/13 12:58:09.000   78.254769302   16.249368697   344.5125   5   9   1.6554   1.7475   6.8843   0.3981   0.5382   1.2459   0.00    0.0
2018/03/13 12:58:10.000   78.254768427   16.249379212   343.9656   5   9   1.6554   1.7476   6.8837   0.3981   0.5364   1.2459   0.00    0.0
2018/03/13 12:58:11.000   78.254774410   16.249370842   344.4808   5   9   1.6554   1.7476   6.8831   0.3981   0.5347   1.2460   0.00    0.0
2018/03/13 12:58:12.000   78.254769082   16.249377598   344.5558   5   9   1.6554   1.7476   6.8824   0.3981   0.5330   1.2461   0.00    0.0
2018/03/13 12:58:13.000   78.254770853   16.249375505   345.1805   5   9   1.6554   1.7476   6.8818   0.3981   0.5313   1.2461   0.00    0.0
2018/03/13 12:58:14.000   78.254775204   16.249360778   345.5412   5   9   1.6555   1.7477   6.8812   0.3981   0.5296   1.2462   0.00    0.0
2018/03/13 12:58:15.000   78.254772638   16.249361771   344.5064   5   9   1.6555   1.7477   6.8806   0.3981   0.5278   1.2462   0.00    0.0
2018/03/13 12:58:16.000   78.254776441   16.249345837   343.0550   5   9   1.6555   1.7477   6.8800   0.3981   0.5261   1.2463   0.00    0.0
2018/03/13 12:58:17.000   78.254777167   16.249357108   343.0285   5   9   1.6555   1.7477   6.8794   0.3981   0.5243   1.2464   0.00    0.0
2018/03/13 12:58:18.000   78.254775851   16.249340542   342.6625   5   9   1.6555   1.7478   6.8787   0.3981   0.5226   1.2464   0.00    0.0
2018/03/13 12:58:19.000   78.254777924   16.249349349   342.5636   5   9   1.6555   1.7478   6.8781   0.3981   0.5208   1.2465   0.00    0.0
2018/03/13 12:58:20.000   78.254772208   16.249352708   341.3433   5   9   1.6555   1.7478   6.8775   0.3981   0.5191   1.2466   0.00    0.0
2018/03/13 12:58:21.000   78.254775417   16.249357395   343.6721   5   9   1.6555   1.7478   6.8769   0.3981   0.5173   1.2466   0.00    0.0
2018/03/13 12:58:22.000   78.254775494   16.249364540   344.3390   5   9   1.6555   1.7479   6.8763   0.3981   0.5155   1.2467   0.00    0.0
2018/03/13 12:58:23.000   78.254772323   16.249360267   344.7834   5   9   1.6556   1.7479   6.8756   0.3981   0.5137   1.2467   0.00    0.0
2018/03/13 12:58:24.000   78.254775888   16.249360079   347.3681   5   9   1.6556   1.7479   6.8750   0.3981   0.5119   1.2468   0.00    0.0
2018/03/13 12:58:25.000   78.254772614   16.249361020   347.2428   5   9   1.6556   1.7479   6.8744   0.3981   0.5101   1.2469   0.00    0.0
2018/03/13 12:58:26.000   78.254768269   16.249358404   346.0744   5   9   1.6556   1.7480   6.8738   0.3981   0.5083   1.2469   0.00    0.0
2018/03/13 12:58:27.000   78.254773853   16.249344600   345.5615   5   9   1.6556   1.7480   6.8731   0.3981   0.5065   1.2470   0.00    0.0
2018/03/13 12:58:28.000   78.254774047   16.249331803   344.4561   5   9   1.6556   1.7480   6.8725   0.3981   0.5047   1.2471   0.00    0.0
2018/03/13 12:58:29.000   78.254770929   16.249374394   342.2011   5   9   1.6556   1.7481   6.8719   0.3982   0.5029   1.2471   0.00    0.0
2018/03/13 12:58:30.000   78.254772135   16.249346950   342.3853   5   9   1.6556   1.7481   6.8713   0.3982   0.5011   1.2472   0.00    0.0
2018/03/13 12:58:31.000   78.254773605   16.249354248   343.3802   5   9   1.6557   1.7481   6.8707   0.3982   0.4993   1.2473   0.00    0.0
2018/03/13 12:58:32.000   78.254770873   16.249359233   341.9731   5   9   1.6557   1.7481   6.8700   0.3982   0.4974   1.2473   0.00    0.0
2018/03/13 12:58:33.000   78.254776004   16.249352390   343.8991   5   9   1.6557   1.7482   6.8694   0.3982   0.4956   1.2474   0.00    0.0
2018/03/13 12:58:34.000   78.254775023   16.249351211   343.3522   5   9   1.6557   1.7482   6.8688   0.3982   0.4937   1.2474   0.00    0.0
2018/03/13 12:58:35.000   78.254768504   16.249371838   341.9818   5   9   1.6557   1.7482   6.8681   0.3982   0.4919   1.2475   0.00    0.0
2018/03/13 12:58:36.000   78.254774980   16.249347134   345.4941   5   9   1.6557   1.7482   6.8675   0.3982   0.4900   1.2476   0.00    0.0
2018/03/13 12:58:37.000   78.254774546   16.249335679   344.3250   5   9   1.6557   1.7483   6.8669   0.3982   0.4881   1.2476   0.00    0.0
2018/03/13 12:58:38.000   78.254775029   16.249356573   344.6836   5   9   1.6557   1.7483   6.8663   0.3982   0.4863   1.2477   0.00    0.0
2018/03/13 12:58:39.000   78.254779892   16.249343620   344.4274   5   9   1.6557   1.7483   6.8656   0.3982   0.4844   1.2478   0.00    0.0
2018/03/13 12:58:40.000   78.254777214   16.249348387   344.1014   5   9   1.6558   1.7483   6.8650   0.3982   0.4825   1.2478   0.00    0.0
2018/03/13 12:58:41.000   78.254773132   16.249362761   343.5310   5   9   1.6558   1.7484   6.8644   0.3982   0.4806   1.2479   0.00    0.0
2018/03/13 12:58:42.000   78.254774898   16.249349719   344.2227   5   9   1.6558   1.7484   6.8637   0.3982   0.4787   1.2480   0.00    0.0
2018/03/13 12:58:43.000   78.254771475   16.249356027   344.2456   5   9   1.6558   1.7484   6.8631   0.3982   0.4768   1.2480   0.00    0.0
2018/03/13 12:58:44.000   78.254769448   16.249372805   344.0633   5   9   1.6558   1.7485   6.8625   0.3982   0.4749   1.2481   0.00    0.0
2018/03/13 12:58:45.000   78.254773059   16.249366272   344.1937   5   9   1.6558   1.7485   6.8619   0.3982   0.4729   1.2482   0.00    0.0
2018/03/13 12:58:46.000   78.254773310   16.249373823   344.1838   5   9   1.6558   1.7485   6.8612   0.3982   0.4710   1.2482   0.00    0.0
2018/03/13 12:58:47.000   78.254770974   16.249366717   343.9211   5   9   1.6559   1.7485   6.8606   0.3982   0.4691   1.2483   0.00    0.0
2018/03/13 12:58:48.000   78.254773357   16.249363355   343.0712   5   9   1.6559   1.7486   6.8600   0.3982   0.4671   1.2484   0.00    0.0
2018/03/13 12:58:49.000   78.254773373   16.249353022   343.7758   5   9   1.6559   1.7486   6.8593   0.3982   0.4652   1.2484   0.00    0.0
2018/03/13 12:58:50.000   78.254771951   16.249353178   343.8762   5   9   1.6559   1.7486   6.8587   0.3982   0.4632   1.2485   0.00    0.0
2018/03/13 12:58:51.000   78.254774338   16.249342553   344.3820   5   9   1.6559   1.7486   6.8581   0.3983   0.4612   1.2486   0.00    0.0
2018/03/13 12:58:52.000   78.254773814   16.249344084   344.4187   5   9   1.6559   1.7487   6.8574   0.3983   0.4593   1.2487   0.00    0.0
2018/03/13 12:58:53.000   78.254777165   16.249344070   344.1083   5   9   1.6559   1.7487   6.8568   0.3983   0.4573   1.2487   0.00    0.0
2018/03/13 12:58:54.000   78.254774899   16.249351695   343.9126   5   9   1.6559   1.7487   6.8562   0.3983   0.4553   1.2488   0.00    0.0
2018/03/13 12:58:55.000   78.254775843   16.249349097   343.6051   5   9   1.6560   1.7488   6.8555   0.3983   0.4533   1.2489   0.00    0.0
2018/03/13 12:58:56.000   78.254778192   16.249366786   344.5953   5   9   1.6560   1.7488   6.8549   0.3983   0.4513   1.2489   0.00    0.0
2018/03/13 12:58:57.000   78.254772125   16.249364196   344.3469   5   9   1.6560   1.7488   6.8542   0.3983   0.4493   1.2490   0.00    0.0
2018/03/13 12:58:58.000   78.254770894   16.249380723   344.1356   5   9   1.6560   1.7488   6.8536   0.3983   0.4472   1.2491   0.00    0.0
2018/03/13 12:58:59.000   78.254771468   16.249364943   344.6361   5   9   1.6560   1.7489   6.8530   0.3983   0.4452   1.2491   0.00    0.0
2018/03/13 12:59:00.000   78.254773937   16.249363504   344.9288   5   9   1.6560   1.7489   6.8523   0.3983   0.4431   1.2492   0.00    0.0
2018/03/13 12:59:01.000   78.254772973   16.249390423   343.7397   5   9   1.6560   1.7489   6.8517   0.3983   0.4411   1.2493   0.00    0.0
2018/03/13 12:59:02.000   78.254776684   16.249359483   343.1023   5   9   1.6561   1.7490   6.8510   0.3983   0.4390   1.2493   0.00    0.0
2018/03/13 12:59:03.000   78.254776281   16.249352146   343.0315   5   9   1.6561   1.7490   6.8504   0.3983   0.4370   1.2494   0.00    0.0
2018/03/13 12:59:04.000   78.254770120   16.249357511   342.5262   5   9   1.6561   1.7490   6.8498   0.3983   0.4349   1.2495   0.00    0.0
2018/03/13 12:59:05.000   78.254777336   16.249326734   344.7215   5   9   1.6561   1.7490   6.8491   0.3983   0.4328   1.2496   0.00    0.0
2018/03/13 12:59:06.000   78.254775762   16.249326190   344.2223   5   9   1.6561   1.7491   6.8485   0.3983   0.4307   1.2496   0.00    0.0
2018/03/13 12:59:07.000   78.254769139   16.249348077   342.9949   5   9   1.6561   1.7491   6.8478   0.3983   0.4286   1.2497   0.00    0.0
2018/03/13 12:59:08.000   78.254774270   16.249328609   346.0943   5   9   1.6561   1.7491   6.8472   0.3983   0.4265   1.2498   0.00    0.0
2018/03/13 12:59:09.000   78.254774688   16.249356204   344.0456   5   9   1.6562   1.7492   6.8466   0.3983   0.4243   1.2498   0.00    0.0
2018/03/13 12:59:10.000   78.254772707   16.249379312   343.1302   5   9   1.6562   1.7492   6.8459   0.3983   0.4222   1.2499   0.00    0.0
2018/03/13 12:59:11.000   78.254776934   16.249351140   345.3840   5   9   1.6562   1.7492   6.8453   0.3983   0.4200   1.2500   0.00    0.0
2018/03/13 12:59:12.000   78.254771234   16.249373611   344.2100   5   9   1.6562   1.7492   6.8446   0.3983   0.4179   1.2501   0.00    0.0
2018/03/13 12:59:13.000   78.254766785   16.249392770   342.7578   5   9   1.6562   1.7493   6.8440   0.3983   0.4157   1.2501   0.00    0.0
2018/03/13 12:59:14.000   78.254778016   16.249352770   344.9444   5   9   1.6562   1.7493   6.8433   0.3983   0.4135   1.2502   0.00    0.0
2018/03/13 12:59:15.000   78.254775166   16.249358074   343.2400   5   9   1.6562   1.7493   6.8427   0.3983   0.4113   1.2503   0.00    0.0
2018/03/13 12:59:16.000   78.254771173   16.249360058   343.1892   5   9   1.6563   1.7494   6.8420   0.3984   0.4091   1.2503   0.00    0.0
2018/03/13 12:59:17.000   78.254775388   16.249341167   345.8003   5   9   1.6563   1.7494   6.8414   0.3984   0.4069   1.2504   0.00    0.0
2018/03/13 12:59:18.000   78.254775401   16.249342323   345.2466   5   9   1.6563   1.7494   6.8408   0.3984   0.4047   1.2505   0.00    0.0
2018/03/13 12:59:19.000   78.254772409   16.249336710   344.4245   5   9   1.6563   1.7494   6.8401   0.3984   0.4024   1.2506   0.00    0.0
2018/03/13 12:59:20.000   78.254775510   16.249326294   344.5936   5   9   1.6563   1.7495   6.8395   0.3984   0.4002   1.2506   0.00    0.0
2018/03/13 12:59:21.000   78.254773887   16.249332068   343.4837   5   9   1.6563   1.7495   6.8388   0.3984   0.3979   1.2507   0.00    0.0
2018/03/13 12:59:22.000   78.254772432   16.249374418   343.0419   5   9   1.6564   1.7495   6.8382   0.3984   0.3956   1.2508   0.00    0.0
2018/03/13 12:59:23.000   78.254776989   16.249357944   344.8279   5   9   1.6564   1.7496   6.8375   0.3984   0.3933   1.2509   0.00    0.0
2018/03/13 12:59:24.000   78.254772612   16.249374283   344.1798   5   9   1.6564   1.7496   6.8369   0.3984   0.3910   1.2509   0.00    0.0
2018/03/13 12:59:25.000   78.254771831   16.249383567   344.3259   5   9   1.6564   1.7496   6.8362   0.3984   0.3887   1.2510   0.00    0.0
2018/03/13 12:59:26.000   78.254773409   16.249361175   344.6112   5   9   1.6564   1.7496   6.8356   0.3984   0.3864   1.2511   0.00    0.0
2018/03/13 12:59:27.000   78.254773956   16.249364672   342.8719   5   9   1.6564   1.7497   6.8349   0.3984   0.3841   1.2512   0.00    0.0
2018/03/13 12:59:28.000   78.254772863   16.249366999   343.0622   5   9   1.6564   1.7497   6.8343   0.3984   0.3817   1.2512   0.00    0.0
2018/03/13 12:59:29.000   78.254776021   16.249345182   343.4029   5   9   1.6565   1.7497   6.8336   0.3984   0.3793   1.2513   0.00    0.0
2018/03/13 12:59:30.000   78.254772796   16.249351958   341.9968   5   9   1.6565   1.7498   6.8330   0.3984   0.3770   1.2514   0.00    0.0
2018/03/13 12:59:31.000   78.254769590   16.249370812   342.0583   5   9   1.6565   1.7498   6.8323   0.3984   0.3746   1.2515   0.00    0.0
2018/03/13 12:59:32.000   78.254769166   16.249347135   342.5347   5   9   1.6565   1.7498   6.8316   0.3984   0.3721   1.2515   0.00    0.0
2018/03/13 12:59:33.000   78.254768410   16.249341372   342.5386   5   9   1.6565   1.7499   6.8310   0.3984   0.3697   1.2516   0.00    0.0
2018/03/13 12:59:34.000   78.254766582   16.249327557   343.1114   5   9   1.6565   1.7499   6.8303   0.3984   0.3673   1.2517   0.00    0.0
2018/03/13 12:59:35.000   78.254769460   16.249324411   344.3974   5   9   1.6566   1.7499   6.8297   0.3984   0.3648   1.2518   0.00    0.0
2018/03/13 12:59:36.000   78.254771566   16.249323050   344.7677   5   9   1.6566   1.7499   6.8290   0.3984   0.3623   1.2518   0.00    0.0
2018/03/13 12:59:37.000   78.254775317   16.249345665   343.7934   5   9   1.6566   1.7500   6.8284   0.3984   0.3599   1.2519   0.00    0.0
2018/03/13 12:59:38.000   78.254774626   16.249374754   343.0111   5   9   1.6566   1.7500   6.8277   0.3984   0.3573   1.2520   0.00    0.0
2018/03/13 12:59:39.000   78.254776292   16.249368097   343.9328   5   9   1.6566   1.7500   6.8271   0.3984   0.3548   1.2521   0.00    0.0
2018/03/13 12:59:40.000   78.254777557   16.249381869   343.1051   5   9   1.6566   1.7501   6.8264   0.3984   0.3523   1.2522   0.00    0.0
2018/03/13 12:59:41.000   78.254773674   16.249389626   342.8482   5   9   1.6567   1.7501   6.8258   0.3984   0.3497   1.2522   0.00    0.0
2018/03/13 12:59:42.000   78.254776348   16.249372387   345.3702   5   9   1.6567   1.7501   6.8251   0.3984   0.3471   1.2523   0.00    0.0
2018/03/13 12:59:43.000   78.254778621   16.249369655   345.1902   5   9   1.6567   1.7502   6.8244   0.3984   0.3445   1.2524   0.00    0.0
2018/03/13 12:59:44.000   78.254774561   16.249382951   342.8599   5   9   1.6567   1.7502   6.8238   0.3984   0.3419   1.2525   0.00    0.0
2018/03/13 12:59:45.000   78.254780052   16.249368535   344.3693   5   9   1.6567   1.7502   6.8231   0.3984   0.3393   1.2525   0.00    0.0
2018/03/13 12:59:46.000   78.254777112   16.249372164   343.9327   5   9   1.6567   1.7502   6.8225   0.3985   0.3366   1.2526   0.00    0.0
2018/03/13 12:59:47.000   78.254773306   16.249361930   342.2108   5   9   1.6568   1.7503   6.8218   0.3985   0.3340   1.2527   0.00    0.0
2018/03/13 12:59:48.000   78.254775995   16.249331211   345.0609   5   9   1.6568   1.7503   6.8211   0.3985   0.3313   1.2528   0.00    0.0
2018/03/13 12:59:49.000   78.254773821   16.249334846   345.2331   5   9   1.6568   1.7503   6.8205   0.3985   0.3286   1.2529   0.00    0.0
2018/03/13 12:59:50.000   78.254771213   16.249339530   344.1078   5   9   1.6568   1.7504   6.8198   0.3985   0.3258   1.2529   0.00    0.0
2018/03/13 12:59:51.000   78.254775266   16.249314806   347.0936   5   9   1.6568   1.7504   6.8192   0.3985   0.3231   1.2530   0.00    0.0
2018/03/13 12:59:52.000   78.254773169   16.249321930   344.8124   5   9   1.6568   1.7504   6.8185   0.3985   0.3203   1.2531   0.00    0.0
2018/03/13 12:59:53.000   78.254769854   16.249369149   342.6889   5   9   1.6569   1.7505   6.8178   0.3985   0.3175   1.2532   0.00    0.0
2018/03/13 12:59:54.000   78.254774978   16.249342622   345.7848   5   9   1.6569   1.7505   6.8172   0.3985   0.3146   1.2533   0.00    0.0
2018/03/13 12:59:55.000   78.254770329   16.249358083   343.6561   5   9   1.6569   1.7505   6.8165   0.3985   0.3118   1.2533   0.00    0.0
2018/03/13 12:59:56.000   78.254773043   16.249377983   344.1297   5   9   1.6569   1.7505   6.8158   0.3985   0.3089   1.2534   0.00    0.0
2018/03/13 12:59:57.000   78.254775823   16.249346349   345.3913   5   9   1.6569   1.7506   6.8152   0.3985   0.3060   1.2535   0.00    0.0
2018/03/13 12:59:58.000   78.254772932   16.249365849   343.5292   5   9   1.6570   1.7506   6.8145   0.3985   0.3030   1.2536   0.00    0.0
2018/03/13 12:59:59.000   78.254773272   16.249364806   342.8530   5   9   1.6570   1.7506   6.8139   0.3985   0.3001   1.2537   0.00    0.0
2018/03/13 13:00:00.000   78.254775302   16.249358310   343.1915   5   9   1.6570   1.7507   6.8132   0.3985   0.2971   1.2537   0.00    0.0
2018/03/13 13:00:01.000   78.254774439   16.249341108   342.6489   5   9   1.6570   1.7507   6.8125   0.3985   0.2941   1.2538   0.00    0.0
2018/03/13 13:00:02.000   78.254773432   16.249343964   342.9637   5   9   1.6570   1.7507   6.8119   0.3985   0.2910   1.2539   0.00    0.0
2018/03/13 13:00:03.000   78.254775930   16.249334788   342.6681   5   9   1.6570   1.7508   6.8112   0.3985   0.2879   1.2540   0.00    0.0
2018/03/13 13:00:04.000   78.254771217   16.249333273   340.9551   5   9   1.6571   1.7508   6.8105   0.3985   0.2848   1.2541   0.00    0.0
2018/03/13 13:00:05.000   78.254774518   16.249351944   342.7906   5   9   1.6571   1.7508   6.8099   0.3985   0.2817   1.2542   0.00    0.0
2018/03/13 13:00:06.000   78.254773523   16.249350937   342.4041   5   9   1.6571   1.7509   6.8092   0.3985   0.2785   1.2542   0.00    0.0
2018/03/13 13:00:07.000   78.254772606   16.249354186   343.3978   5   9   1.6571   1.7509   6.8085   0.3985   0.2753   1.2543   0.00    0.0
2018/03/13 13:00:08.000   78.254769438   16.249353549   343.4882   5   9   1.6571   1.7509   6.8079   0.3985   0.2720   1.2544   0.00    0.0
2018/03/13 13:00:09.000   78.254767860   16.249355202   343.6448   5   9   1.6572   1.7509   6.8072   0.3985   0.2687   1.2545   0.00    0.0
2018/03/13 13:00:10.000   78.254772450   16.249351599   343.0836   5   9   1.6572   1.7510   6.8065   0.3985   0.2654   1.2546   0.00    0.0
2018/03/13 13:00:11.000   78.254773008   16.249364767   341.7455   5   9   1.6572   1.7510   6.8058   0.3985   0.2620   1.2546   0.00    0.0
2018/03/13 13:00:12.000   78.254772501   16.249364204   341.1564   5   9   1.6572   1.7510   6.8052   0.3985   0.2586   1.2547   0.00    0.0
2018/03/13 13:00:13.000   78.254776765   16.249362055   343.2786   5   9   1.6572   1.7511   6.8045   0.3985   0.2551   1.2548   0.00    0.0
2018/03/13 13:00:14.000   78.254772947   16.249357205   343.4291   5   9   1.6572   1.7511   6.8038   0.3985   0.2516   1.2549   0.00    0.0
2018/03/13 13:00:15.000   78.254774813   16.249364188   343.7403   5   9   1.6573   1.7511   6.8032   0.3985   0.2480   1.2550   0.00    0.0
2018/03/13 13:00:16.000   78.254777271   16.249349460   344.9982   5   9   1.6573   1.7512   6.8025   0.3985   0.2444   1.2551   0.00    0.0
2018/03/13 13:00:17.000   78.254776120   16.249349426   345.4288   5   9   1.6573   1.7512   6.8018   0.3985   0.2408   1.2552   0.00    0.0
2018/03/13 13:00:18.000   78.254775086   16.249359852   343.9196   5   9   1.6573   1.7512   6.8011   0.3985   0.2370   1.2552   0.00    0.0
2018/03/13 13:00:19.000   78.254778519   16.249351655   345.9796   5   9   1.6573   1.7513   6.8005   0.3985   0.2333   1.2553   0.00    0.0
2018/03/13 13:00:20.000   78.254775093   16.249377932   344.0836   5   9   1.6574   1.7513   6.7998   0.3985   0.2294   1.2554   0.00    0.0
2018/03/13 13:00:21.000   78.254774315   16.249379073   343.7301   5   9   1.6574   1.7513   6.7991   0.3985   0.2255   1.2555   0.00    0.0
2018/03/13 13:00:22.000   78.254777270   16.249362505   345.7794   5   9   1.6574   1.7514   6.7985   0.3985   0.2216   1.2556   0.00    0.0
2018/03/13 13:00:23.000   78.254774452   16.249379730   343.7247   5   9   1.6574   1.7514   6.7978   0.3985   0.2175   1.2557   0.00    0.0
2018/03/13 13:00:24.000   78.254772059   16.249366760   343.1064   5   9   1.6574   1.7514   6.7971   0.3985   0.2134   1.2557   0.00    0.0
2018/03/13 13:00:25.000   78.254776318   16.249345329   342.9772   5   9   1.6575   1.7514   6.7964   0.3985   0.2092   1.2558   0.00    0.0
2018/03/13 13:00:26.000   78.254771739   16.249362483   341.4953   5   9   1.6575   1.7515   6.7958   0.3986   0.2049   1.2559   0.00    0.0
2018/03/13 13:00:27.000   78.254776980   16.249346598   342.6540   5   9   1.6575   1.7515   6.7951   0.3986   0.2005   1.2560   0.00    0.0
2018/03/13 13:00:28.000   78.254780880   16.249326259   344.7219   5   9   1.6575   1.7515   6.7944   0.3986   0.1961   1.2561   0.00    0.0
2018/03/13 13:00:29.000   78.254774604   16.249344667   343.8233   5   9   1.6575   1.7516   6.7937   0.3986   0.1915   1.2562   0.00    0.0
2018/03/13 13:00:30.000   78.254774576   16.249341242   344.5190   5   9   1.6576   1.7516   6.7930   0.3986   0.1868   1.2563   0.00    0.0
2018/03/13 13:00:31.000   78.254776885   16.249318035   345.5339   5   9   1.6576   1.7516   6.7924   0.3986   0.1820   1.2564   0.00    0.0
2018/03/13 13:00:32.000   78.254767838   16.249356642   343.0551   5   9   1.6576   1.7517   6.7917   0.3986   0.1771   1.2564   0.00    0.0
2018/03/13 13:00:33.000   78.254771430   16.249359099   343.3219   5   9   1.6576   1.7517   6.7910   0.3986   0.1720   1.2565   0.00    0.0
2018/03/13 13:00:34.000   78.254774850   16.249371077   344.5509   5   9   1.6576   1.7517   6.7903   0.3986   0.1668   1.2566   0.00    0.0
2018/03/13 13:00:35.000   78.254768311   16.249362236   340.8913   5   9   1.6577   1.7518   6.7897   0.3986   0.1614   1.2567   0.00    0.0
2018/03/13 13:00:36.000   78.254771951   16.249350936   343.3524   5   9   1.6577   1.7518   6.7890   0.3986   0.1559   1.2568   0.00    0.0
2018/03/13 13:00:37.000   78.254771313   16.249338361   343.0283   5   9   1.6577   1.7518   6.7883   0.3986   0.1501   1.2569   0.00    0.0
2018/03/13 13:00:38.000   78.254768771   16.249353042   342.1087   5   9   1.6577   1.7519   6.7876   0.3986   0.1441   1.2570   0.00    0.0
2018/03/13 13:00:39.000   78.254770118   16.249352514   341.9990   5   9   1.6577   1.7519   6.7869   0.3986   0.1378   1.2571   0.00    0.0
2018/03/13 13:00:40.000   78.254772557   16.249356308   342.2959   5   9   1.6578   1.7519   6.7863   0.3986   0.1313   1.2571   0.00    0.0
2018/03/13 13:00:41.000   78.254775198   16.249361112   341.6280   5   9   1.6578   1.7520   6.7856   0.3986   0.1244   1.2572   0.00    0.0
2018/03/13 13:00:42.000   78.254776066   16.249362993   342.5600   5   9   1.6578   1.7520   6.7849   0.3986   0.1170   1.2573   0.00    0.0
2018/03/13 13:00:43.000   78.254774520   16.249353368   343.4736   5   9   1.6578   1.7520   6.7842   0.3986   0.1093   1.2574   0.00    0.0
2018/03/13 13:00:44.000   78.254772844   16.249348834   343.6031   5   9   1.6578   1.7521   6.7835   0.3986   0.1009   1.2575   0.00    0.0
2018/03/13 13:00:45.000   78.254771275   16.249349331   344.6304   5   9   1.6579   1.7521   6.7828   0.3986   0.0917   1.2576   0.00    0.0
2018/03/13 13:00:46.000   78.254774138   16.249348341   344.9349   5   9   1.6579   1.7521   6.7822   0.3986   0.0816   1.2577   0.00    0.0
2018/03/13 13:00:47.000   78.254775765   16.249351886   345.2170   5   9   1.6579   1.7522   6.7815   0.3986   0.0699   1.2578   0.00    0.0
2018/03/13 13:00:48.000   78.254771656   16.249361486   341.8712   5   9   1.6579   1.7522   6.7808   0.3986   0.0559   1.2579   0.00    0.0
2018/03/13 13:00:49.000   78.254774364   16.249367528   343.1451   5   9   1.6579   1.7522   6.7801   0.3986   0.0370   1.2580   0.00    0.0
2018/03/13 13:00:50.000   78.254777271   16.249360761   342.9683   5   9   1.6580   1.7523   6.7794   0.3986  -0.0197   1.2580   0.00    0.0
2018/03/13 13:00:51.000   78.254774185   16.249372911   341.5900   5   9   1.6580   1.7523   6.7787   0.3986  -0.0464   1.2581   0.00    0.0
2018/03/13 13:00:52.000   78.254775107   16.249359827   343.8426   5   9   1.6580   1.7523   6.7780   0.3986  -0.0625   1.2582   0.00    0.0
2018/03/13 13:00:53.000   78.254777776   16.249366391   343.7640   5   9   1.6580   1.7524   6.7774   0.3986  -0.0753   1.2583   0.00    0.0
2018/03/13 13:00:54.000   78.254773284   16.249389583   343.9991   5   9   1.6580   1.7524   6.7767   0.3986  -0.0862   1.2584   0.00    0.0
2018/03/13 13:00:55.000   78.254774314   16.249364271   345.1520   5   9   1.6581   1.7524   6.7760   0.3986  -0.0958   1.2585   0.00    0.0
2018/03/13 13:00:56.000   78.254774953   16.249356873   345.7920   5   9   1.6581   1.7525   6.7753   0.3986  -0.1046   1.2586   0.00    0.0
2018/03/13 13:00:57.000   78.254771147   16.249370886   343.6485   5   9   1.6581   1.7525   6.7746   0.3986  -0.1126   1.2587   0.00    0.0
2018/03/13 13:00:58.000   78.254778613   16.249347425   345.0121   5   9   1.6581   1.7525   6.7739   0.3986  -0.1202   1.2588   0.00    0.0
2018/03/13 13:00:59.000   78.254781533   16.249342356   343.8268   5   9   1.6582   1.7526   6.7732   0.3986  -0.1273   1.2589   0.00    0.0
2018/03/13 13:01:00.000   78.254776627   16.249358050   340.7328   5   9   1.6582   1.7526   6.7726   0.3986  -0.1340   1.2590   0.00    0.0
2018/03/13 13:01:01.000   78.254780938   16.249350046   341.2636   5   9   1.6582   1.7526   6.7719   0.3986  -0.1404   1.2590   0.00    0.0
2018/03/13 13:01:02.000   78.254780510   16.249348954   342.1745   5   9   1.6582   1.7527   6.7712   0.3986  -0.1465   1.2591   0.00    0.0
2018/03/13 13:01:03.000   78.254772272   16.249361999   340.7771   5   9   1.6582   1.7527   6.7705   0.3986  -0.1523   1.2592   0.00    0.0
2018/03/13 13:01:04.000   78.254773390   16.249356028   343.1720   5   9   1.6583   1.7527   6.7698   0.3986  -0.1580   1.2593   0.00    0.0
2018/03/13 13:01:05.000   78.254770725   16.249365677   343.3699   5   9   1.6583   1.7528   6.7691   0.3986  -0.1634   1.2594   0.00    0.0
2018/03/13 13:01:06.000   78.254767995   16.249371929   342.1463   5   9   1.6583   1.7528   6.7684   0.3986  -0.1687   1.2595   0.00    0.0
2018/03/13 13:01:07.000   78.254771404   16.249349969   341.9236   5   9   1.6583   1.7528   6.7677   0.3986  -0.1738   1.2596   0.00    0.0
2018/03/13 13:01:08.000   78.254768381   16.249347798   341.2551   5   9   1.6584   1.7529   6.7670   0.3986  -0.1788   1.2597   0.00    0.0
2018/03/13 13:01:09.000   78.254770683   16.249358383   341.2577   5   9   1.6584   1.7529   6.7663   0.3986  -0.1836   1.2598   0.00    0.0
2018/03/13 13:01:10.000   78.254772076   16.249339977   340.7817   5   9   1.6584   1.7529   6.7656   0.3986  -0.1883   1.2599   0.00    0.0
2018/03/13 13:01:11.000   78.254769667   16.249355315   341.5267   5   9   1.6584   1.7530   6.7650   0.3986  -0.1929   1.2600   0.00    0.0
2018/03/13 13:01:12.000   78.254771353   16.249348245   342.4498   5   9   1.6584   1.7530   6.7643   0.3986  -0.1973   1.2601   0.00    0.0
2018/03/13 13:01:13.000   78.254773406   16.249331916   344.0691   5   9   1.6585   1.7530   6.7636   0.3986  -0.2017   1.2602   0.00    0.0
2018/03/13 13:01:14.000   78.254771559   16.249344646   343.1603   5   9   1.6585   1.7531   6.7629   0.3986  -0.2060   1.2603   0.00    0.0
2018/03/13 13:01:15.000   78.254773737   16.249334834   343.5563   5   9   1.6585   1.7531   6.7622   0.3986  -0.2102   1.2604   0.00    0.0
2018/03/13 13:01:16.000   78.254775904   16.249333844   344.4951   5   9   1.6585   1.7531   6.7615   0.3986  -0.2143   1.2605   0.00    0.0
2018/03/13 13:01:17.000   78.254771862   16.249357855   342.0165   5   9   1.6586   1.7532   6.7608   0.3986  -0.2183   1.2606   0.00    0.0
2018/03/13 13:01:18.000   78.254775091   16.249371303   343.0565   5   9   1.6586   1.7532   6.7601   0.3986  -0.2223   1.2607   0.00    0.0
2018/03/13 13:01:19.000   78.254776811   16.249356379   342.6240   5   9   1.6586   1.7532   6.7594   0.3986  -0.2262   1.2608   0.00    0.0
2018/03/13 13:01:20.000   78.254772837   16.249359540   343.3038   5   9   1.6586   1.7533   6.7587   0.3986  -0.2300   1.2608   0.00    0.0
2018/03/13 13:01:21.000   78.254770643   16.249355819   343.9576   5   9   1.6587   1.7533   6.7580   0.3986  -0.2337   1.2609   0.00    0.0
2018/03/13 13:01:22.000   78.254774083   16.249353982   344.8736   5   9   1.6587   1.7533   6.7573   0.3986  -0.2374   1.2610   0.00    0.0
2018/03/13 13:01:23.000   78.254774837   16.249367673   344.1849   5   9   1.6587   1.7534   6.7566   0.3986  -0.2411   1.2611   0.00    0.0
2018/03/13 13:01:24.000   78.254775648   16.249372614   343.9455   5   9   1.6587   1.7534   6.7559   0.3986  -0.2447   1.2612   0.00    0.0
2018/03/13 13:01:25.000   78.254774966   16.249371503   343.1128   5   9   1.6587   1.7534   6.7552   0.3986  -0.2482   1.2613   0.00    0.0
2018/03/13 13:01:26.000   78.254774037   16.249372978   342.6222   5   9   1.6588   1.7535   6.7545   0.3986  -0.2517   1.2614   0.00    0.0
2018/03/13 13:01:27.000   78.254774217   16.249374400   342.9751   5   9   1.6588   1.7535   6.7538   0.3986  -0.2551   1.2615   0.00    0.0
2018/03/13 13:01:28.000   78.254776162   16.249350945   343.6217   5   9   1.6588   1.7535   6.7531   0.3986  -0.2585   1.2616   0.00    0.0
2018/03/13 13:01:29.000   78.254776940   16.249341802   344.7419   5   9   1.6588   1.7536   6.7524   0.3986  -0.2618   1.2617   0.00    0.0
2018/03/13 13:01:30.000   78.254773999   16.249335990   343.8736   5   9   1.6589   1.7536   6.7517   0.3986  -0.2651   1.2618   0.00    0.0
2018/03/13 13:01:31.000   78.254777732   16.249341098   344.0501   5   9   1.6589   1.7536   6.7510   0.3986  -0.2684   1.2619   0.00    0.0
2018/03/13 13:01:32.000   78.254775403   16.249339953   342.3697   5   9   1.6589   1.7537   6.7503   0.3986  -0.2716   1.2620   0.00    0.0
2018/03/13 13:01:33.000   78.254773868   16.249366000   342.7737   5   9   1.6589   1.7537   6.7496   0.3986  -0.2747   1.2621   0.00    0.0
2018/03/13 13:01:34.000   78.254778527   16.249353059   344.7440   5   9   1.6590   1.7537   6.7489   0.3986  -0.2779   1.2622   0.00    0.0
2018/03/13 13:01:35.000   78.254778493   16.249363654   343.8005   5   9   1.6590   1.7538   6.7482   0.3986  -0.2810   1.2623   0.00    0.0
2018/03/13 13:01:36.000   78.254774475   16.249371972   342.9390   5   9   1.6590   1.7538   6.7475   0.3986  -0.2840   1.2624   0.00    0.0
2018/03/13 13:01:37.000   78.254781316   16.249365318   344.5013   5   9   1.6590   1.7539   6.7468   0.3986  -0.2871   1.2625   0.00    0.0
2018/03/13 13:01:38.000   78.254777567   16.249365978   342.4366   5   9   1.6591   1.7539   6.7461   0.3986  -0.2901   1.2626   0.00    0.0
2018/03/13 13:01:39.000   78.254772396   16.249363910   342.0371   5   9   1.6591   1.7539   6.7454   0.3986  -0.2930   1.2627   0.00    0.0
2018/03/13 13:01:40.000   78.254775057   16.249338004   343.6089   5   9   1.6591   1.7540   6.7447   0.3986  -0.2960   1.2628   0.00    0.0
2018/03/13 13:01:41.000   78.254771853   16.249353649   343.4213   5   9   1.6591   1.7540   6.7440   0.3986  -0.2989   1.2629   0.00    0.0
2018/03/13 13:01:42.000   78.254767322   16.249348087   344.0703   5   9   1.6592   1.7540   6.7433   0.3986  -0.3018   1.2630   0.00    0.0
2018/03/13 13:01:43.000   78.254771038   16.249343737   344.4967   5   9   1.6592   1.7541   6.7426   0.3986  -0.3046   1.2631   0.00    0.0
2018/03/13 13:01:44.000   78.254768890   16.249357352   343.3336   5   9   1.6592   1.7541   6.7419   0.3986  -0.3074   1.2632   0.00    0.0
2018/03/13 13:01:45.000   78.254772697   16.249352455   342.7544   5   9   1.6592   1.7541   6.7412   0.3986  -0.3102   1.2633   0.00    0.0
2018/03/13 13:01:46.000   78.254774301   16.249346220   343.0380   5   9   1.6593   1.7542   6.7405   0.3986  -0.3130   1.2634   0.00    0.0
2018/03/13 13:01:47.000   78.254768985   16.249355983   341.7355   5   9   1.6593   1.7542   6.7398   0.3986  -0.3157   1.2635   0.00    0.0
2018/03/13 13:01:48.000   78.254771962   16.249357332   342.0299   5   9   1.6593   1.7542   6.7391   0.3986  -0.3185   1.2636   0.00    0.0
2018/03/13 13:01:49.000   78.254776011   16.249349858   344.2569   5   9   1.6593   1.7543   6.7384   0.3986  -0.3212   1.2637   0.00    0.0
2018/03/13 13:01:50.000   78.254772916   16.249347046   345.6274   5   9   1.6594   1.7543   6.7377   0.3986  -0.3238   1.2638   0.00    0.0
2018/03/13 13:01:51.000   78.254776645   16.249346721   345.5514   5   9   1.6594   1.7543   6.7370   0.3986  -0.3265   1.2639   0.00    0.0
2018/03/13 13:01:52.000   78.254772410   16.249358454   343.2501   5   9   1.6594   1.7544   6.7363   0.3986  -0.3291   1.2640   0.00    0.0
2018/03/13 13:01:53.000   78.254771569   16.249348138   344.0044   5   9   1.6594   1.7544   6.7356   0.3986  -0.3317   1.2641   0.00    0.0
2018/03/13 13:01:54.000   78.254774570   16.249353869   344.1681   5   9   1.6595   1.7545   6.7348   0.3986  -0.3343   1.2642   0.00    0.0
2018/03/13 13:01:55.000   78.254771107   16.249353822   343.3184   5   9   1.6595   1.7545   6.7341   0.3986  -0.3369   1.2643   0.00    0.0
2018/03/13 13:01:56.000   78.254772084   16.249334520   344.3416   5   9   1.6595   1.7545   6.7334   0.3986  -0.3394   1.2644   0.00    0.0
2018/03/13 13:01:57.000   78.254772960   16.249347483   344.0614   5   9   1.6595   1.7546   6.7327   0.3986  -0.3419   1.2645   0.00    0.0
2018/03/13 13:01:58.000   78.254772998   16.249349669   342.4938   5   9   1.6596   1.7546   6.7320   0.3986  -0.3444   1.2646   0.00    0.0
2018/03/13 13:01:59.000   78.254777657   16.249350496   343.7870   5   9   1.6596   1.7546   6.7313   0.3986  -0.3469   1.2647   0.00    0.0
2018/03/13 13:02:00.000   78.254772767   16.249358099   343.8891   5   9   1.6596   1.7547   6.7306   0.3986  -0.3494   1.2648   0.00    0.0
2018/03/13 13:02:01.000   78.254771473   16.249361699   344.2558   5   9   1.6596   1.7547   6.7299   0.3986  -0.3518   1.2650   0.00    0.0
2018/03/13 13:02:02.000   78.254774140   16.249338720   345.3270   5   9   1.6597   1.7547   6.7292   0.3986  -0.3543   1.2651   0.00    0.0
2018/03/13 13:02:03.000   78.254768290   16.249343206   344.9017   5   9   1.6597   1.7548   6.7285   0.3986  -0.3567   1.2652   0.00    0.0
2018/03/13 13:02:04.000   78.254771422   16.249352275   344.7768   5   9   1.6597   1.7548   6.7278   0.3986  -0.3591   1.2653   0.00    0.0
2018/03/13 13:02:05.000   78.254773348   16.249359344   344.3174   5   9   1.6597   1.7548   6.7270   0.3986  -0.3614   1.2654   0.00    0.0
2018/03/13 13:02:06.000   78.254776019   16.249376884   343.1236   5   9   1.6598   1.7549   6.7263   0.3986  -0.3638   1.2655   0.00    0.0
2018/03/13 13:02:07.000   78.254775269   16.249368646   343.0347   5   9   1.6598   1.7549   6.7256   0.3986  -0.3662   1.2656   0.00    0.0
2018/03/13 13:02:08.000   78.254773325   16.249349243   343.6738   5   9   1.6598   1.7550   6.7249   0.3986  -0.3685   1.2657   0.00    0.0
2018/03/13 13:02:09.000   78.254773110   16.249344236   343.5059   5   9   1.6598   1.7550   6.7242   0.3986  -0.3708   1.2658   0.00    0.0
2018/03/13 13:02:10.000   78.254772905   16.249345643   345.1534   5   9   1.6599   1.7550   6.7235   0.3986  -0.3731   1.2659   0.00    0.0
2018/03/13 13:02:11.000   78.254770354   16.249349912   344.3801   5   9   1.6599   1.7551   6.7228   0.3986  -0.3754   1.2660   0.00    0.0
2018/03/13 13:02:12.000   78.254773084   16.249347593   343.9831   5   9   1.6599   1.7551   6.7221   0.3986  -0.3777   1.2661   0.00    0.0
2018/03/13 13:02:13.000   78.254773461   16.249340621   344.0432   5   9   1.6599   1.7551   6.7214   0.3986  -0.3799   1.2662   0.00    0.0
2018/03/13 13:02:14.000   78.254773500   16.249375100   341.1701   5   9   1.6600   1.7552   6.7206   0.3986  -0.3822   1.2663   0.00    0.0
2018/03/13 13:02:15.000   78.254776372   16.249359791   343.1657   5   9   1.6600   1.7552   6.7199   0.3986  -0.3844   1.2664   0.00    0.0
2018/03/13 13:02:16.000   78.254775841   16.249362192   342.5892   5   9   1.6600   1.7552   6.7192   0.3986  -0.3866   1.2665   0.00    0.0
2018/03/13 13:02:17.000   78.254775217   16.249367366   342.5327   5   9   1.6601   1.7553   6.7185   0.3986  -0.3888   1.2666   0.00    0.0
2018/03/13 13:02:18.000   78.254775831   16.249361455   344.5113   5   9   1.6601   1.7553   6.7178   0.3986  -0.3910   1.2667   0.00    0.0
2018/03/13 13:02:19.000   78.254773126   16.249366664   344.3927   5   9   1.6601   1.7554   6.7171   0.3986  -0.3932   1.2669   0.00    0.0
2018/03/13 13:02:20.000   78.254772342   16.249379182   343.9399   5   9   1.6601   1.7554   6.7164   0.3986  -0.3953   1.2670   0.00    0.0
2018/03/13 13:02:21.000   78.254774988   16.249372687   343.6355   5   9   1.6602   1.7554   6.7156   0.3986  -0.3975   1.2671   0.00    0.0
2018/03/13 13:02:22.000   78.254775781   16.249369692   343.0143   5   9   1.6602   1.7555   6.7149   0.3986  -0.3996   1.2672   0.00    0.0
2018/03/13 13:02:23.000   78.254773952   16.249362758   341.9811   5   9   1.6602   1.7555   6.7142   0.3986  -0.4017   1.2673   0.00    0.0
2018/03/13 13:02:24.000   78.254774540   16.249359180   342.8861   5   9   1.6602   1.7555   6.7135   0.3986  -0.4038   1.2674   0.00    0.0
2018/03/13 13:02:25.000   78.254774332   16.249353240   342.8763   5   9   1.6603   1.7556   6.7128   0.3986  -0.4059   1.2675   0.00    0.0
2018/03/13 13:02:26.000   78.254774053   16.249359549   342.7105   5   9   1.6603   1.7556   6.7121   0.3986  -0.4080   1.2676   0.00    0.0
2018/03/13 13:02:27.000   78.254773969   16.249356489   342.7462   5   9   1.6603   1.7556   6.7113   0.3986  -0.4101   1.2677   0.00    0.0
2018/03/13 13:02:28.000   78.254773885   16.249367201   343.0953   5   9   1.6604   1.7557   6.7106   0.3986  -0.4122   1.2678   0.00    0.0
2018/03/13 13:02:29.000   78.254774106   16.249344153   343.4852   5   9   1.6604   1.7557   6.7099   0.3986  -0.4142   1.2679   0.00    0.0
2018/03/13 13:02:30.000   78.254772161   16.249354521   343.8261   5   9   1.6604   1.7558   6.7092   0.3986  -0.4163   1.2680   0.00    0.0
2018/03/13 13:02:31.000   78.254773497   16.249362077   346.0676   5   9   1.6604   1.7558   6.7085   0.3986  -0.4183   1.2682   0.00    0.0
2018/03/13 13:02:32.000   78.254772417   16.249359646   346.2351   5   9   1.6605   1.7558   6.7077   0.3986  -0.4203   1.2683   0.00    0.0
2018/03/13 13:02:33.000   78.254769805   16.249375772   344.6004   5   9   1.6605   1.7559   6.7070   0.3986  -0.4223   1.2684   0.00    0.0
2018/03/13 13:02:34.000   78.254776575   16.249386316   344.5420   5   9   1.6605   1.7559   6.7063   0.3986  -0.4244   1.2685   0.00    0.0
2018/03/13 13:02:35.000   78.254775349   16.249387051   343.2147   5   9   1.6606   1.7559   6.7056   0.3986  -0.4263   1.2686   0.00    0.0
2018/03/13 13:02:36.000   78.254772040   16.249378697   342.7447   5   9   1.6606   1.7560   6.7049   0.3986  -0.4283   1.2687   0.00    0.0
2018/03/13 13:02:37.000   78.254774755   16.249364087   344.2592   5   9   1.6606   1.7560   6.7042   0.3986  -0.4303   1.2688   0.00    0.0
2018/03/13 13:02:38.000   78.254773466   16.249348900   344.9315   5   9   1.6606   1.7561   6.7034   0.3986  -0.4323   1.2689   0.00    0.0
2018/03/13 13:02:39.000   78.254772311   16.249341676   345.0331   5   9   1.6607   1.7561   6.7027   0.3985  -0.4342   1.2690   0.00    0.0
2018/03/13 13:02:40.000   78.254776886   16.249359658   345.2988   5   9   1.6607   1.7561   6.7020   0.3985  -0.4362   1.2691   0.00    0.0
2018/03/13 13:02:41.000   78.254774270   16.249359155   342.7080   5   9   1.6607   1.7562   6.7013   0.3985  -0.4381   1.2693   0.00    0.0
2018/03/13 13:02:42.000   78.254775375   16.249348458   342.9525   5   9   1.6608   1.7562   6.7005   0.3985  -0.4400   1.2694   0.00    0.0
2018/03/13 13:02:43.000   78.254772665   16.249360740   342.5414   5   9   1.6608   1.7562   6.6998   0.3985  -0.4419   1.2695   0.00    0.0
2018/03/13 13:02:44.000   78.254771948   16.249364071   344.0814   5   9   1.6608   1.7563   6.6991   0.3985  -0.4438   1.2696   0.00    0.0
2018/03/13 13:02:45.000   78.254773564   16.249353487   345.9525   5   9   1.6608   1.7563   6.6984   0.3985  -0.4457   1.2697   0.00    0.0
2018/03/13 13:02:46.000   78.254768413   16.249375472   344.6744   5   9   1.6609   1.7564   6.6977   0.3985  -0.4476   1.2698   0.00    0.0
2018/03/13 13:02:47.000   78.254769984   16.249375454   343.9259   5   9   1.6609   1.7564   6.6969   0.3985  -0.4495   1.2699   0.00    0.0
2018/03/13 13:02:48.000   78.254776579   16.249382772   343.2308   5   9   1.6609   1.7564   6.6962   0.3985  -0.4514   1.2700   0.00    0.0
2018/03/13 13:02:49.000   78.254774726   16.249396501   342.1599   5   9   1.6610   1.7565   6.6955   0.3985  -0.4532   1.2702   0.00    0.0
2018/03/13 13:02:50.000   78.254778338   16.249378374   342.8898   5   9   1.6610   1.7565   6.6948   0.3985  -0.4551   1.2703   0.00    0.0
2018/03/13 13:02:51.000   78.254778210   16.249364868   343.4888   5   9   1.6610   1.7565   6.6940   0.3985  -0.4569   1.2704   0.00    0.0
2018/03/13 13:02:52.000   78.254769829   16.249371925   343.2962   5   9   1.6610   1.7566   6.6933   0.3985  -0.4588   1.2705   0.00    0.0
2018/03/13 13:02:53.000   78.254772825   16.249345387   345.3205   5   9   1.6611   1.7566   6.6926   0.3985  -0.4606   1.2706   0.00    0.0
2018/03/13 13:02:54.000   78.254772338   16.249342207   345.7436   5   9   1.6611   1.7567   6.6919   0.3985  -0.4624   1.2707   0.00    0.0
2018/03/13 13:02:55.000   78.254768702   16.249346036   343.7090   5   9   1.6611   1.7567   6.6911   0.3985  -0.4642   1.2708   0.00    0.0
2018/03/13 13:02:56.000   78.254774227   16.249333561   345.2703   5   9   1.6612   1.7567   6.6904   0.3985  -0.4661   1.2710   0.00    0.0
2018/03/13 13:02:57.000   78.254773013   16.249357729   343.8792   5   9   1.6612   1.7568   6.6897   0.3985  -0.4679   1.2711   0.00    0.0
2018/03/13 13:02:58.000   78.254774393   16.249352275   343.6571   5   9   1.6612   1.7568   6.6890   0.3985  -0.4696   1.2712   0.00    0.0
2018/03/13 13:02:59.000   78.254774418   16.249352005   344.2150   5   9   1.6612   1.7568   6.6882   0.3985  -0.4714   1.2713   0.00    0.0
2018/03/13 13:03:00.000   78.254770168   16.249367052   343.6232   5   9   1.6613   1.7569   6.6875   0.3985  -0.4732   1.2714   0.00    0.0
2018/03/13 13:03:01.000   78.254776667   16.249375896   343.8745   5   9   1.6613   1.7569   6.6868   0.3985  -0.4750   1.2715   0.00    0.0
2018/03/13 13:03:02.000   78.254773554   16.249372633   344.6897   5   9   1.6613   1.7570   6.6861   0.3985  -0.4767   1.2716   0.00    0.0
2018/03/13 13:03:03.000   78.254771452   16.249376930   343.9302   5   9   1.6614   1.7570   6.6853   0.3985  -0.4785   1.2718   0.00    0.0
2018/03/13 13:03:04.000   78.254769948   16.249372161   343.3657   5   9   1.6614   1.7570   6.6846   0.3985  -0.4802   1.2719   0.00    0.0
2018/03/13 13:03:05.000   78.254772603   16.249369326   343.8876   5   9   1.6614   1.7571   6.6839   0.3985  -0.4820   1.2720   0.00    0.0
2018/03/13 13:03:06.000   78.254772576   16.249370596   343.7673   5   9   1.6615   1.7571   6.6832   0.3985  -0.4837   1.2721   0.00    0.0
2018/03/13 13:03:07.000   78.254778845   16.249363135   344.1477   5   9   1.6615   1.7572   6.6824   0.3985  -0.4854   1.2722   0.00    0.0
2018/03/13 13:03:08.000   78.254777669   16.249364264   344.4392   5   9   1.6615   1.7572   6.6817   0.3985  -0.4872   1.2723   0.00    0.0
2018/03/13 13:03:09.000   78.254777173   16.249368909   342.3794   5   9   1.6615   1.7572   6.6810   0.3985  -0.4889   1.2724   0.00    0.0
2018/03/13 13:03:10.000   78.254774463   16.249357217   343.4357   5   9   1.6616   1.7573   6.6802   0.3985  -0.4906   1.2726   0.00    0.0
