     2.11           OBSERVATION DATA    M (MIXED)           RINEX VERSION / TYPE
teqc  2018Mar15                         20180319 14:17:33UTCPGM / RUN BY / DATE
Linux 2.6.32-573.12.1.x86_64|x86_64|gcc -static|Linux 64|=+ COMMENT
END OF STATIC MODE OBSERVATION                              COMMENT
BIT 2 OF LLI FLAGS DATA COLLECTED UNDER A/S CONDITION       COMMENT
-Unknown-                                                   MARKER NAME
4625                                                        MARKER NUMBER
-Unknown-           -Unknown-                               OBSERVER / AGENCY
5127468778          TRIMBLE             4.63                REC # / TYPE / VERS
47477114                            NONE                    ANT # / TYPE
  6378137.0000        0.0000        0.0000                  APPROX POSITION XYZ
        0.0000        0.0000        0.0000                  ANTENNA: DELTA H/E/N
     1     1                                                WAVELENGTH FACT L1/2
     7    L1    L2    C1    P1    P2    S1    S2            # / TYPES OF OBSERV
    18                                                      LEAP SECONDS
 SNR is mapped to RINEX snr flag value [0-9]                COMMENT
  L1 & L2: min(max(int(snr_dBHz/6), 0), 9)                  COMMENT
  2018     3    13    14    41    1.0000000     GPS         TIME OF FIRST OBS
                                                            END OF HEADER
 18  3 13 14 41  1.0000000  0 19R01G19G22G25R08R10R09R16R17R18R19G12
                                G06G03G32G24G17G01G14
                  86423484.467 6  20786534.055                    20786536.742
                        36.500
 111473231.197 7  86862464.72945  21212698.961                    21212700.262
        47.000          34.600
 121131808.819 7  94388412.17745  23050615.930                    23050616.152
        47.100          31.600
 121647959.165 7  94790681.25845  23148847.797                    23148854.105
        46.500          30.300
                  87321096.234 6  20965630.539                    20965631.461
                        40.900
                  90849640.095 6  21912635.602                    21912641.051
                        39.800
                  80212404.773 6  19312979.109                    19312979.559
                        41.700
                  88417959.517 6  21281180.102                    21281180.406
                        36.000
                  86782165.911 6  20850845.984                    20850846.258
                        40.500
                  82752587.950 6  19931591.563                    19931592.289
                        38.700
                  95231436.946 6  22888941.805                    22888942.734
                        36.200
 108649078.155 7  84661631.04345  20675232.313                    20675234.980
        46.600          31.400
 123367521.904 7  96130565.63544  23476060.102                    23476065.652
        43.700          29.000
 121029515.701 7  94308728.18545  23031152.781                    23031158.273
        47.600          34.700
 115331830.571 7  89868985.31346  21946916.984                    21946923.535
        47.200          38.900
 117314715.216 7  91414087.05445  22324249.656                    22324255.191
        44.700          30.900
 117052219.322 8  91209533.23646  22274296.602                    22274299.559
        48.700          37.900
 125568462.900 7  97845586.47344  23894885.836                    23894893.223
        43.800          29.600
 117613824.051 7  91647145.55445  22381165.547                    22381168.695
        45.200          31.900
 18  3 13 14 41  2.0000000  0 19R01G19G22G25R08R10R09R16R17R18R19G12
                                G06G03G32G24G17G01G14
                  86422636.068 6  20786329.539                    20786333.059
                        37.100
 111474342.604 7  86863330.76045  21212910.805                    21212911.758
        46.700          34.500
 121131808.559 7  94388411.96445  23050615.945                    23050616.012
        46.700          32.300
 121644785.007 7  94788207.86945  23148243.602                    23148249.961
        45.300          31.100
                  87323254.727 6  20966149.805                    20966149.609
                        41.900
                  90846800.857 6  21911950.625                    21911955.184
                        40.100
                  80212389.673 6  19312976.523                    19312976.008
                        41.500
                  88421222.215 6  21281966.125                    21281966.727
                        36.400
                  86784625.652 6  20851435.305                    20851437.172
                        40.800
                  82751769.992 6  19931394.742                    19931396.289
                        39.300
                  95228224.595 6  22888170.344                    22888170.383
                        36.500
 108648053.952 7  84660832.96545  20675037.656                    20675040.305
        46.100          31.800
 123364718.920 7  96128381.45144  23475525.875                    23475532.793
        43.200          29.300
 121028048.689 7  94307585.06045  23030873.695                    23030879.277
        47.200          34.900
 115332816.403 7  89869753.50046  21947104.680                    21947111.133
        47.500          39.000
 117318094.254 7  91416720.11045  22324892.023                    22324898.027
        45.000          30.500
 117054503.413 8  91211313.04446  22274730.578                    22274734.602
        48.700          37.700
 125572023.925 7  97848361.29544  23895564.172                    23895570.520
        44.100          29.900
 117612798.478 7  91646346.39945  22380970.375                    22380973.262
        44.800          31.700
 18  3 13 14 41  3.0000000  0 19R01G19G22G25R08R10R09R16R17R18R19G12
                                G06G03G32G24G17G01G14
                  86421788.394 6  20786125.438                    20786129.137
                        36.900
 111475454.802 7  86864197.40145  21213122.336                    21213123.492
        46.500          34.000
 121131808.941 7  94388412.25845  23050616.375                    23050616.352
        46.400          32.300
 121641611.174 7  94785734.75245  23147639.445                    23147645.949
        44.300          30.800
                  87325413.859 6  20966666.883                    20966668.500
                        41.800
                  90843961.932 6  21911266.617                    21911270.629
                        40.100
                  80212375.244 6  19312972.195                    19312972.426
                        41.600
                  88424485.294 6  21282751.359                    21282752.098
                        36.700
                  86787085.969 6  20852027.586                    20852028.445
                        41.000
                  82750952.784 6  19931197.719                    19931199.172
                        38.400
                  95225012.452 6  22887397.211                    22887398.809
                        36.400
 108647030.435 7  84660035.41645  20674842.813                    20674845.473
        46.100          31.700
 123361916.267 7  96126197.51844  23474991.375                    23474999.324
        42.200          28.200
 121026582.279 7  94306442.40745  23030594.555                    23030600.172
        47.200          35.800
 115333802.961 7  89870522.24846  21947292.852                    21947298.848
        47.800          38.900
 117321473.773 7  91419353.53145  22325534.438                    22325541.102
        44.500          31.300
 117056788.054 8  91213093.28046  22275165.898                    22275168.707
        49.000          37.700
 125575585.435 7  97851136.48544  23896241.320                    23896248.227
        44.200          29.600
 117611773.503 7  91645547.70645  22380774.383                    22380778.379
        43.600          31.900
 18  3 13 14 41  4.0000000  0 19R01G19G22G25R08R10R09R16R17R18R19G12
                                G06G03G32G24G17G01G14
                  86420941.411 6  20785921.563                    20785925.328
                        37.000
 111476567.744 7  86865064.63945  21213334.141                    21213335.508
        46.000          34.200
 121131809.969 7  94388413.05545  23050616.461                    23050616.551
        46.500          31.500
 121638437.654 7  94783261.89945  23147035.969                    23147042.203
        43.900          32.000
                  87327573.581 6  20967185.625                    20967187.094
                        41.500
                  90841123.253 6  21910582.445                    21910586.086
                        40.500
                  80212361.473 6  19312969.156                    19312969.480
                        41.300
                  88427748.691 6  21283536.781                    21283537.180
                        36.400
                  86789546.880 6  20852619.023                    20852620.145
                        41.000
                  82750136.271 6  19931001.211                    19931002.543
                        38.900
                  95221800.491 6  22886625.398                    22886626.516
                        36.600
 108646007.602 7  84659238.41845  20674648.289                    20674650.996
        46.800          31.400
 123359113.968 7  96124013.87444  23474458.797                    23474465.957
        43.100          29.100
 121025116.489 7  94305300.24145  23030315.602                    23030321.680
        47.200          35.600
 115334790.225 7  89871291.54046  21947481.430                    21947486.742
        47.900          38.600
 117324853.719 7  91421987.29345  22326177.469                    22326184.434
        44.000          31.300
 117059073.240 8  91214873.94546  22275600.258                    22275604.172
        49.100          36.900
 125579147.313 7  97853911.97045  23896919.242                    23896926.152
        43.600          30.200
 117610749.115 7  91644749.48645  22380579.086                    22380583.598
        42.800          31.600
 18  3 13 14 41  5.0000000  0 19R01G19G22G25R08R10R09R16R17R18R19G12
                                G06G03G32G24G17G01G14
                  86420095.145 6  20785718.375                    20785722.422
                        37.200
 111477681.468 7  86865932.47945  21213546.000                    21213547.191
        46.100          33.600
 121131811.657 7  94388414.36645  23050617.156                    23050616.703
        46.700          30.900
 121635264.470 7  94780789.31245  23146432.836                    23146438.707
        44.300          32.400
                  87329733.929 6  20967704.172                    20967705.375
                        41.400
                  90838284.842 6  21909897.445                    21909901.418
                        40.700
                  80212348.383 6  19312965.961                    19312965.734
                        41.600
                  88431012.432 6  21284321.086                    21284323.098
                        37.000
                  86792008.351 6  20853209.938                    20853211.543
                        41.000
                  82749320.509 6  19930804.688                    19930805.512
                        39.000
                  95218588.772 5  22885852.367                    22885854.797
                        35.100
 108644985.440 7  84658441.94245  20674453.688                    20674456.227
        47.300          31.800
 123356312.038 7  96121830.50644  23473927.430                    23473932.789
        43.900          29.100
 121023651.285 7  94304158.52145  23030036.609                    23030042.582
        47.300          35.700
 115335778.219 7  89872061.40446  21947669.461                    21947674.801
        47.600          38.300
 117328234.096 6  91424621.37545  22326820.563                    22326827.246
        41.900          30.900
 117061358.947 8  91216655.01946  22276035.992                    22276038.703
        49.600          37.300
 125582709.627 7  97856687.80145  23897597.391                    23897604.195
        43.500          30.200
 117609725.342 7  91643951.76745  22380385.313                    22380388.539
        43.700          31.800
 18  3 13 14 41  6.0000000  0 19R01G19G22G25R08R10R09R16R17R18R19G12
                                G06G03G32G24G17G01G14
                  86419249.570 6  20785514.773                    20785518.938
                        37.100
 111478795.953 7  86866800.91745  21213757.766                    21213759.395
        46.200          34.300
 121131813.976 7  94388416.17145  23050617.664                    23050616.875
        46.800          30.400
 121632091.595 7  94778316.96345  23145829.203                    23145835.156
        45.200          32.000
                  87331894.901 6  20968223.492                    20968224.023
                        41.600
                  90835446.707 6  21909211.859                    21909217.273
                        40.600
                  80212335.958 6  19312963.109                    19312963.188
                        41.800
                  88434276.547 6  21285106.148                    21285108.090
                        36.400
                  86794470.357 6  20853801.148                    20853802.930
                        41.100
                  82748505.475 6  19930607.953                    19930609.516
                        39.300
                  95215377.234 5  22885082.102                    22885082.363
                        34.600
 108643963.956 7  84657645.98845  20674260.188                    20674262.063
        47.700          31.200
 123353510.446 7  96119647.37344  23473393.898                    23473399.398
        43.600          29.100
 121022186.727 7  94303017.29746  23029758.570                    23029764.258
        47.500          36.000
 115336766.921 7  89872831.82646  21947857.258                    21947863.215
        47.000          38.800
 117331614.917 6  91427255.78345  22327463.922                    22327470.371
        40.700          31.100
 117063645.210 8  91218436.52646  22276470.500                    22276474.422
        49.300          37.200
 125586272.359 7  97859463.95745  23898275.313                    23898282.137
        43.300          30.000
 117608702.219 7  91643154.54645  22380191.617                    22380193.602
        44.900          30.800
 18  3 13 14 41  7.0000000  0 19R01G19G22G25R08R10R09R16R17R18R19G12
                                G06G03G32G24G17G01G14
                  86418404.712 6  20785312.422                    20785316.000
                        37.100
 111479911.190 7  86867669.92945  21213969.570                    21213971.613
        45.500          34.100
 121131816.965 7  94388418.48545  23050618.078                    23050617.297
        47.000          30.700
 121628919.076 7  94775844.88145  23145226.508                    23145231.676
        46.100          32.600
                  87334056.523 6  20968741.961                    20968743.199
                        41.500
                  90832608.883 6  21908527.406                    21908532.168
                        40.500
                  80212324.220 6  19312960.008                    19312960.344
                        41.700
                  88437541.068 6  21285892.609                    21285893.992
                        36.400
                  86796932.960 6  20854392.852                    20854394.852
                        41.000
                  82747691.174 6  19930411.609                    19930413.836
                        39.000
                  95212165.920 5  22884308.859                    22884310.172
                        34.300
 108642943.181 7  84656850.57745  20674066.164                    20674067.316
        47.100          31.100
 123350709.228 7  96117464.48544  23472861.781                    23472866.547
        43.700          28.700
 121020722.787 7  94301876.55745  23029479.789                    23029485.434
        47.600          35.500
 115337756.329 7  89873602.79346  21948044.453                    21948051.219
        46.700          38.100
 117334996.181 6  91429890.52345  22328107.922                    22328113.984
        41.800          31.900
 117065932.050 8  91220218.48846  22276905.758                    22276909.160
        48.400          37.000
 125589835.496 7  97862240.42944  23898953.078                    23898960.035
        43.800          29.900
 117607679.741 7  91642357.82245  22379997.727                    22379999.484
        46.000          31.300
 18  3 13 14 41  8.0000000  0 19R01G19G22G25R08R10R09R16R17R18R19G12
                                G06G03G32G24G17G01G14
                  86417560.538 6  20785108.789                    20785112.273
                        37.100
 111481027.210 7  86868539.55945  21214182.234                    21214184.148
        45.300          34.000
 121131820.581 7  94388421.30545  23050619.117                    23050618.195
        46.900          30.900
 121625746.900 7  94773373.04545  23144622.828                    23144628.223
        47.000          32.600
                  87336218.785 6  20969261.539                    20969262.645
                        41.600
                  90829771.313 6  21907842.820                    21907847.754
                        40.400
                  80212313.123 6  19312957.430                    19312957.738
                        41.500
                  88440805.854 6  21286679.508                    21286679.273
                        36.500
                  86799396.100 6  20854984.258                    20854986.590
                        40.600
                  82746877.579 6  19930216.141                    19930217.809
                        39.100
                  95208954.769 5  22883538.578                    22883538.590
                        34.900
 108641923.038 7  84656055.65145  20673871.438                    20673873.254
        47.500          31.400
 123347908.355 7  96115281.84844  23472328.500                    23472333.379
        43.900          29.600
 121019259.437 7  94300736.27846  23029200.742                    23029207.211
        47.600          36.000
 115338746.413 7  89874374.28446  21948232.727                    21948239.590
        46.800          38.300
 117338377.861 7  91432525.57345  22328752.008                    22328757.457
        42.500          31.200
 117068219.397 8  91222000.84246  22277340.695                    22277344.852
        48.400          37.200
 125593399.044 7  97865017.21844  23899631.234                    23899638.223
        43.900          29.900
 117606657.844 7  91641561.52845  22379802.813                    22379805.109
        46.000          31.500
 18  3 13 14 41  9.0000000  0 19R01G19G22G25R08R10R09R16R17R18R19G12
                                G06G03G32G24G17G01G14
                  86416717.021 6  20784906.859                    20784909.945
                        37.100
 111482143.959 7  86869409.75345  21214394.477                    21214396.309
        45.700          34.000
 121131824.798 7  94388424.59045  23050619.523                    23050619.047
        47.000          30.700
 121622575.004 7  94770901.42245  23144019.086                    23144024.824
        47.000          33.400
                  87338381.651 6  20969780.484                    20969781.852
                        41.600
                  90826933.979 6  21907158.758                    21907163.258
                        40.300
                  80212302.672 6  19312955.141                    19312955.605
                        41.400
                  88444071.017 6  21287464.344                    21287465.832
                        36.700
                  86801859.768 6  20855576.336                    20855578.902
                        40.500
                  82746064.685 6  19930020.828                    19930022.105
                        39.100
                  95205743.837 5  22882766.109                    22882766.148
                        35.000
 108640903.551 7  84655261.23145  20673677.250                    20673679.539
        46.600          30.900
 123345107.793 7  96113099.43445  23471794.375                    23471801.203
        42.600          30.000
 121017796.684 7  94299596.46945  23028922.984                    23028928.727
        47.900          35.800
 115339737.185 7  89875146.32246  21948421.445                    21948428.160
        47.000          38.400
 117341759.912 7  91435160.93645  22329395.539                    22329400.996
        43.600          31.000
 117070507.264 8  91223783.59946  22277776.930                    22277779.582
        48.800          37.100
 125596962.993 7  97867794.30845  23900309.992                    23900316.789
        43.700          30.400
 117605636.507 7  91640765.64845  22379608.008                    22379610.824
        45.600          31.400
 18  3 13 14 41 10.0000000  0 19R01G19G22G25R08R10R09R16R17R18R19G12
                                G06G03G32G24G17G01G14
                  86415874.226 6  20784703.508                    20784707.168
                        36.800
 111483261.498 7  86870280.56645  21214607.570                    21214608.734
        45.900          34.300
 121131829.715 7  94388428.41544  23050620.648                    23050619.625
        47.100          29.300
 121619403.471 7  94768430.08245  23143414.953                    23143421.590
        47.600          33.500
                  87340545.209 7  20970299.523                    20970301.000
                        42.200
                  90824096.962 6  21906475.141                    21906479.566
                        40.000
                  80212292.900 6  19312953.211                    19312952.359
                        41.600
                  88447336.488 5  21288250.047                    21288252.305
                        35.800
                  86804324.055 6  20856168.070                    20856170.891
                        41.200
                  82745252.523 6  19929825.500                    19929826.539
                        39.300
                  95202533.150 5  22881993.945                    22881994.859
                        35.200
 108639884.764 7  84654467.37045  20673482.398                    20673485.387
        46.600          31.300
 123342307.562 6  96110917.27244  23471259.875                    23471267.816
        40.900          29.200
 121016334.564 7  94298457.15445  23028644.695                    23028650.160
        47.700          35.700
 115340728.688 7  89875918.93046  21948610.680                    21948616.668
        47.500          38.600
 117345142.437 7  91437796.66845  22330039.164                    22330045.160
        44.500          31.400
 117072795.692 8  91225566.79546  22278211.609                    22278215.379
        48.700          37.200
 125600527.367 7  97870571.73345  23900987.859                    23900994.871
        43.900          30.000
 117604615.778 7  91639970.25145  22379412.297                    22379416.516
        43.700          31.300
 18  3 13 14 41 11.0000000  0 19R01G19G22G25R08R10R09R16R17R18R19G12
                                G06G03G32G24G17G01G14
                  86415032.108 6  20784500.492                    20784504.848
                        36.800
 111484379.745 7  86871151.93245  21214820.594                    21214821.641
        46.100          34.400
 121131835.204 7  94388432.69045  23050621.594                    23050620.594
        46.800          30.500
 121616232.211 7  94765958.95945  23142811.094                    23142818.195
        47.000          32.600
                  87342709.290 7  20970820.148                    20970820.895
                        42.000
                  90821260.207 6  21905790.555                    21905795.594
                        40.000
                  80212283.770 6  19312951.719                    19312951.020
                        41.400
                  88450602.315 6  21289036.000                    21289037.918
                        36.000
                  86806788.893 6  20856760.508                    20856763.086
                        40.600
                  82744441.066 6  19929629.438                    19929631.281
                        38.900
                  95199322.644 5  22881223.578                    22881223.355
                        35.100
 108638866.581 7  84653673.98645  20673288.617                    20673292.117
        46.300          31.500
 123339507.676 7  96108735.42144  23470728.766                    23470735.055
        42.000          29.300
 121014872.988 7  94297318.26445  23028366.313                    23028372.422
        47.600          35.300
 115341720.871 8  89876692.06546  21948799.789                    21948805.535
        48.100          38.700
 117348525.337 7  91440432.71545  22330682.828                    22330689.016
        44.500          31.300
 117075084.624 8  91227350.37846  22278647.391                    22278650.414
        48.700          36.800
 125604092.118 7  97873349.45745  23901665.914                    23901673.102
        43.700          31.500
 117603595.595 7  91639175.29645  22379217.398                    22379222.508
        42.700          31.400
 18  3 13 14 41 12.0000000  0 19R01G19G22G25R08R10R09R16R17R18R19G12
                                G06G03G32G24G17G01G14
                  86414190.699 6  20784298.359                    20784302.555
                        37.000
 111485498.737 7  86872023.88545  21215033.281                    21215034.617
        46.600          34.100
 121131841.336 7  94388437.46245  23050623.125                    23050621.313
        47.100          30.500
 121613061.276 7  94763488.09145  23142208.016                    23142214.297
        46.700          32.300
                  87344873.943 6  20971339.734                    20971340.352
                        41.900
                  90818423.695 6  21905105.148                    21905111.180
                        39.600
                  80212275.314 6  19312948.750                    19312948.645
                        41.400
                  88453868.491 6  21289823.000                    21289823.691
                        36.400
                  86809254.304 6  20857353.242                    20857355.898
                        40.900
                  82743630.318 6  19929434.242                    19929435.980
                        39.300
                  95196112.347 5  22880452.047                    22880451.711
                        35.600
 108637849.075 7  84652881.13245  20673095.273                    20673098.391
        46.400          30.900
 123336708.167 7  96106553.86344  23470196.602                    23470202.832
        42.500          29.100
 121013412.052 7  94296179.86245  23028088.453                    23028094.859
        47.600          35.100
 115342713.744 8  89877465.74446  21948988.820                    21948994.844
        48.400          38.700
 117351908.649 7  91443069.07745  22331326.133                    22331332.148
        44.700          30.500
 117077374.115 8  91229134.39246  22279082.977                    22279086.301
        48.800          37.300
 125607657.271 7  97876127.50145  23902344.297                    23902351.805
        43.700          31.500
 117602576.014 7  91638380.83745  22379023.938                    22379028.242
        43.600          31.100
 18  3 13 14 41 13.0000000  0 19R01G19G22G25R08R10R09R16R17R18R19G12
                                G06G03G32G24G17G01G14
                  86413350.005 6  20784095.875                    20784100.680
                        37.400
 111486618.527 7  86872896.45145  21215246.727                    21215247.684
        46.500          34.000
 121131848.146 7  94388442.76044  23050624.008                    23050622.641
        47.000          29.800
 121609890.688 7  94761017.50045  23141604.531                    23141610.586
        45.800          31.400
                  87347039.275 7  20971859.656                    20971860.340
                        42.100
                  90815587.504 6  21904421.367                    21904426.184
                        40.000
                  80212267.524 6  19312947.133                    19312946.645
                        41.400
                  88457135.027 6  21290609.719                    21290610.645
                        36.200
                  86811720.274 6  20857947.109                    20857947.855
                        40.500
                  82742820.256 6  19929238.594                    19929240.680
                        39.600
                  95192902.254 6  22879679.617                    22879680.402
                        36.100
 108636832.285 7  84652088.83545  20672902.414                    20672904.582
        46.600          31.600
 123333909.009 7  96104372.56344  23469663.922                    23469670.082
        42.800          29.700
 121011951.733 7  94295041.94145  23027810.297                    23027817.043
        47.500          35.100
 115343707.343 8  89878239.98346  21949178.258                    21949183.531
        48.100          38.300
 117355292.426 7  91445705.80745  22331970.297                    22331976.637
        43.900          31.900
 117079664.144 8  91230918.81746  22279519.578                    22279522.371
        49.400          37.600
 125611222.867 7  97878905.89345  23903022.953                    23903030.055
        43.900          30.900
 117601557.070 7  91637586.87945  22378831.094                    22378834.219
        44.600          31.700
 18  3 13 14 41 14.0000000  0 19R01G19G22G25R08R10R09R16R17R18R19G12
                                G06G03G32G24G17G01G14
                  86412510.012 6  20783893.383                    20783898.035
                        36.900
 111487739.076 7  86873769.61145  21215459.500                    21215461.145
        46.500          33.200
 121131855.610 7  94388448.56645  23050625.758                    23050624.191
        47.200          30.800
 121606720.442 7  94758547.17345  23141000.531                    23141007.211
        45.500          31.200
                  87349205.226 6  20972378.914                    20972380.363
                        41.600
                  90812751.617 6  21903739.789                    21903742.148
                        40.200
                  80212260.411 6  19312944.977                    19312945.043
                        41.500
                  88460401.926 6  21291395.367                    21291396.008
                        36.500
                  86814186.804 6  20858538.078                    20858539.723
                        40.500
                  82742010.870 6  19929044.313                    19929045.684
                        39.500
                  95189692.370 6  22878907.930                    22878908.848
                        36.400
 108635816.166 7  84651297.06145  20672709.531                    20672711.449
        47.300          31.200
 123331110.301 7  96102191.61744  23469132.328                    23469137.637
        43.600          29.300
 121010492.058 7  94293904.52545  23027532.805                    23027539.250
        47.000          34.900
 115344701.633 8  89879014.75146  21949367.016                    21949372.504
        48.300          38.800
 117358676.630 7  91448342.83945  22332614.148                    22332620.273
        42.800          31.300
 117081954.723 8  91232703.68846  22279954.609                    22279958.512
        49.000          37.300
 125614788.896 7  97881684.61845  23903701.750                    23903708.883
        44.100          30.900
 117600538.770 7  91636793.40145  22378638.625                    22378640.297
        45.500          32.000
 18  3 13 14 41 15.0000000  0 19R01G19G22G25R08R10R09R16R17R18R19G12
                                G06G03G32G24G17G01G14
                  86411670.719 6  20783692.211                    20783696.410
                        37.200
 111488860.378 7  86874643.34645  21215672.891                    21215674.504
        46.300          33.800
 121131863.689 7  94388454.85745  23050627.125                    23050625.559
        47.300          30.400
 121603550.479 7  94756077.07045  23140397.125                    23140403.367
        45.100          30.900
                  87351371.794 6  20972899.555                    20972900.133
                        41.500
                  90809915.968 6  21903055.227                    21903059.086
                        40.400
                  80212253.925 6  19312943.906                    19312943.738
                        41.400
                  88463669.162 6  21292182.023                    21292182.480
                        36.100
                  86816653.899 6  20859130.719                    20859132.637
                        40.900
                  82741202.179 6  19928848.867                    19928850.910
                        39.100
                  95186482.704 6  22878136.602                    22878138.020
                        36.800
 108634800.702 7  84650505.79345  20672515.961                    20672517.801
        47.500          31.200
 123328312.059 7  96100011.03944  23468600.875                    23468605.926
        43.900          29.800
 121009032.976 7  94292767.58045  23027254.938                    23027261.500
        46.900          34.700
 115345696.632 8  89879790.07646  21949556.398                    21949562.090
        48.500          38.900
 117362061.306 7  91450980.23745  22333257.984                    22333264.273
        43.100          32.400
 117084245.839 8  91234488.97946  22280391.055                    22280394.039
        49.100          37.400
 125618355.315 7  97884463.64945  23904380.320                    23904387.387
        44.200          31.200
 117599521.059 7  91636000.37845  22378444.398                    22378446.914
        45.500          31.900
 18  3 13 14 41 16.0000000  0 19R01G19G22G25R08R10R09R16R17R18R19G12
                                G06G03G32G24G17G01G14
                  86410832.133 6  20783491.305                    20783495.016
                        37.300
 111489982.478 7  86875517.71445  21215886.414                    21215887.605
        46.600          33.700
 121131872.446 7  94388461.68644  23050628.594                    23050626.688
        47.200          29.800
 121600380.846 7  94753607.22145  23139794.297                    23139800.242
        44.900          31.800
                  87353539.012 6  20973420.414                    20973421.027
                        41.800
                  90807080.598 6  21902369.328                    21902375.676
                        39.900
                  80212248.141 6  19312942.023                    19312942.426
                        41.400
                  88466936.762 6  21292968.750                    21292969.277
                        36.400
                  86819121.591 6  20859724.328                    20859724.910
                        40.900
                  82740394.218 6  19928654.313                    19928656.023
                        38.700
                  95183273.253 6  22877365.789                    22877366.672
                        36.800
 108633785.954 7  84649715.08345  20672322.680                    20672324.730
        47.700          31.200
 123325514.234 7  96097830.80944  23468066.594                    23468073.133
        43.100          28.900
 121007574.528 7  94291631.14145  23026977.445                    23026983.859
        46.700          34.800
 115346692.358 7  89880565.96846  21949745.328                    21949751.578
        47.900          38.600
 117365446.462 7  91453618.02545  22333902.766                    22333908.605
        43.400          31.500
 117086537.513 8  91236274.70746  22280826.852                    22280830.188
        49.400          37.300
 125621922.133 7  97887242.97945  23905059.094                    23905066.176
        43.900          31.300
 117598503.951 7  91635207.80245  22378250.422                    22378252.848
        45.400          31.100
 18  3 13 14 41 17.0000000  0 19R01G19G22G25R08R10R09R16R17R18R19G12
                                G06G03G32G24G17G01G14
                  86409994.240 6  20783289.391                    20783292.898
                        37.600
 111491105.336 7  86876392.67045  21216100.383                    21216101.719
        46.800          34.100
 121131881.862 7  94388469.02644  23050630.500                    23050628.703
        46.900          29.700
 121597211.565 7  94751137.65445  23139191.352                    23139196.977
        44.100          31.100
                  87355706.854 6  20973940.703                    20973941.691
                        41.600
                  90804245.531 6  21901686.219                    21901691.461
                        39.900
                  80212243.024 6  19312941.242                    19312941.203
                        41.300
                  88470204.750 6  21293754.867                    21293756.277
                        36.400
                  86821589.871 6  20860317.063                    20860318.633
                        41.300
                  82739586.971 6  19928460.539                    19928461.809
                        38.900
                  95180064.036 6  22876594.953                    22876595.367
                        36.600
 108632771.876 7  84648924.88945  20672129.570                    20672131.801
        47.300          31.400
 123322716.805 7  96095650.93644  23467534.148                    23467540.918
        42.700          28.800
 121006116.709 7  94290495.18745  23026700.180                    23026706.348
        46.800          35.100
 115347688.800 8  89881342.42446  21949935.320                    21949941.371
        48.100          38.500
 117368831.996 7  91456256.12745  22334546.805                    22334552.688
        43.200          31.300
 117088829.732 8  91238060.86346  22281263.063                    22281266.570
        49.100          37.300
 125625489.398 7  97890022.66645  23905737.719                    23905745.336
        43.900          31.100
 117597487.479 7  91634415.71545  22378056.961                    22378059.848
        45.400          31.400
 18  3 13 14 41 18.0000000  0 19R01G19G22G25R08R10R09R16R17R18R19G12
                                G06G03G32G24G17G01G14
                  86409157.063 6  20783087.461                    20783090.848
                        37.300
 111492228.984 7  86877268.23745  21216314.195                    21216315.207
        47.300          33.900
 121131891.961 7  94388476.89645  23050632.219                    23050630.438
        47.200          30.000
 121594042.633 7  94748668.36945  23138589.031                    23138594.281
        44.700          31.300
                  87357875.322 6  20974461.125                    20974462.539
                        41.800
                  90801410.778 6  21901004.109                    21901007.121
                        40.000
                  80212238.581 6  19312940.117                    19312939.895
                        41.200
                  88473473.052 5  21294542.055                    21294542.766
                        35.600
                  86824058.747 6  20860909.422                    20860911.574
                        41.000
                  82738780.433 6  19928265.695                    19928267.742
                        38.700
                  95176855.031 6  22875822.586                    22875823.543
                        36.600
 108631758.491 7  84648135.23745  20671936.820                    20671938.863
        47.300          31.200
 123319919.783 7  96093471.41144  23467001.477                    23467008.949
        42.300          28.400
 121004659.502 7  94289359.69845  23026422.242                    23026429.352
        46.300          34.100
 115348685.945 8  89882119.42946  21950124.813                    21950131.293
        48.600          38.900
 117372217.935 7  91458894.53345  22335191.008                    22335197.195
        43.200          30.600
 117091122.501 8  91239847.44746  22281698.547                    22281702.813
        48.800          37.100
 125629057.110 7  97892802.70345  23906417.117                    23906424.461
        44.300          30.900
 117596471.616 7  91633624.12145  22377862.922                    22377866.543
        44.800          31.000
 18  3 13 14 41 19.0000000  0 19R01G19G22G25R08R10R09R16R17R18R19G12
                                G06G03G32G24G17G01G14
                  86408320.571 6  20782886.570                    20782890.547
                        36.900
 111493353.333 7  86878144.35645  21216528.234                    21216529.273
        47.500          34.100
 121131902.633 7  94388485.21545  23050634.375                    23050632.410
        47.300          30.000
 121590873.982 7  94746199.31045  23137986.680                    23137991.570
        45.700          31.200
                  87360044.372 7  20974981.852                    20974983.207
                        42.000
                  90798576.271 6  21900318.852                    21900323.957
                        39.900
                  80212234.775 6  19312939.227                    19312939.293
                        41.200
                  88476741.694 6  21295327.453                    21295329.945
                        36.200
                  86826528.175 6  20861503.930                    20861505.063
                        41.100
                  82737974.541 6  19928071.547                    19928073.461
                        39.100
                  95173646.203 5  22875050.469                    22875052.184
                        35.300
 108630745.754 7  84647346.08545  20671744.156                    20671746.359
        47.600          31.400
 123317123.192 6  96091292.24644  23466469.633                    23466476.621
        41.800          28.900
 121003202.893 7  94288224.67945  23026144.984                    23026152.129
        46.100          34.400
 115349683.781 8  89882896.96846  21950314.813                    21950320.879
        48.200          38.500
 117375604.298 7  91461533.26345  22335835.500                    22335841.285
        43.500          31.900
 117093415.801 8  91241634.43646  22282135.477                    22282139.395
        48.900          36.900
 125632625.172 7  97895583.00445  23907095.766                    23907102.863
        44.700          30.400
 117595456.332 7  91632832.99045  22377669.516                    22377673.160
        44.000          32.300
 18  3 13 14 41 20.0000000  0 19R01G19G22G25R08R10R09R16R17R18R19G12
                                G06G03G32G24G17G01G14
                  86407484.772 6  20782685.703                    20782689.578
                        36.800
 111494478.466 7  86879021.08645  21216742.117                    21216743.500
        47.600          33.900
 121131913.987 7  94388494.06945  23050636.609                    23050634.340
        47.600          30.400
 121587705.693 7  94743730.53245  23137383.414                    23137388.961
        46.800          31.400
                  87362214.018 6  20975502.766                    20975503.941
                        41.700
                  90795742.007 6  21899634.313                    21899639.863
                        40.800
                  80212231.649 6  19312938.258                    19312938.102
                        41.400
                  88480010.741 5  21296115.758                    21296116.348
                        35.800
                  86828998.153 6  20862096.883                    20862098.977
                        41.400
                  82737169.337 6  19927877.180                    19927879.191
                        38.600
                  95170437.580 5  22874279.914                    22874280.965
                        34.900
 108629733.703 7  84646557.47045  20671551.469                    20671553.719
        47.100          31.400
 123314327.044 7  96089113.46844  23465938.391                    23465944.609
        43.300          28.800
 121001746.901 7  94287090.14345  23025867.938                    23025874.918
        45.800          33.600
 115350682.305 8  89883675.04446  21950504.680                    21950510.938
        48.500          38.600
 117378991.127 7  91464172.35245  22336479.469                    22336485.578
        43.600          31.100
 117095709.643 8  91243421.84246  22282572.180                    22282575.160
        49.300          37.100
 125636193.667 7  97898363.64845  23907774.773                    23907781.840
        44.800          31.100
 117594441.672 7  91632042.35445  22377476.906                    22377480.215
        43.900          31.100
 18  3 13 14 41 21.0000000  0 19R01G19G22G25R08R10R09R16R17R18R19G12
                                G06G03G32G24G17G01G14
                  86406649.719 6  20782484.336                    20782488.320
                        36.900
 111495604.394 7  86879898.43545  21216956.250                    21216958.094
        47.700          34.000
 121131926.013 7  94388503.44244  23050639.031                    23050636.625
        47.500          29.800
 121584537.754 7  94741262.02445  23136780.586                    23136786.211
        47.100          32.600
                  87364384.318 6  20976024.570                    20976025.219
                        41.600
                  90792908.082 6  21898951.383                    21898956.641
                        40.400
                  80212229.230 6  19312937.414                    19312937.711
                        41.500
                  88483280.130 5  21296901.758                    21296903.098
                        35.800
                  86831468.669 6  20862690.992                    20862692.516
                        41.400
                  82736364.870 6  19927684.617                    19927686.031
                        38.300
                  95167229.187 5  22873509.563                    22873509.617
                        35.100
 108628722.359 7  84645769.42045  20671358.992                    20671361.578
        46.800          31.400
 123311531.313 7  96086935.03944  23465406.430                    23465412.688
        43.500          29.500
 121000291.537 7  94285956.10145  23025590.453                    23025597.762
        45.100          33.700
 115351681.587 8  89884453.70746  21950695.156                    21950701.242
        48.400          39.000
 117382378.408 7  91466811.81145  22337124.898                    22337130.410
        43.700          31.600
 117098004.030 8  91245209.67246  22283008.352                    22283012.258
        48.600          37.100
 125639762.594 7  97901144.62945  23908454.078                    23908461.059
        44.700          31.200
 117593427.631 7  91631252.20445  22377283.977                    22377287.578
        44.300          32.000
 18  3 13 14 41 22.0000000  0 19R01G19G22G25R08R10R09R16R17R18R19G12
                                G06G03G32G24G17G01G14
                  86405815.343 6  20782284.219                    20782287.664
                        36.900
 111496731.061 7  86880776.36245  21217170.820                    21217171.914
        47.500          33.800
 121131938.624 7  94388513.26445  23050641.008                    23050638.961
        46.900          30.700
 121581370.122 7  94738793.74645  23136178.266                    23136183.828
        47.300          32.800
                  87366555.217 6  20976545.602                    20976546.297
                        41.800
                  90790074.418 6  21898268.461                    21898273.480
                        40.300
                  80212227.423 6  19312937.180                    19312937.395
                        41.500
                  88486549.860 5  21297689.102                    21297690.121
                        35.700
                  86833939.721 6  20863284.773                    20863286.219
                        41.200
                  82735561.111 6  19927490.648                    19927492.590
                        38.800
                  95164020.949 5  22872738.328                    22872738.188
                        35.300
 108627711.664 7  84644981.87045  20671166.609                    20671169.160
        47.000          31.300
 123308735.983 7  96084756.92544  23464874.242                    23464880.918
        43.000          28.600
 120998836.764 7  94284822.50245  23025313.859                    23025320.809
        44.700          33.800
 115352681.522 8  89885232.87646  21950885.211                    21950891.246
        48.500          38.500
 117385766.078 7  91469451.58445  22337769.383                    22337774.973
        43.700          31.300
 117100298.970 8  91246997.92746  22283445.000                    22283448.855
        48.300          37.300
 125643331.941 7  97903925.94745  23909133.109                    23909140.418
        44.600          30.100
 117592414.189 7  91630462.52645  22377091.516                    22377094.160
        44.700          31.500
 18  3 13 14 41 23.0000000  0 19R01G19G22G25R08R10R09R16R17R18R19G12
                                G06G03G32G24G17G01G14
                  86404981.630 6  20782083.477                    20782087.098
                        36.600
 111497858.485 7  86881654.87345  21217385.188                    21217386.773
        47.900          34.200
 121131951.905 7  94388523.61644  23050643.750                    23050641.277
        47.000          29.700
 121578202.813 7  94736325.71545  23135575.289                    23135581.430
        47.600          32.700
                  87368726.732 6  20977067.469                    20977067.430
                        41.900
                  90787241.005 6  21897584.938                    21897589.512
                        40.100
                  80212226.302 6  19312937.273                    19312936.801
                        41.400
                  88489819.927 5  21298475.734                    21298477.551
                        35.900
                  86836411.331 6  20863879.180                    20863880.676
                        40.800
                  82734758.097 6  19927297.141                    19927299.449
                        38.700
                  95160812.939 5  22871968.078                    22871966.871
                        34.900
 108626701.632 7  84644194.84145  20670974.406                    20670976.719
        47.000          31.400
 123305941.061 7  96082579.14144  23464341.859                    23464348.945
        43.500          28.300
 120997382.592 7  94283689.38445  23025036.094                    23025043.594
        44.300          33.200
 115353682.162 8  89886012.59346  21951075.758                    21951082.086
        48.000          38.400
 117389154.185 7  91472091.69945  22338414.000                    22338419.793
        44.400          31.000
 117102594.436 8  91248786.59246  22283883.078                    22283885.355
        49.600          37.100
 125646901.684 7  97906707.56744  23909812.680                    23909819.578
        44.600          29.700
 117591401.352 7  91629673.31345  22376899.133                    22376901.980
        45.900          31.500
 18  3 13 14 41 24.0000000  0 19R01G19G22G25R08R10R09R16R17R18R19G12
                                G06G03G32G24G17G01G14
                  86404148.618 6  20781883.328                    20781886.734
                        36.200
 111498986.650 7  86882533.95845  21217599.859                    21217601.090
        47.500          33.600
 121131965.796 7  94388534.43844  23050646.359                    23050644.094
        46.900          29.700
 121575035.835 7  94733857.93745  23134972.094                    23134978.621
        46.900          32.100
                  87370898.874 6  20977588.555                    20977589.230
                        41.900
                  90784407.862 6  21896900.539                    21896906.309
                        40.300
                  80212225.806 6  19312937.031                    19312936.941
                        41.600
                  88493090.313 6  21299263.578                    21299264.430
                        36.500
                  86838883.530 6  20864472.219                    20864474.191
                        40.900
                  82733955.752 6  19927104.109                    19927105.250
                        38.900
                  95157605.125 5  22871195.961                    22871195.977
                        34.800
 108625692.285 7  84643408.34945  20670782.367                    20670784.715
        47.000          31.400
 123303146.528 7  96080401.68144  23463810.445                    23463816.969
        43.900          29.100
 120995929.058 7  94282556.76545  23024760.672                    23024767.684
        44.000          33.100
 115354683.506 8  89886792.86246  21951266.211                    21951272.105
        48.100          38.600
 117392542.719 7  91474732.14445  22339059.117                    22339064.527
        44.400          31.600
 117104890.404 8  91250575.65946  22284319.750                    22284322.531
        50.000          36.600
 125650471.817 7  97909489.49744  23910491.977                    23910498.891
        45.000          29.600
 117590389.127 7  91628884.56145  22376706.594                    22376708.813
        46.000          31.800
 18  3 13 14 41 25.0000000  0 19R01G19G22G25R08R10R09R16R17R18R19G12
                                G06G03G32G24G17G01G14
                  86403316.328 6  20781682.977                    20781686.555
                        36.500
 111500115.604 7  86883413.65945  21217815.055                    21217816.152
        47.500          33.400
 121131980.385 7  94388545.81145  23050648.648                    23050647.008
        46.600          30.400
 121571869.180 7  94731390.41445  23134369.336                    23134375.809
        46.300          32.100
                  87373071.635 6  20978110.555                    20978110.965
                        41.600
                  90781575.027 6  21896218.148                    21896222.957
                        40.500
                  80212225.993 6  19312937.039                    19312936.758
                        41.600
                  88496361.051 5  21300051.164                    21300051.016
                        35.700
                  86841356.325 6  20865066.453                    20865068.816
                        41.200
                  82733154.110 6  19926910.625                    19926912.805
                        39.400
                  95154397.577 5  22870425.344                    22870424.926
                        34.700
 108624683.608 7  84642622.37145  20670590.875                    20670592.813
        47.000          32.300
 123300352.362 7  96078224.51644  23463278.141                    23463285.641
        42.600          28.900
 120994476.143 7  94281424.62745  23024483.734                    23024491.086
        43.900          33.200
 115355685.568 8  89887573.68946  21951457.180                    21951463.359
        48.100          39.300
 117395931.701 7  91477372.93945  22339703.297                    22339710.039
        43.900          31.400
 117107186.951 8  91252365.18146  22284756.367                    22284759.910
        49.500          36.900
 125654042.405 7  97912271.77645  23911171.445                    23911178.352
        44.900          30.400
 117589377.543 7  91628096.29345  22376514.477                    22376516.645
        45.800          31.500
 18  3 13 14 41 26.0000000  0 19R01G19G22G25R08R10R09R16R17R18R19G12
                                G06G03G32G24G17G01G14
                  86402484.738 6  20781483.000                    20781486.285
                        36.400
 111501245.295 7  86884293.93745  21218030.297                    21218031.309
        47.400          33.200
 121131995.568 7  94388557.64345  23050651.359                    23050649.859
        46.500          30.000
 121568702.864 7  94728923.16045  23133766.297                    23133773.512
        45.700          30.800
                  87375245.013 6  20978632.375                    20978633.004
                        41.600
                  90778742.466 6  21895535.852                    21895539.641
                        40.200
                  80212226.854 6  19312937.289                    19312937.156
                        41.500
                  88499632.124 6  21300837.313                    21300839.266
                        36.400
                  86843829.680 6  20865660.430                    20865662.457
                        41.300
                  82732353.144 6  19926718.000                    19926719.508
                        39.300
                  95151190.194 5  22869654.461                    22869654.191
                        35.300
 108623675.596 7  84641836.91445  20670398.688                    20670401.164
        47.200          31.700
 123297558.553 7  96076047.62244  23462746.797                    23462753.742
        43.200          28.800
 120993023.773 7  94280292.91945  23024206.992                    23024214.367
        43.200          33.500
 115356688.302 8  89888355.04346  21951648.320                    21951654.023
        48.300          39.500
 117399321.099 7  91480014.05545  22340348.016                    22340354.488
        43.900          31.400
 117109484.026 8  91254155.11746  22285193.141                    22285196.816
        49.800          36.700
 125657613.373 7  97915054.35845  23911851.258                    23911857.895
        45.000          30.000
 117588366.558 7  91627308.49245  22376320.805                    22376324.059
        44.700          30.900
 18  3 13 14 41 27.0000000  0 19R01G19G22G25R08R10R09R16R17R18R19G12
                                G06G03G32G24G17G01G14
                  86401653.864 6  20781283.914                    20781285.906
                        36.800
 111502375.761 7  86885174.81545  21218245.070                    21218246.012
        47.300          33.600
 121132011.431 7  94388570.00644  23050654.758                    23050652.691
        46.600          29.800
 121565536.844 7  94726456.13245  23133163.602                    23133170.898
        44.300          30.900
                  87377419.039 6  20979153.844                    20979155.422
                        41.600
                  90775910.196 6  21894852.188                    21894856.355
                        40.800
                  80212228.360 6  19312937.539                    19312937.848
                        41.500
                  88502903.604 6  21301623.984                    21301625.797
                        36.300
