% program   : RTKPOST ver.2.4.2
% inp file  : Z:\home\linda\Documents\Spring18\GitHub_Unis\data\processed_data\46250748.obs
% inp file  : Z:\home\linda\Documents\Spring18\GitHub_Unis\data\processed_data\46250748.nav
% obs start : 2018/03/15 09:50:11.0 GPST (week1992 381011.0s)
% obs end   : 2018/03/15 10:05:16.0 GPST (week1992 381916.0s)
% pos mode  : single
% elev mask : 15.0 deg
% ionos opt : broadcast
% tropo opt : saastamoinen
% ephemeris : broadcast
% navi sys  : gps glonass galileo qzss sbas
%
% (lat/lon/height=WGS84/ellipsoidal,Q=1:fix,2:float,3:sbas,4:dgps,5:single,6:ppp,ns=# of satellites)
%  GPST                  latitude(deg) longitude(deg)  height(m)   Q  ns   sdn(m)   sde(m)   sdu(m)  sdne(m)  sdeu(m)  sdun(m) age(s)  ratio
2018/03/15 09:50:11.000   78.247147676   16.013732234   440.8216   5   9   2.6853   1.4970   9.5826   0.8093   1.4210   3.8295   0.00    0.0
2018/03/15 09:50:12.000   78.247145187   16.013720014   438.5068   5   9   2.6857   1.4971   9.5844   0.8094   1.4216   3.8308   0.00    0.0
2018/03/15 09:50:13.000   78.247146857   16.013721126   438.6662   5   9   2.6862   1.4971   9.5862   0.8094   1.4221   3.8320   0.00    0.0
2018/03/15 09:50:14.000   78.247148575   16.013747938   440.6256   5   9   2.6866   1.4971   9.5880   0.8095   1.4227   3.8333   0.00    0.0
2018/03/15 09:50:15.000   78.247143067   16.013745903   439.2738   5   9   2.6870   1.4971   9.5897   0.8096   1.4232   3.8346   0.00    0.0
2018/03/15 09:50:16.000   78.247139568   16.013721895   437.8337   5   9   2.6874   1.4971   9.5915   0.8097   1.4238   3.8359   0.00    0.0
2018/03/15 09:50:17.000   78.247143412   16.013720761   439.8014   5   9   2.6878   1.4971   9.5933   0.8098   1.4243   3.8372   0.00    0.0
2018/03/15 09:50:18.000   78.247144338   16.013736167   439.0015   5   9   2.6882   1.4971   9.5951   0.8099   1.4249   3.8385   0.00    0.0
2018/03/15 09:50:19.000   78.247141836   16.013726463   439.2171   5   9   2.6886   1.4971   9.5969   0.8100   1.4254   3.8398   0.00    0.0
2018/03/15 09:50:20.000   78.247143094   16.013738701   438.2078   5   9   2.6890   1.4971   9.5987   0.8101   1.4260   3.8411   0.00    0.0
2018/03/15 09:50:21.000   78.247145648   16.013738093   439.0368   5   9   2.6894   1.4971   9.6005   0.8101   1.4265   3.8424   0.00    0.0
2018/03/15 09:50:22.000   78.247145587   16.013735422   440.1553   5   9   2.6899   1.4971   9.6022   0.8102   1.4271   3.8437   0.00    0.0
2018/03/15 09:50:23.000   78.247146164   16.013742777   439.3042   5   9   2.6903   1.4971   9.6040   0.8103   1.4277   3.8449   0.00    0.0
2018/03/15 09:50:24.000   78.247146184   16.013721795   439.9791   5   9   2.6907   1.4971   9.6058   0.8104   1.4282   3.8462   0.00    0.0
2018/03/15 09:50:25.000   78.247147156   16.013728474   440.3723   5   9   2.6911   1.4971   9.6076   0.8105   1.4288   3.8475   0.00    0.0
2018/03/15 09:50:26.000   78.247147338   16.013735935   440.4203   5   9   2.6915   1.4971   9.6094   0.8106   1.4293   3.8488   0.00    0.0
2018/03/15 09:50:27.000   78.247148482   16.013733646   439.7776   5   9   2.6919   1.4972   9.6111   0.8107   1.4299   3.8501   0.00    0.0
2018/03/15 09:50:28.000   78.247146772   16.013730638   439.0741   5   9   2.6923   1.4972   9.6129   0.8107   1.4304   3.8514   0.00    0.0
2018/03/15 09:50:29.000   78.247140944   16.013722210   437.4305   5   9   2.6928   1.4972   9.6147   0.8108   1.4310   3.8527   0.00    0.0
2018/03/15 09:50:30.000   78.247142812   16.013715768   437.1906   5   9   2.6932   1.4972   9.6164   0.8109   1.4315   3.8539   0.00    0.0
2018/03/15 09:50:31.000   78.247148086   16.013730592   439.6753   5   9   2.6936   1.4972   9.6182   0.8110   1.4320   3.8552   0.00    0.0
2018/03/15 09:50:32.000   78.247147533   16.013721669   440.4760   5   9   2.6940   1.4972   9.6200   0.8111   1.4326   3.8565   0.00    0.0
2018/03/15 09:50:33.000   78.247144207   16.013723241   440.3258   5   9   2.6944   1.4972   9.6217   0.8112   1.4331   3.8578   0.00    0.0
2018/03/15 09:50:34.000   78.247143914   16.013728076   440.0575   5   9   2.6948   1.4972   9.6235   0.8113   1.4337   3.8591   0.00    0.0
2018/03/15 09:50:35.000   78.247142976   16.013729209   440.5767   5   9   2.6952   1.4972   9.6253   0.8114   1.4342   3.8604   0.00    0.0
2018/03/15 09:50:36.000   78.247144555   16.013719429   438.7352   5   9   2.6956   1.4972   9.6270   0.8114   1.4348   3.8616   0.00    0.0
2018/03/15 09:50:37.000   78.247142927   16.013712599   438.9824   5   9   2.6961   1.4972   9.6288   0.8115   1.4353   3.8629   0.00    0.0
2018/03/15 09:50:38.000   78.247144883   16.013704026   439.6670   5   9   2.6965   1.4972   9.6305   0.8116   1.4359   3.8642   0.00    0.0
2018/03/15 09:50:39.000   78.247145948   16.013735675   439.4548   5   9   2.6969   1.4972   9.6323   0.8117   1.4364   3.8655   0.00    0.0
2018/03/15 09:50:40.000   78.247145358   16.013722944   439.8394   5   9   2.6973   1.4972   9.6340   0.8118   1.4369   3.8668   0.00    0.0
2018/03/15 09:50:41.000   78.247144275   16.013718473   439.3223   5   9   2.6977   1.4973   9.6358   0.8119   1.4375   3.8680   0.00    0.0
2018/03/15 09:50:42.000   78.247147748   16.013732279   441.0822   5   9   2.6981   1.4973   9.6375   0.8120   1.4380   3.8693   0.00    0.0
2018/03/15 09:50:43.000   78.247147566   16.013738015   440.4230   5   9   2.6985   1.4973   9.6393   0.8121   1.4386   3.8706   0.00    0.0
2018/03/15 09:50:44.000   78.247143543   16.013720419   440.2996   5   9   2.6990   1.4973   9.6410   0.8121   1.4391   3.8719   0.00    0.0
2018/03/15 09:50:45.000   78.247139598   16.013725133   439.2594   5   9   2.6994   1.4973   9.6428   0.8122   1.4397   3.8732   0.00    0.0
2018/03/15 09:50:46.000   78.247144579   16.013720567   440.7920   5   9   2.6998   1.4973   9.6445   0.8123   1.4402   3.8744   0.00    0.0
2018/03/15 09:50:47.000   78.247144695   16.013733637   439.3372   5   9   2.7002   1.4973   9.6463   0.8124   1.4407   3.8757   0.00    0.0
2018/03/15 09:50:48.000   78.247141413   16.013719897   437.2664   5   9   2.7006   1.4973   9.6480   0.8125   1.4413   3.8770   0.00    0.0
2018/03/15 09:50:49.000   78.247147209   16.013714928   438.7693   5   9   2.7010   1.4973   9.6497   0.8126   1.4418   3.8783   0.00    0.0
2018/03/15 09:50:50.000   78.247148473   16.013739747   439.5406   5   9   2.7014   1.4973   9.6515   0.8127   1.4423   3.8795   0.00    0.0
2018/03/15 09:50:51.000   78.247145487   16.013732747   439.0149   5   9   2.7019   1.4973   9.6532   0.8127   1.4429   3.8808   0.00    0.0
2018/03/15 09:50:52.000   78.247144705   16.013714013   440.4672   5   9   2.7023   1.4973   9.6549   0.8128   1.4434   3.8821   0.00    0.0
2018/03/15 09:50:53.000   78.247147232   16.013714001   439.3812   5   9   2.7027   1.4973   9.6567   0.8129   1.4440   3.8833   0.00    0.0
2018/03/15 09:50:54.000   78.247145393   16.013743098   438.6083   5   9   2.7031   1.4974   9.6584   0.8130   1.4445   3.8846   0.00    0.0
2018/03/15 09:50:55.000   78.247148741   16.013749756   440.3608   5   9   2.7035   1.4974   9.6601   0.8131   1.4450   3.8859   0.00    0.0
2018/03/15 09:50:56.000   78.247148763   16.013746399   440.9144   5   9   2.7039   1.4974   9.6619   0.8132   1.4456   3.8872   0.00    0.0
2018/03/15 09:50:57.000   78.247150762   16.013731423   439.9662   5   9   2.7043   1.4974   9.6636   0.8133   1.4461   3.8884   0.00    0.0
2018/03/15 09:50:58.000   78.247144129   16.013739730   438.5779   5   9   2.7048   1.4974   9.6653   0.8134   1.4466   3.8897   0.00    0.0
2018/03/15 09:50:59.000   78.247145344   16.013731934   440.6343   5   9   2.7052   1.4974   9.6670   0.8134   1.4472   3.8910   0.00    0.0
2018/03/15 09:51:00.000   78.247144814   16.013753997   439.6560   5   9   2.7056   1.4974   9.6687   0.8135   1.4477   3.8922   0.00    0.0
2018/03/15 09:51:01.000   78.247145217   16.013733742   439.5220   5   9   2.7060   1.4974   9.6705   0.8136   1.4482   3.8935   0.00    0.0
2018/03/15 09:51:02.000   78.247143430   16.013722177   439.4152   5   9   2.7064   1.4974   9.6722   0.8137   1.4487   3.8948   0.00    0.0
2018/03/15 09:51:03.000   78.247144557   16.013715924   439.2442   5   9   2.7068   1.4974   9.6739   0.8138   1.4493   3.8960   0.00    0.0
2018/03/15 09:51:04.000   78.247148016   16.013714241   440.1617   5   9   2.7072   1.4974   9.6756   0.8139   1.4498   3.8973   0.00    0.0
2018/03/15 09:51:05.000   78.247145280   16.013703450   438.7990   5   9   2.7077   1.4974   9.6773   0.8140   1.4503   3.8986   0.00    0.0
2018/03/15 09:51:06.000   78.247143608   16.013718480   437.8523   5   9   2.7081   1.4974   9.6790   0.8140   1.4509   3.8998   0.00    0.0
2018/03/15 09:51:07.000   78.247144255   16.013715838   440.7176   5   9   2.7085   1.4975   9.6807   0.8141   1.4514   3.9011   0.00    0.0
2018/03/15 09:51:08.000   78.247145766   16.013709921   440.6759   5   9   2.7089   1.4975   9.6824   0.8142   1.4519   3.9024   0.00    0.0
2018/03/15 09:51:09.000   78.247143703   16.013710180   441.1251   5   9   2.7093   1.4975   9.6841   0.8143   1.4524   3.9036   0.00    0.0
2018/03/15 09:51:10.000   78.247144519   16.013717639   440.6315   5   9   2.7097   1.4975   9.6858   0.8144   1.4530   3.9049   0.00    0.0
2018/03/15 09:51:11.000   78.247146934   16.013712709   443.1381   5   9   2.7102   1.4975   9.6875   0.8145   1.4535   3.9061   0.00    0.0
2018/03/15 09:51:12.000   78.247142645   16.013727918   440.8292   5   9   2.7106   1.4975   9.6892   0.8146   1.4540   3.9074   0.00    0.0
2018/03/15 09:51:13.000   78.247144486   16.013725402   440.2006   5   9   2.7110   1.4975   9.6909   0.8146   1.4545   3.9087   0.00    0.0
2018/03/15 09:51:14.000   78.247144230   16.013726223   439.4857   5   9   2.7114   1.4975   9.6926   0.8147   1.4551   3.9099   0.00    0.0
2018/03/15 09:51:15.000   78.247140332   16.013735819   439.9920   5   9   2.7118   1.4975   9.6943   0.8148   1.4556   3.9112   0.00    0.0
2018/03/15 09:51:16.000   78.247142568   16.013736163   440.6044   5   9   2.7122   1.4975   9.6960   0.8149   1.4561   3.9124   0.00    0.0
2018/03/15 09:51:17.000   78.247141867   16.013732376   439.9650   5   9   2.7127   1.4975   9.6977   0.8150   1.4566   3.9137   0.00    0.0
2018/03/15 09:51:18.000   78.247141641   16.013711774   439.3210   5   9   2.7131   1.4975   9.6994   0.8151   1.4572   3.9150   0.00    0.0
2018/03/15 09:51:19.000   78.247142534   16.013720981   439.4417   5   9   2.7135   1.4975   9.7011   0.8152   1.4577   3.9162   0.00    0.0
2018/03/15 09:51:20.000   78.247148657   16.013737016   441.1138   5   9   2.7139   1.4976   9.7027   0.8152   1.4582   3.9175   0.00    0.0
2018/03/15 09:51:21.000   78.247148105   16.013743548   440.4266   5   9   2.7143   1.4976   9.7044   0.8153   1.4587   3.9187   0.00    0.0
2018/03/15 09:51:22.000   78.247151374   16.013739746   441.6817   5   9   2.7147   1.4976   9.7061   0.8154   1.4592   3.9200   0.00    0.0
2018/03/15 09:51:23.000   78.247148730   16.013747818   441.0590   5   9   2.7151   1.4976   9.7078   0.8155   1.4598   3.9212   0.00    0.0
2018/03/15 09:51:24.000   78.247152545   16.013728948   442.9160   5   9   2.7156   1.4976   9.7094   0.8156   1.4603   3.9225   0.00    0.0
2018/03/15 09:51:25.000   78.247146454   16.013726364   441.5592   5   9   2.7160   1.4976   9.7111   0.8157   1.4608   3.9237   0.00    0.0
2018/03/15 09:51:26.000   78.247147690   16.013729664   440.5045   5   9   2.7164   1.4976   9.7128   0.8158   1.4613   3.9250   0.00    0.0
2018/03/15 09:51:27.000   78.247141487   16.013742208   439.2295   5   9   2.7168   1.4976   9.7145   0.8158   1.4618   3.9263   0.00    0.0
2018/03/15 09:51:28.000   78.247139208   16.013736611   438.9634   5   9   2.7172   1.4976   9.7161   0.8159   1.4623   3.9275   0.00    0.0
2018/03/15 09:51:29.000   78.247135863   16.013747021   436.5180   5   9   2.7176   1.4976   9.7178   0.8160   1.4629   3.9288   0.00    0.0
2018/03/15 09:51:30.000   78.247137901   16.013737274   437.4844   5   9   2.7181   1.4976   9.7195   0.8161   1.4634   3.9300   0.00    0.0
2018/03/15 09:51:31.000   78.247142708   16.013741480   437.9293   5   9   2.7185   1.4976   9.7211   0.8162   1.4639   3.9313   0.00    0.0
2018/03/15 09:51:32.000   78.247145596   16.013718480   439.8651   5   9   2.7189   1.4976   9.7228   0.8163   1.4644   3.9325   0.00    0.0
2018/03/15 09:51:33.000   78.247148423   16.013735158   440.5864   5   9   2.7193   1.4977   9.7244   0.8164   1.4649   3.9338   0.00    0.0
2018/03/15 09:51:34.000   78.247153018   16.013724964   442.5831   5   9   2.7197   1.4977   9.7261   0.8164   1.4654   3.9350   0.00    0.0
2018/03/15 09:51:35.000   78.247147204   16.013735028   441.2666   5   9   2.7201   1.4977   9.7278   0.8165   1.4659   3.9362   0.00    0.0
2018/03/15 09:51:36.000   78.247151351   16.013729406   442.5498   5   9   2.7206   1.4977   9.7294   0.8166   1.4664   3.9375   0.00    0.0
2018/03/15 09:51:37.000   78.247150482   16.013721040   441.3924   5   9   2.7210   1.4977   9.7311   0.8167   1.4670   3.9387   0.00    0.0
2018/03/15 09:51:38.000   78.247149623   16.013722021   442.1025   5   9   2.7214   1.4977   9.7327   0.8168   1.4675   3.9400   0.00    0.0
2018/03/15 09:51:39.000   78.247147768   16.013720109   441.3022   5   9   2.7218   1.4977   9.7344   0.8169   1.4680   3.9412   0.00    0.0
2018/03/15 09:51:40.000   78.247144881   16.013724887   440.6217   5   9   2.7222   1.4977   9.7360   0.8170   1.4685   3.9425   0.00    0.0
2018/03/15 09:51:41.000   78.247138458   16.013738434   438.0861   5   9   2.7226   1.4977   9.7376   0.8170   1.4690   3.9437   0.00    0.0
2018/03/15 09:51:42.000   78.247141994   16.013725904   438.2160   5   9   2.7230   1.4977   9.7393   0.8171   1.4695   3.9450   0.00    0.0
2018/03/15 09:51:43.000   78.247141446   16.013732176   438.0352   5   9   2.7235   1.4977   9.7409   0.8172   1.4700   3.9462   0.00    0.0
2018/03/15 09:51:44.000   78.247145738   16.013739769   438.7260   5   9   2.7239   1.4977   9.7426   0.8173   1.4705   3.9474   0.00    0.0
2018/03/15 09:51:45.000   78.247149517   16.013716277   439.4719   5   9   2.7243   1.4977   9.7442   0.8174   1.4710   3.9487   0.00    0.0
2018/03/15 09:51:46.000   78.247151074   16.013732837   439.6480   5   9   2.7247   1.4978   9.7458   0.8175   1.4715   3.9499   0.00    0.0
2018/03/15 09:51:47.000   78.247153953   16.013738658   441.0268   5   9   2.7251   1.4978   9.7475   0.8175   1.4720   3.9512   0.00    0.0
2018/03/15 09:51:48.000   78.247153117   16.013734921   441.0763   5   9   2.7255   1.4978   9.7491   0.8176   1.4725   3.9524   0.00    0.0
2018/03/15 09:51:49.000   78.247154067   16.013727761   442.6740   5   9   2.7260   1.4978   9.7507   0.8177   1.4730   3.9536   0.00    0.0
2018/03/15 09:51:50.000   78.247150550   16.013727135   440.9874   5   9   2.7264   1.4978   9.7524   0.8178   1.4735   3.9549   0.00    0.0
2018/03/15 09:51:51.000   78.247153165   16.013728805   442.5888   5   9   2.7268   1.4978   9.7540   0.8179   1.4740   3.9561   0.00    0.0
2018/03/15 09:51:52.000   78.247148441   16.013746949   441.4434   5   9   2.7272   1.4978   9.7556   0.8180   1.4745   3.9573   0.00    0.0
2018/03/15 09:51:53.000   78.247146014   16.013739398   440.8745   5   9   2.7276   1.4978   9.7572   0.8180   1.4750   3.9586   0.00    0.0
2018/03/15 09:51:54.000   78.247142888   16.013729476   439.1894   5   9   2.7280   1.4978   9.7588   0.8181   1.4755   3.9598   0.00    0.0
2018/03/15 09:51:55.000   78.247139999   16.013733086   438.3615   5   9   2.7285   1.4978   9.7605   0.8182   1.4760   3.9611   0.00    0.0
2018/03/15 09:51:56.000   78.247137489   16.013726161   437.5580   5   9   2.7289   1.4978   9.7621   0.8183   1.4765   3.9623   0.00    0.0
2018/03/15 09:51:57.000   78.247140087   16.013734168   437.7262   5   9   2.7293   1.4978   9.7637   0.8184   1.4770   3.9635   0.00    0.0
2018/03/15 09:51:58.000   78.247137996   16.013734268   437.4238   5   9   2.7297   1.4979   9.7653   0.8185   1.4775   3.9648   0.00    0.0
2018/03/15 09:51:59.000   78.247144720   16.013725493   438.4840   5   9   2.7301   1.4979   9.7669   0.8185   1.4780   3.9660   0.00    0.0
2018/03/15 09:52:00.000   78.247144380   16.013729767   439.5531   5   9   2.7305   1.4979   9.7685   0.8186   1.4785   3.9672   0.00    0.0
2018/03/15 09:52:01.000   78.247144784   16.013731653   441.3858   5   9   2.7310   1.4979   9.7701   0.8187   1.4790   3.9684   0.00    0.0
2018/03/15 09:52:02.000   78.247145564   16.013737089   441.0932   5   9   2.7314   1.4979   9.7717   0.8188   1.4795   3.9697   0.00    0.0
2018/03/15 09:52:03.000   78.247145464   16.013727256   441.1768   5   9   2.7318   1.4979   9.7733   0.8189   1.4800   3.9709   0.00    0.0
2018/03/15 09:52:04.000   78.247143478   16.013716488   440.9655   5   9   2.7322   1.4979   9.7749   0.8190   1.4805   3.9721   0.00    0.0
2018/03/15 09:52:05.000   78.247148505   16.013720316   441.4703   5   9   2.7326   1.4979   9.7765   0.8190   1.4810   3.9734   0.00    0.0
2018/03/15 09:52:06.000   78.247142716   16.013740105   438.8914   5   9   2.7330   1.4979   9.7781   0.8191   1.4815   3.9746   0.00    0.0
2018/03/15 09:52:07.000   78.247146439   16.013734809   439.0948   5   9   2.7335   1.4979   9.7797   0.8192   1.4820   3.9758   0.00    0.0
2018/03/15 09:52:08.000   78.247145739   16.013744522   439.2836   5   9   2.7339   1.4979   9.7813   0.8193   1.4825   3.9770   0.00    0.0
2018/03/15 09:52:09.000   78.247141324   16.013737656   438.0952   5   9   2.7343   1.4979   9.7829   0.8194   1.4830   3.9783   0.00    0.0
2018/03/15 09:52:10.000   78.247141613   16.013726112   438.8817   5   9   2.7347   1.4980   9.7845   0.8195   1.4835   3.9795   0.00    0.0
2018/03/15 09:52:11.000   78.247140710   16.013731096   440.1771   5   9   2.7351   1.4980   9.7861   0.8195   1.4840   3.9807   0.00    0.0
2018/03/15 09:52:12.000   78.247143546   16.013730547   440.2756   5   9   2.7355   1.4980   9.7876   0.8196   1.4844   3.9819   0.00    0.0
2018/03/15 09:52:13.000   78.247143855   16.013724149   439.1078   5   9   2.7360   1.4980   9.7892   0.8197   1.4849   3.9831   0.00    0.0
2018/03/15 09:52:14.000   78.247146605   16.013736234   440.9299   5   9   2.7364   1.4980   9.7908   0.8198   1.4854   3.9844   0.00    0.0
2018/03/15 09:52:15.000   78.247146823   16.013731670   440.3451   5   9   2.7368   1.4980   9.7924   0.8199   1.4859   3.9856   0.00    0.0
2018/03/15 09:52:16.000   78.247146451   16.013728530   439.3183   5   9   2.7372   1.4980   9.7940   0.8200   1.4864   3.9868   0.00    0.0
2018/03/15 09:52:17.000   78.247148196   16.013732196   441.6791   5   9   2.7376   1.4980   9.7955   0.8200   1.4869   3.9880   0.00    0.0
2018/03/15 09:52:18.000   78.247148700   16.013736273   441.2504   5   9   2.7380   1.4980   9.7971   0.8201   1.4874   3.9892   0.00    0.0
2018/03/15 09:52:19.000   78.247152032   16.013734027   441.1571   5   9   2.7385   1.4980   9.7987   0.8202   1.4879   3.9905   0.00    0.0
2018/03/15 09:52:20.000   78.247150516   16.013725028   441.0365   5   9   2.7389   1.4980   9.8002   0.8203   1.4883   3.9917   0.00    0.0
2018/03/15 09:52:21.000   78.247145849   16.013725424   439.9647   5   9   2.7393   1.4980   9.8018   0.8204   1.4888   3.9929   0.00    0.0
2018/03/15 09:52:22.000   78.247149893   16.013731895   441.1468   5   9   2.7397   1.4981   9.8034   0.8205   1.4893   3.9941   0.00    0.0
2018/03/15 09:52:23.000   78.247145710   16.013739090   441.2845   5   9   2.7401   1.4981   9.8049   0.8205   1.4898   3.9953   0.00    0.0
2018/03/15 09:52:24.000   78.247148169   16.013747621   440.8763   5   9   2.7405   1.4981   9.8065   0.8206   1.4903   3.9965   0.00    0.0
2018/03/15 09:52:25.000   78.247146155   16.013727460   440.2020   5   9   2.7409   1.4981   9.8080   0.8207   1.4908   3.9977   0.00    0.0
2018/03/15 09:52:26.000   78.247142084   16.013751237   438.3603   5   9   2.7414   1.4981   9.8096   0.8208   1.4912   3.9989   0.00    0.0
2018/03/15 09:52:27.000   78.247141044   16.013731229   439.8175   5   9   2.7418   1.4981   9.8111   0.8209   1.4917   4.0002   0.00    0.0
2018/03/15 09:52:28.000   78.247142167   16.013739840   440.5972   5   9   2.7422   1.4981   9.8127   0.8209   1.4922   4.0014   0.00    0.0
2018/03/15 09:52:29.000   78.247146940   16.013740985   442.6970   5   9   2.7426   1.4981   9.8142   0.8210   1.4927   4.0026   0.00    0.0
2018/03/15 09:52:30.000   78.247151825   16.013731638   443.2960   5   9   2.7430   1.4981   9.8158   0.8211   1.4932   4.0038   0.00    0.0
2018/03/15 09:52:31.000   78.247153256   16.013742684   442.0840   5   9   2.7434   1.4981   9.8173   0.8212   1.4936   4.0050   0.00    0.0
2018/03/15 09:52:32.000   78.247151985   16.013729580   441.4846   5   9   2.7439   1.4981   9.8189   0.8213   1.4941   4.0062   0.00    0.0
2018/03/15 09:52:33.000   78.247151214   16.013734270   441.2066   5   9   2.7443   1.4981   9.8204   0.8213   1.4946   4.0074   0.00    0.0
2018/03/15 09:52:34.000   78.247147979   16.013734754   440.3896   5   9   2.7447   1.4982   9.8220   0.8214   1.4951   4.0086   0.00    0.0
2018/03/15 09:52:35.000   78.247150974   16.013732240   441.7728   5   9   2.7451   1.4982   9.8235   0.8215   1.4955   4.0098   0.00    0.0
2018/03/15 09:52:36.000   78.247143233   16.013736241   440.4076   5   9   2.7455   1.4982   9.8250   0.8216   1.4960   4.0110   0.00    0.0
2018/03/15 09:52:37.000   78.247139779   16.013729257   438.3734   5   9   2.7459   1.4982   9.8266   0.8217   1.4965   4.0122   0.00    0.0
2018/03/15 09:52:38.000   78.247136656   16.013725019   437.1177   5   9   2.7464   1.4982   9.8281   0.8218   1.4970   4.0134   0.00    0.0
2018/03/15 09:52:39.000   78.247140464   16.013726422   438.4832   5   9   2.7468   1.4982   9.8296   0.8218   1.4974   4.0146   0.00    0.0
2018/03/15 09:52:40.000   78.247143601   16.013726387   439.6521   5   9   2.7472   1.4982   9.8311   0.8219   1.4979   4.0158   0.00    0.0
2018/03/15 09:52:41.000   78.247147163   16.013740569   441.1017   5   9   2.7476   1.4982   9.8327   0.8220   1.4984   4.0170   0.00    0.0
2018/03/15 09:52:42.000   78.247147061   16.013728450   441.8725   5   9   2.7480   1.4982   9.8342   0.8221   1.4988   4.0182   0.00    0.0
2018/03/15 09:52:43.000   78.247148806   16.013737628   441.9405   5   9   2.7484   1.4982   9.8357   0.8222   1.4993   4.0194   0.00    0.0
2018/03/15 09:52:44.000   78.247149698   16.013726337   441.9980   5   9   2.7489   1.4982   9.8372   0.8222   1.4998   4.0206   0.00    0.0
2018/03/15 09:52:45.000   78.247147385   16.013733966   440.1762   5   9   2.7493   1.4983   9.8387   0.8223   1.5003   4.0218   0.00    0.0
2018/03/15 09:52:46.000   78.247146896   16.013723531   440.9648   5   9   2.7497   1.4983   9.8402   0.8224   1.5007   4.0230   0.00    0.0
2018/03/15 09:52:47.000   78.247145739   16.013730701   440.2762   5   9   2.7501   1.4983   9.8417   0.8225   1.5012   4.0242   0.00    0.0
2018/03/15 09:52:48.000   78.247143380   16.013724892   441.3664   5   9   2.7505   1.4983   9.8433   0.8226   1.5017   4.0254   0.00    0.0
2018/03/15 09:52:49.000   78.247145635   16.013738509   440.6196   5   9   2.7509   1.4983   9.8448   0.8226   1.5021   4.0266   0.00    0.0
2018/03/15 09:52:50.000   78.247148604   16.013716046   440.5260   5   9   2.7513   1.4983   9.8463   0.8227   1.5026   4.0278   0.00    0.0
2018/03/15 09:52:51.000   78.247146230   16.013721848   439.3994   5   9   2.7518   1.4983   9.8478   0.8228   1.5031   4.0290   0.00    0.0
2018/03/15 09:52:52.000   78.247148648   16.013712837   440.5880   5   9   2.7522   1.4983   9.8493   0.8229   1.5035   4.0302   0.00    0.0
2018/03/15 09:52:53.000   78.247145984   16.013729032   439.8451   5   9   2.7526   1.4983   9.8508   0.8230   1.5040   4.0314   0.00    0.0
2018/03/15 09:52:54.000   78.247148287   16.013725785   441.8407   5   9   2.7530   1.4983   9.8523   0.8230   1.5044   4.0326   0.00    0.0
2018/03/15 09:52:55.000   78.247149871   16.013745836   441.6308   5   9   2.7534   1.4983   9.8537   0.8231   1.5049   4.0337   0.00    0.0
2018/03/15 09:52:56.000   78.247146835   16.013737271   440.4142   5   9   2.7538   1.4983   9.8552   0.8232   1.5054   4.0349   0.00    0.0
2018/03/15 09:52:57.000   78.247141853   16.013744469   438.3508   5   9   2.7543   1.4984   9.8567   0.8233   1.5058   4.0361   0.00    0.0
2018/03/15 09:52:58.000   78.247145371   16.013732048   439.1404   5   9   2.7547   1.4984   9.8582   0.8234   1.5063   4.0373   0.00    0.0
2018/03/15 09:52:59.000   78.247141817   16.013742014   438.2325   5   9   2.7551   1.4984   9.8597   0.8234   1.5068   4.0385   0.00    0.0
2018/03/15 09:53:00.000   78.247145647   16.013743025   440.5217   5   9   2.7555   1.4984   9.8612   0.8235   1.5072   4.0397   0.00    0.0
2018/03/15 09:53:01.000   78.247152233   16.013733830   442.1177   5   9   2.7559   1.4984   9.8627   0.8236   1.5077   4.0409   0.00    0.0
2018/03/15 09:53:02.000   78.247153601   16.013745777   442.6289   5   9   2.7563   1.4984   9.8641   0.8237   1.5081   4.0420   0.00    0.0
2018/03/15 09:53:03.000   78.247152743   16.013723575   441.8889   5   9   2.7567   1.4984   9.8656   0.8237   1.5086   4.0432   0.00    0.0
2018/03/15 09:53:04.000   78.247153565   16.013709882   443.0964   5   9   2.7572   1.4984   9.8671   0.8238   1.5090   4.0444   0.00    0.0
2018/03/15 09:53:05.000   78.247151071   16.013715764   442.6080   5   9   2.7576   1.4984   9.8686   0.8239   1.5095   4.0456   0.00    0.0
2018/03/15 09:53:06.000   78.247149855   16.013722744   444.2004   5   9   2.7580   1.4984   9.8700   0.8240   1.5100   4.0468   0.00    0.0
2018/03/15 09:53:07.000   78.247148026   16.013703817   443.4580   5   9   2.7584   1.4984   9.8715   0.8241   1.5104   4.0480   0.00    0.0
2018/03/15 09:53:08.000   78.247146681   16.013706225   441.9270   5   9   2.7588   1.4984   9.8730   0.8241   1.5109   4.0491   0.00    0.0
2018/03/15 09:53:09.000   78.247143961   16.013715580   441.1441   5   9   2.7592   1.4985   9.8744   0.8242   1.5113   4.0503   0.00    0.0
2018/03/15 09:53:10.000   78.247138453   16.013719343   438.0140   5   9   2.7596   1.4985   9.8759   0.8243   1.5118   4.0515   0.00    0.0
2018/03/15 09:53:11.000   78.247133434   16.013714251   436.9960   5   9   2.7601   1.4985   9.8773   0.8244   1.5122   4.0527   0.00    0.0
2018/03/15 09:53:12.000   78.247141137   16.013718292   439.6483   5   9   2.7605   1.4985   9.8788   0.8244   1.5127   4.0538   0.00    0.0
2018/03/15 09:53:13.000   78.247142671   16.013725090   441.9338   5   9   2.7609   1.4985   9.8802   0.8245   1.5131   4.0550   0.00    0.0
2018/03/15 09:53:14.000   78.247150994   16.013727619   443.3961   5   9   2.7613   1.4985   9.8817   0.8246   1.5136   4.0562   0.00    0.0
2018/03/15 09:53:15.000   78.247152310   16.013726026   442.8613   5   9   2.7617   1.4985   9.8831   0.8247   1.5140   4.0574   0.00    0.0
2018/03/15 09:53:16.000   78.247152943   16.013722057   442.0893   5   9   2.7621   1.4985   9.8846   0.8248   1.5145   4.0585   0.00    0.0
2018/03/15 09:53:17.000   78.247154375   16.013736153   443.3818   5   9   2.7625   1.4985   9.8860   0.8248   1.5149   4.0597   0.00    0.0
2018/03/15 09:53:18.000   78.247159444   16.013743577   444.4077   5   9   2.7630   1.4985   9.8875   0.8249   1.5154   4.0609   0.00    0.0
2018/03/15 09:53:19.000   78.247152873   16.013737301   443.4198   5   9   2.7634   1.4985   9.8889   0.8250   1.5158   4.0620   0.00    0.0
2018/03/15 09:53:20.000   78.247150530   16.013727523   440.9572   5   9   2.7638   1.4986   9.8903   0.8251   1.5163   4.0632   0.00    0.0
2018/03/15 09:53:21.000   78.247150218   16.013720664   441.9357   5   9   2.7642   1.4986   9.8918   0.8251   1.5167   4.0644   0.00    0.0
2018/03/15 09:53:22.000   78.247144189   16.013732964   440.5063   5   9   2.7646   1.4986   9.8932   0.8252   1.5171   4.0655   0.00    0.0
2018/03/15 09:53:23.000   78.247142860   16.013736862   439.8496   5   9   2.7650   1.4986   9.8946   0.8253   1.5176   4.0667   0.00    0.0
2018/03/15 09:53:24.000   78.247143936   16.013750914   439.5322   5   9   2.7654   1.4986   9.8961   0.8254   1.5180   4.0679   0.00    0.0
2018/03/15 09:53:25.000   78.247148792   16.013750890   440.1592   5   9   2.7659   1.4986   9.8975   0.8254   1.5185   4.0690   0.00    0.0
2018/03/15 09:53:26.000   78.247150331   16.013735279   441.3104   5   9   2.7663   1.4986   9.8989   0.8255   1.5189   4.0702   0.00    0.0
2018/03/15 09:53:27.000   78.247153215   16.013743916   441.9475   5   9   2.7667   1.4986   9.9003   0.8256   1.5194   4.0714   0.00    0.0
2018/03/15 09:53:28.000   78.247152262   16.013741173   442.0972   5   9   2.7671   1.4986   9.9018   0.8257   1.5198   4.0725   0.00    0.0
2018/03/15 09:53:29.000   78.247150826   16.013742045   441.4179   5   9   2.7675   1.4986   9.9032   0.8258   1.5202   4.0737   0.00    0.0
2018/03/15 09:53:30.000   78.247149732   16.013743678   441.1640   5   9   2.7679   1.4986   9.9046   0.8258   1.5207   4.0748   0.00    0.0
2018/03/15 09:53:31.000   78.247150015   16.013741770   441.5498   5   9   2.7683   1.4987   9.9060   0.8259   1.5211   4.0760   0.00    0.0
2018/03/15 09:53:32.000   78.247145679   16.013736605   440.8299   5   9   2.7688   1.4987   9.9074   0.8260   1.5216   4.0772   0.00    0.0
2018/03/15 09:53:33.000   78.247147628   16.013732556   441.1391   5   9   2.7692   1.4987   9.9088   0.8261   1.5220   4.0783   0.00    0.0
2018/03/15 09:53:34.000   78.247146358   16.013730792   440.3320   5   9   2.7696   1.4987   9.9102   0.8261   1.5224   4.0795   0.00    0.0
2018/03/15 09:53:35.000   78.247142601   16.013733957   439.6159   5   9   2.7700   1.4987   9.9116   0.8262   1.5229   4.0806   0.00    0.0
2018/03/15 09:53:36.000   78.247144551   16.013735548   440.2214   5   9   2.7704   1.4987   9.9130   0.8263   1.5233   4.0818   0.00    0.0
2018/03/15 09:53:37.000   78.247142134   16.013735244   440.6889   5   9   2.7708   1.4987   9.9144   0.8264   1.5237   4.0829   0.00    0.0
2018/03/15 09:53:38.000   78.247139294   16.013747373   439.6694   5   9   2.7712   1.4987   9.9158   0.8264   1.5242   4.0841   0.00    0.0
2018/03/15 09:53:39.000   78.247140890   16.013718409   440.5362   5   9   2.7716   1.4987   9.9172   0.8265   1.5246   4.0852   0.00    0.0
2018/03/15 09:53:40.000   78.247145273   16.013735526   441.5694   5   9   2.7721   1.4987   9.9186   0.8266   1.5250   4.0864   0.00    0.0
2018/03/15 09:53:41.000   78.247145620   16.013738790   442.2846   5   9   2.7725   1.4987   9.9200   0.8267   1.5255   4.0875   0.00    0.0
2018/03/15 09:53:42.000   78.247141003   16.013718675   441.3573   5   9   2.7729   1.4988   9.9214   0.8267   1.5259   4.0887   0.00    0.0
2018/03/15 09:53:43.000   78.247144444   16.013736382   440.7202   5   9   2.7733   1.4988   9.9228   0.8268   1.5263   4.0898   0.00    0.0
2018/03/15 09:53:44.000   78.247146290   16.013728358   441.9767   5   9   2.7737   1.4988   9.9241   0.8269   1.5268   4.0910   0.00    0.0
2018/03/15 09:53:45.000   78.247147813   16.013730208   442.3960   5   9   2.7741   1.4988   9.9255   0.8270   1.5272   4.0921   0.00    0.0
2018/03/15 09:53:46.000   78.247147908   16.013728837   441.9826   5   9   2.7745   1.4988   9.9269   0.8270   1.5276   4.0933   0.00    0.0
2018/03/15 09:53:47.000   78.247148674   16.013729678   442.3059   5   9   2.7749   1.4988   9.9283   0.8271   1.5280   4.0944   0.00    0.0
2018/03/15 09:53:48.000   78.247151607   16.013726236   442.6118   5   9   2.7754   1.4988   9.9296   0.8272   1.5285   4.0955   0.00    0.0
2018/03/15 09:53:49.000   78.247150624   16.013737916   442.3825   5   9   2.7758   1.4988   9.9310   0.8272   1.5289   4.0967   0.00    0.0
2018/03/15 09:53:50.000   78.247148634   16.013732589   442.8582   5   9   2.7762   1.4988   9.9324   0.8273   1.5293   4.0978   0.00    0.0
2018/03/15 09:53:51.000   78.247145800   16.013730181   440.6755   5   9   2.7766   1.4988   9.9337   0.8274   1.5297   4.0990   0.00    0.0
2018/03/15 09:53:52.000   78.247144476   16.013726098   440.4320   5   9   2.7770   1.4988   9.9351   0.8275   1.5302   4.1001   0.00    0.0
2018/03/15 09:53:53.000   78.247139427   16.013753095   438.7869   5   9   2.7774   1.4988   9.9365   0.8275   1.5306   4.1013   0.00    0.0
2018/03/15 09:53:54.000   78.247139139   16.013732808   439.1083   5   9   2.7778   1.4989   9.9378   0.8276   1.5310   4.1024   0.00    0.0
2018/03/15 09:53:55.000   78.247147672   16.013756471   440.8088   5   9   2.7782   1.4989   9.9392   0.8277   1.5314   4.1035   0.00    0.0
2018/03/15 09:53:56.000   78.247149117   16.013742990   442.9248   5   9   2.7786   1.4989   9.9405   0.8278   1.5319   4.1047   0.00    0.0
2018/03/15 09:53:57.000   78.247153680   16.013732271   443.4341   5   9   2.7791   1.4989   9.9419   0.8278   1.5323   4.1058   0.00    0.0
2018/03/15 09:53:58.000   78.247153296   16.013735827   443.0895   5   9   2.7795   1.4989   9.9432   0.8279   1.5327   4.1069   0.00    0.0
2018/03/15 09:53:59.000   78.247151819   16.013724386   443.1425   5   9   2.7799   1.4989   9.9446   0.8280   1.5331   4.1081   0.00    0.0
2018/03/15 09:54:00.000   78.247149823   16.013745492   442.0425   5   9   2.7803   1.4989   9.9459   0.8280   1.5335   4.1092   0.00    0.0
2018/03/15 09:54:01.000   78.247147935   16.013739793   441.3770   5   9   2.7807   1.4989   9.9472   0.8281   1.5340   4.1103   0.00    0.0
2018/03/15 09:54:02.000   78.247143292   16.013745068   439.5461   5   9   2.7811   1.4989   9.9486   0.8282   1.5344   4.1115   0.00    0.0
2018/03/15 09:54:03.000   78.247143854   16.013740265   440.4945   5   9   2.7815   1.4989   9.9499   0.8283   1.5348   4.1126   0.00    0.0
2018/03/15 09:54:04.000   78.247137661   16.013741684   438.3905   5   9   2.7819   1.4989   9.9513   0.8283   1.5352   4.1137   0.00    0.0
2018/03/15 09:54:05.000   78.247138968   16.013743011   439.1128   5   9   2.7823   1.4990   9.9526   0.8284   1.5356   4.1148   0.00    0.0
2018/03/15 09:54:06.000   78.247145225   16.013740930   440.6177   5   9   2.7828   1.4990   9.9539   0.8285   1.5360   4.1160   0.00    0.0
2018/03/15 09:54:07.000   78.247146631   16.013733671   441.8936   5   9   2.7832   1.4990   9.9552   0.8285   1.5364   4.1171   0.00    0.0
2018/03/15 09:54:08.000   78.247146163   16.013719077   441.9316   5   9   2.7836   1.4990   9.9566   0.8286   1.5369   4.1182   0.00    0.0
2018/03/15 09:54:09.000   78.247145544   16.013709406   442.9336   5   9   2.7840   1.4990   9.9579   0.8287   1.5373   4.1193   0.00    0.0
2018/03/15 09:54:10.000   78.247147714   16.013706836   443.8377   5   9   2.7844   1.4990   9.9592   0.8288   1.5377   4.1205   0.00    0.0
2018/03/15 09:54:11.000   78.247144810   16.013705464   441.3185   5   9   2.7848   1.4990   9.9605   0.8288   1.5381   4.1216   0.00    0.0
2018/03/15 09:54:12.000   78.247143891   16.013712272   441.6854   5   9   2.7852   1.4990   9.9618   0.8289   1.5385   4.1227   0.00    0.0
2018/03/15 09:54:13.000   78.247141030   16.013716855   440.3963   5   9   2.7856   1.4990   9.9631   0.8290   1.5389   4.1238   0.00    0.0
2018/03/15 09:54:14.000   78.247136541   16.013722700   439.2112   5   9   2.7860   1.4990   9.9644   0.8290   1.5393   4.1249   0.00    0.0
2018/03/15 09:54:15.000   78.247139226   16.013726007   438.7462   5   9   2.7864   1.4990   9.9658   0.8291   1.5397   4.1261   0.00    0.0
2018/03/15 09:54:16.000   78.247142567   16.013725146   439.9097   5   9   2.7869   1.4991   9.9671   0.8292   1.5401   4.1272   0.00    0.0
2018/03/15 09:54:17.000   78.247147839   16.013738560   441.2064   5   9   2.7873   1.4991   9.9684   0.8293   1.5405   4.1283   0.00    0.0
2018/03/15 09:54:18.000   78.247151446   16.013731419   442.0847   5   9   2.7877   1.4991   9.9697   0.8293   1.5409   4.1294   0.00    0.0
2018/03/15 09:54:19.000   78.247153793   16.013744976   443.1373   5   9   2.7881   1.4991   9.9709   0.8294   1.5414   4.1305   0.00    0.0
2018/03/15 09:54:20.000   78.247153321   16.013734288   443.1673   5   9   2.7885   1.4991   9.9722   0.8295   1.5418   4.1316   0.00    0.0
2018/03/15 09:54:21.000   78.247155014   16.013732655   442.7759   5   9   2.7889   1.4991   9.9735   0.8295   1.5422   4.1327   0.00    0.0
2018/03/15 09:54:22.000   78.247157833   16.013745716   443.7817   5   9   2.7893   1.4991   9.9748   0.8296   1.5426   4.1338   0.00    0.0
2018/03/15 09:54:23.000   78.247152327   16.013742777   442.1145   5   9   2.7897   1.4991   9.9761   0.8297   1.5430   4.1350   0.00    0.0
2018/03/15 09:54:24.000   78.247147111   16.013732673   440.1332   5   9   2.7901   1.4991   9.9774   0.8297   1.5434   4.1361   0.00    0.0
2018/03/15 09:54:25.000   78.247140324   16.013745454   438.4461   5   9   2.7905   1.4991   9.9787   0.8298   1.5438   4.1372   0.00    0.0
2018/03/15 09:54:26.000   78.247143499   16.013746717   439.0356   5   9   2.7909   1.4991   9.9799   0.8299   1.5442   4.1383   0.00    0.0
2018/03/15 09:54:27.000   78.247146508   16.013733363   441.3689   5   9   2.7913   1.4992   9.9812   0.8299   1.5446   4.1394   0.00    0.0
2018/03/15 09:54:28.000   78.247155181   16.013754743   443.1634   5   9   2.7918   1.4992   9.9825   0.8300   1.5450   4.1405   0.00    0.0
2018/03/15 09:54:29.000   78.247164784   16.013744416   446.4247   5   9   2.7922   1.4992   9.9838   0.8301   1.5454   4.1416   0.00    0.0
2018/03/15 09:54:30.000   78.247158646   16.013759172   444.3774   5   9   2.7926   1.4992   9.9850   0.8302   1.5458   4.1427   0.00    0.0
2018/03/15 09:54:31.000   78.247156255   16.013741854   443.3233   5   9   2.7930   1.4992   9.9863   0.8302   1.5462   4.1438   0.00    0.0
2018/03/15 09:54:32.000   78.247155867   16.013744515   444.8128   5   9   2.7934   1.4992   9.9876   0.8303   1.5466   4.1449   0.00    0.0
2018/03/15 09:54:33.000   78.247154538   16.013739303   443.7273   5   9   2.7938   1.4992   9.9888   0.8304   1.5469   4.1460   0.00    0.0
2018/03/15 09:54:34.000   78.247154354   16.013743856   442.9549   5   9   2.7942   1.4992   9.9901   0.8304   1.5473   4.1471   0.00    0.0
2018/03/15 09:54:35.000   78.247143144   16.013730870   439.5551   5   9   2.7946   1.4992   9.9913   0.8305   1.5477   4.1482   0.00    0.0
2018/03/15 09:54:36.000   78.247136827   16.013738678   436.7785   5   9   2.7950   1.4992   9.9926   0.8306   1.5481   4.1493   0.00    0.0
2018/03/15 09:54:37.000   78.247131697   16.013726436   435.3001   5   9   2.7954   1.4992   9.9938   0.8306   1.5485   4.1504   0.00    0.0
2018/03/15 09:54:38.000   78.247142014   16.013732714   440.9560   5   9   2.7958   1.4993   9.9951   0.8307   1.5489   4.1515   0.00    0.0
2018/03/15 09:54:39.000   78.247147804   16.013732443   442.2562   5   9   2.7962   1.4993   9.9963   0.8308   1.5493   4.1526   0.00    0.0
2018/03/15 09:54:40.000   78.247148678   16.013731321   441.6906   5   9   2.7966   1.4993   9.9976   0.8308   1.5497   4.1537   0.00    0.0
2018/03/15 09:54:41.000   78.247151096   16.013716745   442.4273   5   9   2.7970   1.4993   9.9988   0.8309   1.5501   4.1548   0.00    0.0
2018/03/15 09:54:42.000   78.247150279   16.013735706   443.1418   5   9   2.7975   1.4993  10.0001   0.8310   1.5505   4.1558   0.00    0.0
2018/03/15 09:54:43.000   78.247148016   16.013725938   442.5840   5   9   2.7979   1.4993  10.0013   0.8310   1.5509   4.1569   0.00    0.0
2018/03/15 09:54:44.000   78.247146660   16.013729672   442.5446   5   9   2.7983   1.4993  10.0025   0.8311   1.5512   4.1580   0.00    0.0
2018/03/15 09:54:45.000   78.247144651   16.013736687   441.9454   5   9   2.7987   1.4993  10.0038   0.8312   1.5516   4.1591   0.00    0.0
2018/03/15 09:54:46.000   78.247142876   16.013723222   440.1751   5   9   2.7991   1.4993  10.0050   0.8312   1.5520   4.1602   0.00    0.0
2018/03/15 09:54:47.000   78.247143675   16.013733464   439.3590   5   9   2.7995   1.4993  10.0062   0.8313   1.5524   4.1613   0.00    0.0
2018/03/15 09:54:48.000   78.247141009   16.013742099   438.4934   5   9   2.7999   1.4993  10.0074   0.8314   1.5528   4.1624   0.00    0.0
2018/03/15 09:54:49.000   78.247141174   16.013735428   439.8624   5   9   2.8003   1.4994  10.0086   0.8314   1.5532   4.1634   0.00    0.0
2018/03/15 09:54:50.000   78.247143968   16.013747204   439.5617   5   9   2.8007   1.4994  10.0099   0.8315   1.5535   4.1645   0.00    0.0
2018/03/15 09:54:51.000   78.247147835   16.013735285   440.1759   5   9   2.8011   1.4994  10.0111   0.8315   1.5539   4.1656   0.00    0.0
2018/03/15 09:54:52.000   78.247147347   16.013745708   440.0423   5   9   2.8015   1.4994  10.0123   0.8316   1.5543   4.1667   0.00    0.0
2018/03/15 09:54:53.000   78.247148705   16.013741793   442.2302   5   9   2.8019   1.4994  10.0135   0.8317   1.5547   4.1678   0.00    0.0
2018/03/15 09:54:54.000   78.247148974   16.013750442   441.7602   5   9   2.8023   1.4994  10.0147   0.8317   1.5551   4.1688   0.00    0.0
2018/03/15 09:54:55.000   78.247151294   16.013739069   442.2941   5   9   2.8027   1.4994  10.0159   0.8318   1.5555   4.1699   0.00    0.0
2018/03/15 09:54:56.000   78.247149429   16.013745108   440.3849   5   9   2.8031   1.4994  10.0171   0.8319   1.5558   4.1710   0.00    0.0
2018/03/15 09:54:57.000   78.247148350   16.013747052   439.1954   5   9   2.8035   1.4994  10.0183   0.8319   1.5562   4.1721   0.00    0.0
2018/03/15 09:54:58.000   78.247149817   16.013754245   439.7626   5   9   2.8039   1.4994  10.0195   0.8320   1.5566   4.1731   0.00    0.0
2018/03/15 09:54:59.000   78.247156198   16.013765003   441.4024   5   9   2.8043   1.4994  10.0207   0.8321   1.5570   4.1742   0.00    0.0
2018/03/15 09:55:00.000   78.247154035   16.013770726   442.1578   5   9   2.8047   1.4995  10.0219   0.8321   1.5573   4.1753   0.00    0.0
2018/03/15 09:55:01.000   78.247152421   16.013746484   441.4637   5   9   2.8051   1.4995  10.0231   0.8322   1.5577   4.1764   0.00    0.0
2018/03/15 09:55:02.000   78.247150921   16.013745546   441.9890   5   9   2.8055   1.4995  10.0243   0.8323   1.5581   4.1774   0.00    0.0
2018/03/15 09:55:03.000   78.247149533   16.013755670   440.9282   5   9   2.8059   1.4995  10.0254   0.8323   1.5585   4.1785   0.00    0.0
2018/03/15 09:55:04.000   78.247140825   16.013750856   439.0554   5   9   2.8064   1.4995  10.0266   0.8324   1.5588   4.1796   0.00    0.0
2018/03/15 09:55:05.000   78.247140031   16.013751998   439.2068   5   9   2.8068   1.4995  10.0278   0.8324   1.5592   4.1806   0.00    0.0
2018/03/15 09:55:06.000   78.247143881   16.013738043   439.4493   5   9   2.8072   1.4995  10.0290   0.8325   1.5596   4.1817   0.00    0.0
2018/03/15 09:55:07.000   78.247149829   16.013740201   441.1303   5   9   2.8076   1.4995  10.0301   0.8326   1.5599   4.1828   0.00    0.0
2018/03/15 09:55:08.000   78.247155152   16.013740490   443.9146   5   9   2.8080   1.4995  10.0313   0.8326   1.5603   4.1838   0.00    0.0
2018/03/15 09:55:09.000   78.247152466   16.013740646   442.8919   5   9   2.8084   1.4995  10.0325   0.8327   1.5607   4.1849   0.00    0.0
2018/03/15 09:55:10.000   78.247157084   16.013729099   442.8849   5   9   2.8088   1.4995  10.0336   0.8328   1.5610   4.1859   0.00    0.0
2018/03/15 09:55:11.000   78.247156441   16.013731887   443.3974   5   9   2.8092   1.4996  10.0348   0.8328   1.5614   4.1870   0.00    0.0
2018/03/15 09:55:12.000   78.247158586   16.013730981   445.0032   5   9   2.8096   1.4996  10.0360   0.8329   1.5618   4.1881   0.00    0.0
2018/03/15 09:55:13.000   78.247154604   16.013746893   443.4561   5   9   2.8100   1.4996  10.0371   0.8329   1.5621   4.1891   0.00    0.0
2018/03/15 09:55:14.000   78.247149649   16.013737601   442.8000   5   9   2.8104   1.4996  10.0383   0.8330   1.5625   4.1902   0.00    0.0
2018/03/15 09:55:15.000   78.247141295   16.013745673   440.2305   5   9   2.8108   1.4996  10.0394   0.8331   1.5629   4.1912   0.00    0.0
2018/03/15 09:55:16.000   78.247131402   16.013739470   436.6573   5   9   2.8112   1.4996  10.0406   0.8331   1.5632   4.1923   0.00    0.0
2018/03/15 09:55:17.000   78.247134688   16.013741779   437.9662   5   9   2.8116   1.4996  10.0417   0.8332   1.5636   4.1933   0.00    0.0
2018/03/15 09:55:18.000   78.247146628   16.013750068   440.7109   5   9   2.8120   1.4996  10.0429   0.8332   1.5640   4.1944   0.00    0.0
2018/03/15 09:55:19.000   78.247151331   16.013742146   442.4656   5   9   2.8124   1.4996  10.0440   0.8333   1.5643   4.1954   0.00    0.0
2018/03/15 09:55:20.000   78.247157717   16.013747506   443.9354   5   9   2.8128   1.4996  10.0451   0.8334   1.5647   4.1965   0.00    0.0
2018/03/15 09:55:21.000   78.247156501   16.013748900   444.0726   5   9   2.8132   1.4996  10.0463   0.8334   1.5650   4.1975   0.00    0.0
2018/03/15 09:55:22.000   78.247154141   16.013745504   443.1518   5   9   2.8136   1.4997  10.0474   0.8335   1.5654   4.1986   0.00    0.0
2018/03/15 09:55:23.000   78.247153467   16.013729064   442.2711   5   9   2.8140   1.4997  10.0485   0.8335   1.5657   4.1996   0.00    0.0
2018/03/15 09:55:24.000   78.247149292   16.013728030   442.1474   5   9   2.8144   1.4997  10.0497   0.8336   1.5661   4.2007   0.00    0.0
2018/03/15 09:55:25.000   78.247149506   16.013752631   440.9790   5   9   2.8148   1.4997  10.0508   0.8337   1.5665   4.2017   0.00    0.0
2018/03/15 09:55:26.000   78.247138550   16.013738238   437.8510   5   9   2.8152   1.4997  10.0519   0.8337   1.5668   4.2028   0.00    0.0
2018/03/15 09:55:27.000   78.247138112   16.013736369   437.6977   5   9   2.8156   1.4997  10.0530   0.8338   1.5672   4.2038   0.00    0.0
2018/03/15 09:55:28.000   78.247140897   16.013726625   440.5837   5   9   2.8160   1.4997  10.0541   0.8338   1.5675   4.2048   0.00    0.0
2018/03/15 09:55:29.000   78.247146636   16.013732155   441.1840   5   9   2.8164   1.4997  10.0553   0.8339   1.5679   4.2059   0.00    0.0
2018/03/15 09:55:30.000   78.247148036   16.013742546   440.6681   5   9   2.8168   1.4997  10.0564   0.8340   1.5682   4.2069   0.00    0.0
2018/03/15 09:55:31.000   78.247152002   16.013738952   440.5998   5   9   2.8172   1.4997  10.0575   0.8340   1.5686   4.2080   0.00    0.0
2018/03/15 09:55:32.000   78.247152600   16.013739413   441.8967   5   9   2.8176   1.4997  10.0586   0.8341   1.5689   4.2090   0.00    0.0
2018/03/15 09:55:33.000   78.247154583   16.013757348   442.0112   5   9   2.8180   1.4998  10.0597   0.8341   1.5693   4.2100   0.00    0.0
2018/03/15 09:55:34.000   78.247148479   16.013728233   441.5480   5   9   2.8184   1.4998  10.0608   0.8342   1.5696   4.2111   0.00    0.0
2018/03/15 09:55:35.000   78.247146404   16.013739765   439.3447   5   9   2.8188   1.4998  10.0619   0.8342   1.5700   4.2121   0.00    0.0
2018/03/15 09:55:36.000   78.247145435   16.013749897   440.4968   5   9   2.8192   1.4998  10.0630   0.8343   1.5703   4.2131   0.00    0.0
2018/03/15 09:55:37.000   78.247145943   16.013756460   440.8923   5   9   2.8196   1.4998  10.0641   0.8344   1.5707   4.2142   0.00    0.0
2018/03/15 09:55:38.000   78.247140216   16.013747300   438.5697   5   9   2.8200   1.4998  10.0651   0.8344   1.5710   4.2152   0.00    0.0
2018/03/15 09:55:39.000   78.247142725   16.013738170   440.3867   5   9   2.8204   1.4998  10.0662   0.8345   1.5714   4.2162   0.00    0.0
2018/03/15 09:55:40.000   78.247148353   16.013744450   439.6244   5   9   2.8207   1.4998  10.0673   0.8345   1.5717   4.2172   0.00    0.0
2018/03/15 09:55:41.000   78.247147534   16.013742553   440.6964   5   9   2.8211   1.4998  10.0684   0.8346   1.5721   4.2183   0.00    0.0
2018/03/15 09:55:42.000   78.247152558   16.013744436   440.9167   5   9   2.8215   1.4998  10.0695   0.8346   1.5724   4.2193   0.00    0.0
2018/03/15 09:55:43.000   78.247149924   16.013744730   441.7149   5   9   2.8219   1.4998  10.0705   0.8347   1.5727   4.2203   0.00    0.0
2018/03/15 09:55:44.000   78.247147311   16.013739978   440.0041   5   9   2.8223   1.4998  10.0716   0.8348   1.5731   4.2213   0.00    0.0
2018/03/15 09:55:45.000   78.247147800   16.013742521   440.4123   5   9   2.8227   1.4999  10.0727   0.8348   1.5734   4.2224   0.00    0.0
2018/03/15 09:55:46.000   78.247146960   16.013737614   440.9392   5   9   2.8231   1.4999  10.0737   0.8349   1.5738   4.2234   0.00    0.0
2018/03/15 09:55:47.000   78.247143957   16.013729331   438.6989   5   9   2.8235   1.4999  10.0748   0.8349   1.5741   4.2244   0.00    0.0
2018/03/15 09:55:48.000   78.247143650   16.013735442   439.6739   5   9   2.8239   1.4999  10.0759   0.8350   1.5744   4.2254   0.00    0.0
2018/03/15 09:55:49.000   78.247144706   16.013750602   439.6062   5   9   2.8243   1.4999  10.0769   0.8350   1.5748   4.2264   0.00    0.0
2018/03/15 09:55:50.000   78.247144453   16.013735001   440.9754   5   9   2.8247   1.4999  10.0780   0.8351   1.5751   4.2274   0.00    0.0
2018/03/15 09:55:51.000   78.247148359   16.013739423   442.1989   5   9   2.8251   1.4999  10.0790   0.8351   1.5754   4.2285   0.00    0.0
2018/03/15 09:55:52.000   78.247146535   16.013743036   441.2769   5   9   2.8255   1.4999  10.0801   0.8352   1.5758   4.2295   0.00    0.0
2018/03/15 09:55:53.000   78.247143128   16.013757423   440.0103   5   9   2.8259   1.4999  10.0811   0.8353   1.5761   4.2305   0.00    0.0
2018/03/15 09:55:54.000   78.247143181   16.013721445   439.5807   5   9   2.8263   1.4999  10.0822   0.8353   1.5764   4.2315   0.00    0.0
2018/03/15 09:55:55.000   78.247141184   16.013752164   439.7284   5   9   2.8267   1.4999  10.0832   0.8354   1.5768   4.2325   0.00    0.0
2018/03/15 09:55:56.000   78.247141234   16.013744254   440.3368   5   9   2.8271   1.5000  10.0843   0.8354   1.5771   4.2335   0.00    0.0
2018/03/15 09:55:57.000   78.247142706   16.013741546   439.6381   5   9   2.8275   1.5000  10.0853   0.8355   1.5774   4.2345   0.00    0.0
2018/03/15 09:55:58.000   78.247147593   16.013743307   439.6369   5   9   2.8279   1.5000  10.0863   0.8355   1.5778   4.2355   0.00    0.0
2018/03/15 09:55:59.000   78.247149229   16.013750651   440.7178   5   9   2.8283   1.5000  10.0873   0.8356   1.5781   4.2365   0.00    0.0
2018/03/15 09:56:00.000   78.247149322   16.013741781   440.7314   5   9   2.8286   1.5000  10.0884   0.8356   1.5784   4.2375   0.00    0.0
2018/03/15 09:56:01.000   78.247149991   16.013743350   441.2803   5   9   2.8290   1.5000  10.0894   0.8357   1.5788   4.2385   0.00    0.0
2018/03/15 09:56:02.000   78.247146426   16.013733529   439.9237   5   9   2.8294   1.5000  10.0904   0.8357   1.5791   4.2395   0.00    0.0
2018/03/15 09:56:03.000   78.247145056   16.013738383   439.9536   5   9   2.8298   1.5000  10.0914   0.8358   1.5794   4.2405   0.00    0.0
2018/03/15 09:56:04.000   78.247139147   16.013743375   438.3845   5   9   2.8302   1.5000  10.0925   0.8358   1.5797   4.2415   0.00    0.0
2018/03/15 09:56:05.000   78.247141116   16.013738917   439.3986   5   9   2.8306   1.5000  10.0935   0.8359   1.5801   4.2425   0.00    0.0
2018/03/15 09:56:06.000   78.247137065   16.013744643   439.2084   5   9   2.8310   1.5000  10.0945   0.8359   1.5804   4.2435   0.00    0.0
2018/03/15 09:56:07.000   78.247143087   16.013733864   441.2359   5   9   2.8314   1.5001  10.0955   0.8360   1.5807   4.2445   0.00    0.0
2018/03/15 09:56:08.000   78.247147086   16.013747851   441.1265   5   9   2.8318   1.5001  10.0965   0.8360   1.5810   4.2455   0.00    0.0
2018/03/15 09:56:09.000   78.247145251   16.013741862   440.3322   5   9   2.8322   1.5001  10.0975   0.8361   1.5814   4.2465   0.00    0.0
2018/03/15 09:56:10.000   78.247148645   16.013746885   441.4084   5   9   2.8326   1.5001  10.0985   0.8361   1.5817   4.2475   0.00    0.0
2018/03/15 09:56:11.000   78.247148916   16.013761527   440.2009   5   9   2.8330   1.5001  10.0995   0.8362   1.5820   4.2485   0.00    0.0
2018/03/15 09:56:12.000   78.247147797   16.013748429   439.9371   5   9   2.8333   1.5001  10.1005   0.8362   1.5823   4.2495   0.00    0.0
2018/03/15 09:56:13.000   78.247144415   16.013742035   438.5585   5   9   2.8337   1.5001  10.1015   0.8363   1.5826   4.2505   0.00    0.0
2018/03/15 09:56:14.000   78.247145970   16.013724657   438.4002   5   9   2.8341   1.5001  10.1024   0.8363   1.5829   4.2514   0.00    0.0
2018/03/15 09:56:15.000   78.247147499   16.013739145   440.5832   5   9   2.8345   1.5001  10.1034   0.8364   1.5833   4.2524   0.00    0.0
2018/03/15 09:56:16.000   78.247150370   16.013751408   442.4600   5   9   2.8349   1.5001  10.1044   0.8364   1.5836   4.2534   0.00    0.0
2018/03/15 09:56:17.000   78.247147443   16.013736588   441.9089   5   9   2.8353   1.5001  10.1054   0.8365   1.5839   4.2544   0.00    0.0
2018/03/15 09:56:18.000   78.247151831   16.013736822   442.3146   5   9   2.8357   1.5002  10.1064   0.8365   1.5842   4.2554   0.00    0.0
2018/03/15 09:56:19.000   78.247153187   16.013743679   442.6369   5   9   2.8361   1.5002  10.1073   0.8366   1.5845   4.2564   0.00    0.0
2018/03/15 09:56:20.000   78.247148197   16.013734088   440.5506   5   9   2.8365   1.5002  10.1083   0.8366   1.5848   4.2573   0.00    0.0
2018/03/15 09:56:21.000   78.247144125   16.013712885   438.9824   5   9   2.8369   1.5002  10.1093   0.8367   1.5851   4.2583   0.00    0.0
2018/03/15 09:56:22.000   78.247141707   16.013740102   438.0249   5   9   2.8372   1.5002  10.1102   0.8367   1.5855   4.2593   0.00    0.0
2018/03/15 09:56:23.000   78.247145408   16.013734400   440.2669   5   9   2.8376   1.5002  10.1112   0.8368   1.5858   4.2603   0.00    0.0
2018/03/15 09:56:24.000   78.247146790   16.013751210   440.3564   5   9   2.8380   1.5002  10.1122   0.8368   1.5861   4.2612   0.00    0.0
2018/03/15 09:56:25.000   78.247146714   16.013747869   439.6263   5   9   2.8384   1.5002  10.1131   0.8369   1.5864   4.2622   0.00    0.0
2018/03/15 09:56:26.000   78.247151075   16.013726222   442.5563   5   9   2.8388   1.5002  10.1141   0.8369   1.5867   4.2632   0.00    0.0
2018/03/15 09:56:27.000   78.247152719   16.013721514   443.1090   5   9   2.8392   1.5002  10.1150   0.8370   1.5870   4.2642   0.00    0.0
2018/03/15 09:56:28.000   78.247149723   16.013735492   441.1206   5   9   2.8396   1.5002  10.1160   0.8370   1.5873   4.2651   0.00    0.0
2018/03/15 09:56:29.000   78.247151263   16.013733608   442.6373   5   9   2.8400   1.5002  10.1169   0.8371   1.5876   4.2661   0.00    0.0
2018/03/15 09:56:30.000   78.247149096   16.013761228   441.0678   5   9   2.8403   1.5003  10.1178   0.8371   1.5879   4.2671   0.00    0.0
2018/03/15 09:56:31.000   78.247150167   16.013741451   441.1443   5   9   2.8407   1.5003  10.1188   0.8372   1.5882   4.2680   0.00    0.0
2018/03/15 09:56:32.000   78.247144322   16.013751932   440.0158   5   9   2.8411   1.5003  10.1197   0.8372   1.5885   4.2690   0.00    0.0
2018/03/15 09:56:33.000   78.247142520   16.013734572   438.6202   5   9   2.8415   1.5003  10.1206   0.8373   1.5888   4.2700   0.00    0.0
2018/03/15 09:56:34.000   78.247139880   16.013733906   438.8851   5   9   2.8419   1.5003  10.1216   0.8373   1.5891   4.2709   0.00    0.0
2018/03/15 09:56:35.000   78.247140142   16.013728704   439.2019   5   9   2.8423   1.5003  10.1225   0.8374   1.5894   4.2719   0.00    0.0
2018/03/15 09:56:36.000   78.247138557   16.013718879   438.8650   5   9   2.8427   1.5003  10.1234   0.8374   1.5897   4.2728   0.00    0.0
2018/03/15 09:56:37.000   78.247144458   16.013733828   441.0214   5   9   2.8430   1.5003  10.1243   0.8374   1.5900   4.2738   0.00    0.0
2018/03/15 09:56:38.000   78.247151645   16.013747613   441.9541   5   9   2.8434   1.5003  10.1253   0.8375   1.5903   4.2748   0.00    0.0
2018/03/15 09:56:39.000   78.247150845   16.013739803   441.7907   5   9   2.8438   1.5003  10.1262   0.8375   1.5906   4.2757   0.00    0.0
2018/03/15 09:56:40.000   78.247150849   16.013746166   442.9389   5   9   2.8442   1.5003  10.1271   0.8376   1.5909   4.2767   0.00    0.0
2018/03/15 09:56:41.000   78.247148962   16.013745630   442.1641   5   9   2.8446   1.5004  10.1280   0.8376   1.5912   4.2776   0.00    0.0
2018/03/15 09:56:42.000   78.247148420   16.013733376   441.8900   5   9   2.8450   1.5004  10.1289   0.8377   1.5915   4.2786   0.00    0.0
2018/03/15 09:56:43.000   78.247144959   16.013739642   441.6225   5   9   2.8453   1.5004  10.1298   0.8377   1.5918   4.2795   0.00    0.0
2018/03/15 09:56:44.000   78.247144600   16.013734977   441.6784   5   9   2.8457   1.5004  10.1307   0.8378   1.5921   4.2805   0.00    0.0
2018/03/15 09:56:45.000   78.247147713   16.013740345   441.3413   5   9   2.8461   1.5004  10.1316   0.8378   1.5924   4.2814   0.00    0.0
2018/03/15 09:56:46.000   78.247142283   16.013746037   439.5580   5   9   2.8465   1.5004  10.1325   0.8378   1.5927   4.2824   0.00    0.0
2018/03/15 09:56:47.000   78.247139669   16.013708310   438.0760   5   9   2.8469   1.5004  10.1334   0.8379   1.5930   4.2833   0.00    0.0
2018/03/15 09:56:48.000   78.247134627   16.013719310   436.1705   5   9   2.8473   1.5004  10.1343   0.8379   1.5933   4.2843   0.00    0.0
2018/03/15 09:56:49.000   78.247138090   16.013733411   437.6705   5   9   2.8476   1.5004  10.1352   0.8380   1.5936   4.2852   0.00    0.0
2018/03/15 09:56:50.000   78.247147924   16.013738667   440.7014   5   9   2.8480   1.5004  10.1360   0.8380   1.5938   4.2861   0.00    0.0
2018/03/15 09:56:51.000   78.247150678   16.013738433   440.8839   5   9   2.8484   1.5004  10.1369   0.8381   1.5941   4.2871   0.00    0.0
2018/03/15 09:56:52.000   78.247156933   16.013721299   444.2915   5   9   2.8488   1.5005  10.1378   0.8381   1.5944   4.2880   0.00    0.0
2018/03/15 09:56:53.000   78.247157912   16.013738360   444.9619   5   9   2.8492   1.5005  10.1387   0.8381   1.5947   4.2890   0.00    0.0
2018/03/15 09:56:54.000   78.247158217   16.013721758   445.9913   5   9   2.8495   1.5005  10.1395   0.8382   1.5950   4.2899   0.00    0.0
2018/03/15 09:56:55.000   78.247154605   16.013745578   444.4358   5   9   2.8499   1.5005  10.1404   0.8382   1.5953   4.2908   0.00    0.0
2018/03/15 09:56:56.000   78.247158190   16.013734892   444.1094   5   9   2.8503   1.5005  10.1413   0.8383   1.5956   4.2918   0.00    0.0
2018/03/15 09:56:57.000   78.247155279   16.013757777   442.6154   5   9   2.8507   1.5005  10.1421   0.8383   1.5958   4.2927   0.00    0.0
2018/03/15 09:56:58.000   78.247154413   16.013759136   442.6864   5   9   2.8511   1.5005  10.1430   0.8383   1.5961   4.2936   0.00    0.0
2018/03/15 09:56:59.000   78.247147802   16.013738565   440.6251   5   9   2.8514   1.5005  10.1438   0.8384   1.5964   4.2946   0.00    0.0
2018/03/15 09:57:00.000   78.247138895   16.013743168   437.9765   5   9   2.8518   1.5005  10.1447   0.8384   1.5967   4.2955   0.00    0.0
2018/03/15 09:57:01.000   78.247126908   16.013732953   433.0658   5   9   2.8522   1.5005  10.1455   0.8385   1.5970   4.2964   0.00    0.0
2018/03/15 09:57:02.000   78.247139149   16.013729081   438.1306   5   9   2.8526   1.5005  10.1464   0.8385   1.5972   4.2973   0.00    0.0
2018/03/15 09:57:03.000   78.247151138   16.013749068   442.0913   5   9   2.8530   1.5005  10.1472   0.8385   1.5975   4.2983   0.00    0.0
2018/03/15 09:57:04.000   78.247157947   16.013728922   445.3197   5   9   2.8533   1.5006  10.1481   0.8386   1.5978   4.2992   0.00    0.0
2018/03/15 09:57:05.000   78.247155877   16.013735076   443.9918   5   9   2.8537   1.5006  10.1489   0.8386   1.5981   4.3001   0.00    0.0
2018/03/15 09:57:06.000   78.247157681   16.013728537   443.8323   5   9   2.8541   1.5006  10.1497   0.8387   1.5983   4.3010   0.00    0.0
2018/03/15 09:57:07.000   78.247156154   16.013732947   442.8690   5   9   2.8545   1.5006  10.1506   0.8387   1.5986   4.3019   0.00    0.0
