     2.11           OBSERVATION DATA    M (MIXED)           RINEX VERSION / TYPE
teqc  2018Mar15                         20180319 14:17:33UTCPGM / RUN BY / DATE
Linux 2.6.32-573.12.1.x86_64|x86_64|gcc -static|Linux 64|=+ COMMENT
END OF STATIC MODE OBSERVATION                              COMMENT
BIT 2 OF LLI FLAGS DATA COLLECTED UNDER A/S CONDITION       COMMENT
-Unknown-                                                   MARKER NAME
4625                                                        MARKER NUMBER
-Unknown-           -Unknown-                               OBSERVER / AGENCY
5127468778          TRIMBLE             4.63                REC # / TYPE / VERS
47477114                            NONE                    ANT # / TYPE
  5713490.3621        0.0000 -2825395.3742                  APPROX POSITION XYZ
        0.0000        0.0000        0.0000                  ANTENNA: DELTA H/E/N
     1     1                                                WAVELENGTH FACT L1/2
     7    L1    L2    C1    P1    P2    S1    S2            # / TYPES OF OBSERV
    18                                                      LEAP SECONDS
 SNR is mapped to RINEX snr flag value [0-9]                COMMENT
  L1 & L2: min(max(int(snr_dBHz/6), 0), 9)                  COMMENT
  2018     3    13    15    17    3.0000000     GPS         TIME OF FIRST OBS
                                                            END OF HEADER
 18  3 13 15 17  3.0000000  0 21R01G19G22G25R08R10R09R16R17R18R19G31
                                R02G12G06G03G32G24G17G02G14
                  86291956.918 5  20754903.070                    20754906.980
                        33.700
 115575979.334 7  90059207.47145  21993377.453                    21993378.746
        45.400          33.200
 122639992.765 6  95563637.49142  23337614.320                    23337616.711
        38.700          13.900
 115692092.959 7  90149623.54845  22015453.633                    22015458.688
        47.800          30.800
                  93276813.839 5  22395584.094                    22395585.441
                        35.400
                  85517279.653 5  20626484.492                    20626488.543
                        35.600
                  81742770.445 6  19681451.258                    19681450.145
                        39.600
                  96140383.630 3  23139874.867                    23139878.063
                        23.000
                  93252843.976 6  22405525.492                    22405528.461
                        36.800
                  82678522.252 6  19913798.383                    19913800.109
                        39.400
                  88955164.083 6  21380436.031                    21380436.512
                        37.900
 123456293.405 5                  23492951.883
        35.000
                  93862873.894 5  22615535.266                    22615536.828
                        34.700
 108070733.166 8  84210856.15446  20565176.953                    20565179.141
        51.200          37.000
 118348718.221 7  92219836.11745  22521019.484                    22521025.504
        46.300          34.400
 119393654.940 6  93033919.22543  22719827.352                    22719834.492
        40.200          19.900
 119043803.807 7  92761411.70644  22653290.023                    22653295.852
        44.100          29.800
 125473324.366 5  97771526.62642  23876800.563                    23876807.121
        33.700          14.800
 123140654.954 8  95953767.41145  23432886.648                    23432889.625
        48.100          33.300
 129524399.290 5                  24647690.445
        32.800
 116883367.682 6  91077984.67743  22242170.961                    22242174.660
        40.900          23.200
 18  3 13 15 17  4.0000000  0 21R01G19G22G25R08R10R09R16R17R18R19G31
                                R02G12G06G03G32G24G17G02G14
                  86292701.060 5  20755081.391                    20755085.344
                        34.300
 115578610.102 7  90061257.42145  21993878.023                    21993879.371
        45.200          33.300
 122641378.854 6  95564717.54142  23337877.688                    23337880.086
        39.200          14.800
 115689830.568 7  90147860.65145  22015022.742                    22015028.551
        47.900          30.400
                  93280083.996 5  22396369.609                    22396370.199
                        35.600
                  85515262.945 5  20625998.500                    20626002.141
                        34.900
                  81744191.727 6  19681792.641                    19681792.617
                        40.200
                  96144191.783 3  23140791.016                    23140794.324
                        21.100
                  93256283.029 6  22406353.125                    22406354.320
                        36.800
                  82679279.725 6  19913980.781                    19913981.953
                        40.200
                  88952655.494 6  21379833.453                    21379833.945
                        37.900
 123453441.514 5                  23492409.344
        34.600
                  93860270.926 5  22614907.547                    22614909.848
                        35.300
 108071240.810 8  84211251.72846  20565273.703                    20565276.453
        51.400          37.700
 118346949.443 7  92218457.82545  22520682.875                    22520689.223
        46.100          34.700
 119393644.803 6  93033911.32243  22719825.469                    22719832.652
        40.400          19.300
 119046215.551 7  92763290.99444  22653749.266                    22653754.598
        44.200          29.600
 125477420.931 5  97774718.78342  23877579.602                    23877586.059
        33.700          13.900
 123143940.197 8  95956327.33945  23433511.773                    23433514.914
        48.500          32.800
 129521566.437 5                  24647151.984
        32.300
 116883744.161 6  91078278.03843  22242242.141                    22242246.152
        41.100          22.500
 18  3 13 15 17  5.0000000  0 21R01G19G22G25R08R10R09R16R17R18R19G31
                                R02G12G06G03G32G24G17G02G14
                  86293445.953 5  20755261.469                    20755265.191
                        34.500
 115581241.517 7  90063307.87145  21994378.609                    21994380.199
        45.300          33.700
 122642765.563 6  95565798.08042  23338142.086                    23338144.164
        39.200          15.600
 115687568.664 7  90146098.13945  22014592.391                    22014598.031
        47.900          30.300
                  93283354.537 5  22397155.242                    22397155.391
                        35.300
                  85513246.707 5  20625512.258                    20625516.461
                        35.400
                  81745613.642 6  19682135.516                    19682135.219
                        39.900
                                  23141705.352

                  93259722.441 6  22407179.695                    22407180.930
                        36.100
                  82680037.919 6  19914163.578                    19914165.012
                        39.800
                  88950147.344 6  21379232.078                    21379231.020
                        37.500
 123450589.941 5                  23491866.633
        34.600
                  93857668.321 5  22614280.570                    22614282.305
                        35.000
 108071749.168 8  84211647.85846  20565370.000                    20565372.969
        51.100          37.200
 118345181.223 7  92217079.97845  22520345.875                    22520352.988
        45.500          34.400
 119393635.349 6  93033903.94743  22719824.117                    22719830.648
        39.900          19.300
 119048627.907 7  92765170.75744  22654207.844                    22654213.516
        43.900          28.700
 125481517.799 5  97777911.11842  23878360.023                    23878365.844
        33.300          13.900
 123147225.822 7  95958887.57345  23434137.023                    23434140.336
        47.600          33.600
 129518733.781 5                  24646612.438
        32.800
 116884121.269 6  91078571.87344  22242314.406                    22242318.273
        41.000          24.800
 18  3 13 15 17  6.0000000  0 21R01G19G22G25R08R10R09R16R17R18R19G31
                                R02G12G06G03G32G24G17G02G14
                  86294191.638 5  20755440.172                    20755443.730
                        34.000
 115583873.562 7  90065358.82345  21994879.633                    21994880.938
        44.900          33.800
 122644152.931 6  95566879.14742  23338406.398                    23338408.184
        39.400          15.600
 115685307.342 8  90144336.07345  22014162.117                    22014167.828
        48.300          30.000
                  93286625.524 5  22397940.297                    22397940.539
                        35.600
                  85511231.005 5  20625026.063                    20625029.777
                        35.600
                  81747036.222 6  19682478.016                    19682477.367
                        40.200
                                  23142623.805

                  93263162.211 6  22408005.766                    22408007.109
                        36.900
                  82680796.890 6  19914346.523                    19914347.844
                        39.400
                  88947639.634 6  21378628.828                    21378628.703
                        37.700
 123447738.788 5                  23491323.930
        34.800
                  93855066.142 5  22613653.961                    22613655.094
                        35.400
 108072258.287 8  84212044.57846  20565466.938                    20565469.641
        50.800          37.100
 118343413.671 7  92215702.65045  22520009.563                    22520016.324
        45.500          34.400
 119393626.640 6  93033897.15643  22719822.367                    22719829.133
        39.700          20.600
 119051040.883 7  92767051.00144  22654667.469                    22654672.766
        44.500          29.400
 125485614.946 5  97781103.74242  23879139.203                    23879145.836
        33.400          12.600
 123150511.862 7  95961448.12845  23434762.102                    23434765.578
        47.800          33.300
 129515901.327 5                  24646073.797
        32.600
 116884499.080 6  91078866.23843  22242385.992                    22242389.508
        40.400          22.300
 18  3 13 15 17  7.0000000  0 21R01G19G22G25R08R10R09R16R17R18R19G31
                                R02G12G06G03G32G24G17G02G14
                  86294938.007 5  20755619.719                    20755623.160
                        34.100
 115586506.182 7  90067410.21745  21995380.430                    21995381.855
        45.600          33.800
 122645540.843 6  95567960.71442  23338670.078                    23338672.172
        39.200          16.300
 115683046.468 8  90142574.35144  22013731.797                    22013737.469
        48.200          29.900
                  93289896.802 5  22398725.844                    22398725.762
                        35.400
                  85509215.712 5  20624539.625                    20624543.277
                        35.400
                  81748459.382 6  19682820.258                    19682820.285
                        40.200
                                  23143539.891

                  93266602.228 6  22408831.148                    22408833.734
                        37.300
                  82681556.522 6  19914529.422                    19914530.828
                        39.200
                  88945132.290 6  21378024.352                    21378025.527
                        37.700
 123444887.994 5                  23490781.773
        35.200
                  93852464.313 5  22613025.922                    22613028.770
                        35.200
 108072768.040 8  84212441.78946  20565564.375                    20565566.355
        51.100          37.400
 118341646.612 7  92214325.70745  22519673.555                    22519680.129
        45.800          34.800
 119393618.602 6  93033890.88643  22719820.063                    22719827.715
        39.600          20.400
 119053454.396 7  92768931.67144  22655126.898                    22655132.352
        44.700          29.300
 125489712.193 5  97784296.39342  23879918.984                    23879925.238
        33.600          14.800
 123153798.204 8  95964008.91445  23435387.961                    23435390.844
        48.300          33.300
 129513069.054 5                  24645534.758
        32.900
 116884877.489 6  91079161.06243  22242457.930                    22242461.887
        40.700          22.800
 18  3 13 15 17  8.0000000  0 20R01G19G22G25R08R10R09R17R18R19G31R02
                                G12G06G03G32G24G17G02G14
                  86295685.113 5  20755799.539                    20755802.957
                        33.400
 115589139.430 7  90069462.09845  21995881.516                    21995883.016
        45.700          32.800
 122646929.436 6  95569042.73742  23338933.805                    23338936.254
        38.700          15.600
 115680786.129 8  90140813.05444  22013301.758                    22013307.203
        48.200          29.100
                  93293168.560 5  22399510.859                    22399511.566
                        34.800
                  85507200.926 5  20624054.234                    20624057.340
                        34.500
                  81749883.226 6  19683163.867                    19683162.910
                        39.400
                  93270042.628 6  22409657.125                    22409660.246
                        36.700
                  82682316.908 6  19914712.352                    19914714.613
                        38.400
                  88942625.502 6  21377423.203                    21377423.125
                        36.900
 123442037.513 5                  23490238.859
        35.600
                  93849862.910 5  22612400.438                    22612401.574
                        34.000
 108073278.552 8  84212839.59046  20565661.188                    20565664.211
        50.700          36.500
 118339880.146 7  92212949.21945  22519337.680                    22519343.652
        46.100          33.900
 119393611.320 6  93033885.22243  22719818.992                    22719826.152
        39.000          20.100
 119055868.563 7  92770812.84144  22655585.742                    22655591.336
        43.400          28.300
 125493809.787 5  97787489.28942  23880699.313                    23880705.313
        33.200          15.600
 123157084.948 7  95966570.00945  23436013.531                    23436016.078
        47.800          32.500
 129510237.002 5                  24644996.266
        33.600
 116885256.668 6  91079456.50343  22242530.063                    22242534.043
        41.000          22.600
 18  3 13 15 17  9.0000000  0 20R01G19G22G25R08R10R09R17R18R19G31R02
                                G12G06G03G32G24G17G02G14
                  86296432.942 5  20755979.078                    20755982.594
                        34.300
 115591773.308 7  90071514.46745  21996382.695                    21996384.309
        45.500          33.500
 122648318.595 6  95570125.18342  23339197.906                    23339200.660
        37.700          15.600
 115678526.288 8  90139052.14745  22012872.008                    22012877.004
        48.100          30.000
                  93296440.688 5  22400297.305                    22400296.953
                        35.500
                  85505186.617 5  20623568.602                    20623572.145
                        34.800
                  81751307.698 6  19683506.750                    19683505.895
                        40.400
                  93273483.339 6  22410484.531                    22410486.902
                        37.700
                  82683078.010 6  19914896.234                    19914897.695
                        39.400
                  88940119.088 6  21376820.992                    21376820.727
                        37.500
 123439187.433 6                  23489697.258
        36.100
                  93847261.895 5  22611773.156                    22611775.250
                        35.100
 108073789.765 8  84213237.93446  20565758.609                    20565761.473
        50.400          37.300
 118338114.271 7  92211573.19145  22519001.094                    22519007.855
        45.900          34.300
 119393604.655 6  93033880.02043  22719817.656                    22719824.730
        39.400          20.100
 119058283.255 7  92772694.42245  22656045.617                    22656051.078
        43.700          30.200
 125497907.467 5  97790682.21142  23881478.992                    23881485.020
        33.500          14.800
 123160372.064 7  95969131.40145  23436638.766                    23436642.199
        47.500          32.800
 129507405.144 5                  24644457.422
        33.900
 116885636.487 6  91079752.43743  22242603.156                    22242606.410
        41.700          22.900
 18  3 13 15 17 10.0000000  0 20R01G19G22G25R08R10R09R17R18R19G31R02
                                G12G06G03G32G24G17G02G14
                  86297181.487 5  20756159.070                    20756162.461
                        34.300
 115594407.732 7  90073567.26145  21996884.156                    21996885.641
        45.700          33.600
 122649708.307 6  95571208.04642  23339463.039                    23339464.926
        37.700          14.800
 115676266.917 8  90137291.60344  22012441.813                    22012447.020
        48.200          29.900
                  93299713.120 5  22401082.734                    22401082.488
                        35.300
                  85503172.747 5  20623083.008                    20623086.340
                        35.000
                  81752732.780 6  19683849.664                    19683849.480
                        40.100
                  93276924.336 6  22411311.539                    22411313.703
                        37.700
                  82683839.796 6  19915079.508                    19915080.738
                        39.600
                  88937613.057 6  21376217.547                    21376218.652
                        37.400
 123436337.576 5                  23489154.820
        35.900
                  93844661.235 5  22611146.656                    22611148.703
                        35.100
 108074301.633 8  84213636.79246  20565856.102                    20565858.719
        50.500          37.800
 118336348.905 7  92210197.56445  22518665.555                    22518671.859
        46.000          34.300
 119393598.710 6  93033875.38443  22719816.258                    22719823.359
        39.300          19.300
 119060698.505 7  92774576.42744  22656504.750                    22656510.332
        43.200          29.500
 125502005.474 5  97793875.44642  23882258.672                    23882265.215
        33.100          14.800
 123163659.506 7  95971693.04845  23437264.375                    23437267.594
        47.300          33.100
 129504573.470 5                  24643918.523
        34.200
 116886016.914 6  91080048.86843  22242675.680                    22242679.012
        41.400          22.800
 18  3 13 15 17 11.0000000  0 20R01G19G22G25R08R10R09R17R18R19G31R02
                                G12G06G03G32G24G17G02G14
                  86297930.732 5  20756339.813                    20756342.848
                        31.300
 115597042.763 7  90075620.52945  21997385.648                    21997386.984
        45.300          30.600
 122651098.650 6  95572291.43842  23339727.063                    23339729.668
        37.600          14.800
 115674008.047 7  90135531.45144  22012011.875                    22012017.223
        47.500          27.400
                  93302985.953 5  22401868.070                    22401868.191
                        32.900
                  85501159.340 5  20622596.086                    20622600.133
                        32.500
                  81754158.473 6  19684193.031                    19684192.602
                        37.900
                  93280365.645 5  22412138.570                    22412140.301
                        34.800
                  82684602.290 6  19915262.773                    19915264.406
                        37.300
                  88935107.462 5  21375615.750                    21375616.914
                        34.300
 123433488.119 5                  23488611.984
        35.400
                  93842060.973 5  22610519.695                    22610522.379
                        31.600
 108074814.217 8  84214036.20145  20565953.398                    20565956.129
        50.400          34.700
 118334584.085 7  92208822.37345  22518329.945                    22518336.484
        46.000          31.800
 119393593.473 6  93033871.29742  22719815.195                    22719822.637
        39.200          17.800
 119063114.319 7  92776458.87244  22656965.055                    22656970.492
        43.200          26.200
 125506103.549 5  97797068.77142  23883037.734                    23883044.926
        32.500          14.800
 123166947.288 7  95974254.95844  23437889.297                    23437893.250
        46.800          29.300
 129501741.957 5                  24643380.086
        33.700
 116886398.008 6  91080345.83043  22242748.422                    22242751.156
        40.900          21.700
 18  3 13 15 17 12.0000000  0 20R01G19G22G25R08R10R09R17R18R19G31R02
                                G12G06G03G32G24G17G02G14
                  86298680.760 5  20756520.141                    20756523.746
                        34.600
 115599678.486 7  90077674.34145  21997887.188                    21997888.980
        45.800          33.900
 122652489.621 6  95573375.35842  23339991.867                    23339994.348
        37.700          14.800
 115671749.735 7  90133771.72045  22011582.172                    22011587.555
        47.900          30.200
                  93306259.209 6  22402655.305                    22402654.586
                        36.000
                  85499146.446 5  20622111.023                    20622114.734
                        34.900
                  81755584.813 6  19684536.469                    19684535.391
                        40.700
                  93283807.301 6  22412965.891                    22412967.363
                        37.000
                  82685365.530 6  19915446.711                    19915448.488
                        40.200
                  88932602.337 6  21375013.719                    21375014.512
                        37.100
 123430638.996 6                  23488070.977
        36.100
                  93839461.107 6  22609893.891                    22609895.762
                        36.000
 108075327.553 8  84214436.19946  20566051.164                    20566053.711
        50.500          37.300
 118332819.892 7  92207447.66745  22517994.148                    22518000.840
        46.100          34.700
 119393588.931 6  93033867.77143  22719814.539                    22719821.602
        38.800          19.000
 119065530.760 7  92778341.80144  22657424.422                    22657430.039
        43.700          29.900
 125510202.021 5  97800262.39442  23883817.734                    23883824.785
        32.900          14.800
 123170235.515 7  95976817.20845  23438515.594                    23438518.945
        47.600          32.300
 129498910.649 5                  24642840.523
        33.100
 116886779.784 6  91080643.31843  22242820.570                    22242823.742
        41.400          23.000
 18  3 13 15 17 13.0000000  0 21R01G19G22G25R08R10R09R16R17R18R19G31
                                R02G12G06G03G32G24G17G02G14
                  86299431.555 5  20756700.188                    20756704.203
                        34.700
 115602314.798 7  90079728.60645  21998388.766                    21998390.324
        45.700          34.400
 122653881.262 6  95574459.74842  23340256.664                    23340259.234
        38.300          16.900
 115669491.921 8  90132012.38744  22011152.695                    22011157.836
        48.300          29.600
                  93309532.855 6  22403439.711                    22403441.137
                        36.900
                  85497134.037 5  20621625.914                    20621629.516
                        35.800
                  81757011.824 6  19684879.734                    19684879.305
                        40.400
                  96178476.62413  23149042.438                    23149044.922
                        23.200
                  93287249.244 6  22413792.297                    22413794.129
                        36.900
                  82686129.477 6  19915630.906                    19915632.809
                        40.200
                  88930097.682 6  21374412.273                    21374411.770
                        37.600
 123427790.162 6                  23487527.977
        36.700
                  93836861.635 6  22609266.984                    22609269.750
                        36.200
 108075841.604 8  84214836.75646  20566149.023                    20566151.500
        50.300          37.500
 118331056.271 7  92206073.40145  22517658.164                    22517665.160
        45.900          34.600
 119393585.122 7  93033864.81943  22719814.570                    22719821.211
        42.200          22.200
 119067947.857 7  92780225.26544  22657884.781                    22657889.992
        42.000          29.400
 125514300.592 5  97803456.11742  23884598.609                    23884604.898
        33.100          15.600
 123173524.100 8  95979379.72745  23439141.500                    23439144.586
        48.000          32.800
 129496079.623 5                  24642302.461
        32.300
 116887162.266 6  91080941.33344  22242893.563                    22242896.480
        41.700          25.200
 18  3 13 15 17 14.0000000  0 21R01G19G22G25R08R10R09R16R17R18R19G31
                                R02G12G06G03G32G24G17G02G14
                  86300183.125 5  20756881.586                    20756885.047
                        34.400
 115604951.784 7  90081783.40645  21998890.438                    21998892.043
        45.400          32.600
 122655273.483 6  95575544.63042  23340521.836                    23340524.270
        37.500          15.600
 115667234.682 8  90130253.51844  22010723.008                    22010728.480
        48.100          29.900
                  93312806.922 5  22404225.453                    22404227.020
                        35.700
                  85495122.143 5  20621140.305                    20621144.082
                        35.700
                  81758439.457 6  19685223.844                    19685222.867
                        40.200
                  96182286.297 3  23149959.656                    23149962.258
                        22.100
                  93290691.566 6  22414618.586                    22414621.410
                        37.400
                  82686894.185 6  19915815.094                    19915816.973
                        39.700
                  88927593.487 6  21373811.008                    21373809.887
                        37.500
 123424941.758 6                  23486985.867
        38.300
                  93834262.547 6  22608641.328                    22608643.059
                        36.300
 108076356.430 8  84215237.91746  20566247.000                    20566249.551
        49.800          36.800
 118329293.288 7  92204699.63845  22517322.977                    22517329.691
        45.700          34.300
 119393582.095 7  93033862.47144  22719813.195                    22719820.273
        42.000          24.500
 119070365.534 7  92782109.17744  22658344.945                    22658349.816
        42.200          28.900
 125518399.541 5  97806650.09842  23885378.109                    23885384.531
        33.000          14.800
 123176813.086 7  95981942.57245  23439766.992                    23439770.602
        47.200          32.300
 129493248.766 5                  24641762.719
        31.600
 116887545.474 7  91081239.92744  22242966.500                    22242969.742
        42.600          25.300
 18  3 13 15 17 15.0000000  0 21R01G19G22G25R08R10R09R16R17R18R19G31
                                R02G12G06G03G32G24G17G02G14
                  86300935.425 5  20757062.445                    20757066.055
                        34.700
 115607589.404 7  90083838.69645  21999392.602                    21999394.219
        45.700          33.700
 122656666.335 6  95576629.98542  23340786.867                    23340789.523
        36.900          14.800
 115664977.926 8  90128495.00645  22010293.844                    22010299.090
        48.400          30.300
                  93316081.396 5  22405010.367                    22405012.262
                        35.300
                  85493110.724 5  20620654.609                    20620658.848
                        35.600
                  81759867.734 6  19685567.172                    19685566.625
                        40.200
                  96186096.078 3  23150875.906                    23150878.859
                        22.100
                  93294134.244 6  22415446.117                    22415448.695
                        37.400
                  82687659.629 6  19915999.758                    19916001.195
                        40.100
                  88925089.683 6  21373207.500                    21373207.781
                        37.800
 123422093.725 6                  23486444.141
        38.100
                  93831663.874 6  22608015.430                    22608016.602
                        37.000
 108076871.979 8  84215639.65046  20566345.328                    20566347.875
        50.200          37.500
 118327530.864 7  92203326.31345  22516987.578                    22516994.227
        45.500          34.800
 119393579.764 7  93033860.66943  22719812.914                    22719820.016
        42.600          23.900
 119072783.798 7  92783993.53444  22658804.844                    22658810.148
        42.600          29.900
 125522498.673 5  97809844.26442  23886158.375                    23886164.379
        33.000          15.600
 123180102.472 7  95984505.73445  23440393.016                    23440396.520
        47.200          32.000
 129490418.105 5                  24641223.617
        31.900
 116887929.327 7  91081539.03043  22243039.320                    22243042.930
        42.200          23.500
 18  3 13 15 17 16.0000000  0 21R01G19G22G25R08R10R09R16R17R18R19G31
                                R02G12G06G03G32G24G17G02G14
                  86301688.454 5  20757244.688                    20757247.012
                        33.400
 115610227.627 7  90085894.45745  21999894.477                    21999896.109
        45.000          33.600
 122658059.834 5  95577715.88442  23341051.031                    23341054.566
        34.800          14.800
 115662721.737 7  90126736.92745  22009864.219                    22009869.137
        47.600          31.300
                  93319356.244 5  22405797.680                    22405799.238
                        35.800
                  85491099.790 5  20620169.867                    20620174.301
                        34.800
                  81761296.639 6  19685911.594                    19685911.152
                        40.400
                  96189906.058 3  23151791.375                    23151796.090
                        22.500
                  93297577.252 6  22416273.641                    22416275.539
                        37.000
                  82688425.804 6  19916183.617                    19916185.543
                        39.600
                  88922586.406 6  21372606.461                    21372607.195
                        37.500
 123419246.062 5                  23485902.578
        35.900
                  93829065.628 5  22607388.547                    22607391.141
                        35.100
 108077388.258 8  84216041.95146  20566443.398                    20566445.938
        50.100          36.600
 118325769.039 7  92201953.45545  22516652.313                    22516658.879
        45.800          35.100
 119393578.185 7  93033859.44544  22719813.141                    22719819.504
        42.400          25.900
 119075202.664 7  92785878.37044  22659265.234                    22659270.508
        42.300          28.600
 125526597.962 5  97813038.53842  23886938.234                    23886944.680
        33.000          14.800
 123183392.214 7  95987069.16845  23441019.219                    23441022.832
        47.400          32.600
 129487587.729 5                  24640686.063
        32.300
 116888313.878 6  91081838.67643  22243111.977                    22243116.238
        40.800          23.400
 18  3 13 15 17 17.0000000  0 21R01G19G22G25R08R10R09R16R17R18R19G31
                                R02G12G06G03G32G24G17G02G14
                  86302442.252 4  20757425.242                    20757428.008
                        27.700
 115612866.500 7  90087950.72545  22000396.750                    22000398.336
        44.900          32.700
 122659453.936 5  95578802.17542  23341316.688                    23341320.238
        31.300          13.900
 115660466.056 7  90124979.26544  22009434.938                    22009440.031
        47.600          29.700
                  93322631.462 5  22406584.836                    22406585.234
                        32.500
                  85489089.378 5  20619685.258                    20619689.074
                        34.700
                  81762726.192 6  19686255.344                    19686254.477
                        38.700
                                  23152708.539

                  93301020.586 5  22417101.961                    22417102.660
                        33.200
                  82689192.738 6  19916369.031                    19916370.828
                        39.000
                  88920083.583 5  21372005.250                    21372005.770
                        35.700
 123416398.790 5                  23485360.445
        34.100
                  93826467.810 5  22606763.078                    22606765.648
                        35.000
 108077905.260 8  84216444.81745  20566541.789                    20566544.254
        49.700          35.900
 118324007.820 7  92200581.06345  22516317.242                    22516323.770
        45.700          33.800
 119393577.346 6  93033858.79843  22719813.289                    22719819.223
        41.100          22.900
 119077622.174 7  92787763.70644  22659725.313                    22659730.813
        42.100          28.600
 125530697.616 5  97816233.08942  23887718.164                    23887725.008
        32.200          13.900
 123186682.344 7  95989632.91245  23441645.352                    23441648.984
        47.900          33.100
 129484757.65415                  24640147.906
        32.000
 116888699.119 6  91082138.86243  22243185.133                    22243189.270
        41.600          22.300
 18  3 13 15 17 18.0000000  0 20R01G19G22G25R08R10R09R17R18R19G31R02
                                G12G06G03G32G24G17G02G14
                  86303196.802 4  20757606.703                    20757610.297
                        28.000
 115615506.011 7  90090007.47645  22000898.992                    22000900.367
        45.000          32.600
 122660849.36913                  23341582.148
        23.800
 115658210.863 8  90123221.98045  22009006.188                    22009011.281
        48.000          31.500
                  93325907.110 5  22407371.602                    22407372.090
                        33.800
                  85487079.420 6  20619200.516                    20619203.922
                        36.500
                  81764156.362 6  19686600.227                    19686599.621
                        40.100
                  93304464.274 5  22417928.641                    22417930.762
                        34.100
                  82689960.344 6  19916552.914                    19916555.254
                        40.300
                  88917581.193 6  21371404.211                    21371403.961
                        36.700
 123413551.726 6                  23484819.023
        38.300
                  93823870.304 5  22606137.211                    22606139.113
                        35.200
 108078422.977 8  84216848.23546  20566640.164                    20566642.762
        50.200          37.100
 118322247.132 7  92199209.08645  22515982.023                    22515988.895
        45.700          35.900
 119393577.123 6  93033858.63043  22719812.586                    22719819.090
        38.000          21.100
 119080042.200 7  92789649.43744  22660185.906                    22660191.484
        42.600          28.600
 125534797.412 5  97819427.63642  23888498.766                    23888504.953
        33.500          13.900
 123189972.851 8  95992196.95445  23442271.352                    23442274.918
        48.200          33.600
 129481927.545 5                  24639608.695
        32.000
 116889084.925 7  91082439.48043  22243258.867                    22243262.793
        42.400          22.900
 18  3 13 15 17 19.0000000  0 19R01G19G25R08R10R09R17R18R19G31R02G12
                                G06G03G32G24G17G02G14
                  86303952.022 4  20757788.047                    20757791.465
                        28.600
 115618146.029 7  90092064.62145  22001400.969                    22001402.852
        44.700          33.400
 115655956.153 7  90121465.08045  22008576.672                    22008582.141
        47.900          31.900
                  93329183.092 5  22408157.648                    22408158.219
                        34.000
                  85485069.872 6  20618715.203                    20618719.453
                        36.500
                  81765587.167 6  19686944.234                    19686944.141
                        40.300
                  93307908.251 5  22418756.758                    22418758.563
                        33.500
                  82690728.649 6  19916738.422                    19916740.625
                        40.500
                  88915079.146 6  21370801.781                    21370802.367
                        36.900
 123410705.118 6                  23484277.297
        36.900
                  93821273.148 6  22605511.258                    22605513.570
                        37.200
 108078941.327 8  84217252.14546  20566738.641                    20566741.160
        50.200          36.900
 118320486.958 7  92197837.52045  22515647.383                    22515653.676
        46.100          35.500
 119393577.623 6  93033859.04143  22719813.000                    22719819.469
        41.200          23.000
 119082462.815 7  92791535.62244  22660646.492                    22660652.031
        43.000          29.800
 125538897.376 5  97822622.37742  23889279.109                    23889285.176
        32.900          13.900
 123193263.658 8  95994761.22345  23442897.469                    23442901.027
        48.400          34.700
 129479097.626 5                  24639069.703
        32.400
 116889471.397 6  91082740.65143  22243332.391                    22243336.254
        41.900          22.300
 18  3 13 15 17 20.0000000  0 19R01G19G25R08R10R09R17R18R19G31R02G12
                                G06G03G32G24G17G02G14
                  86304708.032 5  20757970.617                    20757973.418
                        31.700
 115620786.723 7  90094122.30645  22001903.766                    22001905.367
        45.000          32.800
 115653701.980 8  90119708.59445  22008147.516                    22008153.117
        48.500          32.200
                  93332459.452 5  22408942.883                    22408945.246
                        34.100
                  85483060.845 5  20618231.836                    20618235.375
                        35.800
                  81767018.604 6  19687289.609                    19687288.844
                        39.500
                  93311352.540 5  22419584.500                    22419585.973
                        35.500
                  82691497.671 6  19916923.352                    19916925.617
                        40.400
                  88912577.575 6  21370200.469                    21370200.727
                        36.700
 123407858.748 5                  23483734.953
        34.800
                  93818676.425 6  22604886.531                    22604888.039
                        36.900
 108079460.452 8  84217656.65046  20566837.203                    20566840.051
        50.300          36.200
 118318727.400 7  92196466.43845  22515312.922                    22515318.891
        45.900          35.200
 119393578.848 6  93033859.98544  22719813.648                    22719819.445
        40.800          25.800
 119084884.021 7  92793422.26745  22661107.305                    22661113.070
        43.200          30.400
 125542997.655 5  97825817.38842  23890059.930                    23890065.645
        31.600          13.900
 123196554.877 8  95997325.81245  23443523.602                    23443527.188
        48.100          34.600
 129476268.048 5                  24638531.688
        31.800
 116889858.613 7  91083042.35943  22243406.359                    22243410.012
        42.600          23.000
 18  3 13 15 17 21.0000000  0 20R01G19G25R08R10R09R16R17R18R19G31R02
                                G12G06G03G32G24G17G02G14
                  86305464.758 5  20758151.813                    20758155.246
                        31.600
 115623427.977 7  90096180.43545  22002406.250                    22002408.121
        45.400          33.400
 115651448.273 8  90117952.46745  22007718.609                    22007724.008
        48.600          31.100
                  93335736.183 5  22409729.352                    22409731.625
                        34.300
                  85481052.280 6  20617746.258                    20617750.102
                        36.100
                  81768450.636 6  19687634.164                    19687632.711
                        39.800
                                  23156378.875

                  93314797.130 5  22420410.602                    22420413.637
                        35.200
                  82692267.399 6  19917109.297                    19917111.098
                        40.200
                  88910076.422 6  21369599.602                    21369599.484
                        37.200
 123405012.722 5                  23483193.102
        34.800
                  93816080.081 5  22604260.125                    22604262.336
                        35.800
 108079980.226 8  84218061.65546  20566936.359                    20566938.910
        50.300          36.400
 118316968.374 7  92195095.76445  22514977.688                    22514984.141
        46.200          35.500
 119393580.733 6  93033861.45444  22719813.797                    22719819.797
        41.700          26.600
 119087305.761 7  92795309.33845  22661568.305                    22661573.781
        43.200          30.000
 125547098.065 5  97829012.57242  23890839.688                    23890846.004
        32.400          14.800
 123199846.419 8  95999890.65445  23444150.227                    23444153.824
        48.100          34.700
 129473438.581 5                  24637993.586
        33.000
 116890246.448 7  91083344.55043  22243480.094                    22243483.414
        42.700          23.400
 18  3 13 15 17 22.0000000  0 20R01G19G25R08R10R09R16R17R18R19G31R02
                                G12G06G03G32G24G17G02G14
                  86306222.288 5  20758333.867                    20758337.367
                        32.600
 115626069.964 7  90098239.13145  22002909.492                    22002910.777
        45.200          33.500
 115649195.176 8  90116196.81445  22007290.195                    22007295.734
        49.000          32.300
                  93339013.385 5  22410516.375                    22410518.582
                        34.600
                  85479044.289 5  20617261.969                    20617265.938
                        35.800
                  81769883.379 6  19687979.063                    19687978.102
                        39.900
                                  23157294.766

                  93318242.146 5  22421237.797                    22421241.438
                        34.700
                  82693037.955 6  19917294.844                    19917296.551
                        40.200
                  88907575.825 6  21368998.938                    21368998.867
                        37.300
 123402167.143 5                  23482651.117
        35.900
                  93813484.218 6  22603634.867                    22603637.309
                        36.000
 108080500.826 8  84218467.31546  20567035.188                    20567037.969
        50.600          36.900
 118315210.016 7  92193725.60546  22514643.078                    22514649.770
        46.600          36.200
 119393583.488 6  93033863.60144  22719814.398                    22719820.344
        41.400          25.800
 119089728.204 7  92797196.95945  22662029.328                    22662034.746
        42.800          30.200
 125551198.818 5  97832208.00952  23891619.859                    23891626.445
        32.500          13.900
 123203138.427 8  96002455.85845  23444777.047                    23444780.039
        48.200          35.400
 129470609.398 5                  24637455.648
        33.800
 116890635.042 7  91083647.33843  22243554.156                    22243557.422
        42.600          23.000
 18  3 13 15 17 23.0000000  0 21R01G19G22G25R08R10R09R16R17R18R19G31
                                R02G12G06G03G32G24G17G02G14
                  86306980.533 5  20758516.680                    20758520.016
                        33.100
 115628712.524 7  90100298.28245  22003412.148                    22003413.617
        45.000          32.700
 122667630.20316                  23342911.180
        39.000
 115646942.543 8  90114441.51045  22006861.203                    22006866.926
        49.100          32.100
                  93342290.934 5  22411304.359                    22411305.863
                        35.000
                  85477036.723 5  20616777.289                    20616782.008
                        35.300
                  81771316.714 6  19688324.047                    19688323.223
                        40.200
                  96216582.06313  23158212.344                    23158216.578
                        22.300
                  93321687.486 6  22422066.266                    22422068.281
                        38.700
                  82693809.227 6  19917480.969                    19917482.199
                        40.400
                  88905075.597 6  21368398.875                    21368397.738
                        37.600
 123399321.890 5                  23482110.070
        35.000
                  93810888.696 5  22603009.477                    22603011.621
                        35.800
 108081022.127 8  84218873.52146  20567134.359                    20567137.082
        50.500          37.100
 118313452.219 7  92192355.88045  22514308.461                    22514315.008
        46.600          35.300
 119393586.932 6  93033866.26244  22719814.578                    22719820.820
        40.400          24.400
 119092151.198 7  92799085.01745  22662490.164                    22662495.953
        43.100          30.600
 125555299.776 5  97835403.55842  23892400.531                    23892406.848
        32.900          15.600
 123206430.770 8  96005021.31545  23445403.266                    23445406.910
        48.300          35.200
 129467780.361 5                  24636917.516
        33.900
 116891024.257 7  91083950.62544  22243628.922                    22243631.715
        42.600          24.600
 18  3 13 15 17 24.0000000  0 21R01G19G22G25R08R10R09R16R17R18R19G31
                                R02G12G06G03G32G24G17G02G14
                  86307739.494 5  20758698.742                    20758702.391
                        33.600
 115631355.643 7  90102357.85745  22003915.180                    22003917.098
        45.100          32.700
 122669028.50915                  23343177.211
        30.100
 115644690.392 8  90112686.58245  22006433.172                    22006438.566
        48.600          32.100
                  93345568.871 5  22412090.852                    22412092.273
                        35.200
                  85475029.589 6  20616293.938                    20616298.035
                        36.200
                  81772750.663 6  19688668.867                    19688668.766
                        40.200
                  96220393.15213  23159129.023                    23159133.965
                        21.900
                  93325133.053 6  22422895.023                    22422896.461
                        39.100
                  82694581.212 6  19917666.500                    19917668.043
                        39.400
                  88902575.808 6  21367797.227                    21367796.797
                        37.800
 123396476.889 6                  23481569.586
        36.300
                  93808293.518 6  22602384.938                    22602386.629
                        38.100
 108081544.068 8  84219280.23846  20567233.719                    20567236.543
        50.700          36.600
 118311694.955 7  92190986.57845  22513974.188                    22513980.641
        46.100          35.500
 119393590.950 7  93033869.37944  22719814.914                    22719821.492
        42.300          25.600
 119094574.738 7  92800973.48645  22662951.164                    22662957.086
        43.300          30.500
 125559400.875 5  97838599.23242  23893181.313                    23893187.148
        31.300          15.600
 123209723.467 7  96007587.04845  23446030.000                    23446033.281
        47.000          34.200
 129464951.533 5                  24636379.648
        32.400
 116891414.133 7  91084254.43244  22243702.844                    22243705.898
        43.200          25.300
 18  3 13 15 17 25.0000000  0 21R01G19G22G25R08R10R09R16R17R18R19G31
                                R02G12G06G03G32G24G17G02G14
                  86308499.200 5  20758882.141                    20758884.813
                        33.700
 115633999.401 7  90104417.94645  22004418.313                    22004419.652
        46.100          33.000
 122670427.004 4                  23343442.805
        29.100
 115642438.763 8  90110932.06345  22006004.500                    22006010.012
        48.800          31.500
                  93348847.242 5  22412877.961                    22412879.742
                        35.400
                  85473022.946 6  20615810.117                    20615813.398
                        36.000
                  81774185.246 6  19689014.695                    19689014.660
                        40.000
                  96224204.43013  23160048.516                    23160051.348
                        22.300
                  93328579.012 6  22423723.336                    22423724.000
                        38.800
                  82695353.922 6  19917852.617                    19917854.609
                        39.600
                  88900076.449 6  21367196.211                    21367196.309
                        38.100
 123393632.284 5                  23481028.063
        34.500
                  93805698.729 6  22601759.250                    22601761.031
                        38.200
 108082066.777 8  84219687.55446  20567332.945                    20567335.750
        50.900          36.200
 118309938.269 7  92189617.72445  22513639.781                    22513646.707
        46.100          35.500
 119393595.764 6  93033873.12344  22719816.828                    22719822.645
        41.400          25.700
 119096998.885 7  92802862.41545  22663412.742                    22663418.496
        43.400          30.800
 125563502.269 5  97841795.09042  23893959.898                    23893968.113
        32.400          15.600
 123213016.559 7  96010153.09845  23446656.359                    23446660.270
        46.700          34.900
 129462122.953 5                  24635840.258
        32.300
 116891804.654 7  91084558.73843  22243777.156                    22243780.121
        43.400          23.500
 18  3 13 15 17 26.0000000  0 20R01G19G22G25R08R10R09R17R18R19G31R02
                                G12G06G03G32G24G17G02G14
                  86309259.606 5  20759064.828                    20759068.125
                        35.300
 115636643.788 7  90106478.50745  22004921.367                    22004923.152
        45.700          33.800
 122671826.75616                  23343709.844
        38.400
 115640187.632 8  90109177.92545  22005576.266                    22005581.688
        48.600          31.800
                  93352125.931 5  22413665.484                    22413667.180
                        34.900
                  85471016.804 5  20615326.078                    20615329.805
                        35.300
                  81775620.468 6  19689360.352                    19689360.273
                        40.000
                  93332025.285 6  22424551.125                    22424552.797
                        36.200
                  82696127.331 6  19918038.688                    19918040.641
                        39.700
                  88897577.539 6  21366595.586                    21366595.531
                        38.000
 123390787.993 5                  23480486.648
        33.800
                  93803104.242 6  22601133.820                    22601135.738
                        36.000
 108082590.179 8  84220095.40446  20567432.898                    20567435.430
        50.900          36.700
 118308182.145 7  92188249.32946  22513305.703                    22513312.125
        45.800          36.000
 119393601.407 6  93033877.52943  22719817.898                    22719823.645
        40.600          22.000
 119099423.625 7  92804751.82445  22663874.164                    22663879.594
        43.500          30.200
 125567603.879 5  97844991.09842  23894741.227                    23894748.219
        31.900          13.900
 123216309.981 7  96012719.38945  23447282.883                    23447286.695
        47.000          35.100
 129459294.470 5                  24635301.766
        33.300
 116892195.827 7  91084863.52843  22243851.094                    22243854.602
        42.000          23.900
 18  3 13 15 17 27.0000000  0 20R01G19G22G25R08R10R09R17R18R19G31R02
                                G12G06G03G32G24G17G02G14
                  86310020.795 5  20759247.477                    20759250.254
                        32.500
 115639288.801 7  90108539.54345  22005424.656                    22005426.508
        44.600          34.100
 122673227.11517                  23343975.992
        42.400
 115637937.054 7  90107424.21945  22005147.742                    22005153.320
        47.800          32.000
                  93355405.078 5  22414453.813                    22414454.512
                        35.100
                  85469011.130 6  20614841.820                    20614845.840
                        36.200
                  81777056.346 6  19689705.711                    19689705.406
                        40.700
                  93335471.884 5  22425378.711                    22425380.254
                        33.600
                  82696901.515 6  19918225.383                    19918227.125
                        40.400
                  88895079.075 6  21365995.555                    21365995.281
                        37.400
 123387944.013 5                  23479945.898
        35.300
                  93800510.229 5  22600508.398                    22600510.148
                        35.200
 108083114.296 8  84220503.82146  20567532.531                    20567535.254
        51.300          37.100
 118306426.576 7  92186881.36445  22512971.641                    22512978.465
        46.300          35.300
 119393607.375 7  93033882.19744  22719817.867                    22719825.145
        43.400          28.600
 119101848.934 7  92806641.66044  22664335.359                    22664341.277
        43.600          29.300
 125571705.679 5  97848187.33242  23895522.844                    23895529.535
        31.300          13.900
 123219603.747 7  96015285.94545  23447909.641                    23447913.531
        47.700          35.200
 129456466.260 5                  24634763.328
        33.500
 116892587.733 6  91085168.92744  22243925.906                    22243929.625
        41.300          24.800
 18  3 13 15 17 28.0000000  0 20R01G19G22G25R08R10R09R17R18R19G31R02
                                G12G06G03G32G24G17G02G14
                  86310782.728 5  20759431.133                    20759434.324
                        33.500
 115641934.383 7  90110601.03844  22005927.789                    22005929.480
        43.100          28.900
 122674627.90917                  23344242.461
        43.000
 115635687.027 8  90105670.95245  22004720.047                    22004725.133
        48.200          32.300
                  93358684.553 5  22415240.039                    22415241.773
                        35.100
                  85467005.978 6  20614357.883                    20614362.129
                        36.100
                  81778492.895 6  19690051.781                    19690051.754
                        41.100
                  93338918.869 6  22426206.797                    22426208.855
                        37.100
                  82697676.400 6  19918411.805                    19918413.410
                        40.700
                  88892581.059 6  21365394.609                    21365394.945
                        37.900
 123385100.472 5                  23479405.016
        35.000
                  93797916.548 6  22599883.336                    22599885.625
                        37.800
 108083639.165 8  84220912.81346  20567632.586                    20567635.195
        51.600          37.300
 118304671.652 7  92185513.89445  22512637.898                    22512644.340
        46.400          35.600
 119393614.272 7  93033887.60445  22719819.109                    22719826.484
        43.700          30.100
 119104274.888 7  92808532.01044  22664797.648                    22664803.090
        43.900          29.700
 125575807.717 5                  23896302.297
        31.200
 123222898.103 7  96017852.97944  23448536.469                    23448540.379
        42.500          26.300
 129453638.267 5                  24634225.344
        32.600
 116892980.310 6  91085474.82744  22244000.055                    22244003.961
        41.400          24.700
 18  3 13 15 17 29.0000000  0 21R01G19G22G25R08R10R09R16R17R18R19G31
