% program   : RTKPOST ver.2.4.2
% inp file  : Z:\home\linda\Documents\Spring18\GitHub_Unis\data\processed_data\46250754.obs
% inp file  : Z:\home\linda\Documents\Spring18\GitHub_Unis\data\processed_data\46250754.nav
% obs start : 2018/03/16 10:25:16.0 GPST (week1992 469516.0s)
% obs end   : 2018/03/16 10:40:16.0 GPST (week1992 470416.0s)
% pos mode  : single
% elev mask : 15.0 deg
% ionos opt : broadcast
% tropo opt : saastamoinen
% ephemeris : broadcast
% navi sys  : gps glonass galileo qzss sbas
%
% (lat/lon/height=WGS84/ellipsoidal,Q=1:fix,2:float,3:sbas,4:dgps,5:single,6:ppp,ns=# of satellites)
%  GPST                  latitude(deg) longitude(deg)  height(m)   Q  ns   sdn(m)   sde(m)   sdu(m)  sdne(m)  sdeu(m)  sdun(m) age(s)  ratio
2018/03/16 10:25:16.000   78.246501225   16.063382543   572.5212   5   9   3.3393   1.5789   8.0107   0.8066   1.3128   4.3161   0.00    0.0
2018/03/16 10:25:17.000   78.246499289   16.063368836   572.7931   5   9   3.3391   1.5789   8.0087   0.8061   1.3121   4.3153   0.00    0.0
2018/03/16 10:25:18.000   78.246495681   16.063386285   572.6752   5   9   3.3388   1.5789   8.0068   0.8056   1.3114   4.3145   0.00    0.0
2018/03/16 10:25:19.000   78.246492355   16.063367455   571.5017   5   9   3.3385   1.5789   8.0048   0.8051   1.3106   4.3137   0.00    0.0
2018/03/16 10:25:20.000   78.246500187   16.063391328   572.9793   5   9   3.3382   1.5789   8.0029   0.8047   1.3099   4.3128   0.00    0.0
2018/03/16 10:25:21.000   78.246495454   16.063387538   572.2223   5   9   3.3379   1.5789   8.0010   0.8042   1.3091   4.3120   0.00    0.0
2018/03/16 10:25:22.000   78.246483822   16.063332810   570.2829   5   9   3.3376   1.5789   7.9990   0.8037   1.3084   4.3112   0.00    0.0
2018/03/16 10:25:23.000   78.246500683   16.063389825   574.3411   5   9   3.3374   1.5789   7.9971   0.8032   1.3077   4.3103   0.00    0.0
2018/03/16 10:25:24.000   78.246499485   16.063391185   574.4805   5   9   3.3371   1.5789   7.9951   0.8027   1.3069   4.3095   0.00    0.0
2018/03/16 10:25:25.000   78.246483400   16.063335069   569.9699   5   9   3.3368   1.5789   7.9932   0.8022   1.3062   4.3087   0.00    0.0
2018/03/16 10:25:26.000   78.246497091   16.063377207   572.8833   5   9   3.3365   1.5789   7.9912   0.8017   1.3054   4.3078   0.00    0.0
2018/03/16 10:25:27.000   78.246496784   16.063377283   573.0160   5   9   3.3362   1.5789   7.9893   0.8013   1.3047   4.3070   0.00    0.0
2018/03/16 10:25:28.000   78.246496334   16.063361793   572.8098   5   9   3.3359   1.5790   7.9873   0.8008   1.3039   4.3062   0.00    0.0
2018/03/16 10:25:29.000   78.246494853   16.063363264   571.8887   5   9   3.3357   1.5790   7.9854   0.8003   1.3032   4.3054   0.00    0.0
2018/03/16 10:25:30.000   78.246500640   16.063381323   571.6879   5   9   3.3354   1.5790   7.9835   0.7998   1.3025   4.3045   0.00    0.0
2018/03/16 10:25:31.000   78.246497602   16.063372455   571.1432   5   9   3.3351   1.5790   7.9815   0.7993   1.3017   4.3037   0.00    0.0
2018/03/16 10:25:32.000   78.246493339   16.063378348   571.5473   5   9   3.3348   1.5790   7.9796   0.7988   1.3010   4.3029   0.00    0.0
2018/03/16 10:25:33.000   78.246500419   16.063376627   573.1669   5   9   3.3345   1.5790   7.9776   0.7984   1.3002   4.3020   0.00    0.0
2018/03/16 10:25:34.000   78.246503761   16.063380277   573.9222   5   9   3.3342   1.5790   7.9757   0.7979   1.2995   4.3012   0.00    0.0
2018/03/16 10:25:35.000   78.246503165   16.063380455   573.8453   5   9   3.3339   1.5790   7.9738   0.7974   1.2987   4.3004   0.00    0.0
2018/03/16 10:25:36.000   78.246500065   16.063363419   573.2546   5   9   3.3337   1.5790   7.9718   0.7969   1.2980   4.2995   0.00    0.0
2018/03/16 10:25:37.000   78.246499352   16.063362908   573.3639   5   9   3.3334   1.5790   7.9699   0.7964   1.2973   4.2987   0.00    0.0
2018/03/16 10:25:38.000   78.246508044   16.063385234   574.6551   5   9   3.3331   1.5790   7.9680   0.7959   1.2965   4.2979   0.00    0.0
2018/03/16 10:25:39.000   78.246501056   16.063374316   572.9907   5   9   3.3328   1.5791   7.9660   0.7954   1.2958   4.2971   0.00    0.0
2018/03/16 10:25:40.000   78.246497699   16.063391430   573.1671   5   9   3.3325   1.5791   7.9641   0.7949   1.2950   4.2962   0.00    0.0
2018/03/16 10:25:41.000   78.246500958   16.063390375   574.3274   5   9   3.3322   1.5791   7.9622   0.7945   1.2943   4.2954   0.00    0.0
2018/03/16 10:25:42.000   78.246505956   16.063405760   575.2307   5   9   3.3320   1.5791   7.9602   0.7940   1.2935   4.2946   0.00    0.0
2018/03/16 10:25:43.000   78.246503232   16.063404390   574.6974   5   9   3.3317   1.5791   7.9583   0.7935   1.2928   4.2937   0.00    0.0
2018/03/16 10:25:44.000   78.246503162   16.063357671   572.5028   5   9   3.3314   1.5791   7.9564   0.7930   1.2921   4.2929   0.00    0.0
2018/03/16 10:25:45.000   78.246512347   16.063402592   575.6398   5   9   3.3311   1.5791   7.9544   0.7925   1.2913   4.2921   0.00    0.0
2018/03/16 10:25:46.000   78.246517690   16.063412672   575.8201   5   9   3.3308   1.5791   7.9525   0.7920   1.2906   4.2913   0.00    0.0
2018/03/16 10:25:47.000   78.246509903   16.063364220   573.4212   5   9   3.3305   1.5791   7.9506   0.7915   1.2898   4.2904   0.00    0.0
2018/03/16 10:25:48.000   78.246510270   16.063381883   573.3965   5   9   3.3302   1.5791   7.9486   0.7910   1.2891   4.2896   0.00    0.0
2018/03/16 10:25:49.000   78.246517122   16.063404772   575.8849   5   9   3.3299   1.5792   7.9467   0.7905   1.2883   4.2888   0.00    0.0
2018/03/16 10:25:50.000   78.246515894   16.063400732   575.7304   5   9   3.3297   1.5792   7.9448   0.7900   1.2876   4.2879   0.00    0.0
2018/03/16 10:25:51.000   78.246500546   16.063374674   572.6579   5   9   3.3294   1.5792   7.9428   0.7896   1.2868   4.2871   0.00    0.0
2018/03/16 10:25:52.000   78.246501451   16.063381675   572.9448   5   9   3.3291   1.5792   7.9409   0.7891   1.2861   4.2863   0.00    0.0
2018/03/16 10:25:53.000   78.246500634   16.063393636   572.9597   5   9   3.3288   1.5792   7.9390   0.7886   1.2853   4.2854   0.00    0.0
2018/03/16 10:25:54.000   78.246494231   16.063388280   571.8645   5   9   3.3285   1.5792   7.9371   0.7881   1.2846   4.2846   0.00    0.0
2018/03/16 10:25:55.000   78.246487600   16.063354253   570.2001   5   9   3.3282   1.5792   7.9351   0.7876   1.2838   4.2838   0.00    0.0
2018/03/16 10:25:56.000   78.246488061   16.063363848   569.4747   5   9   3.3279   1.5792   7.9332   0.7871   1.2831   4.2830   0.00    0.0
2018/03/16 10:25:57.000   78.246494347   16.063366217   571.1539   5   9   3.3277   1.5792   7.9313   0.7866   1.2824   4.2821   0.00    0.0
2018/03/16 10:25:58.000   78.246502472   16.063367400   572.6638   5   9   3.3274   1.5792   7.9293   0.7861   1.2816   4.2813   0.00    0.0
2018/03/16 10:25:59.000   78.246495872   16.063363917   571.3445   5   9   3.3271   1.5793   7.9274   0.7856   1.2809   4.2805   0.00    0.0
2018/03/16 10:26:00.000   78.246495920   16.063367081   572.3878   5   9   3.3268   1.5793   7.9255   0.7851   1.2801   4.2796   0.00    0.0
2018/03/16 10:26:01.000   78.246499100   16.063397617   574.2520   5   9   3.3265   1.5793   7.9236   0.7846   1.2794   4.2788   0.00    0.0
2018/03/16 10:26:02.000   78.246502684   16.063399596   574.6195   5   9   3.3262   1.5793   7.9216   0.7841   1.2786   4.2780   0.00    0.0
2018/03/16 10:26:03.000   78.246499368   16.063385381   573.4341   5   9   3.3259   1.5793   7.9197   0.7836   1.2779   4.2772   0.00    0.0
2018/03/16 10:26:04.000   78.246496179   16.063374782   572.7016   5   9   3.3256   1.5793   7.9178   0.7832   1.2771   4.2763   0.00    0.0
2018/03/16 10:26:05.000   78.246502647   16.063396297   573.9149   5   9   3.3254   1.5793   7.9159   0.7827   1.2764   4.2755   0.00    0.0
2018/03/16 10:26:06.000   78.246499759   16.063395685   572.5112   5   9   3.3251   1.5793   7.9140   0.7822   1.2756   4.2747   0.00    0.0
2018/03/16 10:26:07.000   78.246498038   16.063393580   572.5655   5   9   3.3248   1.5793   7.9120   0.7817   1.2749   4.2738   0.00    0.0
2018/03/16 10:26:08.000   78.246500287   16.063379677   573.5839   5   9   3.3245   1.5794   7.9101   0.7812   1.2741   4.2730   0.00    0.0
2018/03/16 10:26:09.000   78.246504446   16.063388029   574.3650   5   9   3.3242   1.5794   7.9082   0.7807   1.2734   4.2722   0.00    0.0
2018/03/16 10:26:10.000   78.246503318   16.063387071   574.1649   5   9   3.3239   1.5794   7.9063   0.7802   1.2726   4.2713   0.00    0.0
2018/03/16 10:26:11.000   78.246501737   16.063374646   573.2698   5   9   3.3236   1.5794   7.9044   0.7797   1.2719   4.2705   0.00    0.0
2018/03/16 10:26:12.000   78.246501283   16.063384595   573.5893   5   9   3.3233   1.5794   7.9024   0.7792   1.2711   4.2697   0.00    0.0
2018/03/16 10:26:13.000   78.246503134   16.063372938   573.9531   5   9   3.3230   1.5794   7.9005   0.7787   1.2704   4.2689   0.00    0.0
2018/03/16 10:26:14.000   78.246496448   16.063365276   571.2832   5   9   3.3228   1.5794   7.8986   0.7782   1.2696   4.2680   0.00    0.0
2018/03/16 10:26:15.000   78.246502103   16.063374100   572.3892   5   9   3.3225   1.5794   7.8967   0.7777   1.2689   4.2672   0.00    0.0
2018/03/16 10:26:16.000   78.246496906   16.063372197   571.9893   5   9   3.3222   1.5795   7.8948   0.7772   1.2681   4.2664   0.00    0.0
2018/03/16 10:26:17.000   78.246498371   16.063385138   572.3229   5   9   3.3219   1.5795   7.8929   0.7767   1.2674   4.2655   0.00    0.0
2018/03/16 10:26:18.000   78.246498505   16.063409502   572.7459   5   9   3.3216   1.5795   7.8910   0.7762   1.2666   4.2647   0.00    0.0
2018/03/16 10:26:19.000   78.246489017   16.063376200   571.4016   5   9   3.3213   1.5795   7.8890   0.7757   1.2659   4.2639   0.00    0.0
2018/03/16 10:26:20.000   78.246496062   16.063385981   572.9525   5   9   3.3210   1.5795   7.8871   0.7752   1.2651   4.2631   0.00    0.0
2018/03/16 10:26:21.000   78.246498940   16.063394408   573.2739   5   9   3.3207   1.5795   7.8852   0.7747   1.2644   4.2622   0.00    0.0
2018/03/16 10:26:22.000   78.246491122   16.063383443   571.2359   5   9   3.3204   1.5795   7.8833   0.7742   1.2636   4.2614   0.00    0.0
2018/03/16 10:26:23.000   78.246499821   16.063403336   574.4398   5   9   3.3202   1.5795   7.8814   0.7737   1.2629   4.2606   0.00    0.0
2018/03/16 10:26:24.000   78.246495753   16.063393333   573.8841   5   9   3.3199   1.5795   7.8795   0.7732   1.2621   4.2597   0.00    0.0
2018/03/16 10:26:25.000   78.246496231   16.063372105   572.6924   5   9   3.3196   1.5796   7.8776   0.7727   1.2613   4.2589   0.00    0.0
2018/03/16 10:26:26.000   78.246507020   16.063375845   574.4077   5   9   3.3193   1.5796   7.8757   0.7722   1.2606   4.2581   0.00    0.0
2018/03/16 10:26:27.000   78.246504637   16.063378580   574.6082   5   9   3.3190   1.5796   7.8738   0.7717   1.2598   4.2573   0.00    0.0
2018/03/16 10:26:28.000   78.246499978   16.063389202   573.8204   5   9   3.3187   1.5796   7.8718   0.7712   1.2591   4.2564   0.00    0.0
2018/03/16 10:26:29.000   78.246502267   16.063380877   572.9671   5   9   3.3184   1.5796   7.8699   0.7707   1.2583   4.2556   0.00    0.0
2018/03/16 10:26:30.000   78.246498371   16.063384658   572.6235   5   9   3.3181   1.5796   7.8680   0.7702   1.2576   4.2548   0.00    0.0
2018/03/16 10:26:31.000   78.246502099   16.063388345   572.6582   5   9   3.3178   1.5796   7.8661   0.7697   1.2568   4.2539   0.00    0.0
2018/03/16 10:26:32.000   78.246500472   16.063363291   570.7741   5   9   3.3175   1.5796   7.8642   0.7692   1.2561   4.2531   0.00    0.0
2018/03/16 10:26:33.000   78.246503012   16.063385160   571.5005   5   9   3.3173   1.5797   7.8623   0.7687   1.2553   4.2523   0.00    0.0
2018/03/16 10:26:34.000   78.246505332   16.063389168   572.5824   5   9   3.3170   1.5797   7.8604   0.7682   1.2546   4.2515   0.00    0.0
2018/03/16 10:26:35.000   78.246504210   16.063368543   572.5325   5   9   3.3167   1.5797   7.8585   0.7677   1.2538   4.2506   0.00    0.0
2018/03/16 10:26:36.000   78.246506916   16.063377873   573.5278   5   9   3.3164   1.5797   7.8566   0.7672   1.2530   4.2498   0.00    0.0
2018/03/16 10:26:37.000   78.246508439   16.063390270   574.6507   5   9   3.3161   1.5797   7.8547   0.7667   1.2523   4.2490   0.00    0.0
2018/03/16 10:26:38.000   78.246508924   16.063390948   575.8825   5   9   3.3158   1.5797   7.8528   0.7662   1.2515   4.2481   0.00    0.0
2018/03/16 10:26:39.000   78.246507474   16.063396306   575.1393   5   9   3.3155   1.5797   7.8509   0.7657   1.2508   4.2473   0.00    0.0
2018/03/16 10:26:40.000   78.246511900   16.063401873   576.8692   5   9   3.3152   1.5797   7.8490   0.7652   1.2500   4.2465   0.00    0.0
2018/03/16 10:26:41.000   78.246505593   16.063400005   575.3867   5   9   3.3149   1.5798   7.8471   0.7647   1.2493   4.2457   0.00    0.0
2018/03/16 10:26:42.000   78.246504754   16.063410819   574.7063   5   9   3.3146   1.5798   7.8452   0.7642   1.2485   4.2448   0.00    0.0
2018/03/16 10:26:43.000   78.246494837   16.063386270   572.4759   5   9   3.3143   1.5798   7.8433   0.7637   1.2478   4.2440   0.00    0.0
2018/03/16 10:26:44.000   78.246499113   16.063385755   572.8024   5   9   3.3141   1.5798   7.8414   0.7632   1.2470   4.2432   0.00    0.0
2018/03/16 10:26:45.000   78.246498050   16.063386969   571.3239   5   9   3.3138   1.5798   7.8395   0.7627   1.2462   4.2423   0.00    0.0
2018/03/16 10:26:46.000   78.246498015   16.063382653   572.4069   5   9   3.3135   1.5798   7.8376   0.7622   1.2455   4.2415   0.00    0.0
2018/03/16 10:26:47.000   78.246496256   16.063364694   570.8590   5   9   3.3132   1.5798   7.8357   0.7616   1.2447   4.2407   0.00    0.0
2018/03/16 10:26:48.000   78.246498960   16.063365709   572.3539   5   9   3.3129   1.5799   7.8338   0.7611   1.2440   4.2399   0.00    0.0
2018/03/16 10:26:49.000   78.246498394   16.063376046   572.7558   5   9   3.3126   1.5799   7.8319   0.7606   1.2432   4.2390   0.00    0.0
2018/03/16 10:26:50.000   78.246501403   16.063386382   573.6963   5   9   3.3123   1.5799   7.8300   0.7601   1.2424   4.2382   0.00    0.0
2018/03/16 10:26:51.000   78.246498236   16.063374000   573.1109   5   9   3.3120   1.5799   7.8281   0.7596   1.2417   4.2374   0.00    0.0
2018/03/16 10:26:52.000   78.246503446   16.063395304   574.3377   5   9   3.3117   1.5799   7.8262   0.7591   1.2409   4.2365   0.00    0.0
2018/03/16 10:26:53.000   78.246505142   16.063389887   574.7647   5   9   3.3114   1.5799   7.8243   0.7586   1.2402   4.2357   0.00    0.0
2018/03/16 10:26:54.000   78.246500118   16.063391272   574.2196   5   9   3.3111   1.5799   7.8224   0.7581   1.2394   4.2349   0.00    0.0
2018/03/16 10:26:55.000   78.246499736   16.063397142   573.2341   5   9   3.3108   1.5800   7.8205   0.7576   1.2387   4.2341   0.00    0.0
2018/03/16 10:26:56.000   78.246495019   16.063385561   572.4923   5   9   3.3105   1.5800   7.8187   0.7571   1.2379   4.2332   0.00    0.0
2018/03/16 10:26:57.000   78.246493518   16.063396742   571.8969   5   9   3.3103   1.5800   7.8168   0.7566   1.2371   4.2324   0.00    0.0
2018/03/16 10:26:58.000   78.246499057   16.063404170   572.9467   5   9   3.3100   1.5800   7.8149   0.7561   1.2364   4.2316   0.00    0.0
2018/03/16 10:26:59.000   78.246487613   16.063364036   570.4047   5   9   3.3097   1.5800   7.8130   0.7556   1.2356   4.2308   0.00    0.0
2018/03/16 10:27:00.000   78.246496390   16.063389962   572.4674   5   9   3.3094   1.5800   7.8111   0.7551   1.2349   4.2299   0.00    0.0
2018/03/16 10:27:01.000   78.246498020   16.063392674   572.8705   5   9   3.3091   1.5800   7.8092   0.7545   1.2341   4.2291   0.00    0.0
2018/03/16 10:27:02.000   78.246498199   16.063384269   572.4139   5   9   3.3088   1.5801   7.8073   0.7540   1.2333   4.2283   0.00    0.0
2018/03/16 10:27:03.000   78.246500472   16.063397373   573.4130   5   9   3.3085   1.5801   7.8054   0.7535   1.2326   4.2274   0.00    0.0
2018/03/16 10:27:04.000   78.246500544   16.063393435   575.0257   5   9   3.3082   1.5801   7.8035   0.7530   1.2318   4.2266   0.00    0.0
2018/03/16 10:27:05.000   78.246497228   16.063390506   573.5345   5   9   3.3079   1.5801   7.8017   0.7525   1.2311   4.2258   0.00    0.0
2018/03/16 10:27:06.000   78.246501570   16.063416240   574.2912   5   9   3.3076   1.5801   7.7998   0.7520   1.2303   4.2250   0.00    0.0
2018/03/16 10:27:07.000   78.246499531   16.063382634   572.5684   5   9   3.3073   1.5801   7.7979   0.7515   1.2295   4.2241   0.00    0.0
2018/03/16 10:27:08.000   78.246499747   16.063390858   572.6370   5   9   3.3070   1.5801   7.7960   0.7510   1.2288   4.2233   0.00    0.0
2018/03/16 10:27:09.000   78.246509993   16.063411081   574.6217   5   9   3.3067   1.5802   7.7941   0.7505   1.2280   4.2225   0.00    0.0
2018/03/16 10:27:10.000   78.246498991   16.063385809   571.8675   5   9   3.3064   1.5802   7.7922   0.7499   1.2272   4.2217   0.00    0.0
2018/03/16 10:27:11.000   78.246498053   16.063391319   572.4053   5   9   3.3061   1.5802   7.7904   0.7494   1.2265   4.2208   0.00    0.0
2018/03/16 10:27:12.000   78.246506164   16.063413068   574.6098   5   9   3.3059   1.5802   7.7885   0.7489   1.2257   4.2200   0.00    0.0
2018/03/16 10:27:13.000   78.246509961   16.063394844   574.9412   5   9   3.3056   1.5802   7.7866   0.7484   1.2250   4.2192   0.00    0.0
2018/03/16 10:27:14.000   78.246502987   16.063382740   573.5900   5   9   3.3053   1.5802   7.7847   0.7479   1.2242   4.2183   0.00    0.0
2018/03/16 10:27:15.000   78.246501609   16.063382478   574.2206   5   9   3.3050   1.5802   7.7828   0.7474   1.2234   4.2175   0.00    0.0
2018/03/16 10:27:16.000   78.246505082   16.063405961   574.8266   5   9   3.3047   1.5803   7.7809   0.7469   1.2227   4.2167   0.00    0.0
2018/03/16 10:27:17.000   78.246501046   16.063390608   573.6772   5   9   3.3044   1.5803   7.7791   0.7464   1.2219   4.2159   0.00    0.0
2018/03/16 10:27:18.000   78.246497243   16.063385869   572.5487   5   9   3.3041   1.5803   7.7772   0.7458   1.2211   4.2150   0.00    0.0
2018/03/16 10:27:19.000   78.246501450   16.063388203   573.4166   5   9   3.3038   1.5803   7.7753   0.7453   1.2204   4.2142   0.00    0.0
2018/03/16 10:27:20.000   78.246504035   16.063396256   574.1476   5   9   3.3035   1.5803   7.7734   0.7448   1.2196   4.2134   0.00    0.0
2018/03/16 10:27:21.000   78.246507532   16.063402365   573.8035   5   9   3.3032   1.5803   7.7716   0.7443   1.2188   4.2126   0.00    0.0
2018/03/16 10:27:22.000   78.246503038   16.063386224   572.1398   5   9   3.3029   1.5804   7.7697   0.7438   1.2181   4.2117   0.00    0.0
2018/03/16 10:27:23.000   78.246506817   16.063389005   572.7004   5   9   3.3026   1.5804   7.7678   0.7433   1.2173   4.2109   0.00    0.0
2018/03/16 10:27:24.000   78.246510640   16.063397564   573.5736   5   9   3.3023   1.5804   7.7659   0.7427   1.2165   4.2101   0.00    0.0
2018/03/16 10:27:25.000   78.246512897   16.063400396   574.5260   5   9   3.3020   1.5804   7.7641   0.7422   1.2158   4.2093   0.00    0.0
2018/03/16 10:27:26.000   78.246505626   16.063384448   573.3613   5   9   3.3017   1.5804   7.7622   0.7417   1.2150   4.2084   0.00    0.0
2018/03/16 10:27:27.000   78.246507695   16.063367440   573.6889   5   9   3.3014   1.5804   7.7603   0.7412   1.2142   4.2076   0.00    0.0
2018/03/16 10:27:28.000   78.246510841   16.063390102   574.9633   5   9   3.3011   1.5805   7.7584   0.7407   1.2135   4.2068   0.00    0.0
2018/03/16 10:27:29.000   78.246506904   16.063389132   574.8122   5   9   3.3008   1.5805   7.7566   0.7402   1.2127   4.2059   0.00    0.0
2018/03/16 10:27:30.000   78.246505365   16.063381101   574.9825   5   9   3.3006   1.5805   7.7547   0.7396   1.2119   4.2051   0.00    0.0
2018/03/16 10:27:31.000   78.246506668   16.063395788   575.1944   5   9   3.3003   1.5805   7.7528   0.7391   1.2112   4.2043   0.00    0.0
2018/03/16 10:27:32.000   78.246505202   16.063404955   575.6137   5   9   3.3000   1.5805   7.7510   0.7386   1.2104   4.2035   0.00    0.0
2018/03/16 10:27:33.000   78.246500448   16.063396313   574.9427   5   9   3.2997   1.5805   7.7491   0.7381   1.2096   4.2026   0.00    0.0
2018/03/16 10:27:34.000   78.246493160   16.063380083   573.7093   5   9   3.2994   1.5805   7.7472   0.7376   1.2089   4.2018   0.00    0.0
2018/03/16 10:27:35.000   78.246499159   16.063389831   575.4025   5   9   3.2991   1.5806   7.7454   0.7371   1.2081   4.2010   0.00    0.0
2018/03/16 10:27:36.000   78.246503993   16.063408690   575.8828   5   9   3.2988   1.5806   7.7435   0.7365   1.2073   4.2002   0.00    0.0
2018/03/16 10:27:37.000   78.246501100   16.063401960   574.7895   5   9   3.2985   1.5806   7.7416   0.7360   1.2066   4.1993   0.00    0.0
2018/03/16 10:27:38.000   78.246495866   16.063365310   573.2390   5   9   3.2982   1.5806   7.7398   0.7355   1.2058   4.1985   0.00    0.0
2018/03/16 10:27:39.000   78.246504373   16.063381022   574.9671   5   9   3.2979   1.5806   7.7379   0.7350   1.2050   4.1977   0.00    0.0
2018/03/16 10:27:40.000   78.246503881   16.063396652   574.6254   5   9   3.2976   1.5806   7.7360   0.7345   1.2043   4.1969   0.00    0.0
2018/03/16 10:27:41.000   78.246500426   16.063372047   572.8426   5   9   3.2973   1.5807   7.7342   0.7339   1.2035   4.1960   0.00    0.0
2018/03/16 10:27:42.000   78.246498598   16.063345663   571.5443   5   9   3.2970   1.5807   7.7323   0.7334   1.2027   4.1952   0.00    0.0
2018/03/16 10:27:43.000   78.246505499   16.063365267   572.8771   5   9   3.2967   1.5807   7.7304   0.7329   1.2020   4.1944   0.00    0.0
2018/03/16 10:27:44.000   78.246511153   16.063390469   575.6062   5   9   3.2964   1.5807   7.7286   0.7324   1.2012   4.1936   0.00    0.0
2018/03/16 10:27:45.000   78.246499299   16.063382478   573.6471   5   9   3.2961   1.5807   7.7267   0.7318   1.2004   4.1927   0.00    0.0
2018/03/16 10:27:46.000   78.246495898   16.063385311   574.0515   5   9   3.2958   1.5808   7.7249   0.7313   1.1997   4.1919   0.00    0.0
2018/03/16 10:27:47.000   78.246499730   16.063410901   575.6284   5   9   3.2955   1.5808   7.7230   0.7308   1.1989   4.1911   0.00    0.0
2018/03/16 10:27:48.000   78.246503262   16.063426723   576.2646   5   9   3.2952   1.5808   7.7211   0.7303   1.1981   4.1903   0.00    0.0
2018/03/16 10:27:49.000   78.246507825   16.063395669   575.0833   5   9   3.2949   1.5808   7.7193   0.7298   1.1973   4.1894   0.00    0.0
2018/03/16 10:27:50.000   78.246500154   16.063380522   573.9709   5   9   3.2946   1.5808   7.7174   0.7292   1.1966   4.1886   0.00    0.0
2018/03/16 10:27:51.000   78.246500309   16.063400765   574.2289   5   9   3.2943   1.5808   7.7156   0.7287   1.1958   4.1878   0.00    0.0
2018/03/16 10:27:52.000   78.246505617   16.063397944   574.6353   5   9   3.2940   1.5809   7.7137   0.7282   1.1950   4.1870   0.00    0.0
2018/03/16 10:27:53.000   78.246495815   16.063398189   573.2611   5   9   3.2937   1.5809   7.7118   0.7277   1.1943   4.1861   0.00    0.0
2018/03/16 10:27:54.000   78.246490598   16.063363158   570.7652   5   9   3.2934   1.5809   7.7100   0.7271   1.1935   4.1853   0.00    0.0
2018/03/16 10:27:55.000   78.246500334   16.063379989   571.7134   5   9   3.2931   1.5809   7.7081   0.7266   1.1927   4.1845   0.00    0.0
2018/03/16 10:27:56.000   78.246499414   16.063397398   573.0296   5   9   3.2928   1.5809   7.7063   0.7261   1.1919   4.1837   0.00    0.0
2018/03/16 10:27:57.000   78.246494401   16.063374822   571.0043   5   9   3.2926   1.5809   7.7044   0.7256   1.1912   4.1829   0.00    0.0
2018/03/16 10:27:58.000   78.246491589   16.063365356   570.3452   5   9   3.2923   1.5810   7.7026   0.7250   1.1904   4.1820   0.00    0.0
2018/03/16 10:27:59.000   78.246504140   16.063402241   573.3087   5   9   3.2920   1.5810   7.7007   0.7245   1.1896   4.1812   0.00    0.0
2018/03/16 10:28:00.000   78.246501429   16.063391793   572.7152   5   9   3.2917   1.5810   7.6989   0.7240   1.1889   4.1804   0.00    0.0
2018/03/16 10:28:01.000   78.246495331   16.063374814   571.9222   5   9   3.2914   1.5810   7.6970   0.7235   1.1881   4.1796   0.00    0.0
2018/03/16 10:28:02.000   78.246495985   16.063383926   571.8238   5   9   3.2911   1.5810   7.6952   0.7229   1.1873   4.1787   0.00    0.0
2018/03/16 10:28:03.000   78.246504784   16.063396642   574.1159   5   9   3.2908   1.5811   7.6933   0.7224   1.1865   4.1779   0.00    0.0
2018/03/16 10:28:04.000   78.246499768   16.063403018   573.1105   5   9   3.2905   1.5811   7.6915   0.7219   1.1858   4.1771   0.00    0.0
2018/03/16 10:28:05.000   78.246496149   16.063387675   572.5591   5   9   3.2902   1.5811   7.6896   0.7213   1.1850   4.1763   0.00    0.0
2018/03/16 10:28:06.000   78.246503262   16.063389438   572.5613   5   9   3.2899   1.5811   7.6878   0.7208   1.1842   4.1754   0.00    0.0
2018/03/16 10:28:07.000   78.246504602   16.063413939   573.9169   5   9   3.2896   1.5811   7.6859   0.7203   1.1834   4.1746   0.00    0.0
2018/03/16 10:28:08.000   78.246510924   16.063416143   574.4549   5   9   3.2893   1.5811   7.6841   0.7198   1.1827   4.1738   0.00    0.0
2018/03/16 10:28:09.000   78.246508214   16.063395671   574.1056   5   9   3.2890   1.5812   7.6822   0.7192   1.1819   4.1730   0.00    0.0
2018/03/16 10:28:10.000   78.246506256   16.063388396   573.6919   5   9   3.2887   1.5812   7.6804   0.7187   1.1811   4.1721   0.00    0.0
2018/03/16 10:28:11.000   78.246516811   16.063404133   576.6385   5   9   3.2884   1.5812   7.6785   0.7182   1.1803   4.1713   0.00    0.0
2018/03/16 10:28:12.000   78.246518950   16.063416685   576.8783   5   9   3.2881   1.5812   7.6767   0.7176   1.1796   4.1705   0.00    0.0
2018/03/16 10:28:13.000   78.246506254   16.063390401   574.6622   5   9   3.2878   1.5812   7.6748   0.7171   1.1788   4.1697   0.00    0.0
2018/03/16 10:28:14.000   78.246497405   16.063388315   572.9102   5   9   3.2875   1.5813   7.6730   0.7166   1.1780   4.1689   0.00    0.0
2018/03/16 10:28:15.000   78.246505366   16.063413618   574.5981   5   9   3.2872   1.5813   7.6712   0.7160   1.1772   4.1680   0.00    0.0
2018/03/16 10:28:16.000   78.246505810   16.063393579   573.7178   5   9   3.2869   1.5813   7.6693   0.7155   1.1765   4.1672   0.00    0.0
2018/03/16 10:28:17.000   78.246499248   16.063372256   572.7573   5   9   3.2866   1.5813   7.6675   0.7150   1.1757   4.1664   0.00    0.0
2018/03/16 10:28:18.000   78.246505115   16.063397515   572.7459   5   9   3.2863   1.5813   7.6656   0.7145   1.1749   4.1656   0.00    0.0
2018/03/16 10:28:19.000   78.246506131   16.063405576   573.9282   5   9   3.2860   1.5814   7.6638   0.7139   1.1741   4.1647   0.00    0.0
2018/03/16 10:28:20.000   78.246499905   16.063395765   573.0657   5   9   3.2857   1.5814   7.6620   0.7134   1.1733   4.1639   0.00    0.0
2018/03/16 10:28:21.000   78.246499274   16.063395059   572.4568   5   9   3.2854   1.5814   7.6601   0.7129   1.1726   4.1631   0.00    0.0
2018/03/16 10:28:22.000   78.246497641   16.063381338   571.8921   5   9   3.2851   1.5814   7.6583   0.7123   1.1718   4.1623   0.00    0.0
2018/03/16 10:28:23.000   78.246497608   16.063383222   572.2069   5   9   3.2848   1.5814   7.6564   0.7118   1.1710   4.1615   0.00    0.0
2018/03/16 10:28:24.000   78.246498881   16.063373458   572.1788   5   9   3.2845   1.5815   7.6546   0.7113   1.1702   4.1606   0.00    0.0
2018/03/16 10:28:25.000   78.246496783   16.063362371   571.6819   5   9   3.2842   1.5815   7.6528   0.7107   1.1695   4.1598   0.00    0.0
2018/03/16 10:28:26.000   78.246501007   16.063390896   574.0162   5   9   3.2839   1.5815   7.6509   0.7102   1.1687   4.1590   0.00    0.0
2018/03/16 10:28:27.000   78.246500581   16.063385701   574.2807   5   9   3.2836   1.5815   7.6491   0.7097   1.1679   4.1582   0.00    0.0
2018/03/16 10:28:28.000   78.246504977   16.063395368   575.6500   5   9   3.2833   1.5815   7.6473   0.7091   1.1671   4.1574   0.00    0.0
2018/03/16 10:28:29.000   78.246506637   16.063398573   576.1921   5   9   3.2830   1.5815   7.6454   0.7086   1.1663   4.1565   0.00    0.0
2018/03/16 10:28:30.000   78.246504346   16.063394302   574.8244   5   9   3.2827   1.5816   7.6436   0.7080   1.1656   4.1557   0.00    0.0
2018/03/16 10:28:31.000   78.246504385   16.063403777   575.9175   5   9   3.2824   1.5816   7.6418   0.7075   1.1648   4.1549   0.00    0.0
2018/03/16 10:28:32.000   78.246504797   16.063406814   575.3843   5   9   3.2821   1.5816   7.6399   0.7070   1.1640   4.1541   0.00    0.0
2018/03/16 10:28:33.000   78.246499587   16.063381875   573.4066   5   9   3.2818   1.5816   7.6381   0.7064   1.1632   4.1532   0.00    0.0
2018/03/16 10:28:34.000   78.246504428   16.063408750   574.5873   5   9   3.2815   1.5817   7.6363   0.7059   1.1624   4.1524   0.00    0.0
2018/03/16 10:28:35.000   78.246505249   16.063411639   574.1352   5   9   3.2812   1.5817   7.6345   0.7054   1.1617   4.1516   0.00    0.0
2018/03/16 10:28:36.000   78.246502741   16.063376384   572.8181   5   9   3.2809   1.5817   7.6326   0.7048   1.1609   4.1508   0.00    0.0
2018/03/16 10:28:37.000   78.246507617   16.063403528   574.5396   5   9   3.2806   1.5817   7.6308   0.7043   1.1601   4.1500   0.00    0.0
2018/03/16 10:28:38.000   78.246504873   16.063389246   573.2746   5   9   3.2803   1.5817   7.6290   0.7038   1.1593   4.1491   0.00    0.0
2018/03/16 10:28:39.000   78.246498568   16.063378834   572.8372   5   9   3.2800   1.5818   7.6271   0.7032   1.1585   4.1483   0.00    0.0
2018/03/16 10:28:40.000   78.246501237   16.063397011   573.3204   5   9   3.2797   1.5818   7.6253   0.7027   1.1577   4.1475   0.00    0.0
2018/03/16 10:28:41.000   78.246501914   16.063378294   573.3098   5   9   3.2794   1.5818   7.6235   0.7021   1.1570   4.1467   0.00    0.0
2018/03/16 10:28:42.000   78.246499734   16.063379190   572.6253   5   9   3.2791   1.5818   7.6217   0.7016   1.1562   4.1459   0.00    0.0
2018/03/16 10:28:43.000   78.246497628   16.063380769   572.6279   5   9   3.2788   1.5818   7.6198   0.7011   1.1554   4.1450   0.00    0.0
2018/03/16 10:28:44.000   78.246505868   16.063378145   573.4801   5   9   3.2785   1.5819   7.6180   0.7005   1.1546   4.1442   0.00    0.0
2018/03/16 10:28:45.000   78.246507301   16.063395482   572.7351   5   9   3.2782   1.5819   7.6162   0.7000   1.1538   4.1434   0.00    0.0
2018/03/16 10:28:46.000   78.246506204   16.063400280   573.9080   5   9   3.2779   1.5819   7.6144   0.6994   1.1530   4.1426   0.00    0.0
2018/03/16 10:28:47.000   78.246504648   16.063398662   573.0560   5   9   3.2776   1.5819   7.6126   0.6989   1.1523   4.1418   0.00    0.0
2018/03/16 10:28:48.000   78.246505003   16.063420612   574.4263   5   9   3.2773   1.5819   7.6107   0.6984   1.1515   4.1409   0.00    0.0
2018/03/16 10:28:49.000   78.246504041   16.063397470   574.2174   5   9   3.2770   1.5820   7.6089   0.6978   1.1507   4.1401   0.00    0.0
2018/03/16 10:28:50.000   78.246499704   16.063380189   574.1998   5   9   3.2767   1.5820   7.6071   0.6973   1.1499   4.1393   0.00    0.0
2018/03/16 10:28:51.000   78.246497033   16.063401152   573.2710   5   9   3.2764   1.5820   7.6053   0.6967   1.1491   4.1385   0.00    0.0
2018/03/16 10:28:52.000   78.246494140   16.063381216   572.9382   5   9   3.2761   1.5820   7.6035   0.6962   1.1483   4.1377   0.00    0.0
2018/03/16 10:28:53.000   78.246495060   16.063388318   572.2691   5   9   3.2758   1.5820   7.6016   0.6956   1.1476   4.1369   0.00    0.0
2018/03/16 10:28:54.000   78.246496720   16.063407738   574.6802   5   9   3.2755   1.5821   7.5998   0.6951   1.1468   4.1360   0.00    0.0
2018/03/16 10:28:55.000   78.246498206   16.063400266   574.4820   5   9   3.2752   1.5821   7.5980   0.6946   1.1460   4.1352   0.00    0.0
2018/03/16 10:28:56.000   78.246500096   16.063395759   573.9463   5   9   3.2749   1.5821   7.5962   0.6940   1.1452   4.1344   0.00    0.0
2018/03/16 10:28:57.000   78.246504626   16.063406886   574.0019   5   9   3.2746   1.5821   7.5944   0.6935   1.1444   4.1336   0.00    0.0
2018/03/16 10:28:58.000   78.246513120   16.063402357   574.7078   5   9   3.2743   1.5822   7.5926   0.6929   1.1436   4.1328   0.00    0.0
2018/03/16 10:28:59.000   78.246505332   16.063392707   573.4725   5   9   3.2740   1.5822   7.5907   0.6924   1.1428   4.1319   0.00    0.0
2018/03/16 10:29:00.000   78.246506450   16.063393747   573.1094   5   9   3.2737   1.5822   7.5889   0.6918   1.1421   4.1311   0.00    0.0
2018/03/16 10:29:01.000   78.246502756   16.063394205   572.3508   5   9   3.2734   1.5822   7.5871   0.6913   1.1413   4.1303   0.00    0.0
2018/03/16 10:29:02.000   78.246502890   16.063400684   572.1480   5   9   3.2731   1.5822   7.5853   0.6907   1.1405   4.1295   0.00    0.0
2018/03/16 10:29:03.000   78.246502180   16.063388664   571.5545   5   9   3.2728   1.5823   7.5835   0.6902   1.1397   4.1287   0.00    0.0
2018/03/16 10:29:04.000   78.246507841   16.063390885   572.7197   5   9   3.2725   1.5823   7.5817   0.6897   1.1389   4.1279   0.00    0.0
2018/03/16 10:29:05.000   78.246507571   16.063398399   572.9292   5   9   3.2722   1.5823   7.5799   0.6891   1.1381   4.1270   0.00    0.0
2018/03/16 10:29:06.000   78.246502307   16.063385216   572.6906   5   9   3.2719   1.5823   7.5781   0.6886   1.1373   4.1262   0.00    0.0
2018/03/16 10:29:07.000   78.246504981   16.063406581   573.6286   5   9   3.2716   1.5824   7.5763   0.6880   1.1365   4.1254   0.00    0.0
2018/03/16 10:29:08.000   78.246507931   16.063411948   575.0429   5   9   3.2713   1.5824   7.5745   0.6875   1.1358   4.1246   0.00    0.0
2018/03/16 10:29:09.000   78.246503110   16.063410594   574.1220   5   9   3.2710   1.5824   7.5726   0.6869   1.1350   4.1238   0.00    0.0
2018/03/16 10:29:10.000   78.246502037   16.063400607   573.7971   5   9   3.2707   1.5824   7.5708   0.6864   1.1342   4.1230   0.00    0.0
2018/03/16 10:29:11.000   78.246501114   16.063400966   573.6995   5   9   3.2704   1.5824   7.5690   0.6858   1.1334   4.1221   0.00    0.0
2018/03/16 10:29:12.000   78.246500931   16.063401831   573.6576   5   9   3.2701   1.5825   7.5672   0.6853   1.1326   4.1213   0.00    0.0
2018/03/16 10:29:13.000   78.246499774   16.063420469   573.6327   5   9   3.2698   1.5825   7.5654   0.6847   1.1318   4.1205   0.00    0.0
2018/03/16 10:29:14.000   78.246501093   16.063401702   573.3431   5   9   3.2695   1.5825   7.5636   0.6842   1.1310   4.1197   0.00    0.0
2018/03/16 10:29:15.000   78.246497618   16.063401523   572.1319   5   9   3.2692   1.5825   7.5618   0.6836   1.1302   4.1189   0.00    0.0
2018/03/16 10:29:16.000   78.246501343   16.063407932   573.6854   5   9   3.2689   1.5826   7.5600   0.6831   1.1294   4.1181   0.00    0.0
2018/03/16 10:29:17.000   78.246503585   16.063412023   573.7110   5   9   3.2686   1.5826   7.5582   0.6825   1.1286   4.1172   0.00    0.0
2018/03/16 10:29:18.000   78.246504071   16.063404780   573.6435   5   9   3.2683   1.5826   7.5564   0.6820   1.1279   4.1164   0.00    0.0
2018/03/16 10:29:19.000   78.246495988   16.063390665   571.9101   5   9   3.2680   1.5826   7.5546   0.6814   1.1271   4.1156   0.00    0.0
2018/03/16 10:29:20.000   78.246505741   16.063402225   573.8098   5   9   3.2677   1.5826   7.5528   0.6809   1.1263   4.1148   0.00    0.0
2018/03/16 10:29:21.000   78.246506489   16.063410559   573.5504   5   9   3.2674   1.5827   7.5510   0.6803   1.1255   4.1140   0.00    0.0
2018/03/16 10:29:22.000   78.246498272   16.063380565   571.5574   5   9   3.2671   1.5827   7.5492   0.6798   1.1247   4.1132   0.00    0.0
2018/03/16 10:29:23.000   78.246496176   16.063370262   570.8130   5   9   3.2668   1.5827   7.5474   0.6792   1.1239   4.1123   0.00    0.0
2018/03/16 10:29:24.000   78.246502371   16.063397691   572.6056   5   9   3.2665   1.5827   7.5456   0.6787   1.1231   4.1115   0.00    0.0
2018/03/16 10:29:25.000   78.246508627   16.063404445   574.6460   5   9   3.2662   1.5828   7.5438   0.6781   1.1223   4.1107   0.00    0.0
2018/03/16 10:29:26.000   78.246503976   16.063379200   574.1728   5   9   3.2659   1.5828   7.5420   0.6775   1.1215   4.1099   0.00    0.0
2018/03/16 10:29:27.000   78.246496614   16.063385591   572.4341   5   9   3.2656   1.5828   7.5402   0.6770   1.1207   4.1091   0.00    0.0
2018/03/16 10:29:28.000   78.246504784   16.063395473   574.6185   5   9   3.2653   1.5828   7.5384   0.6764   1.1199   4.1083   0.00    0.0
2018/03/16 10:29:29.000   78.246508415   16.063419750   575.8526   5   9   3.2650   1.5829   7.5367   0.6759   1.1191   4.1074   0.00    0.0
2018/03/16 10:29:30.000   78.246509489   16.063413906   575.9177   5   9   3.2647   1.5829   7.5349   0.6753   1.1183   4.1066   0.00    0.0
2018/03/16 10:29:31.000   78.246503495   16.063385779   573.1284   5   9   3.2644   1.5829   7.5331   0.6748   1.1176   4.1058   0.00    0.0
2018/03/16 10:29:32.000   78.246503269   16.063402545   574.2472   5   9   3.2641   1.5829   7.5313   0.6742   1.1168   4.1050   0.00    0.0
2018/03/16 10:29:33.000   78.246505968   16.063421112   575.1761   5   9   3.2637   1.5830   7.5295   0.6737   1.1160   4.1042   0.00    0.0
2018/03/16 10:29:34.000   78.246500443   16.063409641   573.4998   5   9   3.2634   1.5830   7.5277   0.6731   1.1152   4.1034   0.00    0.0
2018/03/16 10:29:35.000   78.246498833   16.063394499   572.3364   5   9   3.2631   1.5830   7.5259   0.6725   1.1144   4.1026   0.00    0.0
2018/03/16 10:29:36.000   78.246497651   16.063380850   572.4153   5   9   3.2628   1.5830   7.5241   0.6720   1.1136   4.1018   0.00    0.0
2018/03/16 10:29:37.000   78.246500914   16.063396972   572.8827   5   9   3.2625   1.5831   7.5223   0.6714   1.1128   4.1009   0.00    0.0
2018/03/16 10:29:38.000   78.246505358   16.063410891   573.4329   5   9   3.2622   1.5831   7.5205   0.6709   1.1120   4.1001   0.00    0.0
2018/03/16 10:29:39.000   78.246507161   16.063395644   573.8105   5   9   3.2619   1.5831   7.5188   0.6703   1.1112   4.0993   0.00    0.0
2018/03/16 10:29:40.000   78.246502823   16.063373760   573.0830   5   9   3.2616   1.5831   7.5170   0.6698   1.1104   4.0985   0.00    0.0
2018/03/16 10:29:41.000   78.246506141   16.063406862   574.1352   5   9   3.2613   1.5831   7.5152   0.6692   1.1096   4.0977   0.00    0.0
2018/03/16 10:29:42.000   78.246511196   16.063417647   574.7075   5   9   3.2610   1.5832   7.5134   0.6686   1.1088   4.0969   0.00    0.0
2018/03/16 10:29:43.000   78.246503218   16.063390036   573.7101   5   9   3.2607   1.5832   7.5116   0.6681   1.1080   4.0961   0.00    0.0
2018/03/16 10:29:44.000   78.246497785   16.063366982   572.3276   5   9   3.2604   1.5832   7.5098   0.6675   1.1072   4.0952   0.00    0.0
2018/03/16 10:29:45.000   78.246496555   16.063392193   573.5166   5   9   3.2601   1.5832   7.5081   0.6670   1.1064   4.0944   0.00    0.0
2018/03/16 10:29:46.000   78.246488363   16.063402067   571.6262   5   9   3.2598   1.5833   7.5063   0.6664   1.1056   4.0936   0.00    0.0
2018/03/16 10:29:47.000   78.246486086   16.063387433   570.8113   5   9   3.2595   1.5833   7.5045   0.6658   1.1048   4.0928   0.00    0.0
2018/03/16 10:29:48.000   78.246497844   16.063397475   573.1941   5   9   3.2592   1.5833   7.5027   0.6653   1.1040   4.0920   0.00    0.0
2018/03/16 10:29:49.000   78.246498767   16.063410192   572.9226   5   9   3.2589   1.5833   7.5009   0.6647   1.1032   4.0912   0.00    0.0
2018/03/16 10:29:50.000   78.246501900   16.063388074   572.5837   5   9   3.2586   1.5834   7.4992   0.6641   1.1024   4.0904   0.00    0.0
2018/03/16 10:29:51.000   78.246505068   16.063392964   572.5813   5   9   3.2583   1.5834   7.4974   0.6636   1.1016   4.0896   0.00    0.0
2018/03/16 10:29:52.000   78.246506683   16.063403029   574.0452   5   9   3.2580   1.5834   7.4956   0.6630   1.1008   4.0887   0.00    0.0
2018/03/16 10:29:53.000   78.246514679   16.063403369   574.9733   5   9   3.2577   1.5834   7.4938   0.6625   1.1000   4.0879   0.00    0.0
2018/03/16 10:29:54.000   78.246508319   16.063385308   573.3686   5   9   3.2574   1.5835   7.4920   0.6619   1.0992   4.0871   0.00    0.0
2018/03/16 10:29:55.000   78.246505475   16.063389256   573.1961   5   9   3.2571   1.5835   7.4903   0.6613   1.0984   4.0863   0.00    0.0
2018/03/16 10:29:56.000   78.246504679   16.063371951   573.0525   5   9   3.2568   1.5835   7.4885   0.6608   1.0976   4.0855   0.00    0.0
2018/03/16 10:29:57.000   78.246498074   16.063381149   572.6080   5   9   3.2565   1.5836   7.4867   0.6602   1.0968   4.0847   0.00    0.0
2018/03/16 10:29:58.000   78.246501012   16.063415708   573.5301   5   9   3.2562   1.5836   7.4849   0.6596   1.0960   4.0839   0.00    0.0
2018/03/16 10:29:59.000   78.246498336   16.063384537   572.0318   5   9   3.2559   1.5836   7.4832   0.6591   1.0952   4.0831   0.00    0.0
2018/03/16 10:30:00.000   78.246499086   16.063392784   573.4529   5   9   3.2556   1.5836   7.4814   0.6585   1.0944   4.0823   0.00    0.0
2018/03/16 10:30:01.000   78.246508735   16.063419241   575.4997   5   9   3.2553   1.5837   7.4796   0.6579   1.0936   4.0814   0.00    0.0
2018/03/16 10:30:02.000   78.246507076   16.063412411   575.2877   5   9   3.2550   1.5837   7.4779   0.6574   1.0928   4.0806   0.00    0.0
2018/03/16 10:30:03.000   78.246504847   16.063417586   575.0495   5   9   3.2547   1.5837   7.4761   0.6568   1.0920   4.0798   0.00    0.0
2018/03/16 10:30:04.000   78.246510708   16.063417930   575.2565   5   9   3.2544   1.5837   7.4743   0.6562   1.0912   4.0790   0.00    0.0
2018/03/16 10:30:05.000   78.246501409   16.063385923   573.1775   5   9   3.2540   1.5838   7.4725   0.6557   1.0904   4.0782   0.00    0.0
2018/03/16 10:30:06.000   78.246503052   16.063426519   574.3090   5   9   3.2537   1.5838   7.4708   0.6551   1.0896   4.0774   0.00    0.0
2018/03/16 10:30:07.000   78.246495775   16.063386817   571.7604   5   9   3.2534   1.5838   7.4690   0.6545   1.0888   4.0766   0.00    0.0
2018/03/16 10:30:08.000   78.246493524   16.063373305   570.3498   5   9   3.2531   1.5838   7.4672   0.6540   1.0880   4.0758   0.00    0.0
2018/03/16 10:30:09.000   78.246494969   16.063392367   571.1445   5   9   3.2528   1.5839   7.4655   0.6534   1.0872   4.0750   0.00    0.0
2018/03/16 10:30:10.000   78.246493374   16.063370476   570.0789   5   9   3.2525   1.5839   7.4637   0.6528   1.0864   4.0741   0.00    0.0
2018/03/16 10:30:11.000   78.246499877   16.063389279   571.2401   5   9   3.2522   1.5839   7.4619   0.6523   1.0856   4.0733   0.00    0.0
2018/03/16 10:30:12.000   78.246501006   16.063393134   572.5120   5   9   3.2519   1.5839   7.4602   0.6517   1.0848   4.0725   0.00    0.0
2018/03/16 10:30:13.000   78.246503005   16.063378554   572.9567   5   9   3.2516   1.5840   7.4584   0.6511   1.0840   4.0717   0.00    0.0
2018/03/16 10:30:14.000   78.246504951   16.063406561   573.6140   5   9   3.2513   1.5840   7.4567   0.6505   1.0832   4.0709   0.00    0.0
2018/03/16 10:30:15.000   78.246510149   16.063414297   574.8914   5   9   3.2510   1.5840   7.4549   0.6500   1.0824   4.0701   0.00    0.0
2018/03/16 10:30:16.000   78.246506118   16.063392705   573.7129   5   9   3.2507   1.5840   7.4531   0.6494   1.0816   4.0693   0.00    0.0
2018/03/16 10:30:17.000   78.246500199   16.063390442   573.1588   5   9   3.2504   1.5841   7.4514   0.6488   1.0808   4.0685   0.00    0.0
2018/03/16 10:30:18.000   78.246500907   16.063405373   573.3344   5   9   3.2501   1.5841   7.4496   0.6483   1.0799   4.0677   0.00    0.0
2018/03/16 10:30:19.000   78.246493260   16.063407915   572.4683   5   9   3.2498   1.5841   7.4479   0.6477   1.0791   4.0669   0.00    0.0
2018/03/16 10:30:20.000   78.246497421   16.063416329   573.6625   5   9   3.2495   1.5842   7.4461   0.6471   1.0783   4.0661   0.00    0.0
2018/03/16 10:30:21.000   78.246492833   16.063395402   571.6577   5   9   3.2492   1.5842   7.4443   0.6465   1.0775   4.0653   0.00    0.0
2018/03/16 10:30:22.000   78.246497211   16.063379672   572.2955   5   9   3.2489   1.5842   7.4426   0.6460   1.0767   4.0644   0.00    0.0
2018/03/16 10:30:23.000   78.246503449   16.063416331   573.2741   5   9   3.2486   1.5842   7.4408   0.6454   1.0759   4.0636   0.00    0.0
2018/03/16 10:30:24.000   78.246503142   16.063396667   573.3780   5   9   3.2483   1.5843   7.4391   0.6448   1.0751   4.0628   0.00    0.0
2018/03/16 10:30:25.000   78.246495201   16.063371583   571.2063   5   9   3.2480   1.5843   7.4373   0.6442   1.0743   4.0620   0.00    0.0
2018/03/16 10:30:26.000   78.246499089   16.063399635   572.5955   5   9   3.2477   1.5843   7.4356   0.6437   1.0735   4.0612   0.00    0.0
2018/03/16 10:30:27.000   78.246506016   16.063403996   573.6779   5   9   3.2474   1.5843   7.4338   0.6431   1.0727   4.0604   0.00    0.0
2018/03/16 10:30:28.000   78.246497068   16.063382932   571.4561   5   9   3.2471   1.5844   7.4321   0.6425   1.0719   4.0596   0.00    0.0
2018/03/16 10:30:29.000   78.246498540   16.063387233   572.9286   5   9   3.2467   1.5844   7.4303   0.6419   1.0711   4.0588   0.00    0.0
2018/03/16 10:30:30.000   78.246502130   16.063382720   572.5984   5   9   3.2464   1.5844   7.4286   0.6414   1.0703   4.0580   0.00    0.0
2018/03/16 10:30:31.000   78.246501284   16.063392512   573.3616   5   9   3.2461   1.5845   7.4268   0.6408   1.0694   4.0572   0.00    0.0
2018/03/16 10:30:32.000   78.246505493   16.063408480   573.9461   5   9   3.2458   1.5845   7.4251   0.6402   1.0686   4.0564   0.00    0.0
2018/03/16 10:30:33.000   78.246500774   16.063378471   571.9083   5   9   3.2455   1.5845   7.4233   0.6396   1.0678   4.0556   0.00    0.0
2018/03/16 10:30:34.000   78.246502808   16.063395750   571.8995   5   9   3.2452   1.5845   7.4216   0.6390   1.0670   4.0548   0.00    0.0
2018/03/16 10:30:35.000   78.246501988   16.063408150   573.1668   5   9   3.2449   1.5846   7.4198   0.6385   1.0662   4.0539   0.00    0.0
2018/03/16 10:30:36.000   78.246505872   16.063382954   572.8520   5   9   3.2446   1.5846   7.4181   0.6379   1.0654   4.0531   0.00    0.0
2018/03/16 10:30:37.000   78.246508347   16.063402705   573.4489   5   9   3.2443   1.5846   7.4163   0.6373   1.0646   4.0523   0.00    0.0
2018/03/16 10:30:38.000   78.246502109   16.063370152   571.6663   5   9   3.2440   1.5847   7.4146   0.6367   1.0638   4.0515   0.00    0.0
2018/03/16 10:30:39.000   78.246502274   16.063398803   571.7818   5   9   3.2437   1.5847   7.4128   0.6361   1.0630   4.0507   0.00    0.0
2018/03/16 10:30:40.000   78.246505098   16.063416446   574.0432   5   9   3.2434   1.5847   7.4111   0.6356   1.0621   4.0499   0.00    0.0
2018/03/16 10:30:41.000   78.246493125   16.063377308   571.3283   5   9   3.2431   1.5847   7.4093   0.6350   1.0613   4.0491   0.00    0.0
2018/03/16 10:30:42.000   78.246494999   16.063382133   571.7895   5   9   3.2428   1.5848   7.4076   0.6344   1.0605   4.0483   0.00    0.0
2018/03/16 10:30:43.000   78.246501205   16.063407152   572.6044   5   9   3.2425   1.5848   7.4058   0.6338   1.0597   4.0475   0.00    0.0
2018/03/16 10:30:44.000   78.246503234   16.063405794   572.6492   5   9   3.2422   1.5848   7.4041   0.6332   1.0589   4.0467   0.00    0.0
2018/03/16 10:30:45.000   78.246492630   16.063395502   571.0027   5   9   3.2419   1.5849   7.4024   0.6326   1.0581   4.0459   0.00    0.0
2018/03/16 10:30:46.000   78.246491600   16.063388866   570.9305   5   9   3.2416   1.5849   7.4006   0.6321   1.0573   4.0451   0.00    0.0
2018/03/16 10:30:47.000   78.246503671   16.063399335   573.1384   5   9   3.2413   1.5849   7.3989   0.6315   1.0565   4.0443   0.00    0.0
2018/03/16 10:30:48.000   78.246506976   16.063414791   573.8978   5   9   3.2410   1.5849   7.3971   0.6309   1.0556   4.0435   0.00    0.0
2018/03/16 10:30:49.000   78.246498973   16.063389618   571.7789   5   9   3.2407   1.5850   7.3954   0.6303   1.0548   4.0427   0.00    0.0
2018/03/16 10:30:50.000   78.246498696   16.063368991   571.5497   5   9   3.2403   1.5850   7.3937   0.6297   1.0540   4.0419   0.00    0.0
2018/03/16 10:30:51.000   78.246504601   16.063400864   573.4748   5   9   3.2400   1.5850   7.3919   0.6291   1.0532   4.0411   0.00    0.0
2018/03/16 10:30:52.000   78.246506138   16.063400813   573.6597   5   9   3.2397   1.5851   7.3902   0.6286   1.0524   4.0403   0.00    0.0
2018/03/16 10:30:53.000   78.246503571   16.063391597   572.6046   5   9   3.2394   1.5851   7.3885   0.6280   1.0516   4.0395   0.00    0.0
2018/03/16 10:30:54.000   78.246496716   16.063390645   571.0491   5   9   3.2391   1.5851   7.3867   0.6274   1.0507   4.0387   0.00    0.0
2018/03/16 10:30:55.000   78.246502813   16.063384838   571.9095   5   9   3.2388   1.5851   7.3850   0.6268   1.0499   4.0379   0.00    0.0
2018/03/16 10:30:56.000   78.246506233   16.063399557   572.2121   5   9   3.2385   1.5852   7.3833   0.6262   1.0491   4.0371   0.00    0.0
2018/03/16 10:30:57.000   78.246503324   16.063408459   571.9313   5   9   3.2382   1.5852   7.3815   0.6256   1.0483   4.0362   0.00    0.0
2018/03/16 10:30:58.000   78.246496844   16.063355758   570.3913   5   9   3.2379   1.5852   7.3798   0.6250   1.0475   4.0354   0.00    0.0
2018/03/16 10:30:59.000   78.246502528   16.063388864   571.7786   5   9   3.2376   1.5853   7.3781   0.6244   1.0467   4.0346   0.00    0.0
2018/03/16 10:31:00.000   78.246505664   16.063415237   573.6987   5   9   3.2373   1.5853   7.3763   0.6238   1.0458   4.0338   0.00    0.0
2018/03/16 10:31:01.000   78.246502853   16.063393518   572.2757   5   9   3.2370   1.5853   7.3746   0.6233   1.0450   4.0330   0.00    0.0
2018/03/16 10:31:02.000   78.246500886   16.063393060   573.2719   5   9   3.2367   1.5853   7.3729   0.6227   1.0442   4.0322   0.00    0.0
2018/03/16 10:31:03.000   78.246498677   16.063404917   573.1213   5   9   3.2364   1.5854   7.3711   0.6221   1.0434   4.0314   0.00    0.0
2018/03/16 10:31:04.000   78.246506025   16.063402595   573.9080   5   9   3.2361   1.5854   7.3694   0.6215   1.0426   4.0306   0.00    0.0
2018/03/16 10:31:05.000   78.246503017   16.063409213   573.2938   5   9   3.2358   1.5854   7.3677   0.6209   1.0418   4.0298   0.00    0.0
2018/03/16 10:31:06.000   78.246500524   16.063395670   573.6139   5   9   3.2355   1.5855   7.3660   0.6203   1.0409   4.0290   0.00    0.0
2018/03/16 10:31:07.000   78.246505965   16.063389968   573.9025   5   9   3.2352   1.5855   7.3642   0.6197   1.0401   4.0282   0.00    0.0
2018/03/16 10:31:08.000   78.246503913   16.063402387   573.1652   5   9   3.2348   1.5855   7.3625   0.6191   1.0393   4.0274   0.00    0.0
2018/03/16 10:31:09.000   78.246507233   16.063393720   573.5085   5   9   3.2345   1.5856   7.3608   0.6185   1.0385   4.0266   0.00    0.0
2018/03/16 10:31:10.000   78.246504644   16.063392866   572.3727   5   9   3.2342   1.5856   7.3591   0.6179   1.0377   4.0258   0.00    0.0
2018/03/16 10:31:11.000   78.246495931   16.063365392   569.8420   5   9   3.2339   1.5856   7.3573   0.6173   1.0368   4.0250   0.00    0.0
2018/03/16 10:31:12.000   78.246498732   16.063377221   570.7215   5   9   3.2336   1.5857   7.3556   0.6167   1.0360   4.0242   0.00    0.0
2018/03/16 10:31:13.000   78.246499794   16.063378624   570.8040   5   9   3.2333   1.5857   7.3539   0.6161   1.0352   4.0234   0.00    0.0
2018/03/16 10:31:14.000   78.246495013   16.063383222   571.8966   5   9   3.2330   1.5857   7.3522   0.6155   1.0344   4.0226   0.00    0.0
2018/03/16 10:31:15.000   78.246493483   16.063377317   570.7151   5   9   3.2327   1.5857   7.3505   0.6150   1.0335   4.0218   0.00    0.0
2018/03/16 10:31:16.000   78.246500500   16.063386371   572.6747   5   9   3.2324   1.5858   7.3487   0.6144   1.0327   4.0210   0.00    0.0
2018/03/16 10:31:17.000   78.246501344   16.063406212   572.6467   5   9   3.2321   1.5858   7.3470   0.6138   1.0319   4.0202   0.00    0.0
2018/03/16 10:31:18.000   78.246498677   16.063393541   572.5726   5   9   3.2318   1.5858   7.3453   0.6132   1.0311   4.0194   0.00    0.0
2018/03/16 10:31:19.000   78.246492837   16.063381783   571.3054   5   9   3.2315   1.5859   7.3436   0.6126   1.0303   4.0186   0.00    0.0
2018/03/16 10:31:20.000   78.246495956   16.063398410   572.3643   5   9   3.2312   1.5859   7.3419   0.6120   1.0294   4.0178   0.00    0.0
2018/03/16 10:31:21.000   78.246493878   16.063386645   571.7700   5   9   3.2309   1.5859   7.3402   0.6114   1.0286   4.0170   0.00    0.0
2018/03/16 10:31:22.000   78.246497073   16.063389987   571.8253   5   9   3.2306   1.5860   7.3384   0.6108   1.0278   4.0162   0.00    0.0
2018/03/16 10:31:23.000   78.246500085   16.063404266   573.1778   5   9   3.2303   1.5860   7.3367   0.6102   1.0270   4.0154   0.00    0.0
2018/03/16 10:31:24.000   78.246495536   16.063364780   570.7590   5   9   3.2300   1.5860   7.3350   0.6096   1.0261   4.0146   0.00    0.0
2018/03/16 10:31:25.000   78.246501013   16.063384099   571.9118   5   9   3.2296   1.5861   7.3333   0.6090   1.0253   4.0138   0.00    0.0
2018/03/16 10:31:26.000   78.246503519   16.063399445   572.7892   5   9   3.2293   1.5861   7.3316   0.6084   1.0245   4.0130   0.00    0.0
2018/03/16 10:31:27.000   78.246499191   16.063391024   571.5821   5   9   3.2290   1.5861   7.3299   0.6078   1.0237   4.0122   0.00    0.0
2018/03/16 10:31:28.000   78.246506138   16.063404763   573.0493   5   9   3.2287   1.5861   7.3282   0.6072   1.0228   4.0114   0.00    0.0
2018/03/16 10:31:29.000   78.246505820   16.063406702   572.6774   5   9   3.2284   1.5862   7.3265   0.6066   1.0220   4.0106   0.00    0.0
2018/03/16 10:31:30.000   78.246511472   16.063406812   573.5134   5   9   3.2281   1.5862   7.3247   0.6060   1.0212   4.0098   0.00    0.0
2018/03/16 10:31:31.000   78.246504325   16.063416260   573.0905   5   9   3.2278   1.5862   7.3230   0.6054   1.0203   4.0090   0.00    0.0
2018/03/16 10:31:32.000   78.246494511   16.063393995   571.7013   5   9   3.2275   1.5863   7.3213   0.6048   1.0195   4.0082   0.00    0.0
2018/03/16 10:31:33.000   78.246498572   16.063403049   573.3160   5   9   3.2272   1.5863   7.3196   0.6041   1.0187   4.0074   0.00    0.0
2018/03/16 10:31:34.000   78.246492096   16.063396713   571.9004   5   9   3.2269   1.5863   7.3179   0.6035   1.0179   4.0066   0.00    0.0
2018/03/16 10:31:35.000   78.246490174   16.063396021   572.4556   5   9   3.2266   1.5864   7.3162   0.6029   1.0170   4.0058   0.00    0.0
2018/03/16 10:31:36.000   78.246498061   16.063391313   573.8305   5   9   3.2263   1.5864   7.3145   0.6023   1.0162   4.0050   0.00    0.0
2018/03/16 10:31:37.000   78.246500407   16.063413752   574.1568   5   9   3.2260   1.5864   7.3128   0.6017   1.0154   4.0042   0.00    0.0
2018/03/16 10:31:38.000   78.246496319   16.063401156   572.4486   5   9   3.2257   1.5865   7.3111   0.6011   1.0145   4.0035   0.00    0.0
2018/03/16 10:31:39.000   78.246502236   16.063385736   572.6009   5   9   3.2254   1.5865   7.3094   0.6005   1.0137   4.0027   0.00    0.0
2018/03/16 10:31:40.000   78.246498163   16.063408080   572.1297   5   9   3.2251   1.5865   7.3077   0.5999   1.0129   4.0019   0.00    0.0
2018/03/16 10:31:41.000   78.246502229   16.063411217   572.1526   5   9   3.2247   1.5866   7.3060   0.5993   1.0121   4.0011   0.00    0.0
2018/03/16 10:31:42.000   78.246500923   16.063385855   572.6472   5   9   3.2244   1.5866   7.3043   0.5987   1.0112   4.0003   0.00    0.0
2018/03/16 10:31:43.000   78.246494040   16.063370299   570.6138   5   9   3.2241   1.5866   7.3026   0.5981   1.0104   3.9995   0.00    0.0
2018/03/16 10:31:44.000   78.246496769   16.063384865   571.2740   5   9   3.2238   1.5867   7.3009   0.5975   1.0096   3.9987   0.00    0.0
2018/03/16 10:31:45.000   78.246504911   16.063383188   571.0032   5   9   3.2235   1.5867   7.2992   0.5969   1.0087   3.9979   0.00    0.0
2018/03/16 10:31:46.000   78.246501003   16.063383994   570.7551   5   9   3.2232   1.5867   7.2975   0.5963   1.0079   3.9971   0.00    0.0
2018/03/16 10:31:47.000   78.246499311   16.063374836   571.3533   5   9   3.2229   1.5868   7.2958   0.5956   1.0071   3.9963   0.00    0.0
2018/03/16 10:31:48.000   78.246498712   16.063393033   572.1295   5   9   3.2226   1.5868   7.2941   0.5950   1.0062   3.9955   0.00    0.0
2018/03/16 10:31:49.000   78.246503886   16.063422781   575.5809   5   9   3.2223   1.5868   7.2924   0.5944   1.0054   3.9947   0.00    0.0
2018/03/16 10:31:50.000   78.246507180   16.063437057   577.2508   5   9   3.2220   1.5869   7.2907   0.5938   1.0046   3.9939   0.00    0.0
2018/03/16 10:31:51.000   78.246502732   16.063420141   575.5768   5   9   3.2217   1.5869   7.2890   0.5932   1.0037   3.9931   0.00    0.0
2018/03/16 10:31:52.000   78.246504726   16.063409602   576.5572   5   9   3.2214   1.5869   7.2873   0.5926   1.0029   3.9923   0.00    0.0
2018/03/16 10:31:53.000   78.246509155   16.063430597   577.2980   5   9   3.2211   1.5870   7.2856   0.5920   1.0021   3.9915   0.00    0.0
2018/03/16 10:31:54.000   78.246509657   16.063425365   577.1347   5   9   3.2208   1.5870   7.2839   0.5914   1.0012   3.9907   0.00    0.0
2018/03/16 10:31:55.000   78.246499475   16.063405026   574.1795   5   9   3.2205   1.5870   7.2822   0.5907   1.0004   3.9899   0.00    0.0
2018/03/16 10:31:56.000   78.246502847   16.063404683   574.3042   5   9   3.2202   1.5871   7.2806   0.5901   0.9996   3.9891   0.00    0.0
2018/03/16 10:31:57.000   78.246501876   16.063406719   573.4093   5   9   3.2198   1.5871   7.2789   0.5895   0.9987   3.9883   0.00    0.0
2018/03/16 10:31:58.000   78.246505321   16.063415733   574.1111   5   9   3.2195   1.5871   7.2772   0.5889   0.9979   3.9875   0.00    0.0
2018/03/16 10:31:59.000   78.246504263   16.063405873   573.0841   5   9   3.2192   1.5872   7.2755   0.5883   0.9971   3.9868   0.00    0.0
2018/03/16 10:32:00.000   78.246497219   16.063374511   570.6576   5   9   3.2189   1.5872   7.2738   0.5877   0.9962   3.9860   0.00    0.0
2018/03/16 10:32:01.000   78.246502241   16.063380080   571.1989   5   9   3.2186   1.5872   7.2721   0.5870   0.9954   3.9852   0.00    0.0
2018/03/16 10:32:02.000   78.246511380   16.063391660   571.4915   5   9   3.2183   1.5873   7.2704   0.5864   0.9945   3.9844   0.00    0.0
2018/03/16 10:32:03.000   78.246502286   16.063379440   571.1404   5   9   3.2180   1.5873   7.2687   0.5858   0.9937   3.9836   0.00    0.0
2018/03/16 10:32:04.000   78.246498281   16.063381723   571.3189   5   9   3.2177   1.5873   7.2670   0.5852   0.9929   3.9828   0.00    0.0
2018/03/16 10:32:05.000   78.246506833   16.063417148   575.7927   5   9   3.2174   1.5874   7.2654   0.5846   0.9920   3.9820   0.00    0.0
2018/03/16 10:32:06.000   78.246503977   16.063414567   575.8694   5   9   3.2171   1.5874   7.2637   0.5840   0.9912   3.9812   0.00    0.0
2018/03/16 10:32:07.000   78.246493560   16.063406549   573.4761   5   9   3.2168   1.5874   7.2620   0.5833   0.9904   3.9804   0.00    0.0
2018/03/16 10:32:08.000   78.246496886   16.063417154   574.4925   5   9   3.2165   1.5875   7.2603   0.5827   0.9895   3.9796   0.00    0.0
2018/03/16 10:32:09.000   78.246498443   16.063400606   573.9731   5   9   3.2162   1.5875   7.2586   0.5821   0.9887   3.9788   0.00    0.0
2018/03/16 10:32:10.000   78.246499545   16.063388247   574.0189   5   9   3.2159   1.5875   7.2570   0.5815   0.9878   3.9780   0.00    0.0
2018/03/16 10:32:11.000   78.246497500   16.063404660   572.6229   5   9   3.2156   1.5876   7.2553   0.5808   0.9870   3.9772   0.00    0.0
2018/03/16 10:32:12.000   78.246501194   16.063414164   573.0630   5   9   3.2152   1.5876   7.2536   0.5802   0.9862   3.9765   0.00    0.0
