% program   : RTKPOST ver.2.4.2
% inp file  : Z:\home\linda\Documents\Spring18\GitHub_Unis\data\processed_data\46250753.obs
% inp file  : Z:\home\linda\Documents\Spring18\GitHub_Unis\data\processed_data\46250753.nav
% obs start : 2018/03/16 10:02:44.0 GPST (week1992 468164.0s)
% obs end   : 2018/03/16 10:17:44.0 GPST (week1992 469064.0s)
% pos mode  : single
% elev mask : 15.0 deg
% ionos opt : broadcast
% tropo opt : saastamoinen
% ephemeris : broadcast
% navi sys  : gps glonass galileo qzss sbas
%
% (lat/lon/height=WGS84/ellipsoidal,Q=1:fix,2:float,3:sbas,4:dgps,5:single,6:ppp,ns=# of satellites)
%  GPST                  latitude(deg) longitude(deg)  height(m)   Q  ns   sdn(m)   sde(m)   sdu(m)  sdne(m)  sdeu(m)  sdun(m) age(s)  ratio
2018/03/16 10:02:44.000   78.246708161   16.083868682   630.0809   5   9   3.4333   1.6707  10.6313   1.2319   2.2413   5.0061   0.00    0.0
2018/03/16 10:02:45.000   78.246714118   16.083874230   630.9087   5   9   3.4335   1.6707  10.6302   1.2318   2.2411   5.0063   0.00    0.0
2018/03/16 10:02:46.000   78.246709764   16.083870202   631.2367   5   9   3.4338   1.6707  10.6292   1.2318   2.2409   5.0065   0.00    0.0
2018/03/16 10:02:47.000   78.246710449   16.083858746   631.2361   5   9   3.4341   1.6706  10.6281   1.2317   2.2407   5.0067   0.00    0.0
2018/03/16 10:02:48.000   78.246712562   16.083860571   631.4376   5   9   3.4344   1.6706  10.6270   1.2316   2.2405   5.0069   0.00    0.0
2018/03/16 10:02:49.000   78.246712221   16.083854826   631.6484   5   9   3.4346   1.6706  10.6259   1.2316   2.2403   5.0071   0.00    0.0
2018/03/16 10:02:50.000   78.246713927   16.083847654   631.9208   5   9   3.4349   1.6706  10.6248   1.2315   2.2401   5.0074   0.00    0.0
2018/03/16 10:02:51.000   78.246711158   16.083852992   632.0537   5   9   3.4352   1.6706  10.6238   1.2314   2.2399   5.0076   0.00    0.0
2018/03/16 10:02:52.000   78.246713280   16.083846085   631.3836   5   9   3.4355   1.6706  10.6227   1.2313   2.2397   5.0078   0.00    0.0
2018/03/16 10:02:53.000   78.246710588   16.083854138   630.4524   5   9   3.4357   1.6706  10.6216   1.2313   2.2395   5.0080   0.00    0.0
2018/03/16 10:02:54.000   78.246707312   16.083862188   628.7750   5   9   3.4360   1.6706  10.6205   1.2312   2.2393   5.0082   0.00    0.0
2018/03/16 10:02:55.000   78.246711284   16.083848153   628.6505   5   9   3.4363   1.6706  10.6194   1.2311   2.2391   5.0084   0.00    0.0
2018/03/16 10:02:56.000   78.246703262   16.083848711   626.5149   5   9   3.4365   1.6706  10.6183   1.2310   2.2389   5.0086   0.00    0.0
2018/03/16 10:02:57.000   78.246706010   16.083852880   627.7055   5   9   3.4368   1.6706  10.6172   1.2309   2.2387   5.0088   0.00    0.0
2018/03/16 10:02:58.000   78.246705134   16.083842955   626.6315   5   9   3.4371   1.6706  10.6161   1.2309   2.2385   5.0090   0.00    0.0
2018/03/16 10:02:59.000   78.246711818   16.083834971   628.4542   5   9   3.4373   1.6706  10.6150   1.2308   2.2383   5.0092   0.00    0.0
2018/03/16 10:03:00.000   78.246708564   16.083830645   627.6732   5   9   3.4376   1.6706  10.6139   1.2307   2.2381   5.0094   0.00    0.0
2018/03/16 10:03:01.000   78.246708718   16.083815766   627.5694   5   9   3.4379   1.6706  10.6127   1.2306   2.2379   5.0096   0.00    0.0
2018/03/16 10:03:02.000   78.246707960   16.083838516   626.6704   5   9   3.4381   1.6706  10.6116   1.2306   2.2377   5.0098   0.00    0.0
2018/03/16 10:03:03.000   78.246708133   16.083839301   627.3110   5   9   3.4384   1.6705  10.6105   1.2305   2.2374   5.0100   0.00    0.0
2018/03/16 10:03:04.000   78.246706401   16.083839377   627.6420   5   9   3.4387   1.6705  10.6094   1.2304   2.2372   5.0101   0.00    0.0
2018/03/16 10:03:05.000   78.246707240   16.083846973   626.9287   5   9   3.4389   1.6705  10.6083   1.2303   2.2370   5.0103   0.00    0.0
2018/03/16 10:03:06.000   78.246711287   16.083850190   628.6260   5   9   3.4392   1.6705  10.6071   1.2302   2.2368   5.0105   0.00    0.0
2018/03/16 10:03:07.000   78.246712024   16.083859457   629.9060   5   9   3.4395   1.6705  10.6060   1.2301   2.2366   5.0107   0.00    0.0
2018/03/16 10:03:08.000   78.246708714   16.083850838   629.0700   5   9   3.4397   1.6705  10.6049   1.2301   2.2364   5.0109   0.00    0.0
2018/03/16 10:03:09.000   78.246711956   16.083852501   630.9184   5   9   3.4400   1.6705  10.6037   1.2300   2.2362   5.0111   0.00    0.0
2018/03/16 10:03:10.000   78.246713322   16.083847730   630.7510   5   9   3.4403   1.6705  10.6026   1.2299   2.2359   5.0112   0.00    0.0
2018/03/16 10:03:11.000   78.246717316   16.083848625   632.0231   5   9   3.4405   1.6705  10.6015   1.2298   2.2357   5.0114   0.00    0.0
2018/03/16 10:03:12.000   78.246713723   16.083850347   631.1919   5   9   3.4408   1.6705  10.6003   1.2297   2.2355   5.0116   0.00    0.0
2018/03/16 10:03:13.000   78.246712455   16.083851604   630.2906   5   9   3.4410   1.6705  10.5992   1.2296   2.2353   5.0118   0.00    0.0
2018/03/16 10:03:14.000   78.246706750   16.083856267   627.6388   5   9   3.4413   1.6705  10.5980   1.2296   2.2350   5.0119   0.00    0.0
2018/03/16 10:03:15.000   78.246708970   16.083859858   627.9796   5   9   3.4416   1.6705  10.5969   1.2295   2.2348   5.0121   0.00    0.0
2018/03/16 10:03:16.000   78.246705265   16.083855966   627.4194   5   9   3.4418   1.6704  10.5957   1.2294   2.2346   5.0123   0.00    0.0
2018/03/16 10:03:17.000   78.246706060   16.083861661   627.2680   5   9   3.4421   1.6704  10.5946   1.2293   2.2344   5.0124   0.00    0.0
2018/03/16 10:03:18.000   78.246708161   16.083846328   628.1723   5   9   3.4423   1.6704  10.5934   1.2292   2.2341   5.0126   0.00    0.0
2018/03/16 10:03:19.000   78.246707940   16.083833261   628.5442   5   9   3.4426   1.6704  10.5923   1.2291   2.2339   5.0128   0.00    0.0
2018/03/16 10:03:20.000   78.246710801   16.083839354   629.9754   5   9   3.4428   1.6704  10.5911   1.2290   2.2337   5.0129   0.00    0.0
2018/03/16 10:03:21.000   78.246710409   16.083840977   630.8193   5   9   3.4431   1.6704  10.5899   1.2289   2.2334   5.0131   0.00    0.0
2018/03/16 10:03:22.000   78.246710006   16.083832832   628.9752   5   9   3.4433   1.6704  10.5887   1.2288   2.2332   5.0132   0.00    0.0
2018/03/16 10:03:23.000   78.246707050   16.083845127   629.5188   5   9   3.4436   1.6704  10.5876   1.2288   2.2330   5.0134   0.00    0.0
2018/03/16 10:03:24.000   78.246704773   16.083853838   629.0893   5   9   3.4439   1.6704  10.5864   1.2287   2.2327   5.0135   0.00    0.0
2018/03/16 10:03:25.000   78.246702520   16.083863214   627.2195   5   9   3.4441   1.6704  10.5852   1.2286   2.2325   5.0137   0.00    0.0
2018/03/16 10:03:26.000   78.246704331   16.083857024   627.9319   5   9   3.4444   1.6704  10.5840   1.2285   2.2323   5.0138   0.00    0.0
2018/03/16 10:03:27.000   78.246708261   16.083862231   629.3907   5   9   3.4446   1.6704  10.5829   1.2284   2.2320   5.0140   0.00    0.0
2018/03/16 10:03:28.000   78.246707669   16.083862903   629.1990   5   9   3.4449   1.6704  10.5817   1.2283   2.2318   5.0141   0.00    0.0
2018/03/16 10:03:29.000   78.246710983   16.083863001   630.9185   5   9   3.4451   1.6703  10.5805   1.2282   2.2315   5.0143   0.00    0.0
2018/03/16 10:03:30.000   78.246714797   16.083862666   630.5640   5   9   3.4454   1.6703  10.5793   1.2281   2.2313   5.0144   0.00    0.0
2018/03/16 10:03:31.000   78.246715917   16.083851818   632.3299   5   9   3.4456   1.6703  10.5781   1.2280   2.2311   5.0146   0.00    0.0
2018/03/16 10:03:32.000   78.246714497   16.083859003   631.9942   5   9   3.4458   1.6703  10.5769   1.2279   2.2308   5.0147   0.00    0.0
2018/03/16 10:03:33.000   78.246711789   16.083844033   629.9601   5   9   3.4461   1.6703  10.5757   1.2278   2.2306   5.0148   0.00    0.0
2018/03/16 10:03:34.000   78.246708178   16.083827268   627.6715   5   9   3.4463   1.6703  10.5745   1.2277   2.2303   5.0150   0.00    0.0
2018/03/16 10:03:35.000   78.246705963   16.083841862   627.2811   5   9   3.4466   1.6703  10.5733   1.2276   2.2301   5.0151   0.00    0.0
2018/03/16 10:03:36.000   78.246709069   16.083844720   628.2405   5   9   3.4468   1.6703  10.5721   1.2275   2.2298   5.0152   0.00    0.0
2018/03/16 10:03:37.000   78.246707507   16.083836966   625.5774   5   9   3.4471   1.6703  10.5709   1.2274   2.2296   5.0154   0.00    0.0
2018/03/16 10:03:38.000   78.246708699   16.083824016   626.5956   5   9   3.4473   1.6703  10.5697   1.2273   2.2293   5.0155   0.00    0.0
2018/03/16 10:03:39.000   78.246707484   16.083822705   625.5426   5   9   3.4476   1.6703  10.5685   1.2272   2.2291   5.0156   0.00    0.0
2018/03/16 10:03:40.000   78.246708187   16.083829212   626.7098   5   9   3.4478   1.6702  10.5672   1.2271   2.2288   5.0158   0.00    0.0
2018/03/16 10:03:41.000   78.246706340   16.083827401   626.1555   5   9   3.4480   1.6702  10.5660   1.2270   2.2286   5.0159   0.00    0.0
2018/03/16 10:03:42.000   78.246710699   16.083852223   628.8584   5   9   3.4483   1.6702  10.5648   1.2269   2.2283   5.0160   0.00    0.0
2018/03/16 10:03:43.000   78.246711286   16.083863152   630.6071   5   9   3.4485   1.6702  10.5636   1.2268   2.2281   5.0161   0.00    0.0
2018/03/16 10:03:44.000   78.246708416   16.083866363   631.2608   5   9   3.4488   1.6702  10.5623   1.2267   2.2278   5.0162   0.00    0.0
2018/03/16 10:03:45.000   78.246707516   16.083870503   631.9092   5   9   3.4490   1.6702  10.5611   1.2266   2.2276   5.0164   0.00    0.0
2018/03/16 10:03:46.000   78.246709745   16.083872354   632.8701   5   9   3.4492   1.6702  10.5599   1.2265   2.2273   5.0165   0.00    0.0
2018/03/16 10:03:47.000   78.246709358   16.083881548   633.7625   5   9   3.4495   1.6702  10.5586   1.2264   2.2270   5.0166   0.00    0.0
2018/03/16 10:03:48.000   78.246710841   16.083866848   633.1342   5   9   3.4497   1.6702  10.5574   1.2263   2.2268   5.0167   0.00    0.0
2018/03/16 10:03:49.000   78.246710880   16.083870019   634.2263   5   9   3.4500   1.6702  10.5562   1.2262   2.2265   5.0168   0.00    0.0
2018/03/16 10:03:50.000   78.246709216   16.083860891   632.1977   5   9   3.4502   1.6701  10.5549   1.2261   2.2263   5.0169   0.00    0.0
2018/03/16 10:03:51.000   78.246708658   16.083856642   630.7370   5   9   3.4504   1.6701  10.5537   1.2260   2.2260   5.0170   0.00    0.0
2018/03/16 10:03:52.000   78.246707484   16.083867174   630.5002   5   9   3.4507   1.6701  10.5524   1.2259   2.2257   5.0171   0.00    0.0
2018/03/16 10:03:53.000   78.246706473   16.083859047   628.3738   5   9   3.4509   1.6701  10.5512   1.2258   2.2255   5.0172   0.00    0.0
2018/03/16 10:03:54.000   78.246703707   16.083857461   627.3072   5   9   3.4511   1.6701  10.5499   1.2257   2.2252   5.0173   0.00    0.0
2018/03/16 10:03:55.000   78.246705925   16.083857486   627.9618   5   9   3.4514   1.6701  10.5487   1.2256   2.2249   5.0174   0.00    0.0
2018/03/16 10:03:56.000   78.246707325   16.083852314   629.1399   5   9   3.4516   1.6701  10.5474   1.2255   2.2247   5.0175   0.00    0.0
2018/03/16 10:03:57.000   78.246709862   16.083837652   629.3036   5   9   3.4518   1.6701  10.5461   1.2254   2.2244   5.0176   0.00    0.0
2018/03/16 10:03:58.000   78.246715038   16.083841929   631.6926   5   9   3.4521   1.6701  10.5449   1.2253   2.2241   5.0177   0.00    0.0
2018/03/16 10:03:59.000   78.246715067   16.083834292   632.4013   5   9   3.4523   1.6701  10.5436   1.2252   2.2239   5.0178   0.00    0.0
2018/03/16 10:04:00.000   78.246711043   16.083841141   630.2508   5   9   3.4525   1.6700  10.5423   1.2250   2.2236   5.0179   0.00    0.0
2018/03/16 10:04:01.000   78.246711828   16.083844379   629.5247   5   9   3.4527   1.6700  10.5411   1.2249   2.2233   5.0180   0.00    0.0
2018/03/16 10:04:02.000   78.246711196   16.083852197   629.1983   5   9   3.4530   1.6700  10.5398   1.2248   2.2230   5.0181   0.00    0.0
2018/03/16 10:04:03.000   78.246706832   16.083851839   628.3038   5   9   3.4532   1.6700  10.5385   1.2247   2.2228   5.0182   0.00    0.0
2018/03/16 10:04:04.000   78.246707978   16.083851269   628.0597   5   9   3.4534   1.6700  10.5372   1.2246   2.2225   5.0183   0.00    0.0
2018/03/16 10:04:05.000   78.246703479   16.083849989   627.5387   5   9   3.4537   1.6700  10.5360   1.2245   2.2222   5.0184   0.00    0.0
2018/03/16 10:04:06.000   78.246710559   16.083857845   631.4690   5   9   3.4539   1.6700  10.5347   1.2244   2.2219   5.0184   0.00    0.0
2018/03/16 10:04:07.000   78.246706590   16.083833601   629.5732   5   9   3.4541   1.6700  10.5334   1.2243   2.2217   5.0185   0.00    0.0
2018/03/16 10:04:08.000   78.246713107   16.083836707   631.6726   5   9   3.4543   1.6700  10.5321   1.2241   2.2214   5.0186   0.00    0.0
2018/03/16 10:04:09.000   78.246710332   16.083838354   630.9464   5   9   3.4545   1.6700  10.5308   1.2240   2.2211   5.0187   0.00    0.0
2018/03/16 10:04:10.000   78.246713150   16.083839351   631.5969   5   9   3.4548   1.6699  10.5295   1.2239   2.2208   5.0188   0.00    0.0
2018/03/16 10:04:11.000   78.246709218   16.083847926   630.1068   5   9   3.4550   1.6699  10.5282   1.2238   2.2205   5.0188   0.00    0.0
2018/03/16 10:04:12.000   78.246708834   16.083843901   628.6404   5   9   3.4552   1.6699  10.5269   1.2237   2.2202   5.0189   0.00    0.0
2018/03/16 10:04:13.000   78.246704836   16.083844390   628.4973   5   9   3.4554   1.6699  10.5256   1.2236   2.2200   5.0190   0.00    0.0
2018/03/16 10:04:14.000   78.246705180   16.083859465   628.5672   5   9   3.4557   1.6699  10.5243   1.2235   2.2197   5.0190   0.00    0.0
2018/03/16 10:04:15.000   78.246707146   16.083848678   627.2616   5   9   3.4559   1.6699  10.5230   1.2233   2.2194   5.0191   0.00    0.0
2018/03/16 10:04:16.000   78.246709565   16.083841675   627.6063   5   9   3.4561   1.6699  10.5217   1.2232   2.2191   5.0192   0.00    0.0
2018/03/16 10:04:17.000   78.246712501   16.083837250   629.4574   5   9   3.4563   1.6699  10.5204   1.2231   2.2188   5.0192   0.00    0.0
2018/03/16 10:04:18.000   78.246713955   16.083831604   628.9944   5   9   3.4565   1.6699  10.5191   1.2230   2.2185   5.0193   0.00    0.0
2018/03/16 10:04:19.000   78.246716242   16.083837721   629.6668   5   9   3.4568   1.6698  10.5178   1.2229   2.2182   5.0194   0.00    0.0
2018/03/16 10:04:20.000   78.246713807   16.083832290   628.7570   5   9   3.4570   1.6698  10.5164   1.2227   2.2179   5.0194   0.00    0.0
2018/03/16 10:04:21.000   78.246711025   16.083839445   627.7825   5   9   3.4572   1.6698  10.5151   1.2226   2.2177   5.0195   0.00    0.0
2018/03/16 10:04:22.000   78.246711917   16.083844989   629.0335   5   9   3.4574   1.6698  10.5138   1.2225   2.2174   5.0195   0.00    0.0
2018/03/16 10:04:23.000   78.246710792   16.083849324   628.9462   5   9   3.4576   1.6698  10.5125   1.2224   2.2171   5.0196   0.00    0.0
2018/03/16 10:04:24.000   78.246709220   16.083854173   628.4363   5   9   3.4578   1.6698  10.5111   1.2223   2.2168   5.0196   0.00    0.0
2018/03/16 10:04:25.000   78.246705831   16.083855765   628.1331   5   9   3.4580   1.6698  10.5098   1.2221   2.2165   5.0197   0.00    0.0
2018/03/16 10:04:26.000   78.246704679   16.083844319   629.7098   5   9   3.4583   1.6698  10.5085   1.2220   2.2162   5.0197   0.00    0.0
2018/03/16 10:04:27.000   78.246713636   16.083857445   631.8039   5   9   3.4585   1.6698  10.5071   1.2219   2.2159   5.0198   0.00    0.0
2018/03/16 10:04:28.000   78.246711712   16.083850328   631.7917   5   9   3.4587   1.6697  10.5058   1.2218   2.2156   5.0198   0.00    0.0
2018/03/16 10:04:29.000   78.246708203   16.083860898   631.2123   5   9   3.4589   1.6697  10.5045   1.2217   2.2153   5.0199   0.00    0.0
2018/03/16 10:04:30.000   78.246709308   16.083866971   631.4981   5   9   3.4591   1.6697  10.5031   1.2215   2.2150   5.0199   0.00    0.0
2018/03/16 10:04:31.000   78.246705235   16.083859122   629.7818   5   9   3.4593   1.6697  10.5018   1.2214   2.2147   5.0200   0.00    0.0
2018/03/16 10:04:32.000   78.246704775   16.083864114   629.2615   5   9   3.4595   1.6697  10.5004   1.2213   2.2144   5.0200   0.00    0.0
2018/03/16 10:04:33.000   78.246706883   16.083872426   629.5122   5   9   3.4597   1.6697  10.4991   1.2212   2.2141   5.0200   0.00    0.0
2018/03/16 10:04:34.000   78.246705201   16.083857347   629.1366   5   9   3.4599   1.6697  10.4977   1.2210   2.2138   5.0201   0.00    0.0
2018/03/16 10:04:35.000   78.246708201   16.083852463   628.8852   5   9   3.4601   1.6697  10.4964   1.2209   2.2135   5.0201   0.00    0.0
2018/03/16 10:04:36.000   78.246709981   16.083851196   629.3191   5   9   3.4603   1.6697  10.4950   1.2208   2.2132   5.0201   0.00    0.0
2018/03/16 10:04:37.000   78.246711648   16.083860324   629.5556   5   9   3.4606   1.6696  10.4936   1.2206   2.2128   5.0202   0.00    0.0
2018/03/16 10:04:38.000   78.246713614   16.083853019   631.3220   5   9   3.4608   1.6696  10.4923   1.2205   2.2125   5.0202   0.00    0.0
2018/03/16 10:04:39.000   78.246712480   16.083847512   629.4107   5   9   3.4610   1.6696  10.4909   1.2204   2.2122   5.0202   0.00    0.0
2018/03/16 10:04:40.000   78.246710805   16.083838241   629.8397   5   9   3.4612   1.6696  10.4895   1.2203   2.2119   5.0203   0.00    0.0
2018/03/16 10:04:41.000   78.246713475   16.083851176   629.6756   5   9   3.4614   1.6696  10.4882   1.2201   2.2116   5.0203   0.00    0.0
2018/03/16 10:04:42.000   78.246708751   16.083844596   627.6323   5   9   3.4616   1.6696  10.4868   1.2200   2.2113   5.0203   0.00    0.0
2018/03/16 10:04:43.000   78.246707156   16.083841724   626.1317   5   9   3.4618   1.6696  10.4854   1.2199   2.2110   5.0203   0.00    0.0
2018/03/16 10:04:44.000   78.246703593   16.083847762   626.8909   5   9   3.4620   1.6696  10.4841   1.2197   2.2107   5.0204   0.00    0.0
2018/03/16 10:04:45.000   78.246700907   16.083843222   626.7126   5   9   3.4622   1.6695  10.4827   1.2196   2.2104   5.0204   0.00    0.0
2018/03/16 10:04:46.000   78.246704594   16.083850325   627.6621   5   9   3.4624   1.6695  10.4813   1.2195   2.2100   5.0204   0.00    0.0
2018/03/16 10:04:47.000   78.246703977   16.083847247   627.7843   5   9   3.4626   1.6695  10.4799   1.2193   2.2097   5.0204   0.00    0.0
2018/03/16 10:04:48.000   78.246709377   16.083844722   628.3581   5   9   3.4628   1.6695  10.4785   1.2192   2.2094   5.0204   0.00    0.0
2018/03/16 10:04:49.000   78.246709417   16.083841683   629.0137   5   9   3.4630   1.6695  10.4771   1.2191   2.2091   5.0204   0.00    0.0
2018/03/16 10:04:50.000   78.246710654   16.083843452   630.2983   5   9   3.4632   1.6695  10.4757   1.2189   2.2088   5.0204   0.00    0.0
2018/03/16 10:04:51.000   78.246710491   16.083852670   629.5823   5   9   3.4634   1.6695  10.4743   1.2188   2.2084   5.0204   0.00    0.0
2018/03/16 10:04:52.000   78.246706444   16.083859011   629.0334   5   9   3.4636   1.6695  10.4729   1.2187   2.2081   5.0205   0.00    0.0
2018/03/16 10:04:53.000   78.246709268   16.083855530   629.3564   5   9   3.4638   1.6694  10.4715   1.2185   2.2078   5.0205   0.00    0.0
2018/03/16 10:04:54.000   78.246708660   16.083860076   628.6925   5   9   3.4640   1.6694  10.4701   1.2184   2.2075   5.0205   0.00    0.0
2018/03/16 10:04:55.000   78.246704237   16.083847541   626.8154   5   9   3.4641   1.6694  10.4687   1.2183   2.2071   5.0205   0.00    0.0
2018/03/16 10:04:56.000   78.246705259   16.083839471   626.3780   5   9   3.4643   1.6694  10.4673   1.2181   2.2068   5.0205   0.00    0.0
2018/03/16 10:04:57.000   78.246703313   16.083853261   626.3549   5   9   3.4645   1.6694  10.4659   1.2180   2.2065   5.0205   0.00    0.0
2018/03/16 10:04:58.000   78.246706753   16.083829565   625.2247   5   9   3.4647   1.6694  10.4645   1.2178   2.2062   5.0205   0.00    0.0
2018/03/16 10:04:59.000   78.246705835   16.083825009   625.6053   5   9   3.4649   1.6694  10.4631   1.2177   2.2058   5.0205   0.00    0.0
2018/03/16 10:05:00.000   78.246708588   16.083835925   627.3284   5   9   3.4651   1.6694  10.4617   1.2176   2.2055   5.0205   0.00    0.0
2018/03/16 10:05:01.000   78.246708631   16.083828527   628.0444   5   9   3.4653   1.6693  10.4603   1.2174   2.2052   5.0204   0.00    0.0
2018/03/16 10:05:02.000   78.246709688   16.083842058   628.5866   5   9   3.4655   1.6693  10.4589   1.2173   2.2048   5.0204   0.00    0.0
2018/03/16 10:05:03.000   78.246711807   16.083842282   628.5042   5   9   3.4657   1.6693  10.4574   1.2171   2.2045   5.0204   0.00    0.0
2018/03/16 10:05:04.000   78.246708583   16.083854266   628.6690   5   9   3.4659   1.6693  10.4560   1.2170   2.2042   5.0204   0.00    0.0
2018/03/16 10:05:05.000   78.246706910   16.083848873   628.7316   5   9   3.4661   1.6693  10.4546   1.2169   2.2038   5.0204   0.00    0.0
2018/03/16 10:05:06.000   78.246709052   16.083855708   629.7234   5   9   3.4662   1.6693  10.4531   1.2167   2.2035   5.0204   0.00    0.0
2018/03/16 10:05:07.000   78.246709171   16.083863170   631.7411   5   9   3.4664   1.6693  10.4517   1.2166   2.2032   5.0204   0.00    0.0
2018/03/16 10:05:08.000   78.246706951   16.083861655   630.6186   5   9   3.4666   1.6692  10.4503   1.2164   2.2028   5.0204   0.00    0.0
2018/03/16 10:05:09.000   78.246707612   16.083862527   630.2624   5   9   3.4668   1.6692  10.4488   1.2163   2.2025   5.0203   0.00    0.0
2018/03/16 10:05:10.000   78.246706292   16.083859335   628.8572   5   9   3.4670   1.6692  10.4474   1.2161   2.2021   5.0203   0.00    0.0
2018/03/16 10:05:11.000   78.246702279   16.083865582   628.3111   5   9   3.4672   1.6692  10.4460   1.2160   2.2018   5.0203   0.00    0.0
2018/03/16 10:05:12.000   78.246705897   16.083851672   629.5446   5   9   3.4674   1.6692  10.4445   1.2159   2.2015   5.0203   0.00    0.0
2018/03/16 10:05:13.000   78.246705556   16.083848404   629.4905   5   9   3.4675   1.6692  10.4431   1.2157   2.2011   5.0202   0.00    0.0
2018/03/16 10:05:14.000   78.246706892   16.083841549   628.6573   5   9   3.4677   1.6692  10.4416   1.2156   2.2008   5.0202   0.00    0.0
2018/03/16 10:05:15.000   78.246707794   16.083850120   629.3876   5   9   3.4679   1.6692  10.4402   1.2154   2.2004   5.0202   0.00    0.0
2018/03/16 10:05:16.000   78.246711426   16.083855092   630.5286   5   9   3.4681   1.6691  10.4387   1.2153   2.2001   5.0201   0.00    0.0
2018/03/16 10:05:17.000   78.246710822   16.083860293   628.8517   5   9   3.4683   1.6691  10.4373   1.2151   2.1997   5.0201   0.00    0.0
2018/03/16 10:05:18.000   78.246709309   16.083849085   628.9878   5   9   3.4684   1.6691  10.4358   1.2150   2.1994   5.0201   0.00    0.0
2018/03/16 10:05:19.000   78.246709555   16.083861381   628.1110   5   9   3.4686   1.6691  10.4344   1.2148   2.1990   5.0200   0.00    0.0
2018/03/16 10:05:20.000   78.246704091   16.083861128   627.1807   5   9   3.4688   1.6691  10.4329   1.2147   2.1987   5.0200   0.00    0.0
2018/03/16 10:05:21.000   78.246705037   16.083859904   626.3502   5   9   3.4690   1.6691  10.4314   1.2145   2.1983   5.0200   0.00    0.0
2018/03/16 10:05:22.000   78.246705518   16.083853001   625.7111   5   9   3.4692   1.6691  10.4300   1.2144   2.1980   5.0199   0.00    0.0
2018/03/16 10:05:23.000   78.246706535   16.083847061   627.2409   5   9   3.4693   1.6690  10.4285   1.2142   2.1976   5.0199   0.00    0.0
2018/03/16 10:05:24.000   78.246706458   16.083856006   628.4429   5   9   3.4695   1.6690  10.4270   1.2141   2.1973   5.0198   0.00    0.0
2018/03/16 10:05:25.000   78.246709207   16.083840336   628.0038   5   9   3.4697   1.6690  10.4255   1.2139   2.1969   5.0198   0.00    0.0
2018/03/16 10:05:26.000   78.246710668   16.083840869   629.3759   5   9   3.4699   1.6690  10.4241   1.2138   2.1966   5.0197   0.00    0.0
2018/03/16 10:05:27.000   78.246708577   16.083839678   629.3909   5   9   3.4700   1.6690  10.4226   1.2136   2.1962   5.0197   0.00    0.0
2018/03/16 10:05:28.000   78.246711730   16.083844683   629.1772   5   9   3.4702   1.6690  10.4211   1.2135   2.1958   5.0197   0.00    0.0
2018/03/16 10:05:29.000   78.246710673   16.083843365   629.4799   5   9   3.4704   1.6690  10.4196   1.2133   2.1955   5.0196   0.00    0.0
2018/03/16 10:05:30.000   78.246706160   16.083847214   626.2894   5   9   3.4705   1.6689  10.4181   1.2131   2.1951   5.0195   0.00    0.0
2018/03/16 10:05:31.000   78.246705316   16.083860557   627.2964   5   9   3.4707   1.6689  10.4167   1.2130   2.1948   5.0195   0.00    0.0
2018/03/16 10:05:32.000   78.246707728   16.083869359   627.2435   5   9   3.4709   1.6689  10.4152   1.2128   2.1944   5.0194   0.00    0.0
2018/03/16 10:05:33.000   78.246709699   16.083861981   627.4558   5   9   3.4711   1.6689  10.4137   1.2127   2.1940   5.0194   0.00    0.0
2018/03/16 10:05:34.000   78.246705082   16.083853256   626.5779   5   9   3.4712   1.6689  10.4122   1.2125   2.1937   5.0193   0.00    0.0
2018/03/16 10:05:35.000   78.246709986   16.083848953   629.6953   5   9   3.4714   1.6689  10.4107   1.2124   2.1933   5.0193   0.00    0.0
2018/03/16 10:05:36.000   78.246711324   16.083855660   630.1561   5   9   3.4716   1.6689  10.4092   1.2122   2.1929   5.0192   0.00    0.0
2018/03/16 10:05:37.000   78.246711514   16.083837500   630.4117   5   9   3.4717   1.6688  10.4077   1.2121   2.1926   5.0191   0.00    0.0
2018/03/16 10:05:38.000   78.246707281   16.083843872   630.0899   5   9   3.4719   1.6688  10.4062   1.2119   2.1922   5.0191   0.00    0.0
2018/03/16 10:05:39.000   78.246709773   16.083863849   630.2435   5   9   3.4721   1.6688  10.4047   1.2117   2.1918   5.0190   0.00    0.0
2018/03/16 10:05:40.000   78.246713228   16.083856590   630.0817   5   9   3.4722   1.6688  10.4032   1.2116   2.1915   5.0189   0.00    0.0
2018/03/16 10:05:41.000   78.246707113   16.083864460   628.5779   5   9   3.4724   1.6688  10.4017   1.2114   2.1911   5.0189   0.00    0.0
2018/03/16 10:05:42.000   78.246702066   16.083862709   626.2190   5   9   3.4726   1.6688  10.4002   1.2113   2.1907   5.0188   0.00    0.0
2018/03/16 10:05:43.000   78.246700746   16.083860850   626.2832   5   9   3.4727   1.6688  10.3986   1.2111   2.1904   5.0187   0.00    0.0
2018/03/16 10:05:44.000   78.246708544   16.083868649   629.7125   5   9   3.4729   1.6687  10.3971   1.2109   2.1900   5.0186   0.00    0.0
2018/03/16 10:05:45.000   78.246705296   16.083839876   629.4393   5   9   3.4730   1.6687  10.3956   1.2108   2.1896   5.0186   0.00    0.0
2018/03/16 10:05:46.000   78.246709213   16.083845813   630.5360   5   9   3.4732   1.6687  10.3941   1.2106   2.1892   5.0185   0.00    0.0
2018/03/16 10:05:47.000   78.246711436   16.083838328   630.7304   5   9   3.4734   1.6687  10.3926   1.2104   2.1889   5.0184   0.00    0.0
2018/03/16 10:05:48.000   78.246708014   16.083831831   631.3413   5   9   3.4735   1.6687  10.3910   1.2103   2.1885   5.0183   0.00    0.0
2018/03/16 10:05:49.000   78.246706013   16.083829509   629.0920   5   9   3.4737   1.6687  10.3895   1.2101   2.1881   5.0182   0.00    0.0
2018/03/16 10:05:50.000   78.246700311   16.083844275   627.4529   5   9   3.4738   1.6686  10.3880   1.2100   2.1877   5.0182   0.00    0.0
2018/03/16 10:05:51.000   78.246703638   16.083848414   627.8108   5   9   3.4740   1.6686  10.3865   1.2098   2.1874   5.0181   0.00    0.0
2018/03/16 10:05:52.000   78.246708777   16.083866090   627.6356   5   9   3.4742   1.6686  10.3849   1.2096   2.1870   5.0180   0.00    0.0
2018/03/16 10:05:53.000   78.246704799   16.083869436   626.6619   5   9   3.4743   1.6686  10.3834   1.2095   2.1866   5.0179   0.00    0.0
2018/03/16 10:05:54.000   78.246703738   16.083866042   626.4001   5   9   3.4745   1.6686  10.3819   1.2093   2.1862   5.0178   0.00    0.0
2018/03/16 10:05:55.000   78.246708228   16.083862995   627.5767   5   9   3.4746   1.6686  10.3803   1.2091   2.1858   5.0177   0.00    0.0
2018/03/16 10:05:56.000   78.246708566   16.083847109   628.9764   5   9   3.4748   1.6686  10.3788   1.2090   2.1855   5.0176   0.00    0.0
2018/03/16 10:05:57.000   78.246713486   16.083837002   631.2404   5   9   3.4749   1.6685  10.3772   1.2088   2.1851   5.0175   0.00    0.0
2018/03/16 10:05:58.000   78.246718240   16.083831167   632.5220   5   9   3.4751   1.6685  10.3757   1.2086   2.1847   5.0174   0.00    0.0
2018/03/16 10:05:59.000   78.246710541   16.083830555   629.3412   5   9   3.4753   1.6685  10.3741   1.2085   2.1843   5.0173   0.00    0.0
2018/03/16 10:06:00.000   78.246710183   16.083825777   628.8004   5   9   3.4754   1.6685  10.3726   1.2083   2.1839   5.0172   0.00    0.0
2018/03/16 10:06:01.000   78.246710623   16.083838828   628.8748   5   9   3.4756   1.6685  10.3710   1.2081   2.1835   5.0171   0.00    0.0
2018/03/16 10:06:02.000   78.246706891   16.083848257   628.9039   5   9   3.4757   1.6685  10.3695   1.2079   2.1831   5.0170   0.00    0.0
2018/03/16 10:06:03.000   78.246705881   16.083858255   627.0322   5   9   3.4759   1.6684  10.3679   1.2078   2.1827   5.0169   0.00    0.0
2018/03/16 10:06:04.000   78.246703295   16.083870382   627.8976   5   9   3.4760   1.6684  10.3664   1.2076   2.1823   5.0168   0.00    0.0
2018/03/16 10:06:05.000   78.246701287   16.083860714   624.4524   5   9   3.4762   1.6684  10.3648   1.2074   2.1820   5.0167   0.00    0.0
2018/03/16 10:06:06.000   78.246702643   16.083854848   626.2081   5   9   3.4763   1.6684  10.3632   1.2073   2.1816   5.0166   0.00    0.0
2018/03/16 10:06:07.000   78.246703496   16.083846532   627.8705   5   9   3.4765   1.6684  10.3617   1.2071   2.1812   5.0165   0.00    0.0
2018/03/16 10:06:08.000   78.246710768   16.083850075   629.6526   5   9   3.4766   1.6684  10.3601   1.2069   2.1808   5.0164   0.00    0.0
2018/03/16 10:06:09.000   78.246710971   16.083838996   630.0941   5   9   3.4768   1.6683  10.3585   1.2067   2.1804   5.0163   0.00    0.0
2018/03/16 10:06:10.000   78.246712472   16.083847551   631.6051   5   9   3.4769   1.6683  10.3570   1.2066   2.1800   5.0162   0.00    0.0
2018/03/16 10:06:11.000   78.246712263   16.083849905   631.3195   5   9   3.4770   1.6683  10.3554   1.2064   2.1796   5.0160   0.00    0.0
2018/03/16 10:06:12.000   78.246710009   16.083838749   630.0823   5   9   3.4772   1.6683  10.3538   1.2062   2.1792   5.0159   0.00    0.0
2018/03/16 10:06:13.000   78.246707750   16.083855742   629.1859   5   9   3.4773   1.6683  10.3522   1.2060   2.1788   5.0158   0.00    0.0
2018/03/16 10:06:14.000   78.246710258   16.083857315   630.2072   5   9   3.4775   1.6683  10.3507   1.2059   2.1784   5.0157   0.00    0.0
2018/03/16 10:06:15.000   78.246710883   16.083862879   628.5606   5   9   3.4776   1.6682  10.3491   1.2057   2.1780   5.0156   0.00    0.0
2018/03/16 10:06:16.000   78.246705718   16.083865309   628.3134   5   9   3.4778   1.6682  10.3475   1.2055   2.1776   5.0155   0.00    0.0
2018/03/16 10:06:17.000   78.246704518   16.083866185   626.1647   5   9   3.4779   1.6682  10.3459   1.2053   2.1772   5.0153   0.00    0.0
2018/03/16 10:06:18.000   78.246705066   16.083858953   626.8306   5   9   3.4781   1.6682  10.3443   1.2052   2.1768   5.0152   0.00    0.0
2018/03/16 10:06:19.000   78.246708571   16.083854059   627.0220   5   9   3.4782   1.6682  10.3427   1.2050   2.1764   5.0151   0.00    0.0
2018/03/16 10:06:20.000   78.246712101   16.083848812   628.2972   5   9   3.4783   1.6682  10.3411   1.2048   2.1760   5.0149   0.00    0.0
2018/03/16 10:06:21.000   78.246713269   16.083836224   628.9762   5   9   3.4785   1.6681  10.3395   1.2046   2.1756   5.0148   0.00    0.0
2018/03/16 10:06:22.000   78.246711262   16.083836850   629.6959   5   9   3.4786   1.6681  10.3379   1.2044   2.1752   5.0147   0.00    0.0
2018/03/16 10:06:23.000   78.246709627   16.083839514   629.4101   5   9   3.4787   1.6681  10.3363   1.2043   2.1747   5.0145   0.00    0.0
2018/03/16 10:06:24.000   78.246710199   16.083846117   629.2792   5   9   3.4789   1.6681  10.3347   1.2041   2.1743   5.0144   0.00    0.0
2018/03/16 10:06:25.000   78.246712466   16.083853714   630.4488   5   9   3.4790   1.6681  10.3331   1.2039   2.1739   5.0143   0.00    0.0
2018/03/16 10:06:26.000   78.246704491   16.083854246   629.2918   5   9   3.4792   1.6681  10.3315   1.2037   2.1735   5.0141   0.00    0.0
2018/03/16 10:06:27.000   78.246700646   16.083862932   628.1289   5   9   3.4793   1.6680  10.3299   1.2035   2.1731   5.0140   0.00    0.0
2018/03/16 10:06:28.000   78.246699085   16.083867293   628.2789   5   9   3.4794   1.6680  10.3283   1.2033   2.1727   5.0139   0.00    0.0
2018/03/16 10:06:29.000   78.246701632   16.083867084   628.2135   5   9   3.4796   1.6680  10.3267   1.2032   2.1723   5.0137   0.00    0.0
2018/03/16 10:06:30.000   78.246705784   16.083866238   629.7504   5   9   3.4797   1.6680  10.3251   1.2030   2.1719   5.0136   0.00    0.0
2018/03/16 10:06:31.000   78.246705772   16.083866476   629.6650   5   9   3.4798   1.6680  10.3235   1.2028   2.1715   5.0134   0.00    0.0
2018/03/16 10:06:32.000   78.246710603   16.083858192   631.1126   5   9   3.4800   1.6680  10.3219   1.2026   2.1710   5.0133   0.00    0.0
2018/03/16 10:06:33.000   78.246709720   16.083865592   631.3619   5   9   3.4801   1.6679  10.3202   1.2024   2.1706   5.0131   0.00    0.0
2018/03/16 10:06:34.000   78.246702991   16.083859479   629.0523   5   9   3.4802   1.6679  10.3186   1.2022   2.1702   5.0130   0.00    0.0
2018/03/16 10:06:35.000   78.246703408   16.083860874   629.4625   5   9   3.4804   1.6679  10.3170   1.2021   2.1698   5.0128   0.00    0.0
2018/03/16 10:06:36.000   78.246705845   16.083853303   630.6794   5   9   3.4805   1.6679  10.3154   1.2019   2.1694   5.0127   0.00    0.0
2018/03/16 10:06:37.000   78.246705973   16.083850642   629.0096   5   9   3.4806   1.6679  10.3137   1.2017   2.1689   5.0125   0.00    0.0
2018/03/16 10:06:38.000   78.246712044   16.083874289   631.8278   5   9   3.4808   1.6679  10.3121   1.2015   2.1685   5.0124   0.00    0.0
2018/03/16 10:06:39.000   78.246710904   16.083860657   630.4412   5   9   3.4809   1.6678  10.3105   1.2013   2.1681   5.0122   0.00    0.0
2018/03/16 10:06:40.000   78.246712332   16.083854985   629.2234   5   9   3.4810   1.6678  10.3088   1.2011   2.1677   5.0121   0.00    0.0
2018/03/16 10:06:41.000   78.246714178   16.083854154   630.3357   5   9   3.4811   1.6678  10.3072   1.2009   2.1672   5.0119   0.00    0.0
2018/03/16 10:06:42.000   78.246712279   16.083852683   629.5893   5   9   3.4813   1.6678  10.3056   1.2007   2.1668   5.0117   0.00    0.0
2018/03/16 10:06:43.000   78.246708896   16.083851239   627.7457   5   9   3.4814   1.6678  10.3039   1.2005   2.1664   5.0116   0.00    0.0
2018/03/16 10:06:44.000   78.246708068   16.083846475   627.4032   5   9   3.4815   1.6678  10.3023   1.2004   2.1660   5.0114   0.00    0.0
2018/03/16 10:06:45.000   78.246708498   16.083838181   626.8402   5   9   3.4816   1.6677  10.3007   1.2002   2.1655   5.0112   0.00    0.0
2018/03/16 10:06:46.000   78.246710878   16.083836575   627.8704   5   9   3.4818   1.6677  10.2990   1.2000   2.1651   5.0111   0.00    0.0
2018/03/16 10:06:47.000   78.246708140   16.083824235   626.4809   5   9   3.4819   1.6677  10.2974   1.1998   2.1647   5.0109   0.00    0.0
2018/03/16 10:06:48.000   78.246709054   16.083816030   627.5846   5   9   3.4820   1.6677  10.2957   1.1996   2.1643   5.0107   0.00    0.0
2018/03/16 10:06:49.000   78.246704425   16.083832767   626.2006   5   9   3.4821   1.6677  10.2941   1.1994   2.1638   5.0106   0.00    0.0
2018/03/16 10:06:50.000   78.246706186   16.083841505   627.4382   5   9   3.4823   1.6676  10.2924   1.1992   2.1634   5.0104   0.00    0.0
2018/03/16 10:06:51.000   78.246705319   16.083835863   626.6184   5   9   3.4824   1.6676  10.2908   1.1990   2.1630   5.0102   0.00    0.0
2018/03/16 10:06:52.000   78.246702435   16.083837169   626.3835   5   9   3.4825   1.6676  10.2891   1.1988   2.1625   5.0100   0.00    0.0
2018/03/16 10:06:53.000   78.246703905   16.083847623   627.4358   5   9   3.4826   1.6676  10.2874   1.1986   2.1621   5.0099   0.00    0.0
2018/03/16 10:06:54.000   78.246704004   16.083861360   627.5477   5   9   3.4827   1.6676  10.2858   1.1984   2.1617   5.0097   0.00    0.0
2018/03/16 10:06:55.000   78.246704758   16.083863534   627.9138   5   9   3.4829   1.6676  10.2841   1.1982   2.1612   5.0095   0.00    0.0
2018/03/16 10:06:56.000   78.246706232   16.083877965   628.3893   5   9   3.4830   1.6675  10.2825   1.1980   2.1608   5.0093   0.00    0.0
2018/03/16 10:06:57.000   78.246707372   16.083868960   630.1024   5   9   3.4831   1.6675  10.2808   1.1978   2.1603   5.0091   0.00    0.0
2018/03/16 10:06:58.000   78.246708373   16.083865359   632.1309   5   9   3.4832   1.6675  10.2791   1.1976   2.1599   5.0090   0.00    0.0
2018/03/16 10:06:59.000   78.246708026   16.083852317   629.7358   5   9   3.4833   1.6675  10.2774   1.1974   2.1595   5.0088   0.00    0.0
2018/03/16 10:07:00.000   78.246712215   16.083855355   631.7754   5   9   3.4834   1.6675  10.2758   1.1972   2.1590   5.0086   0.00    0.0
2018/03/16 10:07:01.000   78.246711125   16.083848810   631.2217   5   9   3.4836   1.6675  10.2741   1.1970   2.1586   5.0084   0.00    0.0
2018/03/16 10:07:02.000   78.246705768   16.083858467   630.2531   5   9   3.4837   1.6674  10.2724   1.1968   2.1581   5.0082   0.00    0.0
2018/03/16 10:07:03.000   78.246709325   16.083856173   629.5083   5   9   3.4838   1.6674  10.2707   1.1966   2.1577   5.0080   0.00    0.0
2018/03/16 10:07:04.000   78.246711865   16.083862858   629.4235   5   9   3.4839   1.6674  10.2691   1.1964   2.1573   5.0078   0.00    0.0
2018/03/16 10:07:05.000   78.246708503   16.083860166   628.9470   5   9   3.4840   1.6674  10.2674   1.1962   2.1568   5.0076   0.00    0.0
2018/03/16 10:07:06.000   78.246707332   16.083859872   627.4524   5   9   3.4841   1.6674  10.2657   1.1960   2.1564   5.0074   0.00    0.0
2018/03/16 10:07:07.000   78.246707635   16.083850097   627.0881   5   9   3.4842   1.6673  10.2640   1.1958   2.1559   5.0072   0.00    0.0
2018/03/16 10:07:08.000   78.246712965   16.083852891   629.7508   5   9   3.4843   1.6673  10.2623   1.1956   2.1555   5.0070   0.00    0.0
2018/03/16 10:07:09.000   78.246707628   16.083840004   628.9388   5   9   3.4844   1.6673  10.2606   1.1954   2.1550   5.0068   0.00    0.0
2018/03/16 10:07:10.000   78.246712527   16.083854820   631.2014   5   9   3.4846   1.6673  10.2589   1.1952   2.1546   5.0066   0.00    0.0
2018/03/16 10:07:11.000   78.246710305   16.083834857   630.8001   5   9   3.4847   1.6673  10.2573   1.1950   2.1541   5.0064   0.00    0.0
2018/03/16 10:07:12.000   78.246708758   16.083835986   629.5063   5   9   3.4848   1.6673  10.2556   1.1948   2.1537   5.0062   0.00    0.0
2018/03/16 10:07:13.000   78.246708696   16.083845543   629.5616   5   9   3.4849   1.6672  10.2539   1.1946   2.1532   5.0060   0.00    0.0
2018/03/16 10:07:14.000   78.246706757   16.083841462   628.3520   5   9   3.4850   1.6672  10.2522   1.1944   2.1528   5.0058   0.00    0.0
2018/03/16 10:07:15.000   78.246706261   16.083842005   628.4412   5   9   3.4851   1.6672  10.2505   1.1942   2.1523   5.0056   0.00    0.0
2018/03/16 10:07:16.000   78.246704106   16.083851728   627.0145   5   9   3.4852   1.6672  10.2488   1.1940   2.1519   5.0054   0.00    0.0
2018/03/16 10:07:17.000   78.246702160   16.083855225   625.8102   5   9   3.4853   1.6672  10.2471   1.1938   2.1514   5.0052   0.00    0.0
2018/03/16 10:07:18.000   78.246702914   16.083860916   625.4667   5   9   3.4854   1.6671  10.2454   1.1936   2.1509   5.0050   0.00    0.0
2018/03/16 10:07:19.000   78.246704035   16.083847053   624.7003   5   9   3.4855   1.6671  10.2436   1.1934   2.1505   5.0048   0.00    0.0
2018/03/16 10:07:20.000   78.246709612   16.083841820   627.7026   5   9   3.4856   1.6671  10.2419   1.1932   2.1500   5.0045   0.00    0.0
2018/03/16 10:07:21.000   78.246711075   16.083826583   627.6989   5   9   3.4857   1.6671  10.2402   1.1930   2.1496   5.0043   0.00    0.0
2018/03/16 10:07:22.000   78.246712501   16.083824057   629.0977   5   9   3.4858   1.6671  10.2385   1.1927   2.1491   5.0041   0.00    0.0
2018/03/16 10:07:23.000   78.246713114   16.083842071   630.2470   5   9   3.4859   1.6670  10.2368   1.1925   2.1487   5.0039   0.00    0.0
2018/03/16 10:07:24.000   78.246716845   16.083833935   629.8508   5   9   3.4860   1.6670  10.2351   1.1923   2.1482   5.0037   0.00    0.0
2018/03/16 10:07:25.000   78.246717188   16.083843329   630.5192   5   9   3.4861   1.6670  10.2334   1.1921   2.1477   5.0034   0.00    0.0
2018/03/16 10:07:26.000   78.246711334   16.083850477   629.6768   5   9   3.4862   1.6670  10.2316   1.1919   2.1473   5.0032   0.00    0.0
2018/03/16 10:07:27.000   78.246709187   16.083854120   628.9408   5   9   3.4863   1.6670  10.2299   1.1917   2.1468   5.0030   0.00    0.0
2018/03/16 10:07:28.000   78.246707680   16.083862154   628.9129   5   9   3.4864   1.6670  10.2282   1.1915   2.1463   5.0028   0.00    0.0
2018/03/16 10:07:29.000   78.246705877   16.083864494   628.0151   5   9   3.4865   1.6669  10.2265   1.1913   2.1459   5.0025   0.00    0.0
2018/03/16 10:07:30.000   78.246710264   16.083866806   630.8028   5   9   3.4866   1.6669  10.2247   1.1911   2.1454   5.0023   0.00    0.0
2018/03/16 10:07:31.000   78.246707970   16.083862355   630.0136   5   9   3.4867   1.6669  10.2230   1.1908   2.1449   5.0021   0.00    0.0
2018/03/16 10:07:32.000   78.246710395   16.083858139   631.0675   5   9   3.4868   1.6669  10.2213   1.1906   2.1445   5.0019   0.00    0.0
2018/03/16 10:07:33.000   78.246712356   16.083850088   632.3250   5   9   3.4869   1.6669  10.2195   1.1904   2.1440   5.0016   0.00    0.0
2018/03/16 10:07:34.000   78.246710075   16.083847091   632.1004   5   9   3.4870   1.6668  10.2178   1.1902   2.1435   5.0014   0.00    0.0
2018/03/16 10:07:35.000   78.246713662   16.083849439   632.3227   5   9   3.4871   1.6668  10.2161   1.1900   2.1431   5.0012   0.00    0.0
2018/03/16 10:07:36.000   78.246710454   16.083846261   630.8842   5   9   3.4872   1.6668  10.2143   1.1898   2.1426   5.0009   0.00    0.0
2018/03/16 10:07:37.000   78.246706599   16.083856293   630.8828   5   9   3.4873   1.6668  10.2126   1.1896   2.1421   5.0007   0.00    0.0
2018/03/16 10:07:38.000   78.246705853   16.083852657   628.5343   5   9   3.4874   1.6668  10.2109   1.1893   2.1417   5.0004   0.00    0.0
2018/03/16 10:07:39.000   78.246705863   16.083865753   629.6452   5   9   3.4875   1.6667  10.2091   1.1891   2.1412   5.0002   0.00    0.0
2018/03/16 10:07:40.000   78.246704174   16.083859246   628.4532   5   9   3.4876   1.6667  10.2074   1.1889   2.1407   5.0000   0.00    0.0
2018/03/16 10:07:41.000   78.246709278   16.083860898   628.9389   5   9   3.4876   1.6667  10.2056   1.1887   2.1402   4.9997   0.00    0.0
2018/03/16 10:07:42.000   78.246708252   16.083866147   628.6958   5   9   3.4877   1.6667  10.2039   1.1885   2.1398   4.9995   0.00    0.0
2018/03/16 10:07:43.000   78.246706640   16.083849968   628.4252   5   9   3.4878   1.6667  10.2021   1.1882   2.1393   4.9992   0.00    0.0
2018/03/16 10:07:44.000   78.246706613   16.083845924   629.4268   5   9   3.4879   1.6666  10.2004   1.1880   2.1388   4.9990   0.00    0.0
2018/03/16 10:07:45.000   78.246707014   16.083848761   628.7554   5   9   3.4880   1.6666  10.1986   1.1878   2.1383   4.9987   0.00    0.0
2018/03/16 10:07:46.000   78.246713531   16.083859223   630.3307   5   9   3.4881   1.6666  10.1969   1.1876   2.1378   4.9985   0.00    0.0
2018/03/16 10:07:47.000   78.246712012   16.083839812   628.7880   5   9   3.4882   1.6666  10.1951   1.1874   2.1374   4.9982   0.00    0.0
2018/03/16 10:07:48.000   78.246714110   16.083845805   629.0548   5   9   3.4883   1.6666  10.1933   1.1871   2.1369   4.9980   0.00    0.0
2018/03/16 10:07:49.000   78.246706939   16.083850236   628.1444   5   9   3.4884   1.6665  10.1916   1.1869   2.1364   4.9977   0.00    0.0
2018/03/16 10:07:50.000   78.246710572   16.083846776   628.2265   5   9   3.4884   1.6665  10.1898   1.1867   2.1359   4.9975   0.00    0.0
2018/03/16 10:07:51.000   78.246707850   16.083834525   625.5359   5   9   3.4885   1.6665  10.1880   1.1865   2.1354   4.9972   0.00    0.0
2018/03/16 10:07:52.000   78.246716910   16.083843129   628.7839   5   9   3.4886   1.6665  10.1863   1.1863   2.1350   4.9969   0.00    0.0
2018/03/16 10:07:53.000   78.246707110   16.083840125   625.5793   5   9   3.4887   1.6665  10.1845   1.1860   2.1345   4.9967   0.00    0.0
2018/03/16 10:07:54.000   78.246707150   16.083837929   625.3352   5   9   3.4888   1.6664  10.1827   1.1858   2.1340   4.9964   0.00    0.0
2018/03/16 10:07:55.000   78.246710494   16.083832992   627.6704   5   9   3.4889   1.6664  10.1810   1.1856   2.1335   4.9962   0.00    0.0
2018/03/16 10:07:56.000   78.246707389   16.083835071   628.3388   5   9   3.4889   1.6664  10.1792   1.1854   2.1330   4.9959   0.00    0.0
2018/03/16 10:07:57.000   78.246706583   16.083840022   629.3539   5   9   3.4890   1.6664  10.1774   1.1851   2.1325   4.9956   0.00    0.0
2018/03/16 10:07:58.000   78.246708131   16.083857418   631.3864   5   9   3.4891   1.6664  10.1756   1.1849   2.1320   4.9954   0.00    0.0
2018/03/16 10:07:59.000   78.246707640   16.083857242   632.2945   5   9   3.4892   1.6663  10.1739   1.1847   2.1315   4.9951   0.00    0.0
2018/03/16 10:08:00.000   78.246709903   16.083878462   633.4756   5   9   3.4893   1.6663  10.1721   1.1844   2.1311   4.9948   0.00    0.0
2018/03/16 10:08:01.000   78.246708374   16.083881176   631.8607   5   9   3.4893   1.6663  10.1703   1.1842   2.1306   4.9946   0.00    0.0
2018/03/16 10:08:02.000   78.246707379   16.083880334   632.4949   5   9   3.4894   1.6663  10.1685   1.1840   2.1301   4.9943   0.00    0.0
2018/03/16 10:08:03.000   78.246710787   16.083887100   634.7116   5   9   3.4895   1.6663  10.1667   1.1838   2.1296   4.9940   0.00    0.0
2018/03/16 10:08:04.000   78.246709675   16.083873396   631.5268   5   9   3.4896   1.6663  10.1649   1.1835   2.1291   4.9937   0.00    0.0
2018/03/16 10:08:05.000   78.246711667   16.083873211   632.1641   5   9   3.4896   1.6662  10.1632   1.1833   2.1286   4.9935   0.00    0.0
2018/03/16 10:08:06.000   78.246712886   16.083876053   633.1387   5   9   3.4897   1.6662  10.1614   1.1831   2.1281   4.9932   0.00    0.0
2018/03/16 10:08:07.000   78.246717456   16.083858998   633.8757   5   9   3.4898   1.6662  10.1596   1.1828   2.1276   4.9929   0.00    0.0
2018/03/16 10:08:08.000   78.246716882   16.083856430   633.5913   5   9   3.4899   1.6662  10.1578   1.1826   2.1271   4.9926   0.00    0.0
2018/03/16 10:08:09.000   78.246717624   16.083841123   633.3529   5   9   3.4899   1.6662  10.1560   1.1824   2.1266   4.9923   0.00    0.0
2018/03/16 10:08:10.000   78.246717437   16.083849260   632.9272   5   9   3.4900   1.6661  10.1542   1.1822   2.1261   4.9921   0.00    0.0
2018/03/16 10:08:11.000   78.246712719   16.083852107   631.3028   5   9   3.4901   1.6661  10.1524   1.1819   2.1256   4.9918   0.00    0.0
2018/03/16 10:08:12.000   78.246710364   16.083843780   629.6831   5   9   3.4902   1.6661  10.1506   1.1817   2.1251   4.9915   0.00    0.0
2018/03/16 10:08:13.000   78.246704175   16.083844876   628.1855   5   9   3.4902   1.6661  10.1488   1.1815   2.1246   4.9912   0.00    0.0
2018/03/16 10:08:14.000   78.246700794   16.083852381   625.2870   5   9   3.4903   1.6660  10.1470   1.1812   2.1241   4.9909   0.00    0.0
2018/03/16 10:08:15.000   78.246700853   16.083850070   624.6502   5   9   3.4904   1.6660  10.1452   1.1810   2.1236   4.9906   0.00    0.0
2018/03/16 10:08:16.000   78.246706313   16.083841102   626.0447   5   9   3.4904   1.6660  10.1434   1.1808   2.1231   4.9903   0.00    0.0
2018/03/16 10:08:17.000   78.246708276   16.083832642   626.3739   5   9   3.4905   1.6660  10.1416   1.1805   2.1226   4.9900   0.00    0.0
2018/03/16 10:08:18.000   78.246712988   16.083831953   628.9641   5   9   3.4906   1.6660  10.1398   1.1803   2.1221   4.9898   0.00    0.0
2018/03/16 10:08:19.000   78.246713562   16.083815212   628.7492   5   9   3.4906   1.6659  10.1379   1.1800   2.1216   4.9895   0.00    0.0
2018/03/16 10:08:20.000   78.246714078   16.083828751   629.0821   5   9   3.4907   1.6659  10.1361   1.1798   2.1211   4.9892   0.00    0.0
2018/03/16 10:08:21.000   78.246714002   16.083818858   629.6089   5   9   3.4908   1.6659  10.1343   1.1796   2.1206   4.9889   0.00    0.0
2018/03/16 10:08:22.000   78.246711138   16.083835171   628.3814   5   9   3.4908   1.6659  10.1325   1.1793   2.1201   4.9886   0.00    0.0
2018/03/16 10:08:23.000   78.246708957   16.083843892   628.3905   5   9   3.4909   1.6659  10.1307   1.1791   2.1196   4.9883   0.00    0.0
2018/03/16 10:08:24.000   78.246707061   16.083857318   628.4579   5   9   3.4910   1.6658  10.1289   1.1789   2.1191   4.9880   0.00    0.0
2018/03/16 10:08:25.000   78.246700738   16.083857898   627.9212   5   9   3.4910   1.6658  10.1270   1.1786   2.1185   4.9877   0.00    0.0
2018/03/16 10:08:26.000   78.246699133   16.083858370   626.2812   5   9   3.4911   1.6658  10.1252   1.1784   2.1180   4.9874   0.00    0.0
2018/03/16 10:08:27.000   78.246704980   16.083869839   628.6137   5   9   3.4912   1.6658  10.1234   1.1781   2.1175   4.9871   0.00    0.0
2018/03/16 10:08:28.000   78.246708330   16.083864863   629.9337   5   9   3.4912   1.6658  10.1216   1.1779   2.1170   4.9868   0.00    0.0
2018/03/16 10:08:29.000   78.246713005   16.083853551   630.6905   5   9   3.4913   1.6657  10.1197   1.1777   2.1165   4.9864   0.00    0.0
2018/03/16 10:08:30.000   78.246712843   16.083830531   631.4130   5   9   3.4914   1.6657  10.1179   1.1774   2.1160   4.9861   0.00    0.0
2018/03/16 10:08:31.000   78.246710659   16.083838412   629.8132   5   9   3.4914   1.6657  10.1161   1.1772   2.1155   4.9858   0.00    0.0
2018/03/16 10:08:32.000   78.246711106   16.083838421   629.9119   5   9   3.4915   1.6657  10.1143   1.1769   2.1150   4.9855   0.00    0.0
2018/03/16 10:08:33.000   78.246712649   16.083837070   630.1641   5   9   3.4915   1.6657  10.1124   1.1767   2.1144   4.9852   0.00    0.0
2018/03/16 10:08:34.000   78.246707408   16.083839848   629.3031   5   9   3.4916   1.6656  10.1106   1.1765   2.1139   4.9849   0.00    0.0
2018/03/16 10:08:35.000   78.246706221   16.083847022   628.1552   5   9   3.4917   1.6656  10.1087   1.1762   2.1134   4.9846   0.00    0.0
2018/03/16 10:08:36.000   78.246706507   16.083856715   627.9761   5   9   3.4917   1.6656  10.1069   1.1760   2.1129   4.9843   0.00    0.0
2018/03/16 10:08:37.000   78.246700343   16.083856543   625.3624   5   9   3.4918   1.6656  10.1051   1.1757   2.1124   4.9840   0.00    0.0
2018/03/16 10:08:38.000   78.246699005   16.083849405   624.7292   5   9   3.4918   1.6656  10.1032   1.1755   2.1119   4.9836   0.00    0.0
2018/03/16 10:08:39.000   78.246702809   16.083845820   625.6812   5   9   3.4919   1.6655  10.1014   1.1752   2.1113   4.9833   0.00    0.0
2018/03/16 10:08:40.000   78.246705108   16.083833435   626.1960   5   9   3.4919   1.6655  10.0995   1.1750   2.1108   4.9830   0.00    0.0
2018/03/16 10:08:41.000   78.246711481   16.083836734   629.3608   5   9   3.4920   1.6655  10.0977   1.1747   2.1103   4.9827   0.00    0.0
2018/03/16 10:08:42.000   78.246711028   16.083830617   629.6584   5   9   3.4920   1.6655  10.0958   1.1745   2.1098   4.9823   0.00    0.0
2018/03/16 10:08:43.000   78.246713508   16.083825945   630.5949   5   9   3.4921   1.6655  10.0940   1.1742   2.1092   4.9820   0.00    0.0
2018/03/16 10:08:44.000   78.246716231   16.083846769   631.7912   5   9   3.4922   1.6654  10.0921   1.1740   2.1087   4.9817   0.00    0.0
2018/03/16 10:08:45.000   78.246713917   16.083837605   630.2727   5   9   3.4922   1.6654  10.0903   1.1738   2.1082   4.9814   0.00    0.0
2018/03/16 10:08:46.000   78.246709660   16.083851287   628.2284   5   9   3.4923   1.6654  10.0884   1.1735   2.1077   4.9810   0.00    0.0
2018/03/16 10:08:47.000   78.246710396   16.083863463   629.4720   5   9   3.4923   1.6654  10.0866   1.1733   2.1071   4.9807   0.00    0.0
2018/03/16 10:08:48.000   78.246707330   16.083867209   627.8724   5   9   3.4924   1.6653  10.0847   1.1730   2.1066   4.9804   0.00    0.0
2018/03/16 10:08:49.000   78.246707638   16.083863939   627.3715   5   9   3.4924   1.6653  10.0829   1.1728   2.1061   4.9800   0.00    0.0
2018/03/16 10:08:50.000   78.246702525   16.083856904   627.1559   5   9   3.4925   1.6653  10.0810   1.1725   2.1056   4.9797   0.00    0.0
2018/03/16 10:08:51.000   78.246708210   16.083853483   628.6773   5   9   3.4925   1.6653  10.0792   1.1723   2.1050   4.9794   0.00    0.0
2018/03/16 10:08:52.000   78.246713931   16.083850814   631.4085   5   9   3.4926   1.6653  10.0773   1.1720   2.1045   4.9790   0.00    0.0
2018/03/16 10:08:53.000   78.246713483   16.083846568   631.1012   5   9   3.4926   1.6652  10.0754   1.1718   2.1040   4.9787   0.00    0.0
2018/03/16 10:08:54.000   78.246713380   16.083840810   631.7814   5   9   3.4927   1.6652  10.0736   1.1715   2.1034   4.9784   0.00    0.0
2018/03/16 10:08:55.000   78.246714746   16.083843340   632.8788   5   9   3.4927   1.6652  10.0717   1.1713   2.1029   4.9780   0.00    0.0
2018/03/16 10:08:56.000   78.246710868   16.083841299   631.2866   5   9   3.4928   1.6652  10.0698   1.1710   2.1024   4.9777   0.00    0.0
2018/03/16 10:08:57.000   78.246710180   16.083852992   630.2142   5   9   3.4928   1.6652  10.0680   1.1707   2.1018   4.9774   0.00    0.0
2018/03/16 10:08:58.000   78.246709439   16.083854419   630.5490   5   9   3.4928   1.6651  10.0661   1.1705   2.1013   4.9770   0.00    0.0
2018/03/16 10:08:59.000   78.246708082   16.083865009   629.0572   5   9   3.4929   1.6651  10.0642   1.1702   2.1008   4.9767   0.00    0.0
2018/03/16 10:09:00.000   78.246703085   16.083868902   628.2863   5   9   3.4929   1.6651  10.0623   1.1700   2.1002   4.9763   0.00    0.0
2018/03/16 10:09:01.000   78.246702465   16.083860627   626.2473   5   9   3.4930   1.6651  10.0605   1.1697   2.0997   4.9760   0.00    0.0
2018/03/16 10:09:02.000   78.246708568   16.083854214   628.5529   5   9   3.4930   1.6651  10.0586   1.1695   2.0992   4.9756   0.00    0.0
2018/03/16 10:09:03.000   78.246710070   16.083845620   629.1029   5   9   3.4931   1.6650  10.0567   1.1692   2.0986   4.9753   0.00    0.0
2018/03/16 10:09:04.000   78.246714589   16.083839273   630.5213   5   9   3.4931   1.6650  10.0548   1.1690   2.0981   4.9749   0.00    0.0
2018/03/16 10:09:05.000   78.246713545   16.083831543   629.7760   5   9   3.4931   1.6650  10.0529   1.1687   2.0975   4.9746   0.00    0.0
2018/03/16 10:09:06.000   78.246714358   16.083843402   630.1522   5   9   3.4932   1.6650  10.0511   1.1684   2.0970   4.9742   0.00    0.0
2018/03/16 10:09:07.000   78.246708839   16.083835336   628.0114   5   9   3.4932   1.6649  10.0492   1.1682   2.0965   4.9739   0.00    0.0
2018/03/16 10:09:08.000   78.246708013   16.083842723   627.1356   5   9   3.4933   1.6649  10.0473   1.1679   2.0959   4.9735   0.00    0.0
2018/03/16 10:09:09.000   78.246705889   16.083824574   626.1111   5   9   3.4933   1.6649  10.0454   1.1677   2.0954   4.9732   0.00    0.0
2018/03/16 10:09:10.000   78.246700927   16.083838742   624.0181   5   9   3.4933   1.6649  10.0435   1.1674   2.0948   4.9728   0.00    0.0
2018/03/16 10:09:11.000   78.246700866   16.083844213   624.7392   5   9   3.4934   1.6649  10.0416   1.1672   2.0943   4.9724   0.00    0.0
2018/03/16 10:09:12.000   78.246701985   16.083845580   625.8824   5   9   3.4934   1.6648  10.0397   1.1669   2.0937   4.9721   0.00    0.0
2018/03/16 10:09:13.000   78.246705155   16.083844910   626.9689   5   9   3.4935   1.6648  10.0378   1.1666   2.0932   4.9717   0.00    0.0
2018/03/16 10:09:14.000   78.246708201   16.083840717   628.9699   5   9   3.4935   1.6648  10.0359   1.1664   2.0926   4.9714   0.00    0.0
2018/03/16 10:09:15.000   78.246711218   16.083835716   630.4963   5   9   3.4935   1.6648  10.0340   1.1661   2.0921   4.9710   0.00    0.0
2018/03/16 10:09:16.000   78.246712928   16.083854598   631.3259   5   9   3.4936   1.6648  10.0321   1.1659   2.0916   4.9706   0.00    0.0
2018/03/16 10:09:17.000   78.246713392   16.083865226   632.9568   5   9   3.4936   1.6647  10.0302   1.1656   2.0910   4.9703   0.00    0.0
2018/03/16 10:09:18.000   78.246713238   16.083860397   632.5465   5   9   3.4936   1.6647  10.0283   1.1653   2.0905   4.9699   0.00    0.0
2018/03/16 10:09:19.000   78.246714724   16.083854866   632.1872   5   9   3.4937   1.6647  10.0264   1.1651   2.0899   4.9695   0.00    0.0
2018/03/16 10:09:20.000   78.246711807   16.083863606   631.6970   5   9   3.4937   1.6647  10.0245   1.1648   2.0894   4.9692   0.00    0.0
2018/03/16 10:09:21.000   78.246709354   16.083859385   629.8783   5   9   3.4937   1.6646  10.0226   1.1645   2.0888   4.9688   0.00    0.0
2018/03/16 10:09:22.000   78.246710315   16.083867943   629.4363   5   9   3.4938   1.6646  10.0207   1.1643   2.0882   4.9684   0.00    0.0
2018/03/16 10:09:23.000   78.246706090   16.083865410   627.7054   5   9   3.4938   1.6646  10.0188   1.1640   2.0877   4.9680   0.00    0.0
2018/03/16 10:09:24.000   78.246706037   16.083861266   627.9837   5   9   3.4938   1.6646  10.0169   1.1637   2.0871   4.9677   0.00    0.0
2018/03/16 10:09:25.000   78.246705076   16.083854516   627.0025   5   9   3.4939   1.6646  10.0150   1.1635   2.0866   4.9673   0.00    0.0
2018/03/16 10:09:26.000   78.246707354   16.083839154   627.4410   5   9   3.4939   1.6645  10.0131   1.1632   2.0860   4.9669   0.00    0.0
2018/03/16 10:09:27.000   78.246711024   16.083838225   629.3595   5   9   3.4939   1.6645  10.0112   1.1629   2.0855   4.9665   0.00    0.0
2018/03/16 10:09:28.000   78.246713001   16.083836975   628.6327   5   9   3.4939   1.6645  10.0093   1.1627   2.0849   4.9662   0.00    0.0
2018/03/16 10:09:29.000   78.246708467   16.083833830   627.7881   5   9   3.4940   1.6645  10.0074   1.1624   2.0844   4.9658   0.00    0.0
2018/03/16 10:09:30.000   78.246704817   16.083836645   627.2517   5   9   3.4940   1.6645  10.0054   1.1621   2.0838   4.9654   0.00    0.0
2018/03/16 10:09:31.000   78.246708888   16.083835492   628.6570   5   9   3.4940   1.6644  10.0035   1.1619   2.0832   4.9650   0.00    0.0
2018/03/16 10:09:32.000   78.246707440   16.083842544   627.6680   5   9   3.4941   1.6644  10.0016   1.1616   2.0827   4.9646   0.00    0.0
2018/03/16 10:09:33.000   78.246708190   16.083848380   628.3584   5   9   3.4941   1.6644   9.9997   1.1613   2.0821   4.9643   0.00    0.0
2018/03/16 10:09:34.000   78.246708212   16.083849592   628.0577   5   9   3.4941   1.6644   9.9978   1.1611   2.0816   4.9639   0.00    0.0
2018/03/16 10:09:35.000   78.246706711   16.083850180   627.6658   5   9   3.4941   1.6643   9.9958   1.1608   2.0810   4.9635   0.00    0.0
2018/03/16 10:09:36.000   78.246705433   16.083847353   627.7104   5   9   3.4942   1.6643   9.9939   1.1605   2.0804   4.9631   0.00    0.0
2018/03/16 10:09:37.000   78.246706926   16.083839327   628.0513   5   9   3.4942   1.6643   9.9920   1.1603   2.0799   4.9627   0.00    0.0
2018/03/16 10:09:38.000   78.246707688   16.083852818   628.7045   5   9   3.4942   1.6643   9.9901   1.1600   2.0793   4.9623   0.00    0.0
2018/03/16 10:09:39.000   78.246708661   16.083848496   629.9117   5   9   3.4942   1.6643   9.9881   1.1597   2.0788   4.9619   0.00    0.0
2018/03/16 10:09:40.000   78.246712683   16.083849149   631.4670   5   9   3.4942   1.6642   9.9862   1.1594   2.0782   4.9615   0.00    0.0
