% program   : RTKPOST ver.2.4.2
% inp file  : Z:\home\linda\Documents\Spring18\GitHub_Unis\data\processed_data\46250725.obs
% inp file  : Z:\home\linda\Documents\Spring18\GitHub_Unis\data\base_station_data\lyrs0720.18o
% inp file  : Z:\home\linda\Documents\Spring18\GitHub_Unis\data\processed_data\46250725.nav
% obs start : 2018/03/13 13:24:36.0 GPST (week1992 221076.0s)
% obs end   : 2018/03/13 13:59:19.0 GPST (week1992 223159.0s)
% pos mode  : static
% freqs     : L1+L2
% solution  : forward
% elev mask : 15.0 deg
% dynamics  : on
% tidecorr  : off
% ionos opt : iono-free
% tropo opt : saastamoinen
% ephemeris : broadcast
% navi sys  : gps glonass galileo qzss sbas
% amb res   : fix and hold
% amb glo   : on
% val thres : 3.0
% antenna1  :                       ( 0.0000  0.0000  0.0000)
% antenna2  :                       ( 0.0000  0.0000  0.0000)
% ref pos   : 78.228825638   15.397310064   495.6816
%
% (lat/lon/height=WGS84/ellipsoidal,Q=1:fix,2:float,3:sbas,4:dgps,5:single,6:ppp,ns=# of satellites)
%  GPST                  latitude(deg) longitude(deg)  height(m)   Q  ns   sdn(m)   sde(m)   sdu(m)  sdne(m)  sdeu(m)  sdun(m) age(s)  ratio
2018/03/13 13:24:36.000   78.250515523   16.137571919   622.1709   2   9   1.1184   0.9488   3.6354  -0.2385  -0.6275   1.4267   0.00    1.1
2018/03/13 13:24:37.000   78.250503916   16.137605810   617.8560   2   9   0.7924   0.6717   2.5816  -0.1693  -0.4459   1.0136   0.00    1.0
2018/03/13 13:24:38.000   78.250507137   16.137598242   617.1798   2   9   0.6474   0.5486   2.1101  -0.1384  -0.3646   0.8285   0.00    1.1
2018/03/13 13:24:39.000   78.250512877   16.137580530   618.7656   2   9   0.5607   0.4752   1.8276  -0.1199  -0.3160   0.7176   0.00    1.0
2018/03/13 13:24:40.000   78.250514514   16.137572209   619.2469   2   9   0.5014   0.4251   1.6341  -0.1072  -0.2827   0.6415   0.00    1.0
2018/03/13 13:24:41.000   78.250515589   16.137569689   618.9034   2   9   0.4576   0.3880   1.4906  -0.0977  -0.2580   0.5851   0.00    1.0
2018/03/13 13:24:42.000   78.250517932   16.137568650   618.5923   2   9   0.4235   0.3592   1.3787  -0.0903  -0.2388   0.5410   0.00    1.0
2018/03/13 13:24:43.000   78.250519214   16.137565697   618.5259   2   9   0.3959   0.3360   1.2881  -0.0844  -0.2232   0.5053   0.00    1.1
2018/03/13 13:24:44.000   78.250519964   16.137566494   618.3656   2   9   0.3730   0.3168   1.2126  -0.0794  -0.2103   0.4756   0.00    1.1
2018/03/13 13:24:45.000   78.250520354   16.137568164   617.9806   2   9   0.3536   0.3005   1.1485  -0.0751  -0.1993   0.4502   0.00    1.1
2018/03/13 13:24:46.000   78.250520831   16.137571677   617.8457   2   9   0.3369   0.2865   1.0930  -0.0714  -0.1898   0.4283   0.00    1.1
2018/03/13 13:24:47.000   78.250520203   16.137574450   617.4321   2   9   0.3223   0.2743   1.0444  -0.0682  -0.1815   0.4091   0.00    1.2
2018/03/13 13:24:48.000   78.250520354   16.137576527   617.3402   2   9   0.3093   0.2635   1.0012  -0.0653  -0.1741   0.3919   0.00    1.2
2018/03/13 13:24:49.000   78.250520771   16.137574688   617.2640   2   9   0.2978   0.2538   0.9624  -0.0627  -0.1675   0.3766   0.00    1.2
2018/03/13 13:24:50.000   78.250521466   16.137575127   617.2196   2   9   0.2874   0.2452   0.9274  -0.0603  -0.1615   0.3627   0.00    1.2
2018/03/13 13:24:51.000   78.250521880   16.137579132   617.3641   2   9   0.2779   0.2374   0.8955  -0.0581  -0.1561   0.3500   0.00    1.3
2018/03/13 13:24:52.000   78.250522112   16.137579494   617.5146   2   9   0.2693   0.2302   0.8662  -0.0561  -0.1511   0.3383   0.00    1.3
2018/03/13 13:24:53.000   78.250522141   16.137577826   617.6159   2   9   0.2613   0.2237   0.8392  -0.0543  -0.1465   0.3275   0.00    1.3
2018/03/13 13:24:54.000   78.250521951   16.137578777   617.5223   2   9   0.2540   0.2177   0.8142  -0.0525  -0.1423   0.3175   0.00    1.3
2018/03/13 13:24:55.000   78.250521564   16.137577189   617.6339   2   9   0.2472   0.2121   0.7909  -0.0509  -0.1383   0.3082   0.00    1.3
2018/03/13 13:24:56.000   78.250521489   16.137575128   617.7145   2   9   0.2409   0.2069   0.7691  -0.0494  -0.1346   0.2994   0.00    1.2
2018/03/13 13:24:57.000   78.250521303   16.137573783   617.6638   2   9   0.2350   0.2021   0.7486  -0.0479  -0.1311   0.2912   0.00    1.2
2018/03/13 13:24:58.000   78.250521797   16.137572747   617.7566   2   9   0.2295   0.1976   0.7294  -0.0466  -0.1279   0.2834   0.00    1.2
2018/03/13 13:24:59.000   78.250521950   16.137571452   617.6731   2   9   0.2242   0.1934   0.7112  -0.0453  -0.1248   0.2761   0.00    1.2
2018/03/13 13:25:00.000   78.250521933   16.137571430   617.6564   2   9   0.2193   0.1894   0.6939  -0.0440  -0.1219   0.2691   0.00    1.2
2018/03/13 13:25:01.000   78.250522017   16.137570792   617.6694   2   9   0.2147   0.1857   0.6776  -0.0428  -0.1192   0.2625   0.00    1.2
2018/03/13 13:25:02.000   78.250521975   16.137570980   617.9074   2   9   0.2103   0.1822   0.6620  -0.0417  -0.1165   0.2562   0.00    1.2
2018/03/13 13:25:03.000   78.250521418   16.137574032   617.8258   2   9   0.2061   0.1788   0.6471  -0.0406  -0.1140   0.2502   0.00    1.2
2018/03/13 13:25:04.000   78.250521052   16.137576307   617.8247   2   9   0.2021   0.1756   0.6330  -0.0396  -0.1117   0.2444   0.00    1.2
2018/03/13 13:25:05.000   78.250520591   16.137579094   617.7325   2   9   0.1984   0.1726   0.6194  -0.0385  -0.1094   0.2389   0.00    1.2
2018/03/13 13:25:06.000   78.250520166   16.137580580   617.6202   2   9   0.1947   0.1697   0.6064  -0.0376  -0.1072   0.2336   0.00    1.2
2018/03/13 13:25:07.000   78.250519880   16.137580890   617.5101   2   9   0.1913   0.1670   0.5939  -0.0366  -0.1051   0.2284   0.00    1.2
2018/03/13 13:25:08.000   78.250519534   16.137580844   617.2960   2   9   0.1880   0.1644   0.5818  -0.0357  -0.1031   0.2235   0.00    1.2
2018/03/13 13:25:09.000   78.250519563   16.137579770   617.2262   2   9   0.1848   0.1619   0.5703  -0.0348  -0.1012   0.2188   0.00    1.1
2018/03/13 13:25:10.000   78.250519660   16.137577659   617.2733   2   9   0.1817   0.1595   0.5591  -0.0339  -0.0993   0.2142   0.00    1.1
2018/03/13 13:25:11.000   78.250519981   16.137575539   617.3376   2   9   0.1788   0.1572   0.5484  -0.0330  -0.0975   0.2098   0.00    1.1
2018/03/13 13:25:12.000   78.250520193   16.137574651   617.3066   2   9   0.1760   0.1550   0.5380  -0.0322  -0.0958   0.2055   0.00    1.1
2018/03/13 13:25:13.000   78.250520278   16.137574680   617.3744   2   9   0.1733   0.1528   0.5279  -0.0314  -0.0941   0.2013   0.00    1.1
2018/03/13 13:25:14.000   78.250520168   16.137574611   617.3564   2   9   0.1707   0.1508   0.5182  -0.0306  -0.0925   0.1973   0.00    1.1
2018/03/13 13:25:15.000   78.250520347   16.137575067   617.2769   2   9   0.1681   0.1488   0.5088  -0.0298  -0.0909   0.1934   0.00    1.1
2018/03/13 13:25:16.000   78.250520348   16.137575890   617.1906   2   9   0.1657   0.1469   0.4997  -0.0291  -0.0894   0.1896   0.00    1.1
2018/03/13 13:25:17.000   78.250520316   16.137576995   617.1161   2   9   0.1633   0.1451   0.4908  -0.0283  -0.0880   0.1859   0.00    1.1
2018/03/13 13:25:18.000   78.250520360   16.137576821   617.0823   2   9   0.1610   0.1433   0.4822  -0.0276  -0.0866   0.1824   0.00    1.1
2018/03/13 13:25:19.000   78.250520266   16.137576728   617.0478   2   9   0.1588   0.1416   0.4739  -0.0268  -0.0852   0.1789   0.00    1.1
2018/03/13 13:25:20.000   78.250520175   16.137576710   617.0636   2   9   0.1567   0.1399   0.4658  -0.0261  -0.0838   0.1755   0.00    1.1
2018/03/13 13:25:21.000   78.250520062   16.137577204   617.0058   2   9   0.1546   0.1383   0.4579  -0.0254  -0.0825   0.1722   0.00    1.0
2018/03/13 13:25:22.000   78.250519900   16.137577426   617.0235   2   9   0.1526   0.1367   0.4503  -0.0247  -0.0813   0.1690   0.00    1.0
2018/03/13 13:25:23.000   78.250519581   16.137577361   616.9942   2   9   0.1506   0.1352   0.4428  -0.0240  -0.0801   0.1659   0.00    1.0
2018/03/13 13:25:24.000   78.250519355   16.137577601   616.9908   2   9   0.1487   0.1338   0.4356  -0.0233  -0.0789   0.1629   0.00    1.0
2018/03/13 13:25:25.000   78.250519318   16.137577382   617.0326   2   9   0.1469   0.1323   0.4285  -0.0227  -0.0777   0.1599   0.00    1.0
2018/03/13 13:25:26.000   78.250519261   16.137577015   617.0561   2   9   0.1451   0.1309   0.4216  -0.0220  -0.0766   0.1570   0.00    1.0
2018/03/13 13:25:27.000   78.250519276   16.137576781   617.0416   2   9   0.1433   0.1296   0.4149  -0.0213  -0.0755   0.1542   0.00    1.0
2018/03/13 13:25:28.000   78.250519499   16.137576451   617.0477   2   9   0.1416   0.1283   0.4084  -0.0207  -0.0744   0.1514   0.00    1.0
2018/03/13 13:25:29.000   78.250519632   16.137576584   616.9894   2   9   0.1399   0.1270   0.4020  -0.0200  -0.0734   0.1487   0.00    1.1
2018/03/13 13:25:30.000   78.250519648   16.137576770   616.9394   2   9   0.1383   0.1258   0.3958  -0.0194  -0.0724   0.1461   0.00    1.1
2018/03/13 13:25:31.000   78.250519560   16.137575736   616.9563   2   9   0.1368   0.1246   0.3898  -0.0187  -0.0714   0.1435   0.00    1.1
2018/03/13 13:25:32.000   78.250519436   16.137575216   616.9692   2   9   0.1352   0.1234   0.3838  -0.0181  -0.0704   0.1410   0.00    1.1
2018/03/13 13:25:33.000   78.250519396   16.137575758   616.9851   2   9   0.1337   0.1222   0.3780  -0.0174  -0.0695   0.1386   0.00    1.1
2018/03/13 13:25:34.000   78.250519168   16.137576095   617.0003   2   9   0.1323   0.1211   0.3724  -0.0168  -0.0686   0.1362   0.00    1.1
2018/03/13 13:25:35.000   78.250519104   16.137575773   617.0719   2   9   0.1308   0.1200   0.3669  -0.0161  -0.0677   0.1338   0.00    1.1
2018/03/13 13:25:36.000   78.250519024   16.137575956   617.1126   2   9   0.1294   0.1189   0.3615  -0.0155  -0.0668   0.1315   0.00    1.1
2018/03/13 13:25:37.000   78.250518863   16.137576070   617.1196   2   9   0.1281   0.1179   0.3562  -0.0148  -0.0660   0.1293   0.00    1.1
2018/03/13 13:25:38.000   78.250518851   16.137575490   617.1400   2   9   0.1268   0.1168   0.3511  -0.0141  -0.0651   0.1271   0.00    1.1
2018/03/13 13:25:39.000   78.250519000   16.137575365   617.1452   2   9   0.1255   0.1158   0.3461  -0.0135  -0.0643   0.1249   0.00    1.1
2018/03/13 13:25:40.000   78.250519101   16.137575043   617.1212   2   9   0.1242   0.1149   0.3411  -0.0128  -0.0635   0.1228   0.00    1.1
2018/03/13 13:25:41.000   78.250519353   16.137574459   617.1134   2   9   0.1229   0.1139   0.3363  -0.0121  -0.0628   0.1208   0.00    1.2
2018/03/13 13:25:42.000   78.250519461   16.137574223   617.0862   2   9   0.1217   0.1130   0.3316  -0.0113  -0.0620   0.1187   0.00    1.2
2018/03/13 13:25:43.000   78.250519591   16.137574533   617.0794   2   9   0.1205   0.1120   0.3270  -0.0106  -0.0613   0.1168   0.00    1.2
2018/03/13 13:25:44.000   78.250519647   16.137574498   617.1419   2   9   0.1194   0.1111   0.3225  -0.0098  -0.0606   0.1148   0.00    1.2
2018/03/13 13:25:45.000   78.250519603   16.137574510   617.1961   2   9   0.1182   0.1102   0.3181  -0.0090  -0.0599   0.1129   0.00    1.2
2018/03/13 13:25:46.000   78.250519603   16.137574381   617.2401   2   9   0.1171   0.1094   0.3138  -0.0081  -0.0592   0.1111   0.00    1.2
2018/03/13 13:25:47.000   78.250519440   16.137574292   617.3164   2   9   0.1160   0.1085   0.3096  -0.0072  -0.0585   0.1093   0.00    1.2
2018/03/13 13:25:48.000   78.250519490   16.137573712   617.4012   2   9   0.1149   0.1077   0.3054  -0.0061  -0.0578   0.1075   0.00    1.2
2018/03/13 13:25:49.000   78.250519486   16.137573532   617.4205   2   9   0.1139   0.1069   0.3014  -0.0049  -0.0572   0.1057   0.00    1.2
2018/03/13 13:25:50.000   78.250519550   16.137573710   617.4326   2   9   0.1129   0.1061   0.2974  -0.0033  -0.0566   0.1040   0.00    1.2
2018/03/13 13:25:51.000   78.250519747   16.137573858   617.4488   2   9   0.1119   0.1053   0.2935   0.0014  -0.0560   0.1023   0.00    1.2
2018/03/13 13:25:52.000   78.250519897   16.137573702   617.4463   2   9   0.1109   0.1045   0.2897   0.0038  -0.0554   0.1007   0.00    1.2
2018/03/13 13:25:53.000   78.250519901   16.137573809   617.4634   2   9   0.1099   0.1037   0.2860   0.0051  -0.0548   0.0991   0.00    1.2
2018/03/13 13:25:54.000   78.250520001   16.137574581   617.4787   2   9   0.1089   0.1030   0.2823   0.0061  -0.0542   0.0975   0.00    1.2
2018/03/13 13:25:55.000   78.250520062   16.137574878   617.4803   2   9   0.1080   0.1023   0.2787   0.0070  -0.0536   0.0959   0.00    1.2
2018/03/13 13:25:56.000   78.250520182   16.137575075   617.4703   2   9   0.1071   0.1015   0.2752   0.0077  -0.0531   0.0944   0.00    1.2
2018/03/13 13:25:57.000   78.250520448   16.137575604   617.4865   2   9   0.1062   0.1008   0.2718   0.0084  -0.0526   0.0929   0.00    1.2
2018/03/13 13:25:58.000   78.250520714   16.137575635   617.4548   2   9   0.1053   0.1001   0.2684   0.0090  -0.0520   0.0914   0.00    1.2
2018/03/13 13:25:59.000   78.250520897   16.137575265   617.4344   2   9   0.1044   0.0994   0.2651   0.0095  -0.0515   0.0900   0.00    1.2
2018/03/13 13:26:00.000   78.250521103   16.137575382   617.4286   2   9   0.1036   0.0988   0.2618   0.0100  -0.0510   0.0886   0.00    1.2
2018/03/13 13:26:01.000   78.250521148   16.137575137   617.4746   2   9   0.1027   0.0981   0.2587   0.0104  -0.0505   0.0872   0.00    1.3
2018/03/13 13:26:02.000   78.250521073   16.137575623   617.5396   2   9   0.1019   0.0974   0.2555   0.0109  -0.0500   0.0858   0.00    1.3
2018/03/13 13:26:03.000   78.250520842   16.137576614   617.5849   2   9   0.1011   0.0968   0.2525   0.0113  -0.0496   0.0845   0.00    1.3
2018/03/13 13:26:04.000   78.250520702   16.137577155   617.6151   2   9   0.1003   0.0962   0.2495   0.0116  -0.0491   0.0832   0.00    1.3
2018/03/13 13:26:05.000   78.250520614   16.137577604   617.6644   2   9   0.0995   0.0955   0.2465   0.0120  -0.0486   0.0819   0.00    1.3
2018/03/13 13:26:06.000   78.250520470   16.137577930   617.6723   2   9   0.0988   0.0949   0.2436   0.0123  -0.0482   0.0806   0.00    1.3
2018/03/13 13:26:07.000   78.250520395   16.137578289   617.6829   2   9   0.0980   0.0943   0.2408   0.0126  -0.0477   0.0794   0.00    1.3
2018/03/13 13:26:08.000   78.250520530   16.137577945   617.6733   2   9   0.0973   0.0937   0.2380   0.0129  -0.0473   0.0781   0.00    1.3
2018/03/13 13:26:09.000   78.250520651   16.137577783   617.6520   2   9   0.0965   0.0931   0.2353   0.0132  -0.0469   0.0769   0.00    1.3
2018/03/13 13:26:10.000   78.250520810   16.137577307   617.6501   2   9   0.0958   0.0925   0.2326   0.0135  -0.0465   0.0757   0.00    1.3
2018/03/13 13:26:11.000   78.250520918   16.137577251   617.6308   2   9   0.0951   0.0920   0.2299   0.0137  -0.0461   0.0746   0.00    1.3
2018/03/13 13:26:12.000   78.250520868   16.137577249   617.6594   2   9   0.0944   0.0914   0.2273   0.0140  -0.0457   0.0734   0.00    1.3
2018/03/13 13:26:13.000   78.250520805   16.137577951   617.6624   2   9   0.0937   0.0908   0.2248   0.0142  -0.0453   0.0723   0.00    1.3
2018/03/13 13:26:14.000   78.250520704   16.137578528   617.6767   2   9   0.0930   0.0903   0.2223   0.0144  -0.0449   0.0712   0.00    1.3
2018/03/13 13:26:15.000   78.250520739   16.137578868   617.7009   2   9   0.0924   0.0898   0.2198   0.0146  -0.0446   0.0701   0.00    1.3
2018/03/13 13:26:16.000   78.250520722   16.137578985   617.7120   2   9   0.0917   0.0892   0.2174   0.0148  -0.0442   0.0691   0.00    1.3
2018/03/13 13:26:17.000   78.250520708   16.137578814   617.7168   2   9   0.0911   0.0887   0.2151   0.0150  -0.0438   0.0680   0.00    1.3
2018/03/13 13:26:18.000   78.250520907   16.137578155   617.7115   2   9   0.0904   0.0882   0.2127   0.0152  -0.0435   0.0670   0.00    1.4
2018/03/13 13:26:19.000   78.250521096   16.137577851   617.6864   2   9   0.0898   0.0877   0.2105   0.0154  -0.0431   0.0660   0.00    1.4
2018/03/13 13:26:20.000   78.250521135   16.137578202   617.6771   2   9   0.0892   0.0871   0.2082   0.0155  -0.0428   0.0650   0.00    1.4
2018/03/13 13:26:21.000   78.250521208   16.137578586   617.6959   2   9   0.0886   0.0866   0.2060   0.0157  -0.0425   0.0640   0.00    1.4
2018/03/13 13:26:22.000   78.250521184   16.137579119   617.7115   2   9   0.0880   0.0862   0.2038   0.0158  -0.0421   0.0631   0.00    1.4
2018/03/13 13:26:23.000   78.250521065   16.137579542   617.7315   2   9   0.0874   0.0857   0.2017   0.0160  -0.0418   0.0621   0.00    1.4
2018/03/13 13:26:24.000   78.250520920   16.137579836   617.7542   2   9   0.0868   0.0852   0.1996   0.0161  -0.0415   0.0612   0.00    1.4
2018/03/13 13:26:25.000   78.250520837   16.137580228   617.7678   2   9   0.0862   0.0847   0.1975   0.0163  -0.0412   0.0603   0.00    1.4
2018/03/13 13:26:26.000   78.250520766   16.137580564   617.7693   2   9   0.0857   0.0842   0.1955   0.0164  -0.0409   0.0594   0.00    1.4
2018/03/13 13:26:27.000   78.250520802   16.137580346   617.7717   2   9   0.0851   0.0838   0.1935   0.0165  -0.0406   0.0585   0.00    1.4
2018/03/13 13:26:28.000   78.250520988   16.137579665   617.7519   2   9   0.0846   0.0833   0.1916   0.0167  -0.0403   0.0576   0.00    1.4
2018/03/13 13:26:29.000   78.250521197   16.137579058   617.7587   2   9   0.0840   0.0829   0.1896   0.0168  -0.0400   0.0567   0.00    1.4
2018/03/13 13:26:30.000   78.250521283   16.137579030   617.7673   2   9   0.0835   0.0824   0.1878   0.0169  -0.0397   0.0559   0.00    1.4
2018/03/13 13:26:31.000   78.250521339   16.137579189   617.7830   2   9   0.0830   0.0820   0.1859   0.0170  -0.0395   0.0551   0.00    1.4
2018/03/13 13:26:32.000   78.250521310   16.137579132   617.8000   2   9   0.0824   0.0815   0.1841   0.0171  -0.0392   0.0542   0.00    1.4
2018/03/13 13:26:33.000   78.250521178   16.137579660   617.8127   2   9   0.0819   0.0811   0.1823   0.0172  -0.0389   0.0534   0.00    1.4
2018/03/13 13:26:34.000   78.250521046   16.137579572   617.8298   2   9   0.0814   0.0807   0.1805   0.0173  -0.0387   0.0526   0.00    1.4
2018/03/13 13:26:35.000   78.250520970   16.137579890   617.8270   2   9   0.0809   0.0802   0.1787   0.0174  -0.0384   0.0519   0.00    1.4
2018/03/13 13:26:36.000   78.250520913   16.137579669   617.8246   2   9   0.0804   0.0798   0.1770   0.0175  -0.0381   0.0511   0.00    1.4
2018/03/13 13:26:37.000   78.250520968   16.137579468   617.8033   2   9   0.0799   0.0794   0.1753   0.0176  -0.0379   0.0503   0.00    1.4
2018/03/13 13:26:38.000   78.250521027   16.137578960   617.8159   2   9   0.0795   0.0790   0.1737   0.0177  -0.0377   0.0496   0.00    1.4
2018/03/13 13:26:39.000   78.250521141   16.137578751   617.8226   2   9   0.0790   0.0786   0.1720   0.0177  -0.0374   0.0488   0.00    1.4
2018/03/13 13:26:40.000   78.250521086   16.137578883   617.8339   2   9   0.0785   0.0782   0.1704   0.0178  -0.0372   0.0481   0.00    1.4
2018/03/13 13:26:41.000   78.250521106   16.137578796   617.8544   2   9   0.0780   0.0778   0.1688   0.0179  -0.0369   0.0474   0.00    1.4
2018/03/13 13:26:42.000   78.250521137   16.137578635   617.8501   2   9   0.0776   0.0774   0.1673   0.0180  -0.0367   0.0467   0.00    1.4
2018/03/13 13:26:43.000   78.250521093   16.137578775   617.8616   2   9   0.0771   0.0770   0.1657   0.0180  -0.0365   0.0460   0.00    1.4
2018/03/13 13:26:44.000   78.250521189   16.137579153   617.8512   2   9   0.0767   0.0766   0.1642   0.0181  -0.0363   0.0453   0.00    1.4
2018/03/13 13:26:45.000   78.250521304   16.137579432   617.8454   2   9   0.0762   0.0763   0.1627   0.0181  -0.0361   0.0446   0.00    1.4
2018/03/13 13:26:46.000   78.250521338   16.137579740   617.8221   2   9   0.0758   0.0759   0.1613   0.0182  -0.0358   0.0440   0.00    1.4
2018/03/13 13:26:47.000   78.250521356   16.137579351   617.8241   2   9   0.0754   0.0755   0.1598   0.0183  -0.0356   0.0433   0.00    1.4
2018/03/13 13:26:48.000   78.250521406   16.137578984   617.8286   2   9   0.0749   0.0752   0.1584   0.0183  -0.0354   0.0427   0.00    1.4
2018/03/13 13:26:49.000   78.250521352   16.137578758   617.8497   2   9   0.0745   0.0748   0.1570   0.0184  -0.0352   0.0420   0.00    1.4
2018/03/13 13:26:50.000   78.250521302   16.137579197   617.8617   2   9   0.0741   0.0744   0.1556   0.0184  -0.0350   0.0414   0.00    1.4
2018/03/13 13:26:51.000   78.250521298   16.137579261   617.8881   2   9   0.0737   0.0741   0.1542   0.0185  -0.0348   0.0408   0.00    1.3
2018/03/13 13:26:52.000   78.250521246   16.137579010   617.8880   2   9   0.0733   0.0737   0.1529   0.0185  -0.0346   0.0402   0.00    1.3
2018/03/13 13:26:53.000   78.250521200   16.137579182   617.8924   2   9   0.0729   0.0734   0.1516   0.0186  -0.0344   0.0396   0.00    1.3
2018/03/13 13:26:54.000   78.250521195   16.137579511   617.8936   2   9   0.0725   0.0730   0.1503   0.0186  -0.0342   0.0390   0.00    1.3
2018/03/13 13:26:55.000   78.250521195   16.137579341   617.9097   2   9   0.0721   0.0727   0.1490   0.0186  -0.0341   0.0384   0.00    1.3
2018/03/13 13:26:56.000   78.250521192   16.137579327   617.9197   2   9   0.0717   0.0723   0.1477   0.0187  -0.0339   0.0378   0.00    1.3
2018/03/13 13:26:57.000   78.250521220   16.137579276   617.9266   2   9   0.0713   0.0720   0.1465   0.0187  -0.0337   0.0372   0.00    1.3
2018/03/13 13:26:58.000   78.250521285   16.137578977   617.9410   2   9   0.0709   0.0717   0.1452   0.0188  -0.0335   0.0367   0.00    1.3
2018/03/13 13:26:59.000   78.250521250   16.137578797   617.9510   2   9   0.0706   0.0713   0.1440   0.0188  -0.0333   0.0361   0.00    1.3
2018/03/13 13:27:00.000   78.250521161   16.137578754   617.9613   2   9   0.0702   0.0710   0.1428   0.0188  -0.0332   0.0355   0.00    1.3
2018/03/13 13:27:01.000   78.250521180   16.137578710   617.9741   2   9   0.0698   0.0707   0.1417   0.0189  -0.0330   0.0350   0.00    1.3
2018/03/13 13:27:02.000   78.250521122   16.137578873   617.9856   2   9   0.0695   0.0704   0.1405   0.0189  -0.0328   0.0345   0.00    1.3
2018/03/13 13:27:03.000   78.250521118   16.137578998   618.0023   2   9   0.0691   0.0701   0.1394   0.0189  -0.0327   0.0339   0.00    1.3
2018/03/13 13:27:04.000   78.250521053   16.137579301   618.0202   2   9   0.0687   0.0697   0.1382   0.0189  -0.0325   0.0334   0.00    1.3
2018/03/13 13:27:05.000   78.250521020   16.137579426   618.0315   2   9   0.0684   0.0694   0.1371   0.0190  -0.0323   0.0329   0.00    1.3
2018/03/13 13:27:06.000   78.250521002   16.137579321   618.0344   2   9   0.0680   0.0691   0.1360   0.0190  -0.0322   0.0324   0.00    1.3
2018/03/13 13:27:07.000   78.250520997   16.137579610   618.0435   2   9   0.0677   0.0688   0.1349   0.0190  -0.0320   0.0319   0.00    1.3
2018/03/13 13:27:08.000   78.250521053   16.137579909   618.0449   2   9   0.0674   0.0685   0.1339   0.0190  -0.0319   0.0314   0.00    1.3
2018/03/13 13:27:09.000   78.250521089   16.137579837   618.0513   2   9   0.0670   0.0682   0.1328   0.0191  -0.0317   0.0309   0.00    1.3
2018/03/13 13:27:10.000   78.250521121   16.137579788   618.0492   2   9   0.0667   0.0679   0.1318   0.0191  -0.0316   0.0304   0.00    1.3
2018/03/13 13:27:11.000   78.250521130   16.137579787   618.0486   2   9   0.0663   0.0676   0.1308   0.0191  -0.0314   0.0299   0.00    1.3
2018/03/13 13:27:12.000   78.250521146   16.137579579   618.0427   2   9   0.0660   0.0673   0.1297   0.0191  -0.0313   0.0294   0.00    1.3
2018/03/13 13:27:13.000   78.250521097   16.137579377   618.0381   2   9   0.0657   0.0670   0.1287   0.0191  -0.0311   0.0290   0.00    1.3
2018/03/13 13:27:14.000   78.250521079   16.137579289   618.0342   2   9   0.0654   0.0668   0.1278   0.0191  -0.0310   0.0285   0.00    1.3
2018/03/13 13:27:15.000   78.250521066   16.137579374   618.0275   2   9   0.0651   0.0665   0.1268   0.0191  -0.0309   0.0280   0.00    1.2
2018/03/13 13:27:16.000   78.250521099   16.137579472   618.0294   2   9   0.0647   0.0662   0.1258   0.0192  -0.0307   0.0276   0.00    1.2
2018/03/13 13:27:17.000   78.250521139   16.137579193   618.0521   2   9   0.0644   0.0659   0.1249   0.0192  -0.0306   0.0271   0.00    1.2
2018/03/13 13:27:18.000   78.250521192   16.137579209   618.0515   2   9   0.0641   0.0656   0.1241   0.0192  -0.0304   0.0268   0.00    1.1
2018/03/13 13:27:19.000   78.250521180   16.137579066   618.0579   2   9   0.0638   0.0654   0.1234   0.0192  -0.0303   0.0264   0.00    1.2
2018/03/13 13:27:20.000   78.250521174   16.137578993   618.0618   2   9   0.0635   0.0651   0.1226   0.0192  -0.0301   0.0260   0.00    1.2
2018/03/13 13:27:21.000   78.250521123   16.137578911   618.0692   2   9   0.0632   0.0648   0.1219   0.0192  -0.0299   0.0256   0.00    1.2
2018/03/13 13:27:22.000   78.250521097   16.137578744   618.0737   2   9   0.0629   0.0646   0.1211   0.0192  -0.0298   0.0253   0.00    1.2
2018/03/13 13:27:23.000   78.250521096   16.137578685   618.0805   2   9   0.0626   0.0643   0.1204   0.0192  -0.0296   0.0249   0.00    1.1
2018/03/13 13:27:24.000   78.250521077   16.137578536   618.0851   2   9   0.0623   0.0640   0.1196   0.0192  -0.0295   0.0246   0.00    1.1
2018/03/13 13:27:25.000   78.250521065   16.137578460   618.0979   2   9   0.0621   0.0638   0.1189   0.0192  -0.0293   0.0242   0.00    1.1
2018/03/13 13:27:26.000   78.250521066   16.137578591   618.1050   2   9   0.0618   0.0635   0.1182   0.0193  -0.0292   0.0238   0.00    1.1
2018/03/13 13:27:27.000   78.250521077   16.137578672   618.1128   2   9   0.0615   0.0633   0.1175   0.0193  -0.0290   0.0235   0.00    1.1
2018/03/13 13:27:28.000   78.250521059   16.137578693   618.1234   2   9   0.0612   0.0630   0.1168   0.0193  -0.0289   0.0231   0.00    1.1
2018/03/13 13:27:29.000   78.250521071   16.137578737   618.1294   2   9   0.0609   0.0628   0.1161   0.0193  -0.0288   0.0228   0.00    1.1
2018/03/13 13:27:30.000   78.250521084   16.137578659   618.1472   2   9   0.0607   0.0625   0.1154   0.0193  -0.0286   0.0224   0.00    1.1
2018/03/13 13:27:31.000   78.250521105   16.137578557   618.1601   2   9   0.0604   0.0623   0.1147   0.0193  -0.0285   0.0221   0.00    1.1
2018/03/13 13:27:32.000   78.250521104   16.137578310   618.1760   2   9   0.0601   0.0620   0.1141   0.0193  -0.0284   0.0218   0.00    1.1
2018/03/13 13:27:33.000   78.250521143   16.137578133   618.1856   2   9   0.0598   0.0618   0.1134   0.0193  -0.0282   0.0214   0.00    1.1
2018/03/13 13:27:34.000   78.250521191   16.137578098   618.1893   2   9   0.0596   0.0615   0.1127   0.0193  -0.0281   0.0211   0.00    1.1
2018/03/13 13:27:35.000   78.250521241   16.137577994   618.1979   2   9   0.0593   0.0613   0.1121   0.0193  -0.0280   0.0208   0.00    1.1
2018/03/13 13:27:36.000   78.250521295   16.137577942   618.2013   2   9   0.0591   0.0610   0.1114   0.0193  -0.0278   0.0204   0.00    1.1
2018/03/13 13:27:37.000   78.250521379   16.137578056   618.2055   2   9   0.0588   0.0608   0.1108   0.0193  -0.0277   0.0201   0.00    1.1
2018/03/13 13:27:38.000   78.250521403   16.137578123   618.2226   2   9   0.0585   0.0606   0.1101   0.0193  -0.0276   0.0198   0.00    1.1
2018/03/13 13:27:39.000   78.250521425   16.137578069   618.2443   2   9   0.0583   0.0603   0.1095   0.0192  -0.0274   0.0194   0.00    1.1
2018/03/13 13:27:40.000   78.250521415   16.137577936   618.2600   2   9   0.0580   0.0601   0.1089   0.0192  -0.0273   0.0191   0.00    1.1
2018/03/13 13:27:41.000   78.250521415   16.137577833   618.2779   2   9   0.0578   0.0599   0.1083   0.0192  -0.0272   0.0188   0.00    1.1
2018/03/13 13:27:42.000   78.250521377   16.137577847   618.2969   2   9   0.0575   0.0597   0.1076   0.0192  -0.0271   0.0185   0.00    1.1
2018/03/13 13:27:43.000   78.250521306   16.137577801   618.3082   2   8   0.0573   0.0594   0.1072   0.0192  -0.0270   0.0185   0.00    1.0
2018/03/13 13:27:44.000   78.250521253   16.137578103   618.3298   2   8   0.0571   0.0592   0.1067   0.0191  -0.0269   0.0184   0.00    1.0
2018/03/13 13:27:45.000   78.250521123   16.137578477   618.3488   2   8   0.0569   0.0590   0.1063   0.0191  -0.0268   0.0184   0.00    1.0
2018/03/13 13:27:46.000   78.250520980   16.137578810   618.3639   2   8   0.0567   0.0588   0.1058   0.0191  -0.0266   0.0184   0.00    1.2
2018/03/13 13:27:47.000   78.250520921   16.137579047   618.3663   2   8   0.0565   0.0586   0.1054   0.0190  -0.0265   0.0184   0.00    1.2
2018/03/13 13:27:48.000   78.250520977   16.137578857   618.3603   2   9   0.0563   0.0584   0.1049   0.0190  -0.0264   0.0183   0.00    1.1
2018/03/13 13:27:49.000   78.250521001   16.137578968   618.3551   2   9   0.0561   0.0582   0.1045   0.0190  -0.0263   0.0183   0.00    1.2
2018/03/13 13:27:50.000   78.250520978   16.137578912   618.3558   2   9   0.0559   0.0580   0.1040   0.0190  -0.0262   0.0183   0.00    1.2
2018/03/13 13:27:51.000   78.250520934   16.137579055   618.3557   2   9   0.0557   0.0578   0.1036   0.0190  -0.0261   0.0182   0.00    1.2
2018/03/13 13:27:52.000   78.250520891   16.137579059   618.3586   2   9   0.0555   0.0575   0.1032   0.0190  -0.0260   0.0182   0.00    1.2
2018/03/13 13:27:53.000   78.250520871   16.137578975   618.3642   2   9   0.0553   0.0573   0.1027   0.0190  -0.0258   0.0181   0.00    1.2
2018/03/13 13:27:54.000   78.250520847   16.137578923   618.3668   2   9   0.0551   0.0571   0.1023   0.0190  -0.0257   0.0181   0.00    1.2
2018/03/13 13:27:55.000   78.250520803   16.137578999   618.3678   2   9   0.0549   0.0569   0.1019   0.0190  -0.0256   0.0181   0.00    1.2
2018/03/13 13:27:56.000   78.250520781   16.137578973   618.3638   2   9   0.0547   0.0567   0.1014   0.0190  -0.0255   0.0180   0.00    1.2
2018/03/13 13:27:57.000   78.250520766   16.137578914   618.3592   2   9   0.0545   0.0565   0.1010   0.0189  -0.0254   0.0180   0.00    1.2
2018/03/13 13:27:58.000   78.250520749   16.137578780   618.3540   2   9   0.0543   0.0563   0.1006   0.0189  -0.0253   0.0179   0.00    1.2
2018/03/13 13:27:59.000   78.250520745   16.137578869   618.3491   2   9   0.0541   0.0561   0.1001   0.0189  -0.0252   0.0179   0.00    1.1
2018/03/13 13:28:00.000   78.250520738   16.137578909   618.3361   2   9   0.0539   0.0559   0.0997   0.0189  -0.0251   0.0178   0.00    1.1
2018/03/13 13:28:01.000   78.250520753   16.137578934   618.3208   2   9   0.0538   0.0557   0.0993   0.0189  -0.0250   0.0178   0.00    1.1
2018/03/13 13:28:02.000   78.250520752   16.137579003   618.3102   2   9   0.0536   0.0555   0.0989   0.0189  -0.0249   0.0177   0.00    1.1
2018/03/13 13:28:03.000   78.250520786   16.137579158   618.3053   2   9   0.0534   0.0553   0.0985   0.0189  -0.0248   0.0177   0.00    1.0
2018/03/13 13:28:04.000   78.250520799   16.137579141   618.3010   2   9   0.0532   0.0551   0.0981   0.0189  -0.0247   0.0176   0.00    1.0
2018/03/13 13:28:05.000   78.250520810   16.137579037   618.2969   2   9   0.0530   0.0549   0.0977   0.0189  -0.0246   0.0176   0.00    1.0
2018/03/13 13:28:06.000   78.250520841   16.137579048   618.2921   2   9   0.0528   0.0548   0.0972   0.0189  -0.0245   0.0175   0.00    1.0
2018/03/13 13:28:07.000   78.250520816   16.137578987   618.2944   2   9   0.0526   0.0546   0.0968   0.0188  -0.0244   0.0175   0.00    1.1
2018/03/13 13:28:08.000   78.250520776   16.137579041   618.2944   2   9   0.0525   0.0544   0.0964   0.0188  -0.0243   0.0174   0.00    1.1
2018/03/13 13:28:09.000   78.250520722   16.137578987   618.2932   2   9   0.0523   0.0542   0.0960   0.0188  -0.0242   0.0174   0.00    1.1
2018/03/13 13:28:10.000   78.250520669   16.137578948   618.2919   2   9   0.0521   0.0540   0.0956   0.0188  -0.0241   0.0173   0.00    1.1
2018/03/13 13:28:11.000   78.250520648   16.137579179   618.2867   2   9   0.0519   0.0538   0.0952   0.0188  -0.0240   0.0173   0.00    1.1
2018/03/13 13:28:12.000   78.250520656   16.137579457   618.2798   2   9   0.0517   0.0536   0.0948   0.0188  -0.0239   0.0172   0.00    1.1
2018/03/13 13:28:13.000   78.250520640   16.137579471   618.2739   2   9   0.0516   0.0535   0.0944   0.0188  -0.0238   0.0172   0.00    1.1
2018/03/13 13:28:14.000   78.250520671   16.137579396   618.2596   2   9   0.0514   0.0533   0.0940   0.0187  -0.0237   0.0171   0.00    1.1
2018/03/13 13:28:15.000   78.250520698   16.137579420   618.2422   2   9   0.0512   0.0531   0.0937   0.0187  -0.0236   0.0170   0.00    1.1
2018/03/13 13:28:16.000   78.250520728   16.137579453   618.2328   2   9   0.0510   0.0529   0.0933   0.0187  -0.0235   0.0170   0.00    1.1
2018/03/13 13:28:17.000   78.250520778   16.137579204   618.2006   2   7   0.0509   0.0528   0.0930   0.0187  -0.0235   0.0169   0.00    1.0
2018/03/13 13:28:18.000   78.250520786   16.137578952   618.1856   2   9   0.0507   0.0527   0.0927   0.0187  -0.0234   0.0168   0.00    1.0
2018/03/13 13:28:19.000   78.250520758   16.137578740   618.1808   2   9   0.0506   0.0525   0.0924   0.0186  -0.0234   0.0167   0.00    1.0
2018/03/13 13:28:20.000   78.250520762   16.137578782   618.1740   2   9   0.0504   0.0524   0.0921   0.0186  -0.0233   0.0167   0.00    1.0
2018/03/13 13:28:21.000   78.250520774   16.137578665   618.1643   2   9   0.0502   0.0523   0.0918   0.0185  -0.0233   0.0166   0.00    1.0
2018/03/13 13:28:22.000   78.250520817   16.137578489   618.1515   2   9   0.0501   0.0521   0.0915   0.0185  -0.0232   0.0165   0.00    1.0
2018/03/13 13:28:23.000   78.250520882   16.137578423   618.1307   2   9   0.0499   0.0520   0.0912   0.0185  -0.0232   0.0165   0.00    1.0
2018/03/13 13:28:24.000   78.250520907   16.137578094   618.1149   2   9   0.0498   0.0519   0.0909   0.0184  -0.0231   0.0164   0.00    1.0
2018/03/13 13:28:25.000   78.250520946   16.137577728   618.0998   2   9   0.0496   0.0517   0.0906   0.0184  -0.0231   0.0163   0.00    1.0
2018/03/13 13:28:26.000   78.250520919   16.137577334   618.0885   2   9   0.0494   0.0516   0.0903   0.0183  -0.0230   0.0163   0.00    1.0
2018/03/13 13:28:27.000   78.250520895   16.137577098   618.0822   2   9   0.0493   0.0515   0.0901   0.0183  -0.0230   0.0162   0.00    1.0
2018/03/13 13:28:28.000   78.250520849   16.137576790   618.0769   2   9   0.0491   0.0513   0.0898   0.0182  -0.0229   0.0161   0.00    1.0
2018/03/13 13:28:29.000   78.250520815   16.137576486   618.0665   2   9   0.0490   0.0512   0.0895   0.0182  -0.0229   0.0160   0.00    1.0
2018/03/13 13:28:30.000   78.250520815   16.137576429   618.0509   2   9   0.0488   0.0511   0.0892   0.0182  -0.0228   0.0160   0.00    1.0
2018/03/13 13:28:31.000   78.250520852   16.137576324   618.0298   2   9   0.0487   0.0509   0.0889   0.0181  -0.0228   0.0159   0.00    1.0
2018/03/13 13:28:32.000   78.250520901   16.137576243   618.0053   2   9   0.0485   0.0508   0.0886   0.0181  -0.0227   0.0158   0.00    1.0
2018/03/13 13:28:33.000   78.250520945   16.137576098   617.9800   2   9   0.0483   0.0507   0.0883   0.0180  -0.0227   0.0158   0.00    1.0
2018/03/13 13:28:34.000   78.250520997   16.137575973   617.9563   2   9   0.0482   0.0506   0.0881   0.0180  -0.0227   0.0157   0.00    1.0
2018/03/13 13:28:35.000   78.250521008   16.137575826   617.9367   2   9   0.0480   0.0504   0.0878   0.0180  -0.0226   0.0156   0.00    1.0
2018/03/13 13:28:36.000   78.250521009   16.137575809   617.9232   2   9   0.0479   0.0503   0.0875   0.0179  -0.0226   0.0155   0.00    1.1
2018/03/13 13:28:37.000   78.250520966   16.137575810   617.9177   2   9   0.0477   0.0502   0.0872   0.0179  -0.0225   0.0155   0.00    1.1
2018/03/13 13:28:38.000   78.250520944   16.137575568   617.9083   2   9   0.0476   0.0500   0.0870   0.0178  -0.0225   0.0154   0.00    1.1
2018/03/13 13:28:39.000   78.250520916   16.137575304   617.8976   2   9   0.0474   0.0499   0.0867   0.0178  -0.0224   0.0153   0.00    1.1
2018/03/13 13:28:40.000   78.250520926   16.137575244   617.8783   2   9   0.0473   0.0498   0.0864   0.0178  -0.0224   0.0153   0.00    1.1
2018/03/13 13:28:41.000   78.250520988   16.137575143   617.8531   2   9   0.0472   0.0497   0.0862   0.0177  -0.0223   0.0152   0.00    1.1
2018/03/13 13:28:42.000   78.250521033   16.137574891   617.8313   2   9   0.0470   0.0496   0.0859   0.0177  -0.0223   0.0151   0.00    1.1
2018/03/13 13:28:43.000   78.250521048   16.137574805   617.8128   2   9   0.0469   0.0494   0.0856   0.0177  -0.0223   0.0151   0.00    1.1
2018/03/13 13:28:44.000   78.250521032   16.137574685   617.8029   2   9   0.0467   0.0493   0.0854   0.0176  -0.0222   0.0150   0.00    1.1
2018/03/13 13:28:45.000   78.250521032   16.137574601   617.7935   2   9   0.0466   0.0492   0.0851   0.0176  -0.0222   0.0150   0.00    1.1
2018/03/13 13:28:46.000   78.250520991   16.137574622   617.7870   2   9   0.0464   0.0491   0.0849   0.0175  -0.0221   0.0149   0.00    1.1
2018/03/13 13:28:47.000   78.250520984   16.137574685   617.7757   2   9   0.0463   0.0490   0.0846   0.0175  -0.0221   0.0148   0.00    1.1
2018/03/13 13:28:48.000   78.250521014   16.137574575   617.7639   2   9   0.0462   0.0488   0.0843   0.0175  -0.0220   0.0148   0.00    1.1
2018/03/13 13:28:49.000   78.250521065   16.137574604   617.7460   2   9   0.0460   0.0487   0.0841   0.0174  -0.0220   0.0147   0.00    1.0
2018/03/13 13:28:50.000   78.250521119   16.137574563   617.7295   2   9   0.0459   0.0486   0.0838   0.0174  -0.0220   0.0146   0.00    1.0
2018/03/13 13:28:51.000   78.250521136   16.137574306   617.7173   2   9   0.0457   0.0485   0.0836   0.0174  -0.0219   0.0146   0.00    1.0
2018/03/13 13:28:52.000   78.250521119   16.137574109   617.7096   2   9   0.0456   0.0484   0.0833   0.0173  -0.0219   0.0145   0.00    1.0
2018/03/13 13:28:53.000   78.250521093   16.137573995   617.7053   2   9   0.0455   0.0482   0.0830   0.0173  -0.0218   0.0144   0.00    1.0
2018/03/13 13:28:54.000   78.250521065   16.137573948   617.6998   2   9   0.0453   0.0481   0.0828   0.0172  -0.0218   0.0144   0.00    1.0
2018/03/13 13:28:55.000   78.250521024   16.137573911   617.6919   2   9   0.0452   0.0480   0.0825   0.0172  -0.0217   0.0143   0.00    1.0
2018/03/13 13:28:56.000   78.250521022   16.137573939   617.6767   2   9   0.0451   0.0479   0.0823   0.0172  -0.0217   0.0142   0.00    1.0
2018/03/13 13:28:57.000   78.250521043   16.137573743   617.6601   2   9   0.0449   0.0478   0.0820   0.0171  -0.0217   0.0141   0.00    1.0
2018/03/13 13:28:58.000   78.250521077   16.137573604   617.6389   2   9   0.0448   0.0477   0.0818   0.0171  -0.0216   0.0141   0.00    1.0
2018/03/13 13:28:59.000   78.250521125   16.137573687   617.6134   2   9   0.0447   0.0476   0.0815   0.0171  -0.0216   0.0140   0.00    1.0
2018/03/13 13:29:00.000   78.250521153   16.137573600   617.5884   2   9   0.0445   0.0475   0.0813   0.0170  -0.0215   0.0139   0.00    1.0
2018/03/13 13:29:01.000   78.250521201   16.137573466   617.5809   2   9   0.0444   0.0473   0.0810   0.0170  -0.0215   0.0139   0.00    1.0
2018/03/13 13:29:02.000   78.250521190   16.137573392   617.5725   2   9   0.0443   0.0472   0.0808   0.0170  -0.0215   0.0138   0.00    1.0
2018/03/13 13:29:03.000   78.250521175   16.137573265   617.5648   2   9   0.0442   0.0471   0.0805   0.0169  -0.0214   0.0137   0.00    1.0
2018/03/13 13:29:04.000   78.250521173   16.137573294   617.5580   2   9   0.0440   0.0470   0.0803   0.0169  -0.0214   0.0137   0.00    1.0
2018/03/13 13:29:05.000   78.250521168   16.137573177   617.5494   2   9   0.0439   0.0469   0.0800   0.0169  -0.0213   0.0136   0.00    1.0
2018/03/13 13:29:06.000   78.250521195   16.137573173   617.5357   2   9   0.0438   0.0468   0.0798   0.0168  -0.0213   0.0135   0.00    1.0
2018/03/13 13:29:07.000   78.250521203   16.137573046   617.5224   2   9   0.0436   0.0467   0.0795   0.0168  -0.0213   0.0134   0.00    1.0
2018/03/13 13:29:08.000   78.250521201   16.137572861   617.5152   2   9   0.0435   0.0466   0.0793   0.0168  -0.0212   0.0134   0.00    1.0
2018/03/13 13:29:09.000   78.250521162   16.137572820   617.5112   2   9   0.0434   0.0465   0.0791   0.0167  -0.0212   0.0133   0.00    1.0
2018/03/13 13:29:10.000   78.250521097   16.137572808   617.5101   2   9   0.0433   0.0464   0.0788   0.0167  -0.0211   0.0132   0.00    1.0
2018/03/13 13:29:11.000   78.250521057   16.137572762   617.5086   2   9   0.0431   0.0463   0.0786   0.0167  -0.0211   0.0132   0.00    1.0
2018/03/13 13:29:12.000   78.250521035   16.137572719   617.5032   2   9   0.0430   0.0461   0.0783   0.0166  -0.0211   0.0131   0.00    1.0
2018/03/13 13:29:13.000   78.250521023   16.137572670   617.4930   2   9   0.0429   0.0460   0.0781   0.0166  -0.0210   0.0130   0.00    1.0
2018/03/13 13:29:14.000   78.250521043   16.137572625   617.4765   2   9   0.0428   0.0459   0.0778   0.0166  -0.0210   0.0129   0.00    1.0
2018/03/13 13:29:15.000   78.250521105   16.137572587   617.4535   2   9   0.0427   0.0458   0.0776   0.0165  -0.0210   0.0129   0.00    1.0
2018/03/13 13:29:16.000   78.250521180   16.137572529   617.4330   2   9   0.0425   0.0457   0.0774   0.0165  -0.0209   0.0128   0.00    1.0
2018/03/13 13:29:17.000   78.250521210   16.137572726   617.4206   2   9   0.0424   0.0456   0.0771   0.0165  -0.0209   0.0127   0.00    1.0
2018/03/13 13:29:18.000   78.250521187   16.137572670   617.4173   2   9   0.0423   0.0455   0.0769   0.0165  -0.0209   0.0127   0.00    1.0
2018/03/13 13:29:19.000   78.250521166   16.137572651   617.4197   2   9   0.0422   0.0454   0.0767   0.0164  -0.0208   0.0126   0.00    1.0
2018/03/13 13:29:20.000   78.250521106   16.137572666   617.4245   2   9   0.0421   0.0453   0.0764   0.0164  -0.0208   0.0125   0.00    1.0
2018/03/13 13:29:21.000   78.250521059   16.137572721   617.4267   2   9   0.0419   0.0452   0.0762   0.0164  -0.0207   0.0124   0.00    1.0
2018/03/13 13:29:22.000   78.250521048   16.137572600   617.4249   2   9   0.0418   0.0451   0.0760   0.0163  -0.0207   0.0124   0.00    1.0
2018/03/13 13:29:23.000   78.250521053   16.137572460   617.4162   2   9   0.0417   0.0450   0.0757   0.0163  -0.0207   0.0123   0.00    1.0
2018/03/13 13:29:24.000   78.250521065   16.137572399   617.4024   2   9   0.0416   0.0449   0.0755   0.0163  -0.0206   0.0122   0.00    1.0
2018/03/13 13:29:25.000   78.250521094   16.137572291   617.3886   2   9   0.0415   0.0448   0.0753   0.0162  -0.0206   0.0121   0.00    1.0
2018/03/13 13:29:26.000   78.250521125   16.137572090   617.3781   2   8   0.0414   0.0447   0.0751   0.0162  -0.0205   0.0122   0.00    1.1
2018/03/13 13:29:27.000   78.250521130   16.137572018   617.3692   2   8   0.0413   0.0446   0.0749   0.0162  -0.0204   0.0123   0.00    1.1
2018/03/13 13:29:28.000   78.250521116   16.137571900   617.3656   2   8   0.0412   0.0446   0.0748   0.0162  -0.0203   0.0123   0.00    1.1
2018/03/13 13:29:29.000   78.250521112   16.137571843   617.3585   2   8   0.0411   0.0445   0.0746   0.0162  -0.0202   0.0124   0.00    1.1
2018/03/13 13:29:30.000   78.250521087   16.137571752   617.3531   2   8   0.0410   0.0444   0.0745   0.0162  -0.0201   0.0124   0.00    1.0
2018/03/13 13:29:31.000   78.250521086   16.137571730   617.3422   2   9   0.0409   0.0443   0.0743   0.0162  -0.0200   0.0125   0.00    1.0
2018/03/13 13:29:32.000   78.250521094   16.137571642   617.3337   2   9   0.0408   0.0442   0.0741   0.0162  -0.0200   0.0125   0.00    1.0
2018/03/13 13:29:33.000   78.250521079   16.137571443   617.3276   2   9   0.0407   0.0441   0.0740   0.0162  -0.0199   0.0126   0.00    1.0
2018/03/13 13:29:34.000   78.250521052   16.137571396   617.3216   2   9   0.0406   0.0440   0.0738   0.0161  -0.0198   0.0126   0.00    1.0
2018/03/13 13:29:35.000   78.250521020   16.137571330   617.3205   2   9   0.0405   0.0439   0.0737   0.0161  -0.0197   0.0127   0.00    1.0
2018/03/13 13:29:36.000   78.250520984   16.137571318   617.3214   2   9   0.0404   0.0438   0.0735   0.0161  -0.0196   0.0127   0.00    1.0
2018/03/13 13:29:37.000   78.250520933   16.137571190   617.3230   2   9   0.0403   0.0437   0.0734   0.0161  -0.0196   0.0128   0.00    1.0
2018/03/13 13:29:38.000   78.250520890   16.137571094   617.3194   2   9   0.0402   0.0436   0.0732   0.0161  -0.0195   0.0128   0.00    1.0
2018/03/13 13:29:39.000   78.250520870   16.137571052   617.3108   2   9   0.0401   0.0435   0.0730   0.0161  -0.0194   0.0129   0.00    1.0
2018/03/13 13:29:40.000   78.250520878   16.137571045   617.2988   2   9   0.0400   0.0435   0.0729   0.0161  -0.0193   0.0129   0.00    1.0
2018/03/13 13:29:41.000   78.250520897   16.137570965   617.2830   2   9   0.0399   0.0434   0.0727   0.0161  -0.0193   0.0129   0.00    1.0
2018/03/13 13:29:42.000   78.250520943   16.137570932   617.2628   2   9   0.0398   0.0433   0.0726   0.0161  -0.0192   0.0130   0.00    1.0
2018/03/13 13:29:43.000   78.250520976   16.137570977   617.2520   2   9   0.0397   0.0432   0.0724   0.0160  -0.0191   0.0130   0.00    1.0
2018/03/13 13:29:44.000   78.250520970   16.137571051   617.2495   2   9   0.0396   0.0431   0.0723   0.0160  -0.0190   0.0130   0.00    1.0
2018/03/13 13:29:45.000   78.250520932   16.137571092   617.2495   2   9   0.0395   0.0430   0.0721   0.0160  -0.0190   0.0131   0.00    1.0
2018/03/13 13:29:46.000   78.250520898   16.137571022   617.2535   2   9   0.0394   0.0429   0.0719   0.0160  -0.0189   0.0131   0.00    1.0
2018/03/13 13:29:47.000   78.250520862   16.137571129   617.2531   2   9   0.0394   0.0428   0.0718   0.0160  -0.0188   0.0131   0.00    1.0
2018/03/13 13:29:48.000   78.250520834   16.137571199   617.2510   2   9   0.0393   0.0427   0.0716   0.0160  -0.0187   0.0132   0.00    1.0
2018/03/13 13:29:49.000   78.250520814   16.137571101   617.2449   2   9   0.0392   0.0427   0.0715   0.0160  -0.0187   0.0132   0.00    1.0
2018/03/13 13:29:50.000   78.250520815   16.137570985   617.2330   2   9   0.0391   0.0426   0.0713   0.0160  -0.0186   0.0132   0.00    1.0
2018/03/13 13:29:51.000   78.250520841   16.137570945   617.2194   2   9   0.0390   0.0425   0.0711   0.0159  -0.0185   0.0132   0.00    1.0
2018/03/13 13:29:52.000   78.250520868   16.137570852   617.2073   2   9   0.0389   0.0424   0.0710   0.0159  -0.0184   0.0133   0.00    1.0
2018/03/13 13:29:53.000   78.250520878   16.137570738   617.1978   2   9   0.0388   0.0423   0.0708   0.0159  -0.0184   0.0133   0.00    1.0
2018/03/13 13:29:54.000   78.250520860   16.137570782   617.1902   2   9   0.0387   0.0422   0.0707   0.0159  -0.0183   0.0133   0.00    1.0
2018/03/13 13:29:55.000   78.250520847   16.137570793   617.1850   2   9   0.0386   0.0421   0.0705   0.0159  -0.0182   0.0133   0.00    1.0
2018/03/13 13:29:56.000   78.250520834   16.137570780   617.1797   2   9   0.0385   0.0421   0.0704   0.0159  -0.0182   0.0133   0.00    1.0
2018/03/13 13:29:57.000   78.250520808   16.137570865   617.1755   2   9   0.0385   0.0420   0.0702   0.0159  -0.0181   0.0134   0.00    1.0
2018/03/13 13:29:58.000   78.250520799   16.137570918   617.1704   2   9   0.0384   0.0419   0.0700   0.0159  -0.0180   0.0134   0.00    1.0
2018/03/13 13:29:59.000   78.250520785   16.137570870   617.1683   2   9   0.0383   0.0418   0.0699   0.0159  -0.0180   0.0134   0.00    1.0
2018/03/13 13:30:00.000   78.250520758   16.137570942   617.1676   2   9   0.0382   0.0417   0.0697   0.0158  -0.0179   0.0134   0.00    1.0
2018/03/13 13:30:01.000   78.250520724   16.137571010   617.1672   2   9   0.0381   0.0416   0.0696   0.0158  -0.0178   0.0134   0.00    1.0
2018/03/13 13:30:02.000   78.250520703   16.137571017   617.1662   2   9   0.0380   0.0416   0.0694   0.0158  -0.0178   0.0134   0.00    1.0
2018/03/13 13:30:03.000   78.250520663   16.137570945   617.1643   2   9   0.0379   0.0415   0.0693   0.0158  -0.0177   0.0134   0.00    1.0
2018/03/13 13:30:04.000   78.250520614   16.137570960   617.1615   2   9   0.0379   0.0414   0.0691   0.0158  -0.0176   0.0135   0.00    1.0
2018/03/13 13:30:05.000   78.250520587   16.137570929   617.1532   2   9   0.0378   0.0413   0.0689   0.0158  -0.0176   0.0135   0.00    1.0
2018/03/13 13:30:06.000   78.250520602   16.137570953   617.1425   2   9   0.0377   0.0412   0.0688   0.0158  -0.0175   0.0135   0.00    1.0
2018/03/13 13:30:07.000   78.250520622   16.137570888   617.1280   2   9   0.0376   0.0411   0.0686   0.0157  -0.0175   0.0135   0.00    1.0
2018/03/13 13:30:08.000   78.250520652   16.137570832   617.1151   2   9   0.0375   0.0411   0.0685   0.0157  -0.0174   0.0135   0.00    1.0
2018/03/13 13:30:09.000   78.250520666   16.137570854   617.1101   2   9   0.0374   0.0410   0.0683   0.0157  -0.0173   0.0135   0.00    1.0
2018/03/13 13:30:10.000   78.250520644   16.137570841   617.1131   2   9   0.0373   0.0409   0.0682   0.0157  -0.0173   0.0135   0.00    1.0
2018/03/13 13:30:11.000   78.250520589   16.137570970   617.1185   2   9   0.0373   0.0408   0.0680   0.0157  -0.0172   0.0135   0.00    1.0
2018/03/13 13:30:12.000   78.250520544   16.137570990   617.1256   2   9   0.0372   0.0407   0.0678   0.0157  -0.0172   0.0135   0.00    1.0
2018/03/13 13:30:13.000   78.250520512   16.137571055   617.1286   2   9   0.0371   0.0407   0.0677   0.0157  -0.0171   0.0135   0.00    1.1
2018/03/13 13:30:14.000   78.250520484   16.137571133   617.1266   2   9   0.0370   0.0406   0.0675   0.0157  -0.0170   0.0135   0.00    1.1
2018/03/13 13:30:15.000   78.250520491   16.137571141   617.1201   2   9   0.0369   0.0405   0.0674   0.0156  -0.0170   0.0135   0.00    1.1
2018/03/13 13:30:16.000   78.250520529   16.137571174   617.1082   2   9   0.0369   0.0404   0.0672   0.0156  -0.0169   0.0135   0.00    1.1
2018/03/13 13:30:17.000   78.250520548   16.137571258   617.0956   2   9   0.0368   0.0403   0.0671   0.0156  -0.0169   0.0135   0.00    1.1
2018/03/13 13:30:18.000   78.250520581   16.137571275   617.0846   2   9   0.0367   0.0403   0.0669   0.0156  -0.0168   0.0135   0.00    1.1
2018/03/13 13:30:19.000   78.250520595   16.137571353   617.0776   2   9   0.0366   0.0402   0.0667   0.0156  -0.0168   0.0135   0.00    1.1
2018/03/13 13:30:20.000   78.250520607   16.137571466   617.0727   2   9   0.0365   0.0401   0.0666   0.0156  -0.0167   0.0135   0.00    1.1
2018/03/13 13:30:21.000   78.250520598   16.137571465   617.0698   2   9   0.0365   0.0400   0.0664   0.0156  -0.0166   0.0135   0.00    1.1
2018/03/13 13:30:22.000   78.250520581   16.137571412   617.0676   2   9   0.0364   0.0400   0.0663   0.0155  -0.0166   0.0135   0.00    1.1
2018/03/13 13:30:23.000   78.250520585   16.137571470   617.0655   2   9   0.0363   0.0399   0.0661   0.0155  -0.0165   0.0135   0.00    1.1
2018/03/13 13:30:24.000   78.250520591   16.137571528   617.0611   2   9   0.0362   0.0398   0.0660   0.0155  -0.0165   0.0135   0.00    1.1
2018/03/13 13:30:25.000   78.250520598   16.137571606   617.0549   2   9   0.0361   0.0397   0.0658   0.0155  -0.0164   0.0135   0.00    1.1
2018/03/13 13:30:26.000   78.250520593   16.137571693   617.0529   2   9   0.0361   0.0397   0.0656   0.0155  -0.0164   0.0135   0.00    1.1
2018/03/13 13:30:27.000   78.250520571   16.137571718   617.0512   2   9   0.0360   0.0396   0.0655   0.0155  -0.0163   0.0135   0.00    1.1
2018/03/13 13:30:28.000   78.250520549   16.137571796   617.0531   2   9   0.0359   0.0395   0.0653   0.0155  -0.0163   0.0134   0.00    1.1
2018/03/13 13:30:29.000   78.250520538   16.137571850   617.0525   2   9   0.0358   0.0394   0.0652   0.0154  -0.0162   0.0134   0.00    1.1
2018/03/13 13:30:30.000   78.250520533   16.137571959   617.0484   2   9   0.0357   0.0394   0.0650   0.0154  -0.0162   0.0134   0.00    1.1
2018/03/13 13:30:31.000   78.250520523   16.137571958   617.0432   2   9   0.0357   0.0393   0.0649   0.0154  -0.0161   0.0134   0.00    1.1
2018/03/13 13:30:32.000   78.250520546   16.137571982   617.0337   2   9   0.0356   0.0392   0.0647   0.0154  -0.0161   0.0134   0.00    1.1
2018/03/13 13:30:33.000   78.250520567   16.137572088   617.0240   2   9   0.0355   0.0391   0.0646   0.0154  -0.0160   0.0134   0.00    1.1
2018/03/13 13:30:34.000   78.250520589   16.137572105   617.0136   2   9   0.0354   0.0391   0.0644   0.0154  -0.0160   0.0134   0.00    1.0
2018/03/13 13:30:35.000   78.250520607   16.137572062   617.0081   2   9   0.0354   0.0390   0.0642   0.0154  -0.0159   0.0134   0.00    1.0
2018/03/13 13:30:36.000   78.250520601   16.137572087   617.0062   2   9   0.0353   0.0389   0.0641   0.0153  -0.0159   0.0133   0.00    1.1
2018/03/13 13:30:37.000   78.250520584   16.137572210   617.0101   2   9   0.0352   0.0388   0.0639   0.0153  -0.0158   0.0133   0.00    1.0
2018/03/13 13:30:38.000   78.250520562   16.137572238   617.0141   2   9   0.0351   0.0388   0.0638   0.0153  -0.0158   0.0133   0.00    1.0
2018/03/13 13:30:39.000   78.250520539   16.137572256   617.0177   2   9   0.0351   0.0387   0.0636   0.0153  -0.0158   0.0133   0.00    1.0
2018/03/13 13:30:40.000   78.250520510   16.137572287   617.0179   2   9   0.0350   0.0386   0.0635   0.0153  -0.0157   0.0133   0.00    1.0
2018/03/13 13:30:41.000   78.250520499   16.137572365   617.0167   2   9   0.0349   0.0386   0.0633   0.0153  -0.0157   0.0133   0.00    1.0
2018/03/13 13:30:42.000   78.250520507   16.137572410   617.0128   2   9   0.0349   0.0385   0.0632   0.0153  -0.0156   0.0132   0.00    1.0
2018/03/13 13:30:43.000   78.250520526   16.137572423   617.0071   2   9   0.0348   0.0384   0.0630   0.0152  -0.0156   0.0132   0.00    1.0
2018/03/13 13:30:44.000   78.250520556   16.137572424   617.0032   2   9   0.0347   0.0383   0.0629   0.0152  -0.0155   0.0132   0.00    1.0
2018/03/13 13:30:45.000   78.250520566   16.137572447   617.0026   2   9   0.0346   0.0383   0.0627   0.0152  -0.0155   0.0132   0.00    1.0
2018/03/13 13:30:46.000   78.250520553   16.137572535   617.0062   2   9   0.0346   0.0382   0.0626   0.0152  -0.0155   0.0132   0.00    1.0
2018/03/13 13:30:47.000   78.250520540   16.137572558   617.0097   2   9   0.0345   0.0381   0.0624   0.0152  -0.0154   0.0131   0.00    1.0
2018/03/13 13:30:48.000   78.250520526   16.137572415   617.0102   2   9   0.0344   0.0381   0.0623   0.0152  -0.0154   0.0131   0.00    1.0
2018/03/13 13:30:49.000   78.250520504   16.137572451   617.0104   2   9   0.0343   0.0380   0.0621   0.0151  -0.0153   0.0131   0.00    1.0
2018/03/13 13:30:50.000   78.250520495   16.137572521   617.0082   2   9   0.0343   0.0379   0.0619   0.0151  -0.0153   0.0131   0.00    1.0
2018/03/13 13:30:51.000   78.250520490   16.137572548   617.0053   2   9   0.0342   0.0378   0.0618   0.0151  -0.0153   0.0131   0.00    1.0
2018/03/13 13:30:52.000   78.250520502   16.137572535   617.0018   2   9   0.0341   0.0378   0.0616   0.0151  -0.0152   0.0130   0.00    1.0
2018/03/13 13:30:53.000   78.250520519   16.137572533   616.9980   2   9   0.0341   0.0377   0.0615   0.0151  -0.0152   0.0130   0.00    1.0
2018/03/13 13:30:54.000   78.250520536   16.137572555   616.9967   2   9   0.0340   0.0376   0.0613   0.0151  -0.0151   0.0130   0.00    1.0
2018/03/13 13:30:55.000   78.250520533   16.137572618   616.9972   2   9   0.0339   0.0376   0.0612   0.0151  -0.0151   0.0130   0.00    1.0
2018/03/13 13:30:56.000   78.250520531   16.137572724   616.9970   2   9   0.0339   0.0375   0.0610   0.0150  -0.0151   0.0129   0.00    1.0
2018/03/13 13:30:57.000   78.250520515   16.137572804   616.9975   2   9   0.0338   0.0374   0.0609   0.0150  -0.0150   0.0129   0.00    1.0
2018/03/13 13:30:58.000   78.250520499   16.137572782   616.9949   2   9   0.0337   0.0374   0.0607   0.0150  -0.0150   0.0129   0.00    1.0
2018/03/13 13:30:59.000   78.250520500   16.137572759   616.9913   2   9   0.0336   0.0373   0.0606   0.0150  -0.0150   0.0129   0.00    1.0
2018/03/13 13:31:00.000   78.250520511   16.137572796   616.9870   2   9   0.0336   0.0372   0.0604   0.0150  -0.0149   0.0128   0.00    1.0
2018/03/13 13:31:01.000   78.250520528   16.137572873   616.9837   2   9   0.0335   0.0372   0.0603   0.0150  -0.0149   0.0128   0.00    1.0
2018/03/13 13:31:02.000   78.250520532   16.137572887   616.9826   2   9   0.0334   0.0371   0.0601   0.0149  -0.0149   0.0128   0.00    1.0
2018/03/13 13:31:03.000   78.250520529   16.137572878   616.9826   2   9   0.0334   0.0370   0.0600   0.0149  -0.0148   0.0128   0.00    1.0
2018/03/13 13:31:04.000   78.250520528   16.137572889   616.9844   2   9   0.0333   0.0370   0.0598   0.0149  -0.0148   0.0127   0.00    1.0
2018/03/13 13:31:05.000   78.250520514   16.137572938   616.9873   2   9   0.0332   0.0369   0.0597   0.0149  -0.0148   0.0127   0.00    1.0
2018/03/13 13:31:06.000   78.250520495   16.137572955   616.9884   2   9   0.0332   0.0368   0.0595   0.0149  -0.0147   0.0127   0.00    1.0
2018/03/13 13:31:07.000   78.250520482   16.137572959   616.9887   2   9   0.0331   0.0368   0.0594   0.0149  -0.0147   0.0126   0.00    1.0
2018/03/13 13:31:08.000   78.250520473   16.137573047   616.9862   2   9   0.0330   0.0367   0.0592   0.0148  -0.0147   0.0126   0.00    1.0
2018/03/13 13:31:09.000   78.250520463   16.137573033   616.9835   2   9   0.0330   0.0366   0.0591   0.0148  -0.0146   0.0126   0.00    1.0
2018/03/13 13:31:10.000   78.250520451   16.137572886   616.9806   2   9   0.0329   0.0366   0.0590   0.0148  -0.0146   0.0126   0.00    1.0
2018/03/13 13:31:11.000   78.250520448   16.137572865   616.9780   2   9   0.0328   0.0365   0.0588   0.0148  -0.0146   0.0125   0.00    1.0
2018/03/13 13:31:12.000   78.250520441   16.137572879   616.9759   2   9   0.0328   0.0364   0.0587   0.0148  -0.0145   0.0125   0.00    1.0
2018/03/13 13:31:13.000   78.250520431   16.137572920   616.9756   2   9   0.0327   0.0364   0.0585   0.0148  -0.0145   0.0125   0.00    1.0
2018/03/13 13:31:14.000   78.250520423   16.137572884   616.9739   2   9   0.0326   0.0363   0.0584   0.0148  -0.0145   0.0124   0.00    1.0
2018/03/13 13:31:15.000   78.250520411   16.137572936   616.9740   2   9   0.0326   0.0362   0.0582   0.0147  -0.0145   0.0124   0.00    1.0
2018/03/13 13:31:16.000   78.250520406   16.137573012   616.9759   2   9   0.0325   0.0362   0.0581   0.0147  -0.0144   0.0124   0.00    1.0
2018/03/13 13:31:17.000   78.250520384   16.137573051   616.9761   2   9   0.0325   0.0361   0.0579   0.0147  -0.0144   0.0123   0.00    1.0
2018/03/13 13:31:18.000   78.250520366   16.137573147   616.9755   2   9   0.0324   0.0361   0.0578   0.0147  -0.0144   0.0123   0.00    1.0
2018/03/13 13:31:19.000   78.250520347   16.137573250   616.9753   2   9   0.0323   0.0360   0.0576   0.0147  -0.0143   0.0123   0.00    1.0
2018/03/13 13:31:20.000   78.250520352   16.137573343   616.9743   2   9   0.0323   0.0359   0.0575   0.0147  -0.0143   0.0122   0.00    1.0
2018/03/13 13:31:21.000   78.250520347   16.137573391   616.9720   2   9   0.0322   0.0359   0.0574   0.0146  -0.0143   0.0122   0.00    1.0
2018/03/13 13:31:22.000   78.250520342   16.137573405   616.9673   2   9   0.0321   0.0358   0.0572   0.0146  -0.0143   0.0122   0.00    1.0
2018/03/13 13:31:23.000   78.250520357   16.137573456   616.9634   2   9   0.0321   0.0357   0.0571   0.0146  -0.0142   0.0121   0.00    1.0
2018/03/13 13:31:24.000   78.250520358   16.137573490   616.9602   2   9   0.0320   0.0357   0.0569   0.0146  -0.0142   0.0121   0.00    1.0
2018/03/13 13:31:25.000   78.250520337   16.137573519   616.9608   2   9   0.0320   0.0356   0.0568   0.0146  -0.0142   0.0121   0.00    1.0
2018/03/13 13:31:26.000   78.250520326   16.137573529   616.9616   2   9   0.0319   0.0356   0.0566   0.0146  -0.0142   0.0120   0.00    1.0
2018/03/13 13:31:27.000   78.250520320   16.137573629   616.9663   2   9   0.0318   0.0355   0.0565   0.0145  -0.0141   0.0120   0.00    1.0
2018/03/13 13:31:28.000   78.250520308   16.137573768   616.9720   2   9   0.0318   0.0354   0.0564   0.0145  -0.0141   0.0120   0.00    1.0
2018/03/13 13:31:29.000   78.250520287   16.137573856   616.9773   2   9   0.0317   0.0354   0.0562   0.0145  -0.0141   0.0119   0.00    1.0
