% program   : RTKPOST ver.2.4.2
% inp file  : Z:\home\linda\Documents\Spring18\GitHub_Unis\data\processed_data\46250727.obs
% inp file  : Z:\home\linda\Documents\Spring18\GitHub_Unis\data\base_station_data\lyrs0720.18o
% inp file  : Z:\home\linda\Documents\Spring18\GitHub_Unis\data\processed_data\46250727.nav
% obs start : 2018/03/13 14:41:01.0 GPST (week1992 225661.0s)
% obs end   : 2018/03/13 14:56:01.0 GPST (week1992 226561.0s)
% pos mode  : static
% freqs     : L1+L2
% solution  : forward
% elev mask : 15.0 deg
% dynamics  : on
% tidecorr  : off
% ionos opt : broadcast
% tropo opt : saastamoinen
% ephemeris : broadcast
% navi sys  : gps glonass galileo qzss sbas
% amb res   : fix and hold
% amb glo   : on
% val thres : 3.0
% antenna1  :                       ( 0.0000  0.0000  0.0000)
% antenna2  :                       ( 0.0000  0.0000  0.0000)
% ref pos   : 78.228825638   15.397310064   495.6816
%
% (lat/lon/height=WGS84/ellipsoidal,Q=1:fix,2:float,3:sbas,4:dgps,5:single,6:ppp,ns=# of satellites)
%  GPST                  latitude(deg) longitude(deg)  height(m)   Q  ns   sdn(m)   sde(m)   sdu(m)  sdne(m)  sdeu(m)  sdun(m) age(s)  ratio
2018/03/13 14:41:01.000   78.256790122   16.230309211   398.2362   2  11   0.3791   0.3356   1.3755  -0.0784  -0.0704   0.4580   0.00    1.0
2018/03/13 14:41:02.000   78.256788644   16.230307859   397.9462   2  11   0.2697   0.2384   0.9786  -0.0561  -0.0521   0.3261   0.00    1.0
2018/03/13 14:41:03.000   78.256787487   16.230305173   397.4682   2  11   0.2206   0.1950   0.8004  -0.0460  -0.0431   0.2668   0.00    1.0
2018/03/13 14:41:04.000   78.256787049   16.230305580   397.3878   2  11   0.1912   0.1690   0.6934  -0.0399  -0.0376   0.2311   0.00    1.1
2018/03/13 14:41:05.000   78.256786458   16.230305863   397.4673   2  11   0.1711   0.1512   0.6201  -0.0357  -0.0337   0.2067   0.00    1.0
2018/03/13 14:41:06.000   78.256786297   16.230308038   397.5255   2  11   0.1562   0.1381   0.5657  -0.0327  -0.0308   0.1885   0.00    1.1
2018/03/13 14:41:07.000   78.256786843   16.230309090   397.7771   2  11   0.1446   0.1278   0.5233  -0.0303  -0.0285   0.1744   0.00    1.1
2018/03/13 14:41:08.000   78.256787208   16.230309700   398.0279   2  11   0.1352   0.1196   0.4889  -0.0283  -0.0266   0.1629   0.00    1.0
2018/03/13 14:41:09.000   78.256787460   16.230309969   398.3673   2  11   0.1275   0.1128   0.4603  -0.0267  -0.0251   0.1533   0.00    1.1
2018/03/13 14:41:10.000   78.256787829   16.230310755   398.6012   2  11   0.1209   0.1070   0.4359  -0.0254  -0.0238   0.1452   0.00    1.0
2018/03/13 14:41:11.000   78.256788291   16.230310869   398.8912   2  11   0.1152   0.1020   0.4149  -0.0242  -0.0227   0.1382   0.00    1.1
2018/03/13 14:41:12.000   78.256788724   16.230311002   399.1740   2  11   0.1103   0.0976   0.3964  -0.0232  -0.0217   0.1320   0.00    1.1
2018/03/13 14:41:13.000   78.256789159   16.230310516   399.4275   2  11   0.1059   0.0938   0.3800  -0.0223  -0.0208   0.1265   0.00    1.1
2018/03/13 14:41:14.000   78.256789342   16.230310286   399.6160   2  11   0.1020   0.0904   0.3653  -0.0215  -0.0200   0.1216   0.00    1.0
2018/03/13 14:41:15.000   78.256789760   16.230309518   399.9018   2  11   0.0984   0.0873   0.3520  -0.0208  -0.0193   0.1171   0.00    1.0
2018/03/13 14:41:16.000   78.256790173   16.230308880   400.1891   2  11   0.0952   0.0845   0.3398  -0.0202  -0.0187   0.1131   0.00    1.0
2018/03/13 14:41:17.000   78.256790438   16.230308782   400.4497   2  11   0.0923   0.0820   0.3287  -0.0196  -0.0181   0.1093   0.00    1.0
2018/03/13 14:41:18.000   78.256790741   16.230308953   400.6572   2  11   0.0896   0.0796   0.3185  -0.0191  -0.0176   0.1059   0.00    1.1
2018/03/13 14:41:19.000   78.256791025   16.230308832   400.8041   2  11   0.0872   0.0775   0.3089  -0.0186  -0.0171   0.1027   0.00    1.1
2018/03/13 14:41:20.000   78.256791172   16.230308828   400.8663   2  11   0.0849   0.0755   0.3001  -0.0181  -0.0166   0.0997   0.00    1.1
2018/03/13 14:41:21.000   78.256791413   16.230308863   400.8624   2  11   0.0828   0.0737   0.2919  -0.0177  -0.0161   0.0970   0.00    1.0
2018/03/13 14:41:22.000   78.256791668   16.230308931   400.9221   2  11   0.0808   0.0719   0.2843  -0.0173  -0.0157   0.0944   0.00    1.0
2018/03/13 14:41:23.000   78.256791884   16.230309184   400.9578   2  11   0.0789   0.0703   0.2771  -0.0169  -0.0153   0.0920   0.00    1.0
2018/03/13 14:41:24.000   78.256792073   16.230309102   400.9684   2  11   0.0772   0.0688   0.2704  -0.0166  -0.0150   0.0898   0.00    1.0
2018/03/13 14:41:25.000   78.256792205   16.230309452   400.9758   2  11   0.0756   0.0674   0.2639  -0.0163  -0.0147   0.0876   0.00    1.1
2018/03/13 14:41:26.000   78.256792452   16.230309450   400.9853   2  11   0.0740   0.0661   0.2579  -0.0160  -0.0144   0.0856   0.00    1.0
2018/03/13 14:41:27.000   78.256792709   16.230309386   400.9547   2  11   0.0726   0.0648   0.2521  -0.0157  -0.0142   0.0836   0.00    1.0
2018/03/13 14:41:28.000   78.256792945   16.230308977   400.9336   2  11   0.0712   0.0636   0.2466  -0.0155  -0.0140   0.0818   0.00    1.1
2018/03/13 14:41:29.000   78.256793161   16.230309223   400.9261   2  11   0.0699   0.0625   0.2413  -0.0152  -0.0138   0.0800   0.00    1.1
2018/03/13 14:41:30.000   78.256793359   16.230309388   400.8675   2  11   0.0686   0.0614   0.2362  -0.0150  -0.0136   0.0783   0.00    1.1
2018/03/13 14:41:31.000   78.256793512   16.230309639   400.7789   2  11   0.0674   0.0604   0.2314  -0.0148  -0.0135   0.0767   0.00    1.1
2018/03/13 14:41:32.000   78.256793617   16.230310271   400.6528   2  11   0.0663   0.0594   0.2267  -0.0146  -0.0133   0.0752   0.00    1.0
2018/03/13 14:41:33.000   78.256793648   16.230310521   400.4710   2  11   0.0652   0.0585   0.2223  -0.0144  -0.0131   0.0737   0.00    1.0
2018/03/13 14:41:34.000   78.256793620   16.230310719   400.2380   2  11   0.0642   0.0576   0.2179  -0.0142  -0.0130   0.0722   0.00    1.1
2018/03/13 14:41:35.000   78.256793519   16.230310921   399.9621   2  11   0.0632   0.0568   0.2138  -0.0141  -0.0129   0.0708   0.00    1.1
2018/03/13 14:41:36.000   78.256793441   16.230311113   399.6987   2  11   0.0622   0.0559   0.2098  -0.0139  -0.0127   0.0695   0.00    1.0
2018/03/13 14:41:37.000   78.256793309   16.230311274   399.4138   2  11   0.0613   0.0552   0.2059  -0.0138  -0.0126   0.0682   0.00    1.0
2018/03/13 14:41:38.000   78.256793130   16.230311830   399.1389   2  11   0.0604   0.0544   0.2021  -0.0136  -0.0125   0.0669   0.00    1.0
2018/03/13 14:41:39.000   78.256792929   16.230312598   398.8522   2  11   0.0595   0.0537   0.1985  -0.0135  -0.0123   0.0657   0.00    1.0
2018/03/13 14:41:40.000   78.256792722   16.230313090   398.5743   2  11   0.0587   0.0530   0.1950  -0.0133  -0.0122   0.0645   0.00    1.0
2018/03/13 14:41:41.000   78.256792558   16.230313606   398.3319   2  11   0.0579   0.0523   0.1915  -0.0132  -0.0121   0.0633   0.00    1.0
2018/03/13 14:41:42.000   78.256792491   16.230314364   398.0973   2  11   0.0571   0.0516   0.1882  -0.0131  -0.0120   0.0622   0.00    1.0
2018/03/13 14:41:43.000   78.256792410   16.230315161   397.8345   2  11   0.0563   0.0510   0.1850  -0.0130  -0.0119   0.0611   0.00    1.0
2018/03/13 14:41:44.000   78.256792389   16.230315955   397.6018   2  11   0.0556   0.0504   0.1818  -0.0128  -0.0118   0.0601   0.00    1.0
2018/03/13 14:41:45.000   78.256792343   16.230316576   397.3887   2  11   0.0549   0.0498   0.1788  -0.0127  -0.0117   0.0590   0.00    1.0
2018/03/13 14:41:46.000   78.256792379   16.230317125   397.2109   2  11   0.0542   0.0492   0.1758  -0.0126  -0.0116   0.0580   0.00    1.1
2018/03/13 14:41:47.000   78.256792404   16.230317943   397.0449   2  11   0.0536   0.0487   0.1729  -0.0125  -0.0115   0.0571   0.00    1.1
2018/03/13 14:41:48.000   78.256792468   16.230318536   396.9247   2  11   0.0529   0.0481   0.1701  -0.0124  -0.0114   0.0561   0.00    1.1
2018/03/13 14:41:49.000   78.256792600   16.230318980   396.8373   2  11   0.0523   0.0476   0.1673  -0.0123  -0.0113   0.0552   0.00    1.1
2018/03/13 14:41:50.000   78.256792807   16.230319063   396.7659   2  11   0.0517   0.0471   0.1647  -0.0122  -0.0112   0.0543   0.00    1.1
2018/03/13 14:41:51.000   78.256793106   16.230319092   396.7641   2  11   0.0511   0.0466   0.1621  -0.0122  -0.0111   0.0534   0.00    1.1
2018/03/13 14:41:52.000   78.256793398   16.230319178   396.7854   2  11   0.0505   0.0461   0.1595  -0.0121  -0.0110   0.0525   0.00    1.0
2018/03/13 14:41:53.000   78.256793759   16.230319613   396.8072   2  11   0.0499   0.0457   0.1570  -0.0120  -0.0110   0.0517   0.00    1.0
2018/03/13 14:41:54.000   78.256794128   16.230319991   396.8483   2  11   0.0494   0.0452   0.1546  -0.0119  -0.0109   0.0509   0.00    1.1
2018/03/13 14:41:55.000   78.256794585   16.230320166   396.8922   2  11   0.0489   0.0448   0.1522  -0.0118  -0.0108   0.0501   0.00    1.1
2018/03/13 14:41:56.000   78.256795096   16.230320436   396.9684   2  11   0.0483   0.0443   0.1499  -0.0117  -0.0107   0.0493   0.00    1.1
2018/03/13 14:41:57.000   78.256795657   16.230320610   397.0567   2  11   0.0478   0.0439   0.1476  -0.0117  -0.0106   0.0485   0.00    1.1
2018/03/13 14:41:58.000   78.256796290   16.230320781   397.1716   2  11   0.0473   0.0435   0.1454  -0.0116  -0.0106   0.0478   0.00    1.1
2018/03/13 14:41:59.000   78.256796909   16.230321058   397.2893   2  11   0.0469   0.0431   0.1432  -0.0115  -0.0105   0.0470   0.00    1.1
2018/03/13 14:42:00.000   78.256797564   16.230321378   397.4205   2  11   0.0464   0.0427   0.1411  -0.0115  -0.0104   0.0463   0.00    1.0
2018/03/13 14:42:01.000   78.256798210   16.230321791   397.5643   2  11   0.0459   0.0423   0.1391  -0.0114  -0.0103   0.0456   0.00    1.0
2018/03/13 14:42:02.000   78.256798854   16.230322009   397.7216   2  11   0.0455   0.0420   0.1370  -0.0113  -0.0103   0.0449   0.00    1.1
2018/03/13 14:42:03.000   78.256799568   16.230322122   397.8844   2  11   0.0450   0.0416   0.1350  -0.0113  -0.0102   0.0442   0.00    1.1
2018/03/13 14:42:04.000   78.256800309   16.230322299   398.0534   2  11   0.0446   0.0412   0.1331  -0.0112  -0.0101   0.0436   0.00    1.1
2018/03/13 14:42:05.000   78.256801089   16.230322510   398.1915   2  11   0.0442   0.0409   0.1312  -0.0112  -0.0101   0.0429   0.00    1.0
2018/03/13 14:42:06.000   78.256801841   16.230322739   398.3198   2  11   0.0437   0.0405   0.1293  -0.0111  -0.0100   0.0423   0.00    1.0
2018/03/13 14:42:07.000   78.256802539   16.230323183   398.4246   2  11   0.0433   0.0402   0.1275  -0.0111  -0.0099   0.0417   0.00    1.0
2018/03/13 14:42:08.000   78.256803255   16.230323354   398.5224   2  11   0.0429   0.0399   0.1257  -0.0110  -0.0099   0.0411   0.00    1.0
2018/03/13 14:42:09.000   78.256803935   16.230323730   398.6047   2  11   0.0425   0.0396   0.1240  -0.0109  -0.0098   0.0405   0.00    1.1
2018/03/13 14:42:10.000   78.256804551   16.230324131   398.6588   2  11   0.0422   0.0392   0.1223  -0.0109  -0.0097   0.0399   0.00    1.1
2018/03/13 14:42:11.000   78.256805143   16.230324652   398.7054   2  11   0.0418   0.0389   0.1206  -0.0108  -0.0097   0.0393   0.00    1.1
2018/03/13 14:42:12.000   78.256805715   16.230325070   398.7322   2  11   0.0414   0.0386   0.1190  -0.0108  -0.0096   0.0388   0.00    1.1
2018/03/13 14:42:13.000   78.256806267   16.230325452   398.7382   2  11   0.0411   0.0383   0.1174  -0.0108  -0.0095   0.0382   0.00    1.2
2018/03/13 14:42:14.000   78.256806808   16.230325968   398.7311   2  11   0.0407   0.0380   0.1158  -0.0107  -0.0095   0.0377   0.00    1.2
2018/03/13 14:42:15.000   78.256807315   16.230326509   398.7176   2  11   0.0403   0.0377   0.1142  -0.0107  -0.0094   0.0371   0.00    1.2
2018/03/13 14:42:16.000   78.256807822   16.230326960   398.7043   2  11   0.0400   0.0375   0.1127  -0.0106  -0.0094   0.0366   0.00    1.2
2018/03/13 14:42:17.000   78.256808350   16.230327389   398.6993   2  11   0.0397   0.0372   0.1112  -0.0106  -0.0093   0.0361   0.00    1.3
2018/03/13 14:42:18.000   78.256808871   16.230327953   398.7014   2  11   0.0393   0.0369   0.1098  -0.0105  -0.0092   0.0356   0.00    1.3
2018/03/13 14:42:19.000   78.256809376   16.230328693   398.6984   2  11   0.0390   0.0366   0.1083  -0.0105  -0.0092   0.0351   0.00    1.3
2018/03/13 14:42:20.000   78.256809875   16.230329306   398.6884   2  11   0.0387   0.0364   0.1069  -0.0104  -0.0091   0.0347   0.00    1.2
2018/03/13 14:42:21.000   78.256810390   16.230330060   398.6736   2  11   0.0384   0.0361   0.1056  -0.0104  -0.0091   0.0342   0.00    1.1
2018/03/13 14:42:22.000   78.256810886   16.230330857   398.6526   2  11   0.0381   0.0359   0.1042  -0.0104  -0.0090   0.0337   0.00    1.1
2018/03/13 14:42:23.000   78.256811369   16.230331681   398.6402   2  11   0.0378   0.0356   0.1029  -0.0103  -0.0090   0.0333   0.00    1.0
2018/03/13 14:42:24.000   78.256811800   16.230332348   398.6220   2  11   0.0375   0.0354   0.1016  -0.0103  -0.0089   0.0328   0.00    1.0
2018/03/13 14:42:25.000   78.256812264   16.230333086   398.6071   2  11   0.0372   0.0351   0.1003  -0.0103  -0.0089   0.0324   0.00    1.0
2018/03/13 14:42:26.000   78.256812661   16.230333874   398.5963   2  11   0.0369   0.0349   0.0991  -0.0102  -0.0088   0.0320   0.00    1.0
2018/03/13 14:42:27.000   78.256813023   16.230334401   398.5848   2  11   0.0366   0.0346   0.0978  -0.0102  -0.0088   0.0315   0.00    1.0
2018/03/13 14:42:28.000   78.256813342   16.230334907   398.5694   2  11   0.0363   0.0344   0.0966  -0.0101  -0.0087   0.0311   0.00    1.0
2018/03/13 14:42:29.000   78.256813606   16.230335524   398.5608   2  11   0.0360   0.0342   0.0954  -0.0101  -0.0086   0.0307   0.00    1.1
2018/03/13 14:42:30.000   78.256813845   16.230336143   398.5486   2  11   0.0358   0.0340   0.0943  -0.0101  -0.0086   0.0303   0.00    1.1
2018/03/13 14:42:31.000   78.256814050   16.230336550   398.5433   2  11   0.0355   0.0337   0.0931  -0.0100  -0.0085   0.0299   0.00    1.0
2018/03/13 14:42:32.000   78.256814213   16.230336894   398.5292   2  11   0.0352   0.0335   0.0920  -0.0100  -0.0085   0.0296   0.00    1.0
2018/03/13 14:42:33.000   78.256814346   16.230337182   398.5244   2  11   0.0350   0.0333   0.0909  -0.0100  -0.0084   0.0292   0.00    1.0
2018/03/13 14:42:34.000   78.256814421   16.230337370   398.5051   2  11   0.0347   0.0331   0.0898  -0.0099  -0.0084   0.0288   0.00    1.1
2018/03/13 14:42:35.000   78.256814470   16.230337552   398.4866   2  11   0.0345   0.0329   0.0888  -0.0099  -0.0083   0.0284   0.00    1.1
2018/03/13 14:42:36.000   78.256814495   16.230337804   398.4748   2  11   0.0342   0.0327   0.0877  -0.0099  -0.0083   0.0281   0.00    1.1
2018/03/13 14:42:37.000   78.256814495   16.230338052   398.4639   2  11   0.0340   0.0325   0.0867  -0.0099  -0.0082   0.0277   0.00    1.1
2018/03/13 14:42:38.000   78.256814485   16.230338156   398.4591   2  11   0.0337   0.0323   0.0857  -0.0098  -0.0082   0.0274   0.00    1.2
2018/03/13 14:42:39.000   78.256814438   16.230338209   398.4531   2  11   0.0335   0.0321   0.0847  -0.0098  -0.0082   0.0271   0.00    1.2
2018/03/13 14:42:40.000   78.256814321   16.230338186   398.4426   2  11   0.0333   0.0319   0.0837  -0.0098  -0.0081   0.0267   0.00    1.2
2018/03/13 14:42:41.000   78.256814116   16.230338162   398.4082   2  11   0.0330   0.0317   0.0828  -0.0097  -0.0081   0.0264   0.00    1.2
2018/03/13 14:42:42.000   78.256813904   16.230338182   398.3763   2  11   0.0328   0.0315   0.0818  -0.0097  -0.0080   0.0261   0.00    1.2
2018/03/13 14:42:43.000   78.256813666   16.230338109   398.3382   2  11   0.0326   0.0313   0.0809  -0.0097  -0.0080   0.0258   0.00    1.2
2018/03/13 14:42:44.000   78.256813356   16.230337990   398.2921   2  11   0.0323   0.0311   0.0800  -0.0097  -0.0079   0.0254   0.00    1.2
2018/03/13 14:42:45.000   78.256813001   16.230337839   398.2429   2  11   0.0321   0.0309   0.0791  -0.0096  -0.0079   0.0251   0.00    1.2
2018/03/13 14:42:46.000   78.256812583   16.230337861   398.1839   2  11   0.0319   0.0307   0.0782  -0.0096  -0.0078   0.0248   0.00    1.2
2018/03/13 14:42:47.000   78.256812145   16.230337727   398.1246   2  11   0.0317   0.0306   0.0774  -0.0096  -0.0078   0.0245   0.00    1.2
2018/03/13 14:42:48.000   78.256811707   16.230337553   398.0675   2  11   0.0315   0.0304   0.0765  -0.0095  -0.0077   0.0243   0.00    1.2
2018/03/13 14:42:49.000   78.256811242   16.230337373   398.0227   2  11   0.0313   0.0302   0.0757  -0.0095  -0.0077   0.0240   0.00    1.2
2018/03/13 14:42:50.000   78.256810768   16.230337145   397.9721   2  11   0.0311   0.0300   0.0749  -0.0095  -0.0077   0.0237   0.00    1.2
2018/03/13 14:42:51.000   78.256810301   16.230336972   397.9278   2  11   0.0309   0.0299   0.0741  -0.0095  -0.0076   0.0234   0.00    1.1
2018/03/13 14:42:52.000   78.256809806   16.230336755   397.8866   2  11   0.0307   0.0297   0.0733  -0.0094  -0.0076   0.0231   0.00    1.1
2018/03/13 14:42:53.000   78.256809326   16.230336617   397.8463   2  11   0.0305   0.0295   0.0725  -0.0094  -0.0075   0.0229   0.00    1.1
2018/03/13 14:42:54.000   78.256808809   16.230336441   397.7977   2  11   0.0303   0.0294   0.0717  -0.0094  -0.0075   0.0226   0.00    1.1
2018/03/13 14:42:55.000   78.256808312   16.230336098   397.7559   2  11   0.0301   0.0292   0.0710  -0.0094  -0.0074   0.0224   0.00    1.0
2018/03/13 14:42:56.000   78.256807806   16.230335685   397.7128   2  11   0.0299   0.0290   0.0702  -0.0093  -0.0074   0.0221   0.00    1.0
2018/03/13 14:42:57.000   78.256807298   16.230335343   397.6651   2  11   0.0297   0.0289   0.0695  -0.0093  -0.0074   0.0219   0.00    1.0
2018/03/13 14:42:58.000   78.256806790   16.230334937   397.6203   2  11   0.0295   0.0287   0.0688  -0.0093  -0.0073   0.0216   0.00    1.0
2018/03/13 14:42:59.000   78.256806276   16.230334584   397.5799   2  11   0.0293   0.0286   0.0681  -0.0093  -0.0073   0.0214   0.00    1.1
2018/03/13 14:43:00.000   78.256805752   16.230334248   397.5397   2  11   0.0291   0.0284   0.0674  -0.0092  -0.0072   0.0211   0.00    1.1
2018/03/13 14:43:01.000   78.256805239   16.230333913   397.4921   2  11   0.0290   0.0282   0.0667  -0.0092  -0.0072   0.0209   0.00    1.1
2018/03/13 14:43:02.000   78.256804753   16.230333609   397.4426   2  11   0.0288   0.0281   0.0660  -0.0092  -0.0072   0.0207   0.00    1.1
2018/03/13 14:43:03.000   78.256804262   16.230333335   397.3838   2  11   0.0286   0.0279   0.0654  -0.0092  -0.0071   0.0204   0.00    1.0
2018/03/13 14:43:04.000   78.256803773   16.230333013   397.3337   2  11   0.0284   0.0278   0.0647  -0.0091  -0.0071   0.0202   0.00    1.0
2018/03/13 14:43:05.000   78.256803303   16.230332781   397.2675   2  11   0.0283   0.0277   0.0641  -0.0091  -0.0070   0.0200   0.00    1.0
2018/03/13 14:43:06.000   78.256802859   16.230332369   397.2078   2  11   0.0281   0.0275   0.0635  -0.0091  -0.0069   0.0198   0.00    1.0
2018/03/13 14:43:07.000   78.256802465   16.230331995   397.1510   2  11   0.0279   0.0274   0.0629  -0.0091  -0.0068   0.0196   0.00    1.0
2018/03/13 14:43:08.000   78.256802038   16.230331652   397.1061   2  11   0.0277   0.0272   0.0624  -0.0090  -0.0067   0.0194   0.00    1.0
2018/03/13 14:43:09.000   78.256801616   16.230331299   397.0531   2  11   0.0276   0.0271   0.0618  -0.0090  -0.0067   0.0192   0.00    1.0
2018/03/13 14:43:10.000   78.256801163   16.230331006   396.9950   2  11   0.0274   0.0269   0.0612  -0.0090  -0.0066   0.0190   0.00    1.0
2018/03/13 14:43:11.000   78.256800693   16.230330688   396.9354   2  11   0.0273   0.0268   0.0607  -0.0090  -0.0065   0.0188   0.00    1.0
2018/03/13 14:43:12.000   78.256800180   16.230330400   396.8680   2  11   0.0271   0.0267   0.0601  -0.0090  -0.0064   0.0186   0.00    1.0
2018/03/13 14:43:13.000   78.256799690   16.230330177   396.7999   2  11   0.0269   0.0265   0.0596  -0.0089  -0.0063   0.0184   0.00    1.1
2018/03/13 14:43:14.000   78.256799188   16.230329861   396.7318   2  11   0.0268   0.0264   0.0590  -0.0089  -0.0063   0.0182   0.00    1.1
2018/03/13 14:43:15.000   78.256798647   16.230329641   396.6618   2  11   0.0266   0.0263   0.0585  -0.0089  -0.0062   0.0180   0.00    1.1
2018/03/13 14:43:16.000   78.256798097   16.230329403   396.5849   2  11   0.0265   0.0261   0.0580  -0.0089  -0.0061   0.0178   0.00    1.1
2018/03/13 14:43:17.000   78.256797524   16.230329258   396.5092   2  11   0.0263   0.0260   0.0575  -0.0088  -0.0061   0.0177   0.00    1.1
2018/03/13 14:43:18.000   78.256796961   16.230329142   396.4361   2  11   0.0262   0.0259   0.0570  -0.0088  -0.0060   0.0175   0.00    1.0
2018/03/13 14:43:19.000   78.256796411   16.230329101   396.3617   2  11   0.0260   0.0258   0.0565  -0.0088  -0.0059   0.0173   0.00    1.0
2018/03/13 14:43:20.000   78.256795845   16.230329027   396.2829   2  11   0.0259   0.0256   0.0560  -0.0088  -0.0058   0.0171   0.00    1.0
2018/03/13 14:43:21.000   78.256795293   16.230328972   396.2098   2  11   0.0257   0.0255   0.0555  -0.0088  -0.0058   0.0170   0.00    1.0
2018/03/13 14:43:22.000   78.256794746   16.230328816   396.1361   2  11   0.0256   0.0254   0.0550  -0.0087  -0.0057   0.0168   0.00    1.0
2018/03/13 14:43:23.000   78.256794232   16.230328615   396.0686   2  11   0.0254   0.0253   0.0546  -0.0087  -0.0057   0.0166   0.00    1.0
2018/03/13 14:43:24.000   78.256793728   16.230328361   395.9998   2  11   0.0253   0.0251   0.0541  -0.0087  -0.0056   0.0165   0.00    1.0
2018/03/13 14:43:25.000   78.256793216   16.230328159   395.9326   2  11   0.0251   0.0250   0.0536  -0.0087  -0.0055   0.0163   0.00    1.0
2018/03/13 14:43:26.000   78.256792685   16.230327950   395.8704   2  11   0.0250   0.0249   0.0532  -0.0086  -0.0055   0.0161   0.00    1.0
2018/03/13 14:43:27.000   78.256792141   16.230327785   395.8058   2  11   0.0249   0.0248   0.0527  -0.0086  -0.0054   0.0160   0.00    1.0
2018/03/13 14:43:28.000   78.256791619   16.230327505   395.7448   2  11   0.0247   0.0247   0.0523  -0.0086  -0.0053   0.0158   0.00    1.0
2018/03/13 14:43:29.000   78.256791109   16.230327363   395.6756   2  11   0.0246   0.0245   0.0518  -0.0086  -0.0053   0.0157   0.00    1.0
2018/03/13 14:43:30.000   78.256790618   16.230327191   395.6066   2  11   0.0245   0.0244   0.0514  -0.0086  -0.0052   0.0155   0.00    1.0
2018/03/13 14:43:31.000   78.256790137   16.230327009   395.5415   2  11   0.0243   0.0243   0.0510  -0.0085  -0.0052   0.0154   0.00    1.0
2018/03/13 14:43:32.000   78.256789664   16.230326853   395.4770   2  11   0.0242   0.0242   0.0506  -0.0085  -0.0051   0.0152   0.00    1.0
2018/03/13 14:43:33.000   78.256789215   16.230326677   395.4143   2  11   0.0241   0.0241   0.0501  -0.0085  -0.0051   0.0151   0.00    1.0
2018/03/13 14:43:34.000   78.256788780   16.230326550   395.3545   2  11   0.0239   0.0240   0.0497  -0.0085  -0.0050   0.0149   0.00    1.0
2018/03/13 14:43:35.000   78.256788355   16.230326341   395.2983   2  11   0.0238   0.0239   0.0493  -0.0085  -0.0050   0.0148   0.00    1.0
2018/03/13 14:43:36.000   78.256787923   16.230326199   395.2395   2  11   0.0237   0.0238   0.0489  -0.0084  -0.0049   0.0147   0.00    1.0
2018/03/13 14:43:37.000   78.256787500   16.230326078   395.1808   2  11   0.0236   0.0236   0.0485  -0.0084  -0.0049   0.0145   0.00    1.1
2018/03/13 14:43:38.000   78.256787079   16.230325996   395.1192   2  11   0.0234   0.0235   0.0481  -0.0084  -0.0048   0.0144   0.00    1.1
2018/03/13 14:43:39.000   78.256786668   16.230325950   395.0623   2  11   0.0233   0.0234   0.0477  -0.0084  -0.0048   0.0143   0.00    1.1
2018/03/13 14:43:40.000   78.256786274   16.230325907   395.0109   2  11   0.0232   0.0233   0.0474  -0.0084  -0.0047   0.0141   0.00    1.1
2018/03/13 14:43:41.000   78.256785884   16.230325861   394.9635   2  11   0.0231   0.0232   0.0470  -0.0083  -0.0047   0.0140   0.00    1.1
2018/03/13 14:43:42.000   78.256785489   16.230325719   394.9162   2  11   0.0229   0.0231   0.0466  -0.0083  -0.0046   0.0139   0.00    1.1
2018/03/13 14:43:43.000   78.256785103   16.230325578   394.8717   2  11   0.0228   0.0230   0.0462  -0.0083  -0.0046   0.0137   0.00    1.1
2018/03/13 14:43:44.000   78.256784723   16.230325443   394.8273   2  11   0.0227   0.0229   0.0459  -0.0083  -0.0045   0.0136   0.00    1.1
2018/03/13 14:43:45.000   78.256784327   16.230325276   394.7800   2  11   0.0226   0.0228   0.0455  -0.0083  -0.0045   0.0135   0.00    1.1
2018/03/13 14:43:46.000   78.256783914   16.230325078   394.7320   2  11   0.0225   0.0227   0.0452  -0.0082  -0.0044   0.0134   0.00    1.1
2018/03/13 14:43:47.000   78.256783492   16.230324841   394.6841   2  11   0.0224   0.0226   0.0448  -0.0082  -0.0044   0.0132   0.00    1.1
2018/03/13 14:43:48.000   78.256783082   16.230324614   394.6409   2  11   0.0222   0.0225   0.0445  -0.0082  -0.0043   0.0131   0.00    1.1
2018/03/13 14:43:49.000   78.256782662   16.230324403   394.5987   2  11   0.0221   0.0224   0.0441  -0.0082  -0.0043   0.0130   0.00    1.1
2018/03/13 14:43:50.000   78.256782258   16.230324230   394.5612   2  11   0.0220   0.0223   0.0438  -0.0082  -0.0043   0.0129   0.00    1.1
2018/03/13 14:43:51.000   78.256781887   16.230324015   394.5241   2  11   0.0219   0.0222   0.0435  -0.0081  -0.0042   0.0128   0.00    1.1
2018/03/13 14:43:52.000   78.256781546   16.230323814   394.4909   2  11   0.0218   0.0221   0.0431  -0.0081  -0.0042   0.0127   0.00    1.1
2018/03/13 14:43:53.000   78.256781211   16.230323617   394.4569   2  11   0.0217   0.0220   0.0428  -0.0081  -0.0041   0.0125   0.00    1.1
2018/03/13 14:43:54.000   78.256780896   16.230323556   394.4223   2  11   0.0216   0.0219   0.0425  -0.0081  -0.0041   0.0124   0.00    1.1
2018/03/13 14:43:55.000   78.256780585   16.230323458   394.3858   2  11   0.0215   0.0218   0.0422  -0.0081  -0.0041   0.0123   0.00    1.1
2018/03/13 14:43:56.000   78.256780303   16.230323419   394.3509   2  11   0.0214   0.0217   0.0418  -0.0080  -0.0040   0.0122   0.00    1.1
2018/03/13 14:43:57.000   78.256780041   16.230323406   394.3141   2  11   0.0213   0.0216   0.0415  -0.0080  -0.0040   0.0121   0.00    1.1
2018/03/13 14:43:58.000   78.256779818   16.230323450   394.2821   2  11   0.0211   0.0215   0.0412  -0.0080  -0.0040   0.0120   0.00    1.1
2018/03/13 14:43:59.000   78.256779610   16.230323540   394.2484   2  11   0.0210   0.0214   0.0409  -0.0080  -0.0039   0.0119   0.00    1.1
2018/03/13 14:44:00.000   78.256779419   16.230323663   394.2113   2  11   0.0209   0.0214   0.0406  -0.0080  -0.0039   0.0118   0.00    1.1
2018/03/13 14:44:01.000   78.256779243   16.230323887   394.1744   2  11   0.0208   0.0213   0.0403  -0.0080  -0.0038   0.0117   0.00    1.1
2018/03/13 14:44:02.000   78.256779095   16.230324128   394.1452   2  11   0.0207   0.0212   0.0400  -0.0079  -0.0038   0.0116   0.00    1.1
2018/03/13 14:44:03.000   78.256778972   16.230324467   394.1156   2  11   0.0206   0.0211   0.0397  -0.0079  -0.0038   0.0115   0.00    1.1
2018/03/13 14:44:04.000   78.256778894   16.230324792   394.0907   2  11   0.0205   0.0210   0.0395  -0.0079  -0.0037   0.0114   0.00    1.1
2018/03/13 14:44:05.000   78.256778827   16.230325143   394.0660   2  11   0.0204   0.0209   0.0392  -0.0079  -0.0037   0.0113   0.00    1.1
2018/03/13 14:44:06.000   78.256778774   16.230325495   394.0460   2  11   0.0203   0.0208   0.0389  -0.0079  -0.0037   0.0112   0.00    1.1
2018/03/13 14:44:07.000   78.256778740   16.230325710   394.0260   2  11   0.0202   0.0207   0.0386  -0.0078  -0.0036   0.0111   0.00    1.1
2018/03/13 14:44:08.000   78.256778693   16.230325853   394.0066   2  11   0.0201   0.0206   0.0383  -0.0078  -0.0036   0.0110   0.00    1.1
2018/03/13 14:44:09.000   78.256778642   16.230325954   393.9888   2  11   0.0200   0.0206   0.0381  -0.0078  -0.0036   0.0109   0.00    1.1
2018/03/13 14:44:10.000   78.256778586   16.230326166   393.9745   2  11   0.0199   0.0205   0.0378  -0.0078  -0.0036   0.0108   0.00    1.2
2018/03/13 14:44:11.000   78.256778533   16.230326308   393.9580   2  11   0.0199   0.0204   0.0375  -0.0078  -0.0035   0.0108   0.00    1.2
2018/03/13 14:44:12.000   78.256778483   16.230326512   393.9437   2  11   0.0198   0.0203   0.0373  -0.0077  -0.0035   0.0107   0.00    1.2
2018/03/13 14:44:13.000   78.256778446   16.230326738   393.9324   2  11   0.0197   0.0202   0.0370  -0.0077  -0.0035   0.0106   0.00    1.2
2018/03/13 14:44:14.000   78.256778399   16.230326963   393.9254   2  11   0.0196   0.0201   0.0368  -0.0077  -0.0034   0.0105   0.00    1.2
2018/03/13 14:44:15.000   78.256778362   16.230327207   393.9228   2  11   0.0195   0.0200   0.0365  -0.0077  -0.0034   0.0104   0.00    1.2
2018/03/13 14:44:16.000   78.256778338   16.230327441   393.9230   2  11   0.0194   0.0200   0.0363  -0.0077  -0.0034   0.0103   0.00    1.2
2018/03/13 14:44:17.000   78.256778294   16.230327677   393.9245   2  11   0.0193   0.0199   0.0360  -0.0077  -0.0034   0.0102   0.00    1.2
2018/03/13 14:44:18.000   78.256778253   16.230327948   393.9305   2  11   0.0192   0.0198   0.0358  -0.0076  -0.0033   0.0102   0.00    1.2
2018/03/13 14:44:19.000   78.256778220   16.230328241   393.9368   2  11   0.0191   0.0197   0.0355  -0.0076  -0.0033   0.0101   0.00    1.2
2018/03/13 14:44:20.000   78.256778181   16.230328547   393.9467   2  11   0.0190   0.0196   0.0353  -0.0076  -0.0033   0.0100   0.00    1.2
2018/03/13 14:44:21.000   78.256778139   16.230328797   393.9588   2  11   0.0189   0.0196   0.0350  -0.0076  -0.0032   0.0099   0.00    1.2
2018/03/13 14:44:22.000   78.256778106   16.230329015   393.9736   2  11   0.0189   0.0195   0.0348  -0.0076  -0.0032   0.0098   0.00    1.2
2018/03/13 14:44:23.000   78.256778070   16.230329220   393.9904   2  11   0.0188   0.0194   0.0346  -0.0075  -0.0032   0.0098   0.00    1.2
2018/03/13 14:44:24.000   78.256778026   16.230329476   394.0111   2  11   0.0187   0.0193   0.0343  -0.0075  -0.0032   0.0097   0.00    1.2
2018/03/13 14:44:25.000   78.256777981   16.230329690   394.0335   2  11   0.0186   0.0193   0.0341  -0.0075  -0.0031   0.0096   0.00    1.2
2018/03/13 14:44:26.000   78.256777939   16.230329907   394.0538   2  11   0.0185   0.0192   0.0339  -0.0075  -0.0031   0.0095   0.00    1.2
2018/03/13 14:44:27.000   78.256777900   16.230330058   394.0746   2  11   0.0184   0.0191   0.0337  -0.0075  -0.0031   0.0094   0.00    1.2
2018/03/13 14:44:28.000   78.256777848   16.230330257   394.0996   2  11   0.0183   0.0190   0.0335  -0.0075  -0.0031   0.0094   0.00    1.2
2018/03/13 14:44:29.000   78.256777788   16.230330392   394.1230   2  11   0.0183   0.0189   0.0332  -0.0074  -0.0031   0.0093   0.00    1.2
2018/03/13 14:44:30.000   78.256777728   16.230330527   394.1476   2  11   0.0182   0.0189   0.0330  -0.0074  -0.0030   0.0092   0.00    1.2
2018/03/13 14:44:31.000   78.256777684   16.230330673   394.1719   2  11   0.0181   0.0188   0.0328  -0.0074  -0.0030   0.0092   0.00    1.2
2018/03/13 14:44:32.000   78.256777637   16.230330826   394.1993   2  11   0.0180   0.0187   0.0326  -0.0074  -0.0030   0.0091   0.00    1.2
2018/03/13 14:44:33.000   78.256777605   16.230330974   394.2289   2  11   0.0179   0.0187   0.0324  -0.0074  -0.0030   0.0090   0.00    1.2
2018/03/13 14:44:34.000   78.256777572   16.230331144   394.2559   2  11   0.0179   0.0186   0.0322  -0.0074  -0.0029   0.0089   0.00    1.2
2018/03/13 14:44:35.000   78.256777535   16.230331286   394.2827   2  11   0.0178   0.0185   0.0320  -0.0073  -0.0029   0.0089   0.00    1.2
2018/03/13 14:44:36.000   78.256777510   16.230331451   394.3111   2  11   0.0177   0.0184   0.0318  -0.0073  -0.0029   0.0088   0.00    1.2
2018/03/13 14:44:37.000   78.256777487   16.230331531   394.3401   2  11   0.0176   0.0184   0.0316  -0.0073  -0.0029   0.0087   0.00    1.2
2018/03/13 14:44:38.000   78.256777464   16.230331661   394.3693   2  11   0.0175   0.0183   0.0314  -0.0073  -0.0029   0.0087   0.00    1.1
2018/03/13 14:44:39.000   78.256777451   16.230331750   394.4020   2  11   0.0175   0.0182   0.0312  -0.0073  -0.0028   0.0086   0.00    1.1
2018/03/13 14:44:40.000   78.256777437   16.230331806   394.4327   2  11   0.0174   0.0181   0.0310  -0.0072  -0.0028   0.0086   0.00    1.1
2018/03/13 14:44:41.000   78.256777402   16.230331825   394.4634   2  11   0.0173   0.0181   0.0308  -0.0072  -0.0028   0.0085   0.00    1.1
2018/03/13 14:44:42.000   78.256777358   16.230331814   394.4921   2  11   0.0172   0.0180   0.0306  -0.0072  -0.0028   0.0084   0.00    1.1
2018/03/13 14:44:43.000   78.256777303   16.230331746   394.5235   2  11   0.0172   0.0179   0.0304  -0.0072  -0.0028   0.0084   0.00    1.1
2018/03/13 14:44:44.000   78.256777255   16.230331626   394.5511   2  11   0.0171   0.0179   0.0302  -0.0072  -0.0027   0.0083   0.00    1.1
2018/03/13 14:44:45.000   78.256777194   16.230331444   394.5761   2  11   0.0170   0.0178   0.0300  -0.0072  -0.0027   0.0082   0.00    1.0
2018/03/13 14:44:46.000   78.256777137   16.230331266   394.5983   2  11   0.0169   0.0177   0.0299  -0.0071  -0.0027   0.0082   0.00    1.0
2018/03/13 14:44:47.000   78.256777075   16.230331025   394.6192   2  11   0.0169   0.0177   0.0297  -0.0071  -0.0027   0.0081   0.00    1.0
2018/03/13 14:44:48.000   78.256776994   16.230330819   394.6399   2  11   0.0168   0.0176   0.0295  -0.0071  -0.0027   0.0081   0.00    1.0
2018/03/13 14:44:49.000   78.256776920   16.230330646   394.6616   2  11   0.0167   0.0175   0.0293  -0.0071  -0.0026   0.0080   0.00    1.0
2018/03/13 14:44:50.000   78.256776865   16.230330438   394.6823   2  11   0.0167   0.0175   0.0291  -0.0071  -0.0026   0.0079   0.00    1.0
2018/03/13 14:44:51.000   78.256776815   16.230330203   394.7016   2  11   0.0166   0.0174   0.0290  -0.0071  -0.0026   0.0079   0.00    1.0
2018/03/13 14:44:52.000   78.256776759   16.230329880   394.7189   2  11   0.0165   0.0173   0.0288  -0.0070  -0.0026   0.0078   0.00    1.0
2018/03/13 14:44:53.000   78.256776697   16.230329570   394.7361   2  11   0.0165   0.0173   0.0286  -0.0070  -0.0026   0.0078   0.00    1.0
2018/03/13 14:44:54.000   78.256776619   16.230329191   394.7500   2  11   0.0164   0.0172   0.0285  -0.0070  -0.0026   0.0077   0.00    1.0
2018/03/13 14:44:55.000   78.256776532   16.230328829   394.7625   2  11   0.0163   0.0171   0.0283  -0.0070  -0.0025   0.0077   0.00    1.1
2018/03/13 14:44:56.000   78.256776444   16.230328518   394.7758   2  11   0.0162   0.0171   0.0281  -0.0070  -0.0025   0.0076   0.00    1.1
2018/03/13 14:44:57.000   78.256776353   16.230328180   394.7935   2  11   0.0162   0.0170   0.0280  -0.0070  -0.0025   0.0076   0.00    1.1
2018/03/13 14:44:58.000   78.256776256   16.230327888   394.8103   2  11   0.0161   0.0170   0.0278  -0.0069  -0.0025   0.0075   0.00    1.0
2018/03/13 14:44:59.000   78.256776163   16.230327634   394.8279   2  11   0.0160   0.0169   0.0276  -0.0069  -0.0025   0.0075   0.00    1.0
2018/03/13 14:45:00.000   78.256776050   16.230327417   394.8444   2  11   0.0160   0.0168   0.0275  -0.0069  -0.0025   0.0074   0.00    1.0
2018/03/13 14:45:01.000   78.256775928   16.230327207   394.8613   2  11   0.0159   0.0168   0.0273  -0.0069  -0.0024   0.0073   0.00    1.0
2018/03/13 14:45:02.000   78.256775792   16.230327078   394.8747   2  11   0.0158   0.0167   0.0272  -0.0069  -0.0024   0.0073   0.00    1.0
2018/03/13 14:45:03.000   78.256775658   16.230326964   394.8883   2  11   0.0158   0.0166   0.0270  -0.0069  -0.0024   0.0072   0.00    1.0
2018/03/13 14:45:04.000   78.256775525   16.230326940   394.9019   2  11   0.0157   0.0166   0.0268  -0.0068  -0.0024   0.0072   0.00    1.0
2018/03/13 14:45:05.000   78.256775394   16.230326857   394.9188   2  11   0.0157   0.0165   0.0267  -0.0068  -0.0024   0.0071   0.00    1.0
2018/03/13 14:45:06.000   78.256775261   16.230326859   394.9374   2  11   0.0156   0.0165   0.0265  -0.0068  -0.0024   0.0071   0.00    1.0
2018/03/13 14:45:07.000   78.256775130   16.230326827   394.9563   2  11   0.0155   0.0164   0.0264  -0.0068  -0.0024   0.0071   0.00    1.0
2018/03/13 14:45:08.000   78.256774993   16.230326822   394.9720   2  11   0.0155   0.0163   0.0262  -0.0068  -0.0023   0.0070   0.00    1.0
2018/03/13 14:45:09.000   78.256774852   16.230326777   394.9850   2  11   0.0154   0.0163   0.0261  -0.0068  -0.0023   0.0070   0.00    1.0
2018/03/13 14:45:10.000   78.256774701   16.230326766   394.9980   2  11   0.0153   0.0162   0.0259  -0.0067  -0.0023   0.0069   0.00    1.0
2018/03/13 14:45:11.000   78.256774544   16.230326681   395.0049   2  11   0.0153   0.0162   0.0258  -0.0067  -0.0023   0.0069   0.00    1.0
2018/03/13 14:45:12.000   78.256774375   16.230326586   395.0100   2  11   0.0152   0.0161   0.0257  -0.0067  -0.0023   0.0068   0.00    1.0
2018/03/13 14:45:13.000   78.256774197   16.230326412   395.0136   2  11   0.0152   0.0160   0.0255  -0.0067  -0.0023   0.0068   0.00    1.0
2018/03/13 14:45:14.000   78.256774010   16.230326195   395.0157   2  11   0.0151   0.0160   0.0254  -0.0067  -0.0023   0.0067   0.00    1.0
2018/03/13 14:45:15.000   78.256773817   16.230325957   395.0139   2  11   0.0150   0.0159   0.0252  -0.0067  -0.0022   0.0067   0.00    1.0
2018/03/13 14:45:16.000   78.256773625   16.230325702   395.0101   2  11   0.0150   0.0159   0.0251  -0.0066  -0.0022   0.0066   0.00    1.0
2018/03/13 14:45:17.000   78.256773442   16.230325443   395.0032   2  11   0.0149   0.0158   0.0250  -0.0066  -0.0022   0.0066   0.00    1.0
2018/03/13 14:45:18.000   78.256773273   16.230325192   394.9958   2  11   0.0149   0.0158   0.0248  -0.0066  -0.0022   0.0066   0.00    1.0
2018/03/13 14:45:19.000   78.256773120   16.230324934   394.9869   2  11   0.0148   0.0157   0.0247  -0.0066  -0.0022   0.0065   0.00    1.0
2018/03/13 14:45:20.000   78.256772987   16.230324628   394.9766   2  11   0.0147   0.0157   0.0246  -0.0066  -0.0022   0.0065   0.00    1.0
2018/03/13 14:45:21.000   78.256772852   16.230324316   394.9678   2  11   0.0147   0.0156   0.0244  -0.0066  -0.0022   0.0064   0.00    1.0
2018/03/13 14:45:22.000   78.256772730   16.230323996   394.9609   2  11   0.0146   0.0155   0.0243  -0.0065  -0.0022   0.0064   0.00    1.0
2018/03/13 14:45:23.000   78.256772618   16.230323643   394.9553   2  11   0.0146   0.0155   0.0242  -0.0065  -0.0022   0.0063   0.00    1.0
2018/03/13 14:45:24.000   78.256772515   16.230323258   394.9466   2  11   0.0145   0.0154   0.0240  -0.0065  -0.0021   0.0063   0.00    1.0
2018/03/13 14:45:25.000   78.256772422   16.230322927   394.9384   2  11   0.0145   0.0154   0.0239  -0.0065  -0.0021   0.0063   0.00    1.0
2018/03/13 14:45:26.000   78.256772338   16.230322605   394.9291   2  11   0.0144   0.0153   0.0238  -0.0065  -0.0021   0.0062   0.00    1.0
2018/03/13 14:45:27.000   78.256772262   16.230322302   394.9211   2  11   0.0143   0.0153   0.0237  -0.0065  -0.0021   0.0062   0.00    1.0
2018/03/13 14:45:28.000   78.256772189   16.230322004   394.9153   2  11   0.0143   0.0152   0.0235  -0.0064  -0.0021   0.0061   0.00    1.0
2018/03/13 14:45:29.000   78.256772122   16.230321790   394.9141   2  11   0.0142   0.0152   0.0234  -0.0064  -0.0021   0.0061   0.00    1.0
2018/03/13 14:45:30.000   78.256772051   16.230321618   394.9157   2  11   0.0142   0.0151   0.0233  -0.0064  -0.0021   0.0061   0.00    1.0
2018/03/13 14:45:31.000   78.256771973   16.230321514   394.9222   2  11   0.0141   0.0151   0.0232  -0.0064  -0.0021   0.0060   0.00    1.0
2018/03/13 14:45:32.000   78.256771900   16.230321471   394.9326   2  11   0.0141   0.0150   0.0231  -0.0064  -0.0020   0.0060   0.00    1.0
2018/03/13 14:45:33.000   78.256771826   16.230321514   394.9446   2  11   0.0140   0.0150   0.0229  -0.0064  -0.0020   0.0059   0.00    1.0
2018/03/13 14:45:34.000   78.256771743   16.230321611   394.9565   2  11   0.0140   0.0149   0.0228  -0.0064  -0.0020   0.0059   0.00    1.0
2018/03/13 14:45:35.000   78.256771658   16.230321781   394.9665   2  11   0.0139   0.0149   0.0227  -0.0063  -0.0020   0.0059   0.00    1.0
2018/03/13 14:45:36.000   78.256771565   16.230321998   394.9767   2  11   0.0139   0.0148   0.0226  -0.0063  -0.0020   0.0058   0.00    1.0
2018/03/13 14:45:37.000   78.256771459   16.230322226   394.9872   2  11   0.0138   0.0148   0.0225  -0.0063  -0.0020   0.0058   0.00    1.0
2018/03/13 14:45:38.000   78.256771360   16.230322497   394.9994   2  11   0.0138   0.0147   0.0224  -0.0063  -0.0020   0.0058   0.00    1.0
2018/03/13 14:45:39.000   78.256771260   16.230322784   395.0150   2  11   0.0137   0.0147   0.0222  -0.0063  -0.0020   0.0057   0.00    1.0
2018/03/13 14:45:40.000   78.256771154   16.230323114   395.0332   2  11   0.0137   0.0146   0.0221  -0.0063  -0.0020   0.0057   0.00    1.0
2018/03/13 14:45:41.000   78.256771037   16.230323448   395.0522   2  11   0.0136   0.0146   0.0220  -0.0062  -0.0020   0.0057   0.00    1.0
2018/03/13 14:45:42.000   78.256770917   16.230323847   395.0694   2  11   0.0136   0.0145   0.0219  -0.0062  -0.0019   0.0056   0.00    1.0
2018/03/13 14:45:43.000   78.256770798   16.230324342   395.0862   2  11   0.0135   0.0145   0.0218  -0.0062  -0.0019   0.0056   0.00    1.0
2018/03/13 14:45:44.000   78.256770668   16.230324853   395.1005   2  11   0.0135   0.0144   0.0217  -0.0062  -0.0019   0.0056   0.00    1.0
2018/03/13 14:45:45.000   78.256770538   16.230325430   395.1163   2  11   0.0134   0.0144   0.0216  -0.0062  -0.0019   0.0055   0.00    1.0
2018/03/13 14:45:46.000   78.256770418   16.230325970   395.1339   2  11   0.0134   0.0143   0.0215  -0.0062  -0.0019   0.0055   0.00    1.0
2018/03/13 14:45:47.000   78.256770303   16.230326577   395.1515   2  11   0.0133   0.0143   0.0214  -0.0062  -0.0019   0.0055   0.00    1.0
2018/03/13 14:45:48.000   78.256770191   16.230327139   395.1723   2  11   0.0133   0.0142   0.0213  -0.0061  -0.0019   0.0054   0.00    1.0
2018/03/13 14:45:49.000   78.256770075   16.230327708   395.1907   2  11   0.0132   0.0142   0.0212  -0.0061  -0.0019   0.0054   0.00    1.0
2018/03/13 14:45:50.000   78.256769965   16.230328254   395.2088   2  11   0.0132   0.0141   0.0211  -0.0061  -0.0019   0.0054   0.00    1.0
2018/03/13 14:45:51.000   78.256769850   16.230328822   395.2251   2  11   0.0131   0.0141   0.0210  -0.0061  -0.0019   0.0053   0.00    1.0
2018/03/13 14:45:52.000   78.256769752   16.230329365   395.2425   2  11   0.0131   0.0140   0.0209  -0.0061  -0.0019   0.0053   0.00    1.0
2018/03/13 14:45:53.000   78.256769663   16.230329988   395.2617   2  11   0.0130   0.0140   0.0208  -0.0061  -0.0018   0.0053   0.00    1.0
2018/03/13 14:45:54.000   78.256769575   16.230330656   395.2801   2  11   0.0130   0.0139   0.0207  -0.0061  -0.0018   0.0052   0.00    1.0
2018/03/13 14:45:55.000   78.256769492   16.230331273   395.2970   2  11   0.0129   0.0139   0.0206  -0.0060  -0.0018   0.0052   0.00    1.0
2018/03/13 14:45:56.000   78.256769411   16.230331950   395.3141   2  11   0.0129   0.0138   0.0205  -0.0060  -0.0018   0.0052   0.00    1.0
2018/03/13 14:45:57.000   78.256769332   16.230332651   395.3306   2  11   0.0128   0.0138   0.0204  -0.0060  -0.0018   0.0051   0.00    1.0
2018/03/13 14:45:58.000   78.256769246   16.230333339   395.3451   2  11   0.0128   0.0138   0.0203  -0.0060  -0.0018   0.0051   0.00    1.0
2018/03/13 14:45:59.000   78.256769161   16.230333988   395.3601   2  11   0.0127   0.0137   0.0202  -0.0060  -0.0018   0.0051   0.00    1.0
2018/03/13 14:46:00.000   78.256769077   16.230334594   395.3751   2  11   0.0127   0.0137   0.0201  -0.0060  -0.0018   0.0051   0.00    1.0
2018/03/13 14:46:01.000   78.256768986   16.230335260   395.3890   2  11   0.0126   0.0136   0.0200  -0.0059  -0.0018   0.0050   0.00    1.0
2018/03/13 14:46:02.000   78.256768897   16.230335901   395.4032   2  11   0.0126   0.0136   0.0199  -0.0059  -0.0018   0.0050   0.00    1.0
2018/03/13 14:46:03.000   78.256768801   16.230336557   395.4153   2  11   0.0126   0.0135   0.0198  -0.0059  -0.0018   0.0050   0.00    1.0
2018/03/13 14:46:04.000   78.256768702   16.230337179   395.4250   2  11   0.0125   0.0135   0.0197  -0.0059  -0.0018   0.0049   0.00    1.0
2018/03/13 14:46:05.000   78.256768600   16.230337774   395.4346   2  11   0.0125   0.0134   0.0196  -0.0059  -0.0017   0.0049   0.00    1.0
2018/03/13 14:46:06.000   78.256768498   16.230338254   395.4445   2  11   0.0124   0.0134   0.0195  -0.0059  -0.0017   0.0049   0.00    1.0
2018/03/13 14:46:07.000   78.256768392   16.230338704   395.4555   2  11   0.0124   0.0134   0.0194  -0.0059  -0.0017   0.0049   0.00    1.0
2018/03/13 14:46:08.000   78.256768279   16.230339061   395.4670   2  11   0.0123   0.0133   0.0194  -0.0058  -0.0017   0.0048   0.00    1.0
2018/03/13 14:46:09.000   78.256768164   16.230339328   395.4807   2  11   0.0123   0.0133   0.0193  -0.0058  -0.0017   0.0048   0.00    1.0
2018/03/13 14:46:10.000   78.256768052   16.230339540   395.4939   2  11   0.0123   0.0132   0.0192  -0.0058  -0.0017   0.0048   0.00    1.0
2018/03/13 14:46:11.000   78.256767941   16.230339695   395.5077   2  11   0.0122   0.0132   0.0191  -0.0058  -0.0017   0.0048   0.00    1.0
2018/03/13 14:46:12.000   78.256767826   16.230339847   395.5229   2  11   0.0122   0.0131   0.0190  -0.0058  -0.0017   0.0047   0.00    1.0
2018/03/13 14:46:13.000   78.256767720   16.230339972   395.5384   2  11   0.0121   0.0131   0.0189  -0.0058  -0.0017   0.0047   0.00    1.0
2018/03/13 14:46:14.000   78.256767611   16.230340090   395.5561   2  11   0.0121   0.0131   0.0188  -0.0058  -0.0017   0.0047   0.00    1.0
2018/03/13 14:46:15.000   78.256767491   16.230340194   395.5749   2  11   0.0120   0.0130   0.0187  -0.0057  -0.0017   0.0046   0.00    1.0
2018/03/13 14:46:16.000   78.256767365   16.230340304   395.5939   2  11   0.0120   0.0130   0.0187  -0.0057  -0.0017   0.0046   0.00    1.0
2018/03/13 14:46:17.000   78.256767236   16.230340389   395.6115   2  11   0.0120   0.0129   0.0186  -0.0057  -0.0017   0.0046   0.00    1.1
2018/03/13 14:46:18.000   78.256767110   16.230340464   395.6292   2  11   0.0119   0.0129   0.0185  -0.0057  -0.0017   0.0046   0.00    1.1
2018/03/13 14:46:19.000   78.256766991   16.230340505   395.6477   2  11   0.0119   0.0129   0.0184  -0.0057  -0.0016   0.0045   0.00    1.1
2018/03/13 14:46:20.000   78.256766883   16.230340506   395.6664   2  11   0.0118   0.0128   0.0183  -0.0057  -0.0016   0.0045   0.00    1.1
2018/03/13 14:46:21.000   78.256766787   16.230340535   395.6857   2  11   0.0118   0.0128   0.0183  -0.0057  -0.0016   0.0045   0.00    1.1
2018/03/13 14:46:22.000   78.256766703   16.230340546   395.7046   2  10   0.0118   0.0127   0.0182  -0.0057  -0.0016   0.0045   0.00    1.1
2018/03/13 14:46:23.000   78.256766637   16.230340552   395.7246   2  10   0.0117   0.0127   0.0181  -0.0056  -0.0016   0.0044   0.00    1.1
2018/03/13 14:46:24.000   78.256766581   16.230340552   395.7439   2  10   0.0117   0.0127   0.0180  -0.0056  -0.0016   0.0044   0.00    1.1
2018/03/13 14:46:25.000   78.256766543   16.230340500   395.7640   2  10   0.0116   0.0126   0.0179  -0.0056  -0.0016   0.0044   0.00    1.1
2018/03/13 14:46:26.000   78.256766506   16.230340449   395.7850   2  10   0.0116   0.0126   0.0179  -0.0056  -0.0015   0.0044   0.00    1.1
2018/03/13 14:46:27.000   78.256766473   16.230340372   395.8075   2  10   0.0116   0.0125   0.0178  -0.0056  -0.0015   0.0043   0.00    1.1
2018/03/13 14:46:28.000   78.256766435   16.230340288   395.8272   2  10   0.0115   0.0125   0.0177  -0.0056  -0.0015   0.0043   0.00    1.1
2018/03/13 14:46:29.000   78.256766397   16.230340161   395.8462   2  10   0.0115   0.0125   0.0176  -0.0056  -0.0015   0.0043   0.00    1.1
2018/03/13 14:46:30.000   78.256766364   16.230340032   395.8648   2  10   0.0115   0.0124   0.0176  -0.0055  -0.0015   0.0043   0.00    1.1
2018/03/13 14:46:31.000   78.256766340   16.230339918   395.8837   2  10   0.0114   0.0124   0.0175  -0.0055  -0.0015   0.0043   0.00    1.1
2018/03/13 14:46:32.000   78.256766330   16.230339797   395.9025   2  10   0.0114   0.0124   0.0174  -0.0055  -0.0015   0.0042   0.00    1.1
2018/03/13 14:46:33.000   78.256766340   16.230339660   395.9231   2  10   0.0113   0.0123   0.0174  -0.0055  -0.0014   0.0042   0.00    1.1
2018/03/13 14:46:34.000   78.256766370   16.230339552   395.9471   2  10   0.0113   0.0123   0.0173  -0.0055  -0.0014   0.0042   0.00    1.1
2018/03/13 14:46:35.000   78.256766425   16.230339449   395.9741   2  10   0.0113   0.0122   0.0172  -0.0055  -0.0014   0.0042   0.00    1.1
2018/03/13 14:46:36.000   78.256766496   16.230339371   396.0038   2  10   0.0112   0.0122   0.0171  -0.0055  -0.0014   0.0041   0.00    1.1
2018/03/13 14:46:37.000   78.256766576   16.230339307   396.0331   2  10   0.0112   0.0122   0.0171  -0.0055  -0.0014   0.0041   0.00    1.1
2018/03/13 14:46:38.000   78.256766662   16.230339209   396.0615   2  10   0.0112   0.0121   0.0170  -0.0054  -0.0014   0.0041   0.00    1.1
2018/03/13 14:46:39.000   78.256766741   16.230339117   396.0875   2  10   0.0111   0.0121   0.0169  -0.0054  -0.0014   0.0041   0.00    1.1
2018/03/13 14:46:40.000   78.256766817   16.230339071   396.1126   2  10   0.0111   0.0121   0.0169  -0.0054  -0.0013   0.0040   0.00    1.1
2018/03/13 14:46:41.000   78.256766897   16.230339049   396.1381   2  10   0.0111   0.0120   0.0168  -0.0054  -0.0013   0.0040   0.00    1.1
2018/03/13 14:46:42.000   78.256766974   16.230339002   396.1650   2  10   0.0110   0.0120   0.0167  -0.0054  -0.0013   0.0040   0.00    1.1
2018/03/13 14:46:43.000   78.256767040   16.230338932   396.1904   2  10   0.0110   0.0119   0.0167  -0.0054  -0.0013   0.0040   0.00    1.1
2018/03/13 14:46:44.000   78.256767087   16.230338872   396.2132   2  10   0.0110   0.0119   0.0166  -0.0054  -0.0013   0.0040   0.00    1.1
2018/03/13 14:46:45.000   78.256767124   16.230338784   396.2349   2  10   0.0109   0.0119   0.0165  -0.0054  -0.0013   0.0039   0.00    1.1
2018/03/13 14:46:46.000   78.256767147   16.230338694   396.2551   2  10   0.0109   0.0118   0.0165  -0.0053  -0.0013   0.0039   0.00    1.1
2018/03/13 14:46:47.000   78.256767161   16.230338582   396.2724   2  10   0.0108   0.0118   0.0164  -0.0053  -0.0012   0.0039   0.00    1.1
2018/03/13 14:46:48.000   78.256767157   16.230338439   396.2874   2  10   0.0108   0.0118   0.0163  -0.0053  -0.0012   0.0039   0.00    1.1
2018/03/13 14:46:49.000   78.256767123   16.230338271   396.2985   2  10   0.0108   0.0117   0.0163  -0.0053  -0.0012   0.0039   0.00    1.1
2018/03/13 14:46:50.000   78.256767064   16.230338032   396.3058   2  10   0.0107   0.0117   0.0162  -0.0053  -0.0012   0.0038   0.00    1.1
2018/03/13 14:46:51.000   78.256766976   16.230337755   396.3097   2  10   0.0107   0.0117   0.0161  -0.0053  -0.0012   0.0038   0.00    1.1
2018/03/13 14:46:52.000   78.256766864   16.230337441   396.3120   2  10   0.0107   0.0116   0.0161  -0.0053  -0.0012   0.0038   0.00    1.1
2018/03/13 14:46:53.000   78.256766730   16.230337125   396.3120   2  10   0.0106   0.0116   0.0160  -0.0053  -0.0012   0.0038   0.00    1.1
2018/03/13 14:46:54.000   78.256766588   16.230336777   396.3102   2  10   0.0106   0.0116   0.0160  -0.0053  -0.0011   0.0038   0.00    1.1
2018/03/13 14:46:55.000   78.256766438   16.230336385   396.3077   2  10   0.0106   0.0115   0.0159  -0.0052  -0.0011   0.0037   0.00    1.1
2018/03/13 14:46:56.000   78.256766288   16.230336010   396.3059   2  10   0.0105   0.0115   0.0158  -0.0052  -0.0011   0.0037   0.00    1.1
2018/03/13 14:46:57.000   78.256766148   16.230335617   396.3021   2  10   0.0105   0.0115   0.0158  -0.0052  -0.0011   0.0037   0.00    1.0
2018/03/13 14:46:58.000   78.256766009   16.230335261   396.2976   2  10   0.0105   0.0114   0.0157  -0.0052  -0.0011   0.0037   0.00    1.0
2018/03/13 14:46:59.000   78.256765872   16.230334898   396.2909   2  10   0.0104   0.0114   0.0156  -0.0052  -0.0011   0.0037   0.00    1.0
2018/03/13 14:47:00.000   78.256765750   16.230334572   396.2827   2  10   0.0104   0.0114   0.0156  -0.0052  -0.0011   0.0036   0.00    1.0
2018/03/13 14:47:01.000   78.256765630   16.230334217   396.2728   2  10   0.0104   0.0113   0.0155  -0.0052  -0.0011   0.0036   0.00    1.1
2018/03/13 14:47:02.000   78.256765511   16.230333812   396.2633   2  10   0.0104   0.0113   0.0155  -0.0052  -0.0010   0.0036   0.00    1.1
2018/03/13 14:47:03.000   78.256765397   16.230333417   396.2549   2  10   0.0103   0.0113   0.0154  -0.0051  -0.0010   0.0036   0.00    1.1
2018/03/13 14:47:04.000   78.256765290   16.230333063   396.2487   2  10   0.0103   0.0112   0.0154  -0.0051  -0.0010   0.0036   0.00    1.1
2018/03/13 14:47:05.000   78.256765197   16.230332694   396.2443   2  10   0.0103   0.0112   0.0153  -0.0051  -0.0010   0.0035   0.00    1.1
2018/03/13 14:47:06.000   78.256765112   16.230332358   396.2430   2  10   0.0102   0.0112   0.0152  -0.0051  -0.0010   0.0035   0.00    1.1
2018/03/13 14:47:07.000   78.256765027   16.230332052   396.2416   2  10   0.0102   0.0111   0.0152  -0.0051  -0.0010   0.0035   0.00    1.1
2018/03/13 14:47:08.000   78.256764944   16.230331759   396.2410   2  10   0.0102   0.0111   0.0151  -0.0051  -0.0010   0.0035   0.00    1.1
2018/03/13 14:47:09.000   78.256764863   16.230331479   396.2404   2  10   0.0101   0.0111   0.0151  -0.0051  -0.0010   0.0035   0.00    1.1
2018/03/13 14:47:10.000   78.256764788   16.230331248   396.2412   2  10   0.0101   0.0110   0.0150  -0.0051  -0.0009   0.0035   0.00    1.1
2018/03/13 14:47:11.000   78.256764726   16.230331036   396.2420   2  10   0.0101   0.0110   0.0150  -0.0051  -0.0009   0.0034   0.00    1.0
2018/03/13 14:47:12.000   78.256764676   16.230330808   396.2438   2  10   0.0100   0.0110   0.0149  -0.0050  -0.0009   0.0034   0.00    1.0
2018/03/13 14:47:13.000   78.256764639   16.230330568   396.2455   2  10   0.0100   0.0110   0.0148  -0.0050  -0.0009   0.0034   0.00    1.0
2018/03/13 14:47:14.000   78.256764611   16.230330295   396.2480   2  10   0.0100   0.0109   0.0148  -0.0050  -0.0009   0.0034   0.00    1.0
2018/03/13 14:47:15.000   78.256764575   16.230330031   396.2514   2  10   0.0100   0.0109   0.0147  -0.0050  -0.0009   0.0034   0.00    1.0
2018/03/13 14:47:16.000   78.256764537   16.230329784   396.2552   2  10   0.0099   0.0109   0.0147  -0.0050  -0.0009   0.0033   0.00    1.0
2018/03/13 14:47:17.000   78.256764496   16.230329544   396.2596   2  10   0.0099   0.0108   0.0146  -0.0050  -0.0009   0.0033   0.00    1.0
2018/03/13 14:47:18.000   78.256764459   16.230329311   396.2658   2  10   0.0099   0.0108   0.0146  -0.0050  -0.0008   0.0033   0.00    1.0
2018/03/13 14:47:19.000   78.256764424   16.230329081   396.2727   2  10   0.0098   0.0108   0.0145  -0.0050  -0.0008   0.0033   0.00    1.0
2018/03/13 14:47:20.000   78.256764382   16.230328851   396.2810   2  10   0.0098   0.0107   0.0145  -0.0049  -0.0008   0.0033   0.00    1.0
2018/03/13 14:47:21.000   78.256764337   16.230328619   396.2894   2  10   0.0098   0.0107   0.0144  -0.0049  -0.0008   0.0033   0.00    1.0
2018/03/13 14:47:22.000   78.256764296   16.230328411   396.2993   2  10   0.0098   0.0107   0.0144  -0.0049  -0.0008   0.0032   0.00    1.0
2018/03/13 14:47:23.000   78.256764264   16.230328184   396.3084   2  10   0.0097   0.0107   0.0143  -0.0049  -0.0008   0.0032   0.00    1.0
2018/03/13 14:47:24.000   78.256764224   16.230327983   396.3173   2  10   0.0097   0.0106   0.0143  -0.0049  -0.0008   0.0032   0.00    1.0
2018/03/13 14:47:25.000   78.256764188   16.230327747   396.3256   2  10   0.0097   0.0106   0.0142  -0.0049  -0.0008   0.0032   0.00    1.1
2018/03/13 14:47:26.000   78.256764151   16.230327528   396.3307   2  10   0.0096   0.0106   0.0142  -0.0049  -0.0007   0.0032   0.00    1.1
2018/03/13 14:47:27.000   78.256764115   16.230327281   396.3341   2  10   0.0096   0.0105   0.0141  -0.0049  -0.0007   0.0032   0.00    1.1
2018/03/13 14:47:28.000   78.256764084   16.230327080   396.3368   2  10   0.0096   0.0105   0.0141  -0.0049  -0.0007   0.0032   0.00    1.1
2018/03/13 14:47:29.000   78.256764059   16.230326875   396.3392   2  10   0.0096   0.0105   0.0140  -0.0048  -0.0007   0.0031   0.00    1.1
2018/03/13 14:47:30.000   78.256764039   16.230326642   396.3410   2  10   0.0095   0.0105   0.0140  -0.0048  -0.0007   0.0031   0.00    1.1
2018/03/13 14:47:31.000   78.256764028   16.230326446   396.3430   2  10   0.0095   0.0104   0.0139  -0.0048  -0.0007   0.0031   0.00    1.1
2018/03/13 14:47:32.000   78.256764019   16.230326248   396.3448   2  10   0.0095   0.0104   0.0139  -0.0048  -0.0007   0.0031   0.00    1.1
2018/03/13 14:47:33.000   78.256764016   16.230326082   396.3456   2  10   0.0094   0.0104   0.0138  -0.0048  -0.0007   0.0031   0.00    1.1
2018/03/13 14:47:34.000   78.256764015   16.230325941   396.3442   2  10   0.0094   0.0103   0.0138  -0.0048  -0.0006   0.0031   0.00    1.1
2018/03/13 14:47:35.000   78.256764017   16.230325827   396.3413   2  10   0.0094   0.0103   0.0137  -0.0048  -0.0006   0.0030   0.00    1.1
2018/03/13 14:47:36.000   78.256764015   16.230325721   396.3374   2  10   0.0094   0.0103   0.0137  -0.0048  -0.0006   0.0030   0.00    1.0
2018/03/13 14:47:37.000   78.256764009   16.230325636   396.3328   2  10   0.0093   0.0103   0.0136  -0.0048  -0.0006   0.0030   0.00    1.0
2018/03/13 14:47:38.000   78.256764004   16.230325585   396.3280   2  10   0.0093   0.0102   0.0136  -0.0048  -0.0006   0.0030   0.00    1.0
2018/03/13 14:47:39.000   78.256763988   16.230325530   396.3223   2  10   0.0093   0.0102   0.0135  -0.0047  -0.0006   0.0030   0.00    1.0
2018/03/13 14:47:40.000   78.256763968   16.230325456   396.3140   2  10   0.0093   0.0102   0.0135  -0.0047  -0.0006   0.0030   0.00    1.0
2018/03/13 14:47:41.000   78.256763944   16.230325368   396.3040   2  10   0.0092   0.0101   0.0134  -0.0047  -0.0005   0.0030   0.00    1.0
2018/03/13 14:47:42.000   78.256763914   16.230325310   396.2917   2  10   0.0092   0.0101   0.0134  -0.0047  -0.0005   0.0029   0.00    1.0
2018/03/13 14:47:43.000   78.256763884   16.230325291   396.2780   2  10   0.0092   0.0101   0.0133  -0.0047  -0.0005   0.0029   0.00    1.0
2018/03/13 14:47:44.000   78.256763862   16.230325243   396.2631   2  10   0.0092   0.0101   0.0133  -0.0047  -0.0005   0.0029   0.00    1.0
2018/03/13 14:47:45.000   78.256763846   16.230325182   396.2471   2  10   0.0091   0.0100   0.0133  -0.0047  -0.0005   0.0029   0.00    1.0
2018/03/13 14:47:46.000   78.256763834   16.230325113   396.2306   2  10   0.0091   0.0100   0.0132  -0.0047  -0.0005   0.0029   0.00    1.0
2018/03/13 14:47:47.000   78.256763830   16.230325030   396.2165   2  10   0.0091   0.0100   0.0132  -0.0047  -0.0005   0.0029   0.00    1.0
2018/03/13 14:47:48.000   78.256763831   16.230324975   396.2022   2  10   0.0091   0.0100   0.0131  -0.0046  -0.0005   0.0029   0.00    1.0
2018/03/13 14:47:49.000   78.256763835   16.230324895   396.1888   2  10   0.0090   0.0099   0.0131  -0.0046  -0.0004   0.0029   0.00    1.0
2018/03/13 14:47:50.000   78.256763846   16.230324772   396.1765   2  10   0.0090   0.0099   0.0130  -0.0046  -0.0004   0.0028   0.00    1.0
2018/03/13 14:47:51.000   78.256763866   16.230324635   396.1651   2  10   0.0090   0.0099   0.0130  -0.0046  -0.0004   0.0028   0.00    1.0
2018/03/13 14:47:52.000   78.256763899   16.230324476   396.1540   2  10   0.0090   0.0099   0.0129  -0.0046  -0.0004   0.0028   0.00    1.0
2018/03/13 14:47:53.000   78.256763944   16.230324265   396.1435   2  10   0.0089   0.0098   0.0129  -0.0046  -0.0004   0.0028   0.00    1.0
2018/03/13 14:47:54.000   78.256764005   16.230324059   396.1345   2  10   0.0089   0.0098   0.0129  -0.0046  -0.0004   0.0028   0.00    1.0
