% program   : RTKPOST ver.2.4.2
% inp file  : Z:\home\linda\Documents\Spring18\GitHub_Unis\data\processed_data\4625074A.obs
% inp file  : Z:\home\linda\Documents\Spring18\GitHub_Unis\data\base_station_data\lyrs0740.18o
% inp file  : Z:\home\linda\Documents\Spring18\GitHub_Unis\data\processed_data\4625074A.nav
% obs start : 2018/03/15 10:48:19.0 GPST (week1992 384499.0s)
% obs end   : 2018/03/15 11:19:49.0 GPST (week1992 386389.0s)
% pos mode  : static
% freqs     : L1+L2
% solution  : forward
% elev mask : 15.0 deg
% dynamics  : on
% tidecorr  : off
% ionos opt : broadcast
% tropo opt : saastamoinen
% ephemeris : broadcast
% navi sys  : gps glonass galileo qzss sbas
% amb res   : fix and hold
% amb glo   : on
% val thres : 3.0
% antenna1  :                       ( 0.0000  0.0000  0.0000)
% antenna2  :                       ( 0.0000  0.0000  0.0000)
% ref pos   : 78.228825638   15.397310064   495.6816
%
% (lat/lon/height=WGS84/ellipsoidal,Q=1:fix,2:float,3:sbas,4:dgps,5:single,6:ppp,ns=# of satellites)
%  GPST                  latitude(deg) longitude(deg)  height(m)   Q  ns   sdn(m)   sde(m)   sdu(m)  sdne(m)  sdeu(m)  sdun(m) age(s)  ratio
2018/03/15 10:48:19.000   78.246536382   16.035413644   494.4019   1   6   0.0070   0.0043   0.0215  -0.0027   0.0011   0.0085   0.00    3.8
2018/03/15 10:48:20.000   78.246536390   16.035413798   494.4209   1   6   0.0049   0.0030   0.0152  -0.0019   0.0008   0.0060   0.00    4.8
2018/03/15 10:48:21.000   78.246536369   16.035413814   494.4224   1   6   0.0040   0.0025   0.0124  -0.0016   0.0006   0.0049   0.00    6.6
2018/03/15 10:48:22.000   78.246536354   16.035413795   494.4175   1   6   0.0035   0.0021   0.0107  -0.0014   0.0005   0.0043   0.00    6.9
2018/03/15 10:48:23.000   78.246536334   16.035413752   494.4096   1   6   0.0031   0.0019   0.0096  -0.0012   0.0005   0.0038   0.00    7.0
2018/03/15 10:48:24.000   78.246536323   16.035413723   494.4062   1   6   0.0029   0.0017   0.0088  -0.0011   0.0004   0.0035   0.00    6.8
2018/03/15 10:48:25.000   78.246536311   16.035413736   494.4091   1   6   0.0026   0.0016   0.0081  -0.0010   0.0004   0.0032   0.00    6.6
2018/03/15 10:48:26.000   78.246536305   16.035413763   494.4137   1   6   0.0025   0.0015   0.0076  -0.0010   0.0004   0.0030   0.00    6.7
2018/03/15 10:48:27.000   78.246536301   16.035413765   494.4134   1   6   0.0023   0.0014   0.0071  -0.0009   0.0004   0.0028   0.00    6.5
2018/03/15 10:48:28.000   78.246536298   16.035413755   494.4117   1   6   0.0022   0.0014   0.0068  -0.0009   0.0003   0.0027   0.00    6.1
2018/03/15 10:48:29.000   78.246536301   16.035413733   494.4099   1   6   0.0021   0.0013   0.0065  -0.0008   0.0003   0.0026   0.00   84.0
2018/03/15 10:48:30.000   78.246536304   16.035413729   494.4113   1   6   0.0020   0.0012   0.0062  -0.0008   0.0003   0.0025   0.00  137.6
2018/03/15 10:48:31.000   78.246536306   16.035413747   494.4140   1   6   0.0019   0.0012   0.0059  -0.0008   0.0003   0.0024   0.00  195.0
2018/03/15 10:48:32.000   78.246536304   16.035413756   494.4144   1   6   0.0019   0.0011   0.0057  -0.0007   0.0003   0.0023   0.00  257.3
2018/03/15 10:48:33.000   78.246536301   16.035413750   494.4126   1   6   0.0018   0.0011   0.0055  -0.0007   0.0003   0.0022   0.00  321.1
2018/03/15 10:48:34.000   78.246536298   16.035413754   494.4107   1   6   0.0017   0.0011   0.0054  -0.0007   0.0003   0.0021   0.00  384.1
2018/03/15 10:48:35.000   78.246536297   16.035413756   494.4109   1   6   0.0017   0.0010   0.0052  -0.0007   0.0003   0.0021   0.00  439.7
2018/03/15 10:48:36.000   78.246536295   16.035413771   494.4114   1   6   0.0016   0.0010   0.0050  -0.0006   0.0002   0.0020   0.00  505.1
2018/03/15 10:48:37.000   78.246536293   16.035413779   494.4113   1   6   0.0016   0.0010   0.0049  -0.0006   0.0002   0.0019   0.00  557.1
2018/03/15 10:48:38.000   78.246536289   16.035413780   494.4102   1   6   0.0016   0.0010   0.0048  -0.0006   0.0002   0.0019   0.00  583.1
2018/03/15 10:48:39.000   78.246536286   16.035413784   494.4096   1   6   0.0015   0.0009   0.0047  -0.0006   0.0002   0.0019   0.00  614.6
2018/03/15 10:48:40.000   78.246536281   16.035413788   494.4098   1   6   0.0015   0.0009   0.0046  -0.0006   0.0002   0.0018   0.00  664.3
2018/03/15 10:48:41.000   78.246536272   16.035413788   494.4095   1   6   0.0015   0.0009   0.0045  -0.0006   0.0002   0.0018   0.00  700.3
2018/03/15 10:48:42.000   78.246536263   16.035413788   494.4090   1   6   0.0014   0.0009   0.0044  -0.0006   0.0002   0.0017   0.00  717.7
2018/03/15 10:48:43.000   78.246536255   16.035413788   494.4086   1   6   0.0014   0.0009   0.0043  -0.0005   0.0002   0.0017   0.00  732.1
2018/03/15 10:48:44.000   78.246536245   16.035413792   494.4084   1   6   0.0014   0.0008   0.0042  -0.0005   0.0002   0.0017   0.00  740.8
2018/03/15 10:48:45.000   78.246536235   16.035413799   494.4078   1   6   0.0013   0.0008   0.0041  -0.0005   0.0002   0.0016   0.00  726.4
2018/03/15 10:48:46.000   78.246536225   16.035413808   494.4072   1   6   0.0013   0.0008   0.0040  -0.0005   0.0002   0.0016   0.00  725.8
2018/03/15 10:48:47.000   78.246536216   16.035413818   494.4067   1   6   0.0013   0.0008   0.0040  -0.0005   0.0002   0.0016   0.00  704.0
2018/03/15 10:48:48.000   78.246536208   16.035413833   494.4059   1   6   0.0013   0.0008   0.0039  -0.0005   0.0002   0.0015   0.00  695.2
2018/03/15 10:48:49.000   78.246536199   16.035413841   494.4045   1   6   0.0013   0.0008   0.0038  -0.0005   0.0002   0.0015   0.00  691.2
2018/03/15 10:48:50.000   78.246536189   16.035413849   494.4037   1   6   0.0012   0.0008   0.0038  -0.0005   0.0002   0.0015   0.00  700.2
2018/03/15 10:48:51.000   78.246536179   16.035413861   494.4032   1   6   0.0012   0.0007   0.0037  -0.0005   0.0002   0.0015   0.00  701.7
2018/03/15 10:48:52.000   78.246536168   16.035413868   494.4022   1   6   0.0012   0.0007   0.0037  -0.0005   0.0002   0.0015   0.00  697.2
2018/03/15 10:48:53.000   78.246536158   16.035413879   494.4018   1   6   0.0012   0.0007   0.0036  -0.0005   0.0002   0.0014   0.00  686.2
2018/03/15 10:48:54.000   78.246536146   16.035413889   494.4011   1   6   0.0012   0.0007   0.0036  -0.0005   0.0002   0.0014   0.00  672.1
2018/03/15 10:48:55.000   78.246536134   16.035413897   494.4001   1   6   0.0011   0.0007   0.0035  -0.0005   0.0002   0.0014   0.00  651.6
2018/03/15 10:48:56.000   78.246536122   16.035413900   494.3989   1   6   0.0011   0.0007   0.0035  -0.0004   0.0002   0.0014   0.00  622.8
2018/03/15 10:48:57.000   78.246536109   16.035413900   494.3974   1   6   0.0011   0.0007   0.0034  -0.0004   0.0002   0.0014   0.00  608.6
2018/03/15 10:48:58.000   78.246536096   16.035413900   494.3960   1   6   0.0011   0.0007   0.0034  -0.0004   0.0002   0.0013   0.00  600.6
2018/03/15 10:48:59.000   78.246536083   16.035413906   494.3952   1   6   0.0011   0.0007   0.0033  -0.0004   0.0002   0.0013   0.00  592.6
2018/03/15 10:49:00.000   78.246536071   16.035413910   494.3946   1   6   0.0011   0.0007   0.0033  -0.0004   0.0002   0.0013   0.00  577.9
2018/03/15 10:49:01.000   78.246536059   16.035413914   494.3939   1   6   0.0011   0.0007   0.0033  -0.0004   0.0001   0.0013   0.00  573.6
2018/03/15 10:49:02.000   78.246536048   16.035413918   494.3930   1   6   0.0011   0.0006   0.0032  -0.0004   0.0001   0.0013   0.00  553.0
2018/03/15 10:49:03.000   78.246536038   16.035413923   494.3920   1   6   0.0010   0.0006   0.0032  -0.0004   0.0001   0.0013   0.00  527.6
2018/03/15 10:49:04.000   78.246536030   16.035413928   494.3911   1   6   0.0010   0.0006   0.0032  -0.0004   0.0001   0.0012   0.00  514.4
2018/03/15 10:49:05.000   78.246536022   16.035413932   494.3905   1   6   0.0010   0.0006   0.0031  -0.0004   0.0001   0.0012   0.00  510.7
2018/03/15 10:49:06.000   78.246536016   16.035413937   494.3901   1   6   0.0010   0.0006   0.0031  -0.0004   0.0001   0.0012   0.00  504.1
2018/03/15 10:49:07.000   78.246536010   16.035413940   494.3897   1   6   0.0010   0.0006   0.0031  -0.0004   0.0001   0.0012   0.00  499.5
2018/03/15 10:49:08.000   78.246536005   16.035413945   494.3894   1   6   0.0010   0.0006   0.0030  -0.0004   0.0001   0.0012   0.00  497.3
2018/03/15 10:49:09.000   78.246536000   16.035413951   494.3888   1   6   0.0010   0.0006   0.0030  -0.0004   0.0001   0.0012   0.00  484.1
2018/03/15 10:49:10.000   78.246535998   16.035413956   494.3881   1   6   0.0010   0.0006   0.0030  -0.0004   0.0001   0.0012   0.00  472.1
2018/03/15 10:49:11.000   78.246535994   16.035413959   494.3874   1   6   0.0010   0.0006   0.0029  -0.0004   0.0001   0.0012   0.00  465.5
2018/03/15 10:49:12.000   78.246535991   16.035413962   494.3869   1   6   0.0010   0.0006   0.0029  -0.0004   0.0001   0.0012   0.00  464.0
2018/03/15 10:49:13.000   78.246535988   16.035413966   494.3864   1   6   0.0009   0.0006   0.0029  -0.0004   0.0001   0.0011   0.00  460.5
2018/03/15 10:49:14.000   78.246535985   16.035413973   494.3864   1   6   0.0009   0.0006   0.0029  -0.0004   0.0001   0.0011   0.00  456.6
2018/03/15 10:49:15.000   78.246535981   16.035413983   494.3862   1   6   0.0009   0.0006   0.0028  -0.0004   0.0001   0.0011   0.00  443.0
2018/03/15 10:49:16.000   78.246535975   16.035413989   494.3856   1   6   0.0009   0.0006   0.0028  -0.0004   0.0001   0.0011   0.00  429.9
2018/03/15 10:49:17.000   78.246535970   16.035413994   494.3852   1   6   0.0009   0.0006   0.0028  -0.0004   0.0001   0.0011   0.00  416.1
2018/03/15 10:49:18.000   78.246535965   16.035413999   494.3850   1   6   0.0009   0.0006   0.0028  -0.0004   0.0001   0.0011   0.00  404.7
2018/03/15 10:49:19.000   78.246535960   16.035414005   494.3842   1   6   0.0009   0.0006   0.0027  -0.0004   0.0001   0.0011   0.00  395.6
2018/03/15 10:49:20.000   78.246535956   16.035414007   494.3837   1   6   0.0009   0.0005   0.0027  -0.0004   0.0001   0.0011   0.00  386.2
2018/03/15 10:49:21.000   78.246535951   16.035414008   494.3834   1   6   0.0009   0.0005   0.0027  -0.0003   0.0001   0.0011   0.00  376.7
2018/03/15 10:49:22.000   78.246535948   16.035414016   494.3835   1   6   0.0009   0.0005   0.0027  -0.0003   0.0001   0.0011   0.00  370.4
2018/03/15 10:49:23.000   78.246535945   16.035414022   494.3834   1   6   0.0009   0.0005   0.0027  -0.0003   0.0001   0.0011   0.00  364.0
2018/03/15 10:49:24.000   78.246535942   16.035414024   494.3830   1   6   0.0009   0.0005   0.0026  -0.0003   0.0001   0.0010   0.00  356.7
2018/03/15 10:49:25.000   78.246535939   16.035414025   494.3822   1   6   0.0009   0.0005   0.0026  -0.0003   0.0001   0.0010   0.00  347.2
2018/03/15 10:49:26.000   78.246535936   16.035414028   494.3818   1   6   0.0008   0.0005   0.0026  -0.0003   0.0001   0.0010   0.00  342.2
2018/03/15 10:49:27.000   78.246535934   16.035414035   494.3817   1   6   0.0008   0.0005   0.0026  -0.0003   0.0001   0.0010   0.00  338.9
2018/03/15 10:49:28.000   78.246535933   16.035414038   494.3815   1   6   0.0008   0.0005   0.0026  -0.0003   0.0001   0.0010   0.00  337.7
2018/03/15 10:49:29.000   78.246535914   16.035414051   494.3802   2   7   0.0009   0.0007   0.0033  -0.0005  -0.0003   0.0012   0.00    1.6
2018/03/15 10:49:30.000   78.246535913   16.035414055   494.3799   2   7   0.0009   0.0007   0.0033  -0.0005  -0.0003   0.0012   0.00    1.5
2018/03/15 10:49:31.000   78.246535913   16.035414060   494.3796   2   7   0.0009   0.0007   0.0033  -0.0005  -0.0003   0.0012   0.00    2.0
2018/03/15 10:49:32.000   78.246535912   16.035414064   494.3793   2   7   0.0009   0.0007   0.0032  -0.0005  -0.0003   0.0012   0.00    2.2
2018/03/15 10:49:33.000   78.246535911   16.035414065   494.3791   2   7   0.0009   0.0007   0.0032  -0.0005  -0.0003   0.0012   0.00    2.5
2018/03/15 10:49:34.000   78.246535910   16.035414066   494.3788   2   7   0.0009   0.0007   0.0032  -0.0005  -0.0003   0.0012   0.00    2.9
2018/03/15 10:49:35.000   78.246535922   16.035414066   494.3807   1   7   0.0008   0.0005   0.0024  -0.0003   0.0001   0.0010   0.00    3.2
2018/03/15 10:49:36.000   78.246535920   16.035414068   494.3805   1   7   0.0008   0.0005   0.0024  -0.0003   0.0001   0.0010   0.00    3.5
2018/03/15 10:49:37.000   78.246535918   16.035414072   494.3804   1   7   0.0008   0.0005   0.0024  -0.0003   0.0000   0.0010   0.00    3.9
2018/03/15 10:49:38.000   78.246535916   16.035414077   494.3805   1   7   0.0008   0.0005   0.0024  -0.0003   0.0000   0.0010   0.00    4.3
2018/03/15 10:49:39.000   78.246535914   16.035414079   494.3804   1   7   0.0008   0.0005   0.0024  -0.0003  -0.0000   0.0010   0.00    4.8
2018/03/15 10:49:40.000   78.246535912   16.035414079   494.3800   1   7   0.0008   0.0005   0.0024  -0.0003  -0.0000   0.0009   0.00    5.2
2018/03/15 10:49:41.000   78.246535909   16.035414079   494.3794   1   7   0.0008   0.0005   0.0023  -0.0003  -0.0000   0.0009   0.00    5.6
2018/03/15 10:49:42.000   78.246535907   16.035414082   494.3793   1   7   0.0008   0.0005   0.0023  -0.0003  -0.0001   0.0009   0.00    5.9
2018/03/15 10:49:43.000   78.246535906   16.035414085   494.3794   1   7   0.0008   0.0005   0.0023  -0.0003  -0.0001   0.0009   0.00    6.3
2018/03/15 10:49:44.000   78.246535905   16.035414087   494.3794   1   7   0.0007   0.0005   0.0023  -0.0003  -0.0001   0.0009   0.00    6.7
2018/03/15 10:49:45.000   78.246535903   16.035414087   494.3791   1   7   0.0007   0.0005   0.0023  -0.0003  -0.0001   0.0009   0.00   10.0
2018/03/15 10:49:46.000   78.246535902   16.035414087   494.3788   1   7   0.0007   0.0005   0.0023  -0.0003  -0.0001   0.0009   0.00   13.2
2018/03/15 10:49:47.000   78.246535901   16.035414087   494.3786   1   7   0.0007   0.0005   0.0023  -0.0003  -0.0001   0.0009   0.00   16.2
2018/03/15 10:49:48.000   78.246535900   16.035414088   494.3786   1   7   0.0007   0.0005   0.0022  -0.0003  -0.0001   0.0009   0.00   19.2
2018/03/15 10:49:49.000   78.246535900   16.035414089   494.3786   1   7   0.0007   0.0005   0.0022  -0.0003  -0.0001   0.0009   0.00   22.2
2018/03/15 10:49:50.000   78.246535899   16.035414091   494.3785   1   7   0.0007   0.0004   0.0022  -0.0003  -0.0001   0.0009   0.00   25.3
2018/03/15 10:49:51.000   78.246535899   16.035414091   494.3783   1   7   0.0007   0.0004   0.0022  -0.0003  -0.0001   0.0009   0.00   28.2
2018/03/15 10:49:52.000   78.246535899   16.035414090   494.3782   1   7   0.0007   0.0004   0.0022  -0.0003  -0.0001   0.0009   0.00   31.3
2018/03/15 10:49:53.000   78.246535899   16.035414089   494.3780   1   7   0.0007   0.0004   0.0022  -0.0003  -0.0001   0.0009   0.00   34.2
2018/03/15 10:49:54.000   78.246535898   16.035414089   494.3780   1   7   0.0007   0.0004   0.0022  -0.0003  -0.0001   0.0009   0.00   37.1
2018/03/15 10:49:55.000   78.246535898   16.035414086   494.3778   1   7   0.0007   0.0004   0.0022  -0.0003  -0.0001   0.0009   0.00   39.9
2018/03/15 10:49:56.000   78.246535897   16.035414084   494.3776   1   7   0.0007   0.0004   0.0021  -0.0003  -0.0001   0.0009   0.00   42.9
2018/03/15 10:49:57.000   78.246535895   16.035414082   494.3774   1   7   0.0007   0.0004   0.0021  -0.0003  -0.0001   0.0009   0.00   45.3
2018/03/15 10:49:58.000   78.246535892   16.035414081   494.3769   1   7   0.0007   0.0004   0.0021  -0.0003  -0.0001   0.0009   0.00   47.7
2018/03/15 10:49:59.000   78.246535890   16.035414077   494.3767   1   7   0.0007   0.0004   0.0021  -0.0003  -0.0001   0.0009   0.00   50.1
2018/03/15 10:50:00.000   78.246535887   16.035414075   494.3764   1   7   0.0007   0.0004   0.0021  -0.0003  -0.0001   0.0009   0.00   52.4
2018/03/15 10:50:01.000   78.246535885   16.035414074   494.3763   1   7   0.0007   0.0004   0.0021  -0.0003  -0.0001   0.0009   0.00   54.7
2018/03/15 10:50:02.000   78.246535883   16.035414071   494.3760   1   7   0.0007   0.0004   0.0021  -0.0003  -0.0001   0.0009   0.00   56.8
2018/03/15 10:50:03.000   78.246535881   16.035414067   494.3756   1   7   0.0007   0.0004   0.0021  -0.0003  -0.0001   0.0008   0.00   59.3
2018/03/15 10:50:04.000   78.246535879   16.035414064   494.3753   1   7   0.0007   0.0004   0.0021  -0.0003  -0.0001   0.0008   0.00   61.5
2018/03/15 10:50:05.000   78.246535877   16.035414061   494.3752   1   7   0.0007   0.0004   0.0020  -0.0003  -0.0001   0.0008   0.00   64.0
2018/03/15 10:50:06.000   78.246535876   16.035414058   494.3749   1   7   0.0007   0.0004   0.0020  -0.0003  -0.0001   0.0008   0.00   65.8
2018/03/15 10:50:07.000   78.246535874   16.035414055   494.3746   1   7   0.0007   0.0004   0.0020  -0.0003  -0.0001   0.0008   0.00   67.4
2018/03/15 10:50:08.000   78.246535872   16.035414050   494.3742   1   7   0.0007   0.0004   0.0020  -0.0003  -0.0001   0.0008   0.00   69.0
2018/03/15 10:50:09.000   78.246535870   16.035414046   494.3738   1   7   0.0007   0.0004   0.0020  -0.0003  -0.0001   0.0008   0.00   70.4
2018/03/15 10:50:10.000   78.246535869   16.035414042   494.3735   1   7   0.0006   0.0004   0.0020  -0.0003  -0.0001   0.0008   0.00   72.4
2018/03/15 10:50:11.000   78.246535867   16.035414039   494.3732   1   7   0.0006   0.0004   0.0020  -0.0002  -0.0001   0.0008   0.00   74.3
2018/03/15 10:50:12.000   78.246535866   16.035414035   494.3730   1   7   0.0006   0.0004   0.0020  -0.0002  -0.0001   0.0008   0.00   75.8
2018/03/15 10:50:13.000   78.246535865   16.035414033   494.3729   1   7   0.0006   0.0004   0.0020  -0.0002  -0.0001   0.0008   0.00   77.1
2018/03/15 10:50:14.000   78.246535863   16.035414029   494.3726   1   7   0.0006   0.0004   0.0020  -0.0002  -0.0001   0.0008   0.00   78.5
2018/03/15 10:50:15.000   78.246535861   16.035414023   494.3722   1   7   0.0006   0.0004   0.0020  -0.0002  -0.0001   0.0008   0.00   79.6
2018/03/15 10:50:16.000   78.246535860   16.035414017   494.3716   1   7   0.0006   0.0004   0.0019  -0.0002  -0.0001   0.0008   0.00   80.6
2018/03/15 10:50:17.000   78.246535858   16.035414015   494.3715   1   7   0.0006   0.0004   0.0019  -0.0002  -0.0001   0.0008   0.00   81.5
2018/03/15 10:50:18.000   78.246535857   16.035414011   494.3713   1   7   0.0006   0.0004   0.0019  -0.0002  -0.0001   0.0008   0.00   82.5
2018/03/15 10:50:19.000   78.246535833   16.035414024   494.3687   2   7   0.0007   0.0005   0.0025  -0.0004  -0.0003   0.0010   0.00    1.3
2018/03/15 10:50:20.000   78.246535831   16.035414020   494.3683   2   7   0.0007   0.0005   0.0025  -0.0004  -0.0003   0.0010   0.00    1.5
2018/03/15 10:50:21.000   78.246535828   16.035414017   494.3679   2   7   0.0007   0.0005   0.0025  -0.0004  -0.0003   0.0010   0.00    1.7
2018/03/15 10:50:22.000   78.246535827   16.035414013   494.3676   2   7   0.0007   0.0005   0.0025  -0.0004  -0.0003   0.0010   0.00    1.9
2018/03/15 10:50:23.000   78.246535825   16.035414010   494.3674   2   7   0.0007   0.0005   0.0025  -0.0004  -0.0003   0.0010   0.00    2.1
2018/03/15 10:50:24.000   78.246535824   16.035414007   494.3672   2   7   0.0007   0.0005   0.0025  -0.0004  -0.0003   0.0010   0.00    2.4
2018/03/15 10:50:25.000   78.246535824   16.035414005   494.3670   2   7   0.0007   0.0005   0.0025  -0.0004  -0.0003   0.0010   0.00    2.6
2018/03/15 10:50:26.000   78.246535823   16.035414003   494.3669   2   7   0.0007   0.0005   0.0024  -0.0004  -0.0003   0.0010   0.00    2.9
2018/03/15 10:50:27.000   78.246535854   16.035413968   494.3681   1   7   0.0006   0.0004   0.0019  -0.0002  -0.0001   0.0008   0.00    3.1
2018/03/15 10:50:28.000   78.246535854   16.035413965   494.3679   1   7   0.0006   0.0004   0.0019  -0.0002  -0.0001   0.0008   0.00    3.3
2018/03/15 10:50:29.000   78.246535855   16.035413964   494.3679   1   7   0.0006   0.0004   0.0018  -0.0002  -0.0001   0.0008   0.00    3.5
2018/03/15 10:50:30.000   78.246535856   16.035413963   494.3679   1   7   0.0006   0.0004   0.0018  -0.0002  -0.0001   0.0008   0.00    3.6
2018/03/15 10:50:31.000   78.246535856   16.035413962   494.3678   1   7   0.0006   0.0004   0.0018  -0.0002  -0.0001   0.0008   0.00    3.9
2018/03/15 10:50:32.000   78.246535857   16.035413960   494.3678   1   7   0.0006   0.0004   0.0018  -0.0002  -0.0001   0.0008   0.00    4.2
2018/03/15 10:50:33.000   78.246535857   16.035413959   494.3680   1   7   0.0006   0.0004   0.0018  -0.0002  -0.0001   0.0008   0.00    4.5
2018/03/15 10:50:34.000   78.246535858   16.035413960   494.3682   1   7   0.0006   0.0004   0.0018  -0.0002  -0.0001   0.0008   0.00    4.8
2018/03/15 10:50:35.000   78.246535858   16.035413961   494.3684   1   7   0.0006   0.0004   0.0018  -0.0002  -0.0001   0.0008   0.00    5.1
2018/03/15 10:50:36.000   78.246535858   16.035413962   494.3686   1   7   0.0006   0.0004   0.0018  -0.0002  -0.0001   0.0008   0.00    5.4
2018/03/15 10:50:37.000   78.246535858   16.035413962   494.3687   1   7   0.0006   0.0004   0.0018  -0.0002  -0.0001   0.0008   0.00    7.1
2018/03/15 10:50:38.000   78.246535858   16.035413963   494.3689   1   7   0.0006   0.0004   0.0018  -0.0002  -0.0001   0.0008   0.00    8.8
2018/03/15 10:50:39.000   78.246535858   16.035413962   494.3691   1   7   0.0006   0.0004   0.0018  -0.0002  -0.0001   0.0008   0.00   10.4
2018/03/15 10:50:40.000   78.246535858   16.035413962   494.3694   1   7   0.0006   0.0004   0.0018  -0.0002  -0.0001   0.0007   0.00   11.9
2018/03/15 10:50:41.000   78.246535858   16.035413963   494.3697   1   7   0.0006   0.0004   0.0018  -0.0002  -0.0002   0.0007   0.00   13.5
2018/03/15 10:50:42.000   78.246535857   16.035413963   494.3700   1   7   0.0006   0.0004   0.0018  -0.0002  -0.0002   0.0007   0.00   15.0
2018/03/15 10:50:43.000   78.246535858   16.035413963   494.3703   1   7   0.0006   0.0004   0.0018  -0.0002  -0.0002   0.0007   0.00   16.4
2018/03/15 10:50:44.000   78.246535858   16.035413963   494.3705   1   7   0.0006   0.0004   0.0017  -0.0002  -0.0002   0.0007   0.00   17.9
2018/03/15 10:50:45.000   78.246535858   16.035413964   494.3706   1   7   0.0006   0.0004   0.0017  -0.0002  -0.0002   0.0007   0.00   19.2
2018/03/15 10:50:46.000   78.246535858   16.035413965   494.3709   1   7   0.0006   0.0004   0.0017  -0.0002  -0.0002   0.0007   0.00   20.6
2018/03/15 10:50:47.000   78.246535858   16.035413965   494.3711   1   7   0.0006   0.0004   0.0017  -0.0002  -0.0002   0.0007   0.00   21.9
2018/03/15 10:50:48.000   78.246535857   16.035413965   494.3712   1   7   0.0006   0.0004   0.0017  -0.0002  -0.0002   0.0007   0.00   23.2
2018/03/15 10:50:49.000   78.246535857   16.035413965   494.3713   1   7   0.0006   0.0004   0.0017  -0.0002  -0.0002   0.0007   0.00   24.4
2018/03/15 10:50:50.000   78.246535857   16.035413964   494.3714   1   7   0.0005   0.0004   0.0017  -0.0002  -0.0002   0.0007   0.00   25.6
2018/03/15 10:50:51.000   78.246535857   16.035413963   494.3715   1   7   0.0005   0.0003   0.0017  -0.0002  -0.0002   0.0007   0.00   26.7
2018/03/15 10:50:52.000   78.246535856   16.035413962   494.3715   1   7   0.0005   0.0003   0.0017  -0.0002  -0.0002   0.0007   0.00   27.6
2018/03/15 10:50:53.000   78.246535856   16.035413961   494.3714   1   7   0.0005   0.0003   0.0017  -0.0002  -0.0002   0.0007   0.00   28.5
2018/03/15 10:50:54.000   78.246535855   16.035413959   494.3713   1   7   0.0005   0.0003   0.0017  -0.0002  -0.0002   0.0007   0.00   29.4
2018/03/15 10:50:55.000   78.246535854   16.035413958   494.3713   1   7   0.0005   0.0003   0.0017  -0.0002  -0.0002   0.0007   0.00   30.2
2018/03/15 10:50:56.000   78.246535853   16.035413957   494.3712   1   7   0.0005   0.0003   0.0017  -0.0002  -0.0002   0.0007   0.00   31.1
2018/03/15 10:50:57.000   78.246535852   16.035413956   494.3712   1   7   0.0005   0.0003   0.0017  -0.0002  -0.0002   0.0007   0.00   32.1
2018/03/15 10:50:58.000   78.246535851   16.035413955   494.3712   1   7   0.0005   0.0003   0.0017  -0.0002  -0.0002   0.0007   0.00   33.0
2018/03/15 10:50:59.000   78.246535850   16.035413955   494.3712   1   7   0.0005   0.0003   0.0017  -0.0002  -0.0002   0.0007   0.00   33.9
2018/03/15 10:51:00.000   78.246535849   16.035413954   494.3712   1   7   0.0005   0.0003   0.0017  -0.0002  -0.0002   0.0007   0.00   34.6
2018/03/15 10:51:01.000   78.246535849   16.035413953   494.3711   1   7   0.0005   0.0003   0.0017  -0.0002  -0.0002   0.0007   0.00   35.4
2018/03/15 10:51:02.000   78.246535848   16.035413954   494.3713   1   7   0.0005   0.0003   0.0016  -0.0002  -0.0002   0.0007   0.00   36.1
2018/03/15 10:51:03.000   78.246535848   16.035413954   494.3715   1   7   0.0005   0.0003   0.0016  -0.0002  -0.0002   0.0007   0.00   36.8
2018/03/15 10:51:04.000   78.246535848   16.035413953   494.3715   1   7   0.0005   0.0003   0.0016  -0.0002  -0.0002   0.0007   0.00   37.5
2018/03/15 10:51:05.000   78.246535848   16.035413953   494.3714   1   7   0.0005   0.0003   0.0016  -0.0002  -0.0002   0.0007   0.00   38.4
2018/03/15 10:51:06.000   78.246535847   16.035413953   494.3715   1   7   0.0005   0.0003   0.0016  -0.0002  -0.0002   0.0007   0.00   39.1
2018/03/15 10:51:07.000   78.246535846   16.035413953   494.3714   1   7   0.0005   0.0003   0.0016  -0.0002  -0.0002   0.0007   0.00   39.8
2018/03/15 10:51:08.000   78.246535845   16.035413952   494.3713   1   7   0.0005   0.0003   0.0016  -0.0002  -0.0002   0.0007   0.00   40.4
2018/03/15 10:51:09.000   78.246535845   16.035413951   494.3712   1   7   0.0005   0.0003   0.0016  -0.0002  -0.0002   0.0007   0.00   41.0
2018/03/15 10:51:10.000   78.246535844   16.035413951   494.3711   1   7   0.0005   0.0003   0.0016  -0.0002  -0.0002   0.0007   0.00   41.6
2018/03/15 10:51:11.000   78.246535843   16.035413951   494.3710   1   7   0.0005   0.0003   0.0016  -0.0002  -0.0002   0.0007   0.00   42.3
2018/03/15 10:51:12.000   78.246535842   16.035413951   494.3710   1   7   0.0005   0.0003   0.0016  -0.0002  -0.0002   0.0007   0.00   42.9
2018/03/15 10:51:13.000   78.246535841   16.035413950   494.3708   1   7   0.0005   0.0003   0.0016  -0.0002  -0.0002   0.0007   0.00   43.6
2018/03/15 10:51:14.000   78.246535840   16.035413948   494.3706   1   7   0.0005   0.0003   0.0016  -0.0002  -0.0002   0.0007   0.00   44.1
2018/03/15 10:51:15.000   78.246535839   16.035413948   494.3705   1   7   0.0005   0.0003   0.0016  -0.0002  -0.0002   0.0007   0.00   44.6
2018/03/15 10:51:16.000   78.246535839   16.035413947   494.3704   1   7   0.0005   0.0003   0.0016  -0.0002  -0.0002   0.0007   0.00   45.2
2018/03/15 10:51:17.000   78.246535839   16.035413946   494.3704   1   7   0.0005   0.0003   0.0016  -0.0002  -0.0002   0.0007   0.00   45.9
2018/03/15 10:51:18.000   78.246535838   16.035413946   494.3703   1   7   0.0005   0.0003   0.0016  -0.0002  -0.0002   0.0007   0.00   46.8
2018/03/15 10:51:19.000   78.246535839   16.035413946   494.3703   1   7   0.0005   0.0003   0.0016  -0.0002  -0.0002   0.0007   0.00   47.7
2018/03/15 10:51:20.000   78.246535839   16.035413946   494.3705   1   7   0.0005   0.0003   0.0016  -0.0002  -0.0002   0.0007   0.00   48.6
2018/03/15 10:51:21.000   78.246535840   16.035413947   494.3706   1   7   0.0005   0.0003   0.0016  -0.0002  -0.0002   0.0007   0.00   49.4
2018/03/15 10:51:22.000   78.246535841   16.035413946   494.3705   1   7   0.0005   0.0003   0.0016  -0.0002  -0.0002   0.0007   0.00   50.3
2018/03/15 10:51:23.000   78.246535841   16.035413944   494.3704   1   7   0.0005   0.0003   0.0016  -0.0002  -0.0002   0.0007   0.00   51.1
2018/03/15 10:51:24.000   78.246535841   16.035413944   494.3703   1   7   0.0005   0.0003   0.0015  -0.0002  -0.0002   0.0007   0.00   51.8
2018/03/15 10:51:25.000   78.246535842   16.035413944   494.3703   1   7   0.0005   0.0003   0.0015  -0.0002  -0.0002   0.0007   0.00   52.5
2018/03/15 10:51:26.000   78.246535843   16.035413943   494.3704   1   7   0.0005   0.0003   0.0015  -0.0002  -0.0002   0.0007   0.00   53.3
2018/03/15 10:51:27.000   78.246535843   16.035413943   494.3703   1   7   0.0005   0.0003   0.0015  -0.0002  -0.0002   0.0007   0.00   53.9
2018/03/15 10:51:28.000   78.246535844   16.035413942   494.3701   1   7   0.0005   0.0003   0.0015  -0.0002  -0.0002   0.0007   0.00   54.6
2018/03/15 10:51:29.000   78.246535844   16.035413941   494.3700   1   7   0.0005   0.0003   0.0015  -0.0002  -0.0002   0.0007   0.00   55.6
2018/03/15 10:51:30.000   78.246535845   16.035413941   494.3699   1   7   0.0005   0.0003   0.0015  -0.0002  -0.0002   0.0007   0.00   56.4
2018/03/15 10:51:31.000   78.246535846   16.035413941   494.3700   1   7   0.0005   0.0003   0.0015  -0.0002  -0.0002   0.0007   0.00   57.1
2018/03/15 10:51:32.000   78.246535847   16.035413940   494.3699   1   7   0.0005   0.0003   0.0015  -0.0002  -0.0002   0.0007   0.00   57.8
2018/03/15 10:51:33.000   78.246535847   16.035413938   494.3699   1   7   0.0005   0.0003   0.0015  -0.0002  -0.0002   0.0007   0.00   58.5
2018/03/15 10:51:34.000   78.246535848   16.035413937   494.3698   1   7   0.0005   0.0003   0.0015  -0.0002  -0.0002   0.0007   0.00   59.2
2018/03/15 10:51:35.000   78.246535848   16.035413938   494.3699   1   7   0.0005   0.0003   0.0015  -0.0002  -0.0002   0.0007   0.00   60.0
2018/03/15 10:51:36.000   78.246535850   16.035413938   494.3699   1   7   0.0005   0.0003   0.0015  -0.0002  -0.0002   0.0006   0.00   60.6
2018/03/15 10:51:37.000   78.246535851   16.035413939   494.3700   1   7   0.0005   0.0003   0.0015  -0.0002  -0.0002   0.0006   0.00   61.4
2018/03/15 10:51:38.000   78.246535852   16.035413940   494.3700   1   7   0.0005   0.0003   0.0015  -0.0002  -0.0002   0.0006   0.00   62.3
2018/03/15 10:51:39.000   78.246535854   16.035413940   494.3701   1   7   0.0005   0.0003   0.0015  -0.0002  -0.0002   0.0006   0.00   63.3
2018/03/15 10:51:40.000   78.246535856   16.035413943   494.3704   1   7   0.0005   0.0003   0.0015  -0.0002  -0.0002   0.0006   0.00   64.4
2018/03/15 10:51:41.000   78.246535857   16.035413945   494.3705   1   7   0.0005   0.0003   0.0015  -0.0002  -0.0002   0.0006   0.00   65.7
2018/03/15 10:51:42.000   78.246535859   16.035413947   494.3706   1   7   0.0005   0.0003   0.0015  -0.0002  -0.0002   0.0006   0.00   66.7
2018/03/15 10:51:43.000   78.246535860   16.035413949   494.3707   1   7   0.0005   0.0003   0.0015  -0.0002  -0.0002   0.0006   0.00   67.5
2018/03/15 10:51:44.000   78.246535862   16.035413952   494.3708   1   7   0.0005   0.0003   0.0015  -0.0002  -0.0002   0.0006   0.00   68.2
2018/03/15 10:51:45.000   78.246535864   16.035413953   494.3709   1   7   0.0005   0.0003   0.0015  -0.0002  -0.0002   0.0006   0.00   69.2
2018/03/15 10:51:46.000   78.246535865   16.035413956   494.3711   1   7   0.0005   0.0003   0.0015  -0.0002  -0.0002   0.0006   0.00   70.5
2018/03/15 10:51:47.000   78.246535867   16.035413959   494.3713   1   7   0.0005   0.0003   0.0015  -0.0002  -0.0002   0.0006   0.00   71.7
2018/03/15 10:51:48.000   78.246535870   16.035413962   494.3714   1   7   0.0005   0.0003   0.0015  -0.0002  -0.0002   0.0006   0.00   73.0
2018/03/15 10:51:49.000   78.246535872   16.035413965   494.3716   1   7   0.0005   0.0003   0.0015  -0.0002  -0.0002   0.0006   0.00   74.1
2018/03/15 10:51:50.000   78.246535875   16.035413968   494.3719   1   7   0.0005   0.0003   0.0015  -0.0002  -0.0002   0.0006   0.00   75.2
2018/03/15 10:51:51.000   78.246535877   16.035413970   494.3720   1   7   0.0005   0.0003   0.0014  -0.0002  -0.0002   0.0006   0.00   76.6
2018/03/15 10:51:52.000   78.246535879   16.035413973   494.3722   1   7   0.0005   0.0003   0.0014  -0.0002  -0.0002   0.0006   0.00   77.8
2018/03/15 10:51:53.000   78.246535881   16.035413974   494.3723   1   7   0.0005   0.0003   0.0014  -0.0002  -0.0002   0.0006   0.00   79.0
2018/03/15 10:51:54.000   78.246535883   16.035413975   494.3724   1   7   0.0005   0.0003   0.0014  -0.0002  -0.0002   0.0006   0.00   80.1
2018/03/15 10:51:55.000   78.246535885   16.035413977   494.3726   1   7   0.0005   0.0003   0.0014  -0.0002  -0.0002   0.0006   0.00   81.1
2018/03/15 10:51:56.000   78.246535887   16.035413980   494.3730   1   7   0.0005   0.0003   0.0014  -0.0002  -0.0002   0.0006   0.00   82.2
2018/03/15 10:51:57.000   78.246535889   16.035413981   494.3732   1   7   0.0005   0.0003   0.0014  -0.0002  -0.0002   0.0006   0.00   83.4
2018/03/15 10:51:58.000   78.246535891   16.035413982   494.3733   1   7   0.0005   0.0003   0.0014  -0.0002  -0.0002   0.0006   0.00   85.1
2018/03/15 10:51:59.000   78.246535892   16.035413983   494.3733   1   7   0.0005   0.0003   0.0014  -0.0002  -0.0002   0.0006   0.00   86.6
2018/03/15 10:52:00.000   78.246535894   16.035413984   494.3736   1   7   0.0005   0.0003   0.0014  -0.0002  -0.0002   0.0006   0.00   88.1
2018/03/15 10:52:01.000   78.246535896   16.035413986   494.3740   1   7   0.0004   0.0003   0.0014  -0.0002  -0.0002   0.0006   0.00   89.4
2018/03/15 10:52:02.000   78.246535898   16.035413987   494.3741   1   7   0.0004   0.0003   0.0014  -0.0002  -0.0002   0.0006   0.00   90.7
2018/03/15 10:52:03.000   78.246535899   16.035413988   494.3743   1   7   0.0004   0.0003   0.0014  -0.0002  -0.0002   0.0006   0.00   91.7
2018/03/15 10:52:04.000   78.246535901   16.035413990   494.3744   1   7   0.0004   0.0003   0.0014  -0.0002  -0.0002   0.0006   0.00   93.0
2018/03/15 10:52:05.000   78.246535902   16.035413992   494.3747   1   7   0.0004   0.0003   0.0014  -0.0002  -0.0002   0.0006   0.00   94.4
2018/03/15 10:52:06.000   78.246535903   16.035413994   494.3749   1   7   0.0004   0.0003   0.0014  -0.0002  -0.0002   0.0006   0.00   96.0
2018/03/15 10:52:07.000   78.246535904   16.035413994   494.3751   1   7   0.0004   0.0003   0.0014  -0.0002  -0.0002   0.0006   0.00   97.1
2018/03/15 10:52:08.000   78.246535905   16.035413995   494.3751   1   7   0.0004   0.0003   0.0014  -0.0002  -0.0002   0.0006   0.00   97.9
2018/03/15 10:52:09.000   78.246535906   16.035413995   494.3751   1   7   0.0004   0.0003   0.0014  -0.0002  -0.0002   0.0006   0.00   98.5
2018/03/15 10:52:10.000   78.246535906   16.035413996   494.3752   1   7   0.0004   0.0003   0.0014  -0.0002  -0.0002   0.0006   0.00   99.4
2018/03/15 10:52:11.000   78.246535907   16.035413998   494.3754   1   7   0.0004   0.0003   0.0014  -0.0002  -0.0002   0.0006   0.00  100.4
2018/03/15 10:52:12.000   78.246535908   16.035413999   494.3756   1   7   0.0004   0.0003   0.0014  -0.0002  -0.0002   0.0006   0.00  101.5
2018/03/15 10:52:13.000   78.246535909   16.035414000   494.3757   1   7   0.0004   0.0003   0.0014  -0.0002  -0.0002   0.0006   0.00  102.6
2018/03/15 10:52:14.000   78.246535910   16.035414000   494.3757   1   7   0.0004   0.0003   0.0014  -0.0002  -0.0002   0.0006   0.00  103.5
2018/03/15 10:52:15.000   78.246535911   16.035414000   494.3758   1   7   0.0004   0.0003   0.0014  -0.0002  -0.0002   0.0006   0.00  104.3
2018/03/15 10:52:16.000   78.246535912   16.035414001   494.3760   1   7   0.0004   0.0003   0.0014  -0.0002  -0.0002   0.0006   0.00  105.1
2018/03/15 10:52:17.000   78.246535913   16.035414003   494.3763   1   7   0.0004   0.0003   0.0014  -0.0002  -0.0002   0.0006   0.00  106.1
2018/03/15 10:52:18.000   78.246535915   16.035414004   494.3765   1   7   0.0004   0.0003   0.0014  -0.0002  -0.0002   0.0006   0.00  107.2
2018/03/15 10:52:19.000   78.246535916   16.035414004   494.3767   1   7   0.0004   0.0003   0.0014  -0.0002  -0.0002   0.0006   0.00  108.3
2018/03/15 10:52:20.000   78.246535917   16.035414004   494.3767   1   7   0.0004   0.0003   0.0014  -0.0002  -0.0002   0.0006   0.00  109.3
2018/03/15 10:52:21.000   78.246535917   16.035414003   494.3768   1   7   0.0004   0.0003   0.0014  -0.0002  -0.0002   0.0006   0.00  110.2
2018/03/15 10:52:22.000   78.246535918   16.035414003   494.3769   1   7   0.0004   0.0003   0.0014  -0.0002  -0.0002   0.0006   0.00  111.2
2018/03/15 10:52:23.000   78.246535919   16.035414004   494.3770   1   7   0.0004   0.0003   0.0014  -0.0002  -0.0002   0.0006   0.00  112.8
2018/03/15 10:52:24.000   78.246535919   16.035414003   494.3771   1   7   0.0004   0.0003   0.0014  -0.0002  -0.0002   0.0006   0.00  114.3
2018/03/15 10:52:25.000   78.246535920   16.035414002   494.3771   1   7   0.0004   0.0003   0.0014  -0.0002  -0.0002   0.0006   0.00  115.5
2018/03/15 10:52:26.000   78.246535921   16.035414001   494.3771   1   7   0.0004   0.0003   0.0013  -0.0002  -0.0002   0.0006   0.00  116.7
2018/03/15 10:52:27.000   78.246535921   16.035414001   494.3772   1   7   0.0004   0.0003   0.0013  -0.0002  -0.0002   0.0006   0.00  117.9
2018/03/15 10:52:28.000   78.246535922   16.035414001   494.3774   1   7   0.0004   0.0003   0.0013  -0.0002  -0.0002   0.0006   0.00  119.2
2018/03/15 10:52:29.000   78.246535923   16.035414002   494.3775   1   7   0.0004   0.0003   0.0013  -0.0002  -0.0002   0.0006   0.00  120.4
2018/03/15 10:52:30.000   78.246535924   16.035414002   494.3776   1   7   0.0004   0.0003   0.0013  -0.0002  -0.0002   0.0006   0.00  121.9
2018/03/15 10:52:31.000   78.246535925   16.035414002   494.3777   1   7   0.0004   0.0003   0.0013  -0.0002  -0.0002   0.0006   0.00  123.2
2018/03/15 10:52:32.000   78.246535926   16.035414003   494.3778   1   7   0.0004   0.0003   0.0013  -0.0002  -0.0002   0.0006   0.00  124.9
2018/03/15 10:52:33.000   78.246535928   16.035414003   494.3780   1   7   0.0004   0.0003   0.0013  -0.0002  -0.0002   0.0006   0.00  126.9
2018/03/15 10:52:34.000   78.246535930   16.035414004   494.3783   1   7   0.0004   0.0003   0.0013  -0.0002  -0.0002   0.0006   0.00  129.2
2018/03/15 10:52:35.000   78.246535932   16.035414005   494.3785   1   7   0.0004   0.0003   0.0013  -0.0002  -0.0002   0.0006   0.00  131.6
2018/03/15 10:52:36.000   78.246535933   16.035414006   494.3787   1   7   0.0004   0.0003   0.0013  -0.0002  -0.0002   0.0006   0.00  134.5
2018/03/15 10:52:37.000   78.246535935   16.035414007   494.3789   1   7   0.0004   0.0003   0.0013  -0.0002  -0.0002   0.0006   0.00  137.3
2018/03/15 10:52:38.000   78.246535938   16.035414008   494.3792   1   7   0.0004   0.0003   0.0013  -0.0002  -0.0002   0.0006   0.00  140.0
2018/03/15 10:52:39.000   78.246535940   16.035414009   494.3794   1   7   0.0004   0.0003   0.0013  -0.0002  -0.0002   0.0006   0.00  142.7
2018/03/15 10:52:40.000   78.246535941   16.035414009   494.3797   1   7   0.0004   0.0003   0.0013  -0.0002  -0.0002   0.0006   0.00  145.3
2018/03/15 10:52:41.000   78.246535943   16.035414009   494.3800   1   7   0.0004   0.0003   0.0013  -0.0002  -0.0002   0.0006   0.00  148.2
2018/03/15 10:52:42.000   78.246535945   16.035414009   494.3802   1   7   0.0004   0.0003   0.0013  -0.0002  -0.0002   0.0006   0.00  150.8
2018/03/15 10:52:43.000   78.246535947   16.035414009   494.3805   1   7   0.0004   0.0003   0.0013  -0.0002  -0.0002   0.0006   0.00  153.9
2018/03/15 10:52:44.000   78.246535948   16.035414009   494.3806   1   7   0.0004   0.0003   0.0013  -0.0002  -0.0002   0.0006   0.00  157.0
2018/03/15 10:52:45.000   78.246535949   16.035414009   494.3808   1   7   0.0004   0.0003   0.0013  -0.0002  -0.0002   0.0006   0.00  159.9
2018/03/15 10:52:46.000   78.246535951   16.035414008   494.3811   1   7   0.0004   0.0003   0.0013  -0.0002  -0.0002   0.0006   0.00  162.4
2018/03/15 10:52:47.000   78.246535952   16.035414008   494.3814   1   7   0.0004   0.0003   0.0013  -0.0002  -0.0002   0.0006   0.00  164.4
2018/03/15 10:52:48.000   78.246535953   16.035414007   494.3816   1   7   0.0004   0.0003   0.0013  -0.0002  -0.0002   0.0006   0.00  166.3
2018/03/15 10:52:49.000   78.246535953   16.035414006   494.3816   1   7   0.0004   0.0003   0.0013  -0.0002  -0.0002   0.0006   0.00  168.2
2018/03/15 10:52:50.000   78.246535954   16.035414004   494.3817   1   7   0.0004   0.0003   0.0013  -0.0002  -0.0002   0.0006   0.00  170.6
2018/03/15 10:52:51.000   78.246535954   16.035414004   494.3818   1   7   0.0004   0.0003   0.0013  -0.0002  -0.0002   0.0006   0.00  172.7
2018/03/15 10:52:52.000   78.246535955   16.035414003   494.3820   1   7   0.0004   0.0003   0.0013  -0.0002  -0.0002   0.0006   0.00  174.4
2018/03/15 10:52:53.000   78.246535956   16.035414003   494.3822   1   7   0.0004   0.0003   0.0013  -0.0002  -0.0002   0.0006   0.00  176.1
2018/03/15 10:52:54.000   78.246535956   16.035414002   494.3823   1   7   0.0004   0.0003   0.0013  -0.0002  -0.0002   0.0006   0.00  177.9
2018/03/15 10:52:55.000   78.246535957   16.035414002   494.3824   1   7   0.0004   0.0003   0.0013  -0.0002  -0.0002   0.0006   0.00  179.5
2018/03/15 10:52:56.000   78.246535957   16.035414002   494.3825   1   7   0.0004   0.0003   0.0013  -0.0002  -0.0002   0.0006   0.00  181.7
2018/03/15 10:52:57.000   78.246535958   16.035414001   494.3827   1   7   0.0004   0.0003   0.0013  -0.0002  -0.0002   0.0006   0.00  183.7
2018/03/15 10:52:58.000   78.246535958   16.035414001   494.3828   1   7   0.0004   0.0003   0.0013  -0.0002  -0.0002   0.0006   0.00  185.6
2018/03/15 10:52:59.000   78.246535959   16.035414001   494.3829   1   7   0.0004   0.0003   0.0013  -0.0001  -0.0002   0.0006   0.00  187.5
2018/03/15 10:53:00.000   78.246535959   16.035414000   494.3830   1   7   0.0004   0.0003   0.0013  -0.0001  -0.0002   0.0006   0.00  189.2
2018/03/15 10:53:01.000   78.246535960   16.035413999   494.3831   1   7   0.0004   0.0003   0.0013  -0.0001  -0.0002   0.0006   0.00  190.7
2018/03/15 10:53:02.000   78.246535960   16.035413998   494.3832   1   7   0.0004   0.0003   0.0013  -0.0001  -0.0002   0.0006   0.00  192.5
2018/03/15 10:53:03.000   78.246535961   16.035413998   494.3834   1   7   0.0004   0.0003   0.0013  -0.0001  -0.0002   0.0006   0.00  193.5
2018/03/15 10:53:04.000   78.246535962   16.035413999   494.3836   1   7   0.0004   0.0003   0.0013  -0.0001  -0.0002   0.0006   0.00  194.8
2018/03/15 10:53:05.000   78.246535962   16.035413999   494.3836   1   7   0.0004   0.0003   0.0013  -0.0001  -0.0002   0.0006   0.00  196.9
2018/03/15 10:53:06.000   78.246535962   16.035413998   494.3837   1   7   0.0004   0.0003   0.0013  -0.0001  -0.0002   0.0006   0.00  198.9
2018/03/15 10:53:07.000   78.246535963   16.035413996   494.3837   1   7   0.0004   0.0003   0.0013  -0.0001  -0.0002   0.0005   0.00  200.8
2018/03/15 10:53:08.000   78.246535963   16.035413995   494.3836   1   7   0.0004   0.0003   0.0013  -0.0001  -0.0002   0.0005   0.00  202.5
2018/03/15 10:53:09.000   78.246535963   16.035413995   494.3838   1   7   0.0004   0.0003   0.0013  -0.0001  -0.0002   0.0005   0.00  203.9
2018/03/15 10:53:10.000   78.246535964   16.035413995   494.3839   1   7   0.0004   0.0003   0.0012  -0.0001  -0.0002   0.0005   0.00  204.6
2018/03/15 10:53:11.000   78.246535964   16.035413994   494.3841   1   7   0.0004   0.0003   0.0012  -0.0001  -0.0002   0.0005   0.00  205.3
2018/03/15 10:53:12.000   78.246535964   16.035413993   494.3840   1   7   0.0004   0.0003   0.0012  -0.0001  -0.0002   0.0005   0.00  206.2
2018/03/15 10:53:13.000   78.246535964   16.035413992   494.3841   1   7   0.0004   0.0003   0.0012  -0.0001  -0.0002   0.0005   0.00  207.0
2018/03/15 10:53:14.000   78.246535964   16.035413992   494.3842   1   7   0.0004   0.0003   0.0012  -0.0001  -0.0002   0.0005   0.00  208.5
2018/03/15 10:53:15.000   78.246535965   16.035413992   494.3844   1   7   0.0004   0.0003   0.0012  -0.0001  -0.0002   0.0005   0.00  209.9
2018/03/15 10:53:16.000   78.246535965   16.035413991   494.3845   1   7   0.0004   0.0003   0.0012  -0.0001  -0.0002   0.0005   0.00  211.2
2018/03/15 10:53:17.000   78.246535965   16.035413990   494.3845   1   7   0.0004   0.0003   0.0012  -0.0001  -0.0002   0.0005   0.00  212.1
2018/03/15 10:53:18.000   78.246535965   16.035413989   494.3845   1   7   0.0004   0.0003   0.0012  -0.0001  -0.0002   0.0005   0.00  212.5
2018/03/15 10:53:19.000   78.246535965   16.035413988   494.3846   1   7   0.0004   0.0003   0.0012  -0.0001  -0.0002   0.0005   0.00  213.0
2018/03/15 10:53:20.000   78.246535965   16.035413987   494.3846   1   7   0.0004   0.0003   0.0012  -0.0001  -0.0002   0.0005   0.00  213.7
2018/03/15 10:53:21.000   78.246535965   16.035413986   494.3847   1   7   0.0004   0.0003   0.0012  -0.0001  -0.0002   0.0005   0.00  214.4
2018/03/15 10:53:22.000   78.246535965   16.035413987   494.3848   1   7   0.0004   0.0003   0.0012  -0.0001  -0.0002   0.0005   0.00  215.4
2018/03/15 10:53:23.000   78.246535966   16.035413986   494.3849   1   7   0.0004   0.0003   0.0012  -0.0001  -0.0002   0.0005   0.00  217.0
2018/03/15 10:53:24.000   78.246535966   16.035413985   494.3850   1   7   0.0004   0.0003   0.0012  -0.0001  -0.0002   0.0005   0.00  219.1
2018/03/15 10:53:25.000   78.246535967   16.035413983   494.3850   1   7   0.0004   0.0003   0.0012  -0.0001  -0.0002   0.0005   0.00  220.2
2018/03/15 10:53:26.000   78.246535968   16.035413982   494.3852   1   7   0.0004   0.0003   0.0012  -0.0001  -0.0002   0.0005   0.00  221.2
2018/03/15 10:53:27.000   78.246535969   16.035413982   494.3854   1   7   0.0004   0.0003   0.0012  -0.0001  -0.0002   0.0005   0.00  222.5
2018/03/15 10:53:28.000   78.246535970   16.035413981   494.3856   1   7   0.0004   0.0003   0.0012  -0.0001  -0.0002   0.0005   0.00  224.2
2018/03/15 10:53:29.000   78.246535970   16.035413980   494.3856   1   7   0.0004   0.0003   0.0012  -0.0001  -0.0002   0.0005   0.00  226.4
2018/03/15 10:53:30.000   78.246535971   16.035413978   494.3857   1   7   0.0004   0.0003   0.0012  -0.0001  -0.0002   0.0005   0.00  228.6
2018/03/15 10:53:31.000   78.246535972   16.035413977   494.3858   1   7   0.0004   0.0003   0.0012  -0.0001  -0.0002   0.0005   0.00  230.2
2018/03/15 10:53:32.000   78.246535973   16.035413977   494.3860   1   7   0.0004   0.0003   0.0012  -0.0001  -0.0002   0.0005   0.00  231.4
2018/03/15 10:53:33.000   78.246535974   16.035413977   494.3861   1   7   0.0004   0.0003   0.0012  -0.0001  -0.0002   0.0005   0.00  232.3
2018/03/15 10:53:34.000   78.246535974   16.035413977   494.3863   1   7   0.0004   0.0003   0.0012  -0.0001  -0.0002   0.0005   0.00  233.3
2018/03/15 10:53:35.000   78.246535975   16.035413976   494.3863   1   7   0.0004   0.0003   0.0012  -0.0001  -0.0002   0.0005   0.00  234.3
2018/03/15 10:53:36.000   78.246535975   16.035413975   494.3863   1   7   0.0004   0.0003   0.0012  -0.0001  -0.0002   0.0005   0.00  235.6
2018/03/15 10:53:37.000   78.246535975   16.035413975   494.3864   1   7   0.0004   0.0003   0.0012  -0.0001  -0.0002   0.0005   0.00  237.0
2018/03/15 10:53:38.000   78.246535976   16.035413975   494.3864   1   7   0.0004   0.0003   0.0012  -0.0001  -0.0002   0.0005   0.00  238.9
2018/03/15 10:53:39.000   78.246535976   16.035413975   494.3866   1   7   0.0004   0.0003   0.0012  -0.0001  -0.0002   0.0005   0.00  240.4
2018/03/15 10:53:40.000   78.246535977   16.035413976   494.3867   1   7   0.0004   0.0003   0.0012  -0.0001  -0.0002   0.0005   0.00  241.7
2018/03/15 10:53:41.000   78.246535977   16.035413976   494.3868   1   7   0.0004   0.0003   0.0012  -0.0001  -0.0002   0.0005   0.00  242.9
2018/03/15 10:53:42.000   78.246535978   16.035413976   494.3869   1   7   0.0004   0.0003   0.0012  -0.0001  -0.0002   0.0005   0.00  244.7
2018/03/15 10:53:43.000   78.246535979   16.035413976   494.3871   1   7   0.0004   0.0003   0.0012  -0.0001  -0.0002   0.0005   0.00  246.8
2018/03/15 10:53:44.000   78.246535980   16.035413975   494.3872   1   7   0.0004   0.0003   0.0012  -0.0001  -0.0002   0.0005   0.00  248.9
2018/03/15 10:53:45.000   78.246535981   16.035413975   494.3875   1   7   0.0004   0.0003   0.0012  -0.0001  -0.0002   0.0005   0.00  251.4
2018/03/15 10:53:46.000   78.246535982   16.035413976   494.3877   1   7   0.0004   0.0003   0.0012  -0.0001  -0.0002   0.0005   0.00  253.9
2018/03/15 10:53:47.000   78.246535984   16.035413975   494.3878   1   7   0.0004   0.0003   0.0012  -0.0001  -0.0002   0.0005   0.00  256.1
2018/03/15 10:53:48.000   78.246535985   16.035413975   494.3879   1   7   0.0004   0.0003   0.0012  -0.0001  -0.0002   0.0005   0.00  257.8
2018/03/15 10:53:49.000   78.246535986   16.035413975   494.3880   1   7   0.0004   0.0003   0.0012  -0.0001  -0.0002   0.0005   0.00  259.0
2018/03/15 10:53:50.000   78.246535988   16.035413975   494.3883   1   7   0.0004   0.0002   0.0012  -0.0001  -0.0002   0.0005   0.00  261.0
2018/03/15 10:53:51.000   78.246535990   16.035413977   494.3886   1   7   0.0004   0.0002   0.0012  -0.0001  -0.0002   0.0005   0.00  263.0
2018/03/15 10:53:52.000   78.246535991   16.035413978   494.3889   1   7   0.0004   0.0002   0.0012  -0.0001  -0.0002   0.0005   0.00  265.2
2018/03/15 10:53:53.000   78.246535993   16.035413978   494.3892   1   7   0.0004   0.0002   0.0012  -0.0001  -0.0002   0.0005   0.00  266.2
2018/03/15 10:53:54.000   78.246535994   16.035413978   494.3894   1   7   0.0004   0.0002   0.0012  -0.0001  -0.0002   0.0005   0.00  266.5
2018/03/15 10:53:55.000   78.246535995   16.035413979   494.3896   1   7   0.0004   0.0002   0.0012  -0.0001  -0.0002   0.0005   0.00  266.4
2018/03/15 10:53:56.000   78.246535997   16.035413980   494.3899   1   7   0.0004   0.0002   0.0012  -0.0001  -0.0002   0.0005   0.00  266.9
2018/03/15 10:53:57.000   78.246535999   16.035413982   494.3902   1   7   0.0004   0.0002   0.0012  -0.0001  -0.0002   0.0005   0.00  267.5
2018/03/15 10:53:58.000   78.246536000   16.035413983   494.3904   1   7   0.0004   0.0002   0.0012  -0.0001  -0.0002   0.0005   0.00  268.4
2018/03/15 10:53:59.000   78.246536001   16.035413983   494.3906   1   7   0.0004   0.0002   0.0012  -0.0001  -0.0002   0.0005   0.00  268.8
2018/03/15 10:54:00.000   78.246536003   16.035413984   494.3908   1   7   0.0004   0.0002   0.0012  -0.0001  -0.0002   0.0005   0.00  269.8
2018/03/15 10:54:01.000   78.246536004   16.035413986   494.3912   1   7   0.0004   0.0002   0.0012  -0.0001  -0.0002   0.0005   0.00  270.4
2018/03/15 10:54:02.000   78.246536006   16.035413988   494.3915   1   7   0.0004   0.0002   0.0012  -0.0001  -0.0002   0.0005   0.00  270.7
2018/03/15 10:54:03.000   78.246536008   16.035413989   494.3919   1   7   0.0004   0.0002   0.0012  -0.0001  -0.0002   0.0005   0.00  270.4
2018/03/15 10:54:04.000   78.246536010   16.035413991   494.3921   1   7   0.0004   0.0002   0.0012  -0.0001  -0.0002   0.0005   0.00  270.7
2018/03/15 10:54:05.000   78.246536011   16.035413992   494.3923   1   7   0.0004   0.0002   0.0012  -0.0001  -0.0002   0.0005   0.00  270.5
2018/03/15 10:54:06.000   78.246536013   16.035413992   494.3925   1   7   0.0004   0.0002   0.0012  -0.0001  -0.0002   0.0005   0.00  271.0
2018/03/15 10:54:07.000   78.246536014   16.035413994   494.3927   1   7   0.0004   0.0002   0.0012  -0.0001  -0.0002   0.0005   0.00  271.4
2018/03/15 10:54:08.000   78.246536016   16.035413995   494.3929   1   7   0.0004   0.0002   0.0011  -0.0001  -0.0002   0.0005   0.00  272.3
2018/03/15 10:54:09.000   78.246536017   16.035413996   494.3931   1   7   0.0004   0.0002   0.0011  -0.0001  -0.0002   0.0005   0.00  273.1
2018/03/15 10:54:10.000   78.246536017   16.035413996   494.3932   1   7   0.0004   0.0002   0.0011  -0.0001  -0.0002   0.0005   0.00  273.0
2018/03/15 10:54:11.000   78.246536017   16.035413996   494.3932   1   7   0.0004   0.0002   0.0011  -0.0001  -0.0002   0.0005   0.00  272.9
2018/03/15 10:54:12.000   78.246536018   16.035413996   494.3932   1   7   0.0004   0.0002   0.0011  -0.0001  -0.0002   0.0005   0.00  272.4
2018/03/15 10:54:13.000   78.246536018   16.035413997   494.3934   1   7   0.0004   0.0002   0.0011  -0.0001  -0.0002   0.0005   0.00  272.6
2018/03/15 10:54:14.000   78.246536019   16.035413997   494.3936   1   7   0.0004   0.0002   0.0011  -0.0001  -0.0002   0.0005   0.00  273.6
2018/03/15 10:54:15.000   78.246536019   16.035413998   494.3936   1   7   0.0004   0.0002   0.0011  -0.0001  -0.0002   0.0005   0.00  274.7
2018/03/15 10:54:16.000   78.246536019   16.035413997   494.3936   1   7   0.0004   0.0002   0.0011  -0.0001  -0.0002   0.0005   0.00  275.3
2018/03/15 10:54:17.000   78.246536019   16.035413996   494.3935   1   7   0.0004   0.0002   0.0011  -0.0001  -0.0002   0.0005   0.00  275.2
2018/03/15 10:54:18.000   78.246536019   16.035413995   494.3935   1   7   0.0004   0.0002   0.0011  -0.0001  -0.0002   0.0005   0.00  275.5
2018/03/15 10:54:19.000   78.246536020   16.035413995   494.3937   1   7   0.0004   0.0002   0.0011  -0.0001  -0.0002   0.0005   0.00  276.6
2018/03/15 10:54:20.000   78.246536020   16.035413995   494.3937   1   7   0.0004   0.0002   0.0011  -0.0001  -0.0002   0.0005   0.00  278.0
2018/03/15 10:54:21.000   78.246536020   16.035413995   494.3936   1   7   0.0004   0.0002   0.0011  -0.0001  -0.0002   0.0005   0.00  279.8
2018/03/15 10:54:22.000   78.246536020   16.035413994   494.3935   1   7   0.0004   0.0002   0.0011  -0.0001  -0.0002   0.0005   0.00  281.7
2018/03/15 10:54:23.000   78.246536021   16.035413994   494.3935   1   7   0.0004   0.0002   0.0011  -0.0001  -0.0002   0.0005   0.00  283.4
2018/03/15 10:54:24.000   78.246536021   16.035413994   494.3935   1   7   0.0003   0.0002   0.0011  -0.0001  -0.0002   0.0005   0.00  285.1
2018/03/15 10:54:25.000   78.246536022   16.035413995   494.3935   1   7   0.0003   0.0002   0.0011  -0.0001  -0.0002   0.0005   0.00  287.4
2018/03/15 10:54:26.000   78.246536022   16.035413995   494.3935   1   7   0.0003   0.0002   0.0011  -0.0001  -0.0002   0.0005   0.00  289.6
2018/03/15 10:54:27.000   78.246536023   16.035413996   494.3935   1   7   0.0003   0.0002   0.0011  -0.0001  -0.0002   0.0005   0.00  291.6
2018/03/15 10:54:28.000   78.246536023   16.035413996   494.3935   1   7   0.0003   0.0002   0.0011  -0.0001  -0.0002   0.0005   0.00  293.4
2018/03/15 10:54:29.000   78.246536024   16.035413997   494.3934   1   7   0.0003   0.0002   0.0011  -0.0001  -0.0002   0.0005   0.00  295.0
2018/03/15 10:54:30.000   78.246536025   16.035413998   494.3935   1   7   0.0003   0.0002   0.0011  -0.0001  -0.0002   0.0005   0.00  296.4
2018/03/15 10:54:31.000   78.246536026   16.035413999   494.3936   1   7   0.0003   0.0002   0.0011  -0.0001  -0.0002   0.0005   0.00  298.3
2018/03/15 10:54:32.000   78.246536027   16.035414000   494.3937   1   7   0.0003   0.0002   0.0011  -0.0001  -0.0002   0.0005   0.00  300.3
2018/03/15 10:54:33.000   78.246536028   16.035414002   494.3937   1   7   0.0003   0.0002   0.0011  -0.0001  -0.0002   0.0005   0.00  302.4
2018/03/15 10:54:34.000   78.246536029   16.035414003   494.3938   1   7   0.0003   0.0002   0.0011  -0.0001  -0.0002   0.0005   0.00  304.0
2018/03/15 10:54:35.000   78.246536031   16.035414005   494.3939   1   7   0.0003   0.0002   0.0011  -0.0001  -0.0002   0.0005   0.00  305.6
2018/03/15 10:54:36.000   78.246536033   16.035414007   494.3942   1   7   0.0003   0.0002   0.0011  -0.0001  -0.0002   0.0005   0.00  305.5
2018/03/15 10:54:37.000   78.246536035   16.035414010   494.3943   1   7   0.0003   0.0002   0.0011  -0.0001  -0.0002   0.0005   0.00  306.8
2018/03/15 10:54:38.000   78.246536036   16.035414012   494.3944   1   7   0.0003   0.0002   0.0011  -0.0001  -0.0002   0.0005   0.00  308.3
2018/03/15 10:54:39.000   78.246536038   16.035414015   494.3945   1   7   0.0003   0.0002   0.0011  -0.0001  -0.0002   0.0005   0.00  310.3
2018/03/15 10:54:40.000   78.246536039   16.035414017   494.3946   1   7   0.0003   0.0002   0.0011  -0.0001  -0.0002   0.0005   0.00  311.0
2018/03/15 10:54:41.000   78.246536041   16.035414019   494.3947   1   7   0.0003   0.0002   0.0011  -0.0001  -0.0002   0.0005   0.00  311.3
2018/03/15 10:54:42.000   78.246536043   16.035414022   494.3949   1   7   0.0003   0.0002   0.0011  -0.0001  -0.0002   0.0005   0.00  311.2
2018/03/15 10:54:43.000   78.246536044   16.035414024   494.3950   1   7   0.0003   0.0002   0.0011  -0.0001  -0.0002   0.0005   0.00  310.9
2018/03/15 10:54:44.000   78.246536046   16.035414026   494.3951   1   7   0.0003   0.0002   0.0011  -0.0001  -0.0002   0.0005   0.00  310.8
2018/03/15 10:54:45.000   78.246536047   16.035414027   494.3951   1   7   0.0003   0.0002   0.0011  -0.0001  -0.0002   0.0005   0.00  311.6
2018/03/15 10:54:46.000   78.246536048   16.035414029   494.3952   1   7   0.0003   0.0002   0.0011  -0.0001  -0.0002   0.0005   0.00  312.0
2018/03/15 10:54:47.000   78.246536049   16.035414031   494.3953   1   7   0.0003   0.0002   0.0011  -0.0001  -0.0002   0.0005   0.00  312.2
2018/03/15 10:54:48.000   78.246536050   16.035414033   494.3953   1   7   0.0003   0.0002   0.0011  -0.0001  -0.0002   0.0005   0.00  311.9
2018/03/15 10:54:49.000   78.246536051   16.035414035   494.3953   1   7   0.0003   0.0002   0.0011  -0.0001  -0.0002   0.0005   0.00  312.3
2018/03/15 10:54:50.000   78.246536052   16.035414037   494.3954   1   7   0.0003   0.0002   0.0011  -0.0001  -0.0002   0.0005   0.00  313.1
2018/03/15 10:54:51.000   78.246536053   16.035414039   494.3953   1   7   0.0003   0.0002   0.0011  -0.0001  -0.0002   0.0005   0.00  314.4
2018/03/15 10:54:52.000   78.246536054   16.035414040   494.3953   1   7   0.0003   0.0002   0.0011  -0.0001  -0.0002   0.0005   0.00  316.7
2018/03/15 10:54:53.000   78.246536054   16.035414042   494.3952   1   7   0.0003   0.0002   0.0011  -0.0001  -0.0002   0.0005   0.00  319.1
2018/03/15 10:54:54.000   78.246536055   16.035414044   494.3952   1   7   0.0003   0.0002   0.0011  -0.0001  -0.0002   0.0005   0.00  321.1
2018/03/15 10:54:55.000   78.246536056   16.035414046   494.3951   1   7   0.0003   0.0002   0.0011  -0.0001  -0.0002   0.0005   0.00  322.9
2018/03/15 10:54:56.000   78.246536057   16.035414048   494.3951   1   7   0.0003   0.0002   0.0011  -0.0001  -0.0002   0.0005   0.00  324.0
2018/03/15 10:54:57.000   78.246536057   16.035414050   494.3949   1   7   0.0003   0.0002   0.0011  -0.0001  -0.0002   0.0005   0.00  325.1
2018/03/15 10:54:58.000   78.246536058   16.035414051   494.3948   1   7   0.0003   0.0002   0.0011  -0.0001  -0.0002   0.0005   0.00  326.3
2018/03/15 10:54:59.000   78.246536058   16.035414053   494.3948   1   7   0.0003   0.0002   0.0011  -0.0001  -0.0002   0.0005   0.00  328.3
2018/03/15 10:55:00.000   78.246536058   16.035414055   494.3947   1   7   0.0003   0.0002   0.0011  -0.0001  -0.0002   0.0005   0.00  331.6
2018/03/15 10:55:01.000   78.246536059   16.035414057   494.3947   1   7   0.0003   0.0002   0.0011  -0.0001  -0.0002   0.0005   0.00  334.5
2018/03/15 10:55:02.000   78.246536059   16.035414058   494.3946   1   7   0.0003   0.0002   0.0011  -0.0001  -0.0002   0.0005   0.00  336.6
2018/03/15 10:55:03.000   78.246536059   16.035414059   494.3944   1   7   0.0003   0.0002   0.0011  -0.0001  -0.0002   0.0005   0.00  339.4
2018/03/15 10:55:04.000   78.246536059   16.035414060   494.3943   1   7   0.0003   0.0002   0.0011  -0.0001  -0.0002   0.0005   0.00  342.2
2018/03/15 10:55:05.000   78.246536059   16.035414061   494.3942   1   7   0.0003   0.0002   0.0011  -0.0001  -0.0002   0.0005   0.00  345.8
2018/03/15 10:55:06.000   78.246536060   16.035414062   494.3942   1   7   0.0003   0.0002   0.0011  -0.0001  -0.0002   0.0005   0.00  349.3
2018/03/15 10:55:07.000   78.246536060   16.035414063   494.3941   1   7   0.0003   0.0002   0.0011  -0.0001  -0.0002   0.0005   0.00  353.3
2018/03/15 10:55:08.000   78.246536060   16.035414063   494.3940   1   7   0.0003   0.0002   0.0011  -0.0001  -0.0002   0.0005   0.00  356.3
2018/03/15 10:55:09.000   78.246536060   16.035414064   494.3939   1   7   0.0003   0.0002   0.0011  -0.0001  -0.0002   0.0005   0.00  358.2
2018/03/15 10:55:10.000   78.246536060   16.035414065   494.3938   1   7   0.0003   0.0002   0.0011  -0.0001  -0.0002   0.0005   0.00  360.5
2018/03/15 10:55:11.000   78.246536061   16.035414066   494.3937   1   7   0.0003   0.0002   0.0011  -0.0001  -0.0002   0.0005   0.00  363.0
2018/03/15 10:55:12.000   78.246536061   16.035414066   494.3936   1   7   0.0003   0.0002   0.0011  -0.0001  -0.0002   0.0005   0.00  366.2
