     2.11           OBSERVATION DATA    M (MIXED)           RINEX VERSION / TYPE
teqc  2018Mar15                         20180319 14:17:32UTCPGM / RUN BY / DATE
Linux 2.6.32-573.12.1.x86_64|x86_64|gcc -static|Linux 64|=+ COMMENT
END OF STATIC MODE OBSERVATION                              COMMENT
BIT 2 OF LLI FLAGS DATA COLLECTED UNDER A/S CONDITION       COMMENT
-Unknown-                                                   MARKER NAME
4625                                                        MARKER NUMBER
-Unknown-           -Unknown-                               OBSERVER / AGENCY
5127468778          TRIMBLE             4.63                REC # / TYPE / VERS
47477114                            NONE                    ANT # / TYPE
  2136267.6305  3207845.7445  5064960.4162                  APPROX POSITION XYZ
        0.0000        0.0000        0.0000                  ANTENNA: DELTA H/E/N
     1     1                                                WAVELENGTH FACT L1/2
     7    L1    L2    C1    P1    P2    S1    S2            # / TYPES OF OBSERV
    18                                                      LEAP SECONDS
 SNR is mapped to RINEX snr flag value [0-9]                COMMENT
  L1 & L2: min(max(int(snr_dBHz/6), 0), 9)                  COMMENT
  2018     3    11    10    48   49.0000000     GPS         TIME OF FIRST OBS
                                                            END OF HEADER
 18  3 11 10 48 49.0000000  0 17G10G20R03R11R12R13R20R21R04G27G07G21
                                G30G28G08G15G13
 127987967.444 6  99730928.47043  24355306.852                    24355312.758
        40.600          22.300
 117805821.490 7  91796819.44345  22417719.383                    22417722.207
        45.300          32.100
                  85456439.647 6  20525121.398                    20525122.113
                        40.600
                  95970446.578 7  23090865.734                    23090867.914
                        42.100
                                  19922415.531

                  85826405.894 6  20664679.703                    20664679.762
                        37.700
                  90085785.854 7  21659799.805                    21659803.363
                        42.200
                  87151303.668 7  20939534.633                    20939536.359
                        42.300
                  84669318.663 6  20328942.531                    20328943.238
                        41.000
 123501264.325 7  96234772.12844  23501511.031                    23501515.879
        42.000          27.800
 125223770.484 7  97576975.85444  23829293.313                    23829297.664
        44.100          29.000
 129563053.834 6 100958234.97543  24655031.250                    24655034.563
        41.700          20.100
 116227501.235 8  90566907.81146  22117359.664                    22117364.441
        50.000          37.600
 115077701.826 7  89670940.69444  21898557.539                    21898560.391
        44.500          29.600
 117618771.058 7  91651011.14846  22382107.602                    22382113.320
        46.400          36.000
 112880291.804 8  87958681.27746  21480405.398                    21480408.594
        51.500          39.000
 110434823.710 7  86053122.70245  21015048.734                    21015051.723
        47.600          34.100
 18  3 11 10 48 50.0000000  0 17G10G20R03R11R12R13R20R21R04G27G07G21
                                G30G28G08G15G13
 127984988.775 6  99728607.41943  24354740.516                    24354745.875
        40.500          21.800
 117808333.716 7  91798777.03245  22418197.523                    22418199.754
        45.300          32.300
                  85458750.729 6  20525676.664                    20525676.984
                        41.000
                  95974098.290 6  23091744.258                    23091746.273
                        41.600
                                  19922822.227

                  85824235.495 6  20664154.883                    20664156.738
                        38.100
                  90088160.240 6  21660370.617                    21660374.523
                        41.800
                  87150271.776 7  20939286.992                    20939288.391
                        42.200
                  84668080.377 6  20328645.641                    20328645.578
                        41.100
 123504378.599 7  96237198.83644  23502103.758                    23502108.707
        42.200          27.100
 125227564.710 7  97579932.38144  23830014.711                    23830019.977
        43.300          28.300
 129565834.627 6 100960401.82543  24655560.570                    24655563.684
        40.900          20.900
 116230369.587 8  90569142.89946  22117904.992                    22117910.238
        50.200          37.500
 115076507.394 7  89670009.96845  21898330.320                    21898333.063
        45.100          30.100
 117619372.523 7  91651479.82346  22382221.523                    22382227.758
        46.700          36.000
 112879594.539 8  87958137.95046  21480272.883                    21480276.348
        51.800          39.000
 110435883.516 7  86053948.52345  21015250.727                    21015253.672
        47.800          34.500
 18  3 11 10 48 51.0000000  0 17G10G20R03R11R12R13R20R21R04G27G07G21
                                G30G28G08G15G13
 127982010.419 6  99726286.61343  24354173.609                    24354179.398
        40.400          22.000
 117810846.420 7  91800734.98445  22418675.641                    22418678.352
        45.000          31.400
                  85461062.309 6  20526231.797                    20526232.449
                        40.800
                  95977750.147 6  23092623.766                    23092624.871
                        41.900
                                  19923229.891

                  85822065.551 6  20663632.461                    20663634.156
                        37.700
                  90090535.129 6  21660942.164                    21660945.172
                        41.800
                  87149240.549 7  20939039.641                    20939040.605
                        42.100
                  84666842.620 6  20328348.445                    20328348.543
                        41.000
 123507493.290 6  96239625.87344  23502695.930                    23502701.613
        41.700          27.100
 125231359.128 7  97582889.06044  23830737.508                    23830741.727
        43.400          28.100
 129568615.743 6 100962568.92243  24656090.023                    24656092.895
        40.900          20.400
 116233238.362 8  90571378.31646  22118450.742                    22118456.438
        50.100          37.400
 115075313.482 7  89669079.65244  21898103.523                    21898105.832
        45.400          29.600
 117619974.629 7  91651948.99845  22382336.273                    22382342.430
        46.800          35.400
 112878897.868 8  87957595.09046  21480140.234                    21480143.734
        52.100          38.800
 110436943.938 7  86054774.82045  21015452.352                    21015455.504
        47.800          33.900
 18  3 11 10 48 52.0000000  0 17G10G20R03R11R12R13R20R21R04G27G07G21
                                G30G28G08G15G13
 127979032.301 6  99723966.00243  24353606.922                    24353612.625
        40.900          22.600
 117813359.696 7  91802693.37845  22419153.891                    22419156.590
        45.000          31.600
                  85463374.433 6  20526786.008                    20526787.910
                        40.600
                  95981402.125 7  23093501.320                    23093504.012
                        42.000
                                  19923638.266

                  85819896.091 6  20663112.094                    20663112.211
                        37.900
                  90092910.580 6  21661513.766                    21661516.000
                        41.800
                  87148209.954 7  20938791.477                    20938792.980
                        42.400
                  84665605.445 6  20328051.367                    20328051.445
                        41.400
 123510608.447 6  96242053.27144  23503288.172                    23503294.320
        40.600          27.600
 125235153.733 7  97585845.87044  23831460.484                    23831463.633
        45.000          29.200
 129571397.127 6 100964736.25243  24656619.531                    24656622.445
        41.000          21.500
 116236107.569 8  90573614.06946  22118996.430                    22119002.359
        50.100          37.100
 115074120.054 7  89668149.70644  21897876.094                    21897879.027
        45.600          29.600
 117620577.412 7  91652418.69945  22382450.477                    22382457.352
        46.700          34.900
 112878201.854 8  87957052.73746  21480007.617                    21480011.531
        52.400          38.900
 110438005.019 7  86055601.63245  21015654.227                    21015657.672
        47.800          33.700
 18  3 11 10 48 53.0000000  0 17G10G20R03R11R12R13R20R21R04G27G07G21
                                G30G28G08G15G13
 127976054.411 6  99721645.57443  24353040.531                    24353046.043
        41.200          21.800
 117815873.437 7  91804652.13245  22419632.180                    22419634.723
        45.200          32.300
                  85465687.056 6  20527341.602                    20527343.586
                        41.100
                  95985054.212 7  23094379.570                    23094382.352
                        42.400
                                  19924045.242

                  85817726.988 6  20662589.164                    20662589.645
                        38.100
                  90095286.607 6  21662085.648                    21662087.598
                        41.900
                  87147180.000 7  20938544.555                    20938545.066
                        42.700
                  84664368.873 6  20327754.445                    20327754.836
                        41.000
 123513724.033 6  96244480.99344  23503880.477                    23503887.309
        40.100          28.100
 125238948.495 7  97588802.80344  23832183.828                    23832185.941
        46.600          29.400
 129574178.785 6 100966903.79143  24657148.406                    24657151.664
        40.800          21.100
 116238977.188 8  90575850.13746  22119542.500                    22119548.121
        49.300          37.000
 115072927.095 7  89667220.11844  21897648.906                    21897651.863
        45.300          28.800
 117621180.823 7  91652888.88945  22382565.500                    22382572.125
        46.800          35.100
 112877506.420 8  87956510.83846  21479875.266                    21479879.203
        52.500          39.100
 110439066.693 7  86056428.91245  21015856.242                    21015859.328
        47.300          33.600
 18  3 11 10 48 54.0000000  0 17G10G20R03R11R12R13R20R21R04G27G07G21
                                G30G28G08G15G13
 127973076.716 6  99719325.30143  24352473.094                    24352479.117
        40.900          22.600
 117818387.618 7  91806611.23145  22420110.938                    22420113.355
        45.100          31.800
                  85468000.163 6  20527899.313                    20527899.254
                        40.700
                  95988706.350 7  23095258.594                    23095260.941
                        43.000
                                  19924453.203

                  85815558.280 6  20662066.070                    20662067.867
                        38.400
                  90097663.069 6  21662655.766                    21662658.543
                        41.900
                  87146150.612 7  20938296.273                    20938297.340
                        43.000
                  84663132.822 6  20327457.461                    20327457.922
                        41.700
 123516839.928 6  96246908.93544  23504473.867                    23504480.211
        41.100          27.900
 125242743.330 8  97591759.81044  23832905.906                    23832908.266
        48.000          29.400
 129576960.635 6 100969071.46843  24657677.469                    24657681.102
        41.300          20.600
 116241847.162 8  90578086.48246  22120088.977                    22120094.848
        49.300          37.000
 115071734.544 7  89666290.85644  21897422.117                    21897425.137
        44.700          29.600
 117621784.812 7  91653359.52845  22382680.969                    22382686.723
        46.800          35.100
 112876811.548 8  87955969.37346  21479742.992                    21479746.734
        52.500          39.000
 110440128.943 7  86057256.64045  21016058.578                    21016061.422
        47.500          34.000
 18  3 11 10 48 55.0000000  0 17G10G20R03R11R12R13R20R21R04G27G07G21
                                G30G28G08G15G13
 127970099.269 6  99717005.20343  24351907.133                    24351912.609
        41.200          22.000
 117820902.334 7  91808570.74545  22420589.172                    22420591.918
        45.600          32.300
                  85470313.755 6  20528456.188                    20528454.750
                        40.400
                  95992358.621 7  23096138.023                    23096139.551
                        42.700
                                  19924860.906

                  85813390.058 6  20661545.063                    20661546.027
                        38.300
                  90100040.110 6  21663228.055                    21663230.063
                        41.700
                  87145121.873 7  20938049.086                    20938050.695
                        42.700
                  84661897.427 6  20327160.945                    20327161.063
                        41.500
 123519956.262 6  96249337.22044  23505066.875                    23505073.129
        41.600          28.600
 125246538.326 7  97594716.97445  23833627.414                    23833630.906
        46.800          30.300
 129579742.855 6 100971239.44543  24658207.367                    24658210.547
        41.100          21.100
 116244717.524 8  90580323.12346  22120634.969                    22120640.934
        49.200          37.100
 115070542.444 7  89665361.95144  21897195.102                    21897198.344
        44.900          29.300
 117622389.407 7  91653830.64745  22382796.273                    22382802.137
        46.900          35.100
 112876117.291 8  87955428.39246  21479610.625                    21479614.676
        52.200          39.600
 110441191.825 7  86058084.85945  21016261.461                    21016263.875
        47.600          34.400
 18  3 11 10 48 56.0000000  0 17G10G20R03R11R12R13R20R21R04G27G07G21
                                G30G28G08G15G13
 127967122.093 6  99714685.31843  24351340.672                    24351346.102
        41.800          22.600
 117823417.545 7  91810530.64545  22421067.906                    22421070.773
        45.800          32.700
                  85472627.906 6  20529010.406                    20529010.672
                        40.400
                  95996011.008 7  23097015.617                    23097018.781
                        42.400
                                  19925269.148

                  85811222.229 6  20661023.297                    20661024.180
                        38.200
                  90102417.646 7  21663797.750                    21663802.098
                        42.100
                  87144093.789 7  20937802.633                    20937803.813
                        42.600
                  84660662.606 6  20326864.680                    20326865.203
                        41.500
 123523072.973 6  96251765.81344  23505659.805                    23505666.656
        41.100          27.600
 125250333.558 7  97597674.32744  23834347.719                    23834353.379
        45.400          28.900
 129582525.295 6 100973407.58243  24658736.758                    24658739.770
        40.900          21.300
 116247588.312 8  90582560.09046  22121181.672                    22121187.152
        49.800          37.300
 115069350.855 7  89664433.44945  21896968.758                    21896971.500
        44.500          30.400
 117622994.654 7  91654302.27045  22382911.336                    22382917.047
        46.800          35.400
 112875423.624 8  87954887.87146  21479478.789                    21479482.395
        52.000          39.700
 110442255.349 8  86058913.58545  21016464.117                    21016466.063
        48.300          34.700
 18  3 11 10 48 57.0000000  0 17G10G20R03R11R12R13R20R21R04G27G07G21
                                G30G28G08G15G13
 127964145.184 6  99712365.63644  24350774.336                    24350779.309
        41.700          24.400
 117825933.217 7  91812490.90545  22421546.703                    22421549.500
        46.100          32.100
                  85474942.563 6  20529563.477                    20529566.246
                        40.600
                  95999663.563 7  23097895.625                    23097896.859
                        42.500
                                  19925677.969

                  85809054.766 6  20660500.430                    20660502.414
                        37.700
                  90104795.723 7  21664370.625                    21664373.770
                        42.300
                  87143066.392 7  20937555.266                    20937556.543
                        42.600
                  84659428.358 6  20326567.359                    20326568.918
                        41.800
 123526190.189 6  96254194.79444  23506253.039                    23506259.438
        40.100          27.000
 125254128.975 7  97600631.80844  23835069.297                    23835075.500
        43.500          28.300
 129585308.021 6 100975575.91843  24659265.898                    24659269.156
        40.900          20.600
 116250459.493 8  90584797.36746  22121728.031                    22121733.430
        50.000          36.900
 115068159.752 7  89663505.30845  21896741.586                    21896744.574
        43.900          30.300
 117623600.608 7  91654774.44845  22383026.344                    22383032.227
        47.100          34.600
 112874730.561 8  87954347.82046  21479346.578                    21479350.449
        51.900          38.900
 110443319.476 8  86059742.77345  21016666.594                    21016668.656
        48.700          34.200
 18  3 11 10 48 58.0000000  0 17G10G20R03R11R12R13R20R21R04G27G07G21
                                G30G28G08G15G13
 127961168.527 6  99710046.16743  24350207.875                    24350213.148
        41.300          23.900
 117828449.450 7  91814451.61745  22422025.125                    22422027.816
        46.300          32.300
                  85477257.816 6  20530118.047                    20530122.461
                        41.100
                  96003316.217 7  23098774.148                    23098775.785
                        43.000
                                  19926085.430

                  85806887.802 6  20659980.039                    20659980.578
                        38.100
                  90107174.371 7  21664943.195                    21664946.281
                        42.300
                  87142039.634 7  20937308.367                    20937309.023
                        42.800
                  84658194.714 6  20326272.195                    20326272.355
                        41.600
 123529307.778 6  96256624.07344  23506846.242                    23506852.715
        40.400          27.300
 125257924.634 7  97603589.45944  23835791.109                    23835797.215
        42.600          27.200
 129588091.079 6 100977744.51543  24659795.398                    24659798.859
        40.700          20.900
 116253331.120 8  90587034.99746  22122274.547                    22122279.965
        50.200          37.300
 115066969.137 7  89662577.55845  21896514.945                    21896518.148
        44.500          30.200
 117624207.199 7  91655247.11745  22383141.789                    22383147.566
        47.000          34.600
 112874038.152 8  87953808.28546  21479215.000                    21479219.207
        51.400          39.400
 110444384.258 8  86060572.47645  21016869.055                    21016871.363
        48.100          34.100
 18  3 11 10 48 59.0000000  0 17G10G20R03R11R12R13R20R21R04G27G07G21
                                G30G28G08G15G13
 127958192.181 6  99707726.92143  24349640.891                    24349646.500
        41.100          23.300
 117830966.258 7  91816412.76345  22422504.398                    22422507.227
        45.500          31.500
                  85479573.650 6  20530676.969                    20530678.480
                        41.300
                  96006969.088 7  23099652.898                    23099654.801
                        42.000
                                  19926493.922

                  85804721.352 6  20659457.914                    20659458.895
                        37.800
                  90109553.601 7  21665514.711                    21665517.965
                        42.200
                  87141013.576 7  20937062.703                    20937062.809
                        42.600
                  84656961.637 7  20325975.156                    20325975.840
                        42.300
 123532425.882 6  96259053.74344  23507440.359                    23507446.039
        41.900          27.200
 125261720.595 7  97606547.32744  23836514.500                    23836519.336
        42.200          27.900
 129590874.465 6 100979913.39343  24660325.148                    24660328.047
        40.200          20.400
 116256203.274 8  90589273.04046  22122821.109                    22122826.574
        50.200          37.900
 115065779.128 7  89661650.27844  21896288.727                    21896291.730
        44.200          29.400
 117624814.536 7  91655720.37445  22383257.344                    22383263.328
        46.800          35.100
 112873346.414 8  87953269.26946  21479083.367                    21479087.145
        50.500          38.700
 110445449.778 8  86061402.74345  21017071.664                    21017073.957
        48.300          34.800
 18  3 11 10 49  0.0000000  0 17G10G20R03R11R12R13R20R21R04G27G07G21
                                G30G28G08G15G13
 127955216.155 6  99705407.93943  24349075.219                    24349080.621
        41.100          22.800
 117833483.492 7  91818374.25145  22422983.250                    22422986.223
        45.400          31.400
                  85481889.895 6  20531236.078                    20531234.523
                        40.900
                  96010622.114 7  23100531.930                    23100534.480
                        42.000
                                  19926902.898

                  85802555.252 6  20658936.969                    20658937.547
                        37.500
                  90111933.401 7  21666087.125                    21666090.293
                        42.500
                  87139988.227 7  20936815.883                    20936816.781
                        42.700
                  84655729.154 7  20325679.648                    20325680.645
                        42.100
 123535544.452 6  96261483.77844  23508033.820                    23508039.660
        41.600          26.700
 125265516.708 7  97609505.31144  23837237.875                    23837241.785
        42.900          27.700
 129593658.132 6 100982082.48143  24660855.219                    24660857.977
        39.900          21.100
 116259075.826 8  90591511.39846  22123367.641                    22123372.949
        50.100          37.800
 115064589.565 7  89660723.34244  21896062.094                    21896065.332
        44.300          29.100
 117625422.533 7  91656194.14445  22383373.234                    22383379.457
        46.800          35.000
 112872655.271 8  87952730.72346  21478951.750                    21478955.625
        50.000          38.300
 110446515.879 8  86062233.46745  21017274.102                    21017276.965
        48.400          34.700
 18  3 11 10 49  1.0000000  0 17G10G20R03R11R12R13R20R21R04G27G07G21
                                G30G28G08G15G13
 127952240.335 6  99703089.11143  24348508.891                    24348513.910
        41.300          22.900
 117836001.253 7  91820336.14845  22423462.000                    22423465.141
        45.000          31.200
                  85484206.653 6  20531792.133                    20531791.734
                        41.500
                  96014275.248 6  23101410.625                    23101412.734
                        41.700
                                  19927311.477

                  85800389.569 6  20658413.695                    20658414.754
                        37.700
                  90114313.704 7  21666660.484                    21666662.961
                        42.600
                  87138963.451 7  20936569.508                    20936570.906
                        42.900
                  84654497.254 7  20325383.766                    20325384.629
                        42.100
 123538663.395 6  96263914.10844  23508627.273                    23508633.262
        40.900          27.300
 125269312.963 7  97612463.40544  23837960.648                    23837963.789
        44.000          28.000
 129596442.066 6 100984251.78843  24661385.031                    24661387.840
        40.500          21.500
 116261948.742 8  90593750.03346  22123914.414                    22123920.023
        49.600          37.400
 115063400.453 7  89659796.76744  21895835.719                    21895838.605
        44.300          29.400
 117626031.138 7  91656668.38245  22383488.836                    22383495.164
        46.700          34.800
 112871964.733 8  87952192.64646  21478820.625                    21478824.242
        50.000          38.700
 110447582.568 8  86063064.65045  21017477.141                    21017479.715
        48.400          34.200
 18  3 11 10 49  2.0000000  0 17G10G20R03R11R12R13R20R21R04G27G07G21
                                G30G28G08G15G13
 127949264.827 6  99700770.53743  24347941.852                    24347947.973
        41.400          22.800
 117838519.575 7  91822298.48444  22423941.320                    22423944.262
        44.900          29.900
                  85486524.045 6  20532346.086                    20532348.695
                        41.700
                  96017928.523 6  23102289.570                    23102291.828
                        41.500
                                  19927720.602

                  85798224.394 6  20657893.547                    20657893.867
                        37.900
                  90116694.586 7  21667231.930                    21667235.258
                        42.300
                  87137939.375 7  20936324.109                    20936324.426
                        42.600
                  84653266.017 7  20325088.336                    20325089.277
                        42.300
 123541782.806 6  96266344.80444  23509220.820                    23509226.891
        41.400          27.400
 125273109.408 7  97615421.66844  23838683.961                    23838686.473
        45.000          27.800
 129599226.325 6 100986421.33643  24661914.563                    24661917.492
        40.400          20.900
 116264822.122 8  90595989.03446  22124460.727                    22124466.781
        49.200          37.900
 115062211.859 7  89658870.58344  21895609.766                    21895612.504
        44.800          29.100
 117626640.402 7  91657143.12945  22383604.484                    22383610.563
        46.400          34.900
 112871274.843 8  87951655.07646  21478689.539                    21478692.910
        50.400          38.700
 110448649.959 8  86063896.38845  21017680.234                    21017683.000
        48.100          34.800
 18  3 11 10 49  3.0000000  0 17G10G20R03R11R12R13R20R21R04G27G07G21
                                G30G28G08G15G13
 127946289.580 6  99698452.16843  24347376.070                    24347382.254
        41.700          22.300
 117841038.417 7  91824261.21945  22424420.617                    22424423.441
        44.600          30.300
                  85488842.032 6  20532902.195                    20532904.547
                        41.500
                  96021581.936 6  23103169.594                    23103171.023
                        41.800
                                  19928129.258

                  85796059.649 6  20657370.875                    20657372.785
                        38.300
                  90119076.037 7  21667805.727                    21667807.867
                        42.200
                  87136915.934 7  20936077.609                    20936079.637
                        42.600
                  84652035.397 7  20324792.734                    20324793.578
                        42.300
 123544902.671 7  96268775.87844  23509815.031                    23509820.082
        42.400          27.100
 125276906.055 7  97618380.12444  23839405.836                    23839408.895
        44.900          28.200
 129602010.915 6 100988591.14343  24662444.906                    24662447.395
        40.600          20.900
 116267695.947 8  90598228.38346  22125007.039                    22125013.336
        48.700          37.900
 115061023.771 7  89657944.80144  21895383.820                    21895386.559
        45.000          29.500
 117627250.336 7  91657618.39645  22383721.078                    22383727.000
        46.400          35.400
 112870585.558 8  87951117.97046  21478558.461                    21478561.961
        50.900          38.700
 110449718.012 8  86064728.63845  21017883.313                    21017886.078
        48.400          34.900
 18  3 11 10 49  4.0000000  0 17G10G20R03R11R12R13R20R21R04G27G07G21
                                G30G28G08G15G13
 127943314.564 6  99696133.96643  24346809.758                    24346815.590
        41.300          22.500
 117843557.784 7  91826224.36145  22424899.750                    22424902.836
        44.600          30.700
                  85491160.489 6  20533462.359                    20533461.320
                        41.500
                  96025235.477 6  23104047.508                    23104050.199
                        41.900
                                  19928538.758

                  85793895.315 6  20656849.242                    20656851.879
                        38.400
                  90121458.000 7  21668378.047                    21668380.477
                        42.300
                  87135893.132 7  20935831.344                    20935833.176
                        42.500
                  84650805.352 7  20324497.820                    20324498.277
                        42.300
 123548022.879 7  96271207.19844  23510408.586                    23510414.359
        42.800          27.100
 125280702.884 7  97621338.71944  23840127.344                    23840131.824
        44.500          28.100
 129604795.789 6 100990761.17243  24662974.953                    24662977.328
        40.200          20.900
 116270570.155 8  90600468.01946  22125554.961                    22125560.379
        48.800          37.900
 115059836.160 7  89657019.39244  21895157.922                    21895160.770
        43.700          29.600
 117627860.885 7  91658094.14945  22383837.344                    22383843.059
        46.500          34.900
 112869896.905 8  87950581.36146  21478427.375                    21478430.477
        51.100          38.900
 110450786.676 8  86065561.36445  21018087.063                    21018089.172
        48.800          34.400
 18  3 11 10 49  5.0000000  0 17G10G20R03R11R12R13R20R21R04G27G07G21
                                G30G28G08G15G13
 127940339.817 6  99693815.97743  24346244.203                    24346249.887
        41.500          22.300
 117846077.587 7  91828187.83745  22425379.555                    22425382.609
        45.300          30.900
                  85493479.394 6  20534021.016                    20534018.770
                        41.500
                  96028889.100 7  23104926.945                    23104929.457
                        42.100
                                  19928947.906

                  85791731.437 6  20656329.664                    20656330.449
                        38.500
                  90123840.488 7  21668950.508                    21668952.969
                        42.300
                  87134870.986 7  20935585.938                    20935587.945
                        42.700
                  84649575.843 7  20324202.000                    20324202.816
                        42.200
 123551143.490 7  96273638.85144  23511002.063                    23511007.895
        42.500          27.100
 125284499.868 7  97624297.42444  23840849.016                    23840854.293
        43.800          27.700
 129607580.889 6 100992931.38443  24663504.898                    24663507.055
        40.500          21.500
 116273444.740 8  90602707.95046  22126101.836                    22126107.477
        49.200          37.900
 115058649.002 7  89656094.33144  21894931.773                    21894934.473
        43.700          29.700
 117628472.072 7  91658570.39945  22383953.227                    22383959.266
        47.200          35.300
 112869208.832 8  87950045.20746  21478296.320                    21478299.590
        51.200          38.600
 110451855.929 8  86066394.55345  21018290.617                    21018293.023
        49.400          35.000
 18  3 11 10 49  6.0000000  0 17G10G20R03R11R12R13R20R21R04G27G07G21
                                G30G28G08G15G13
 127937365.354 6  99691498.21243  24345677.625                    24345683.801
        41.200          22.300
 117848597.934 7  91830151.73945  22425859.430                    22425862.699
        45.000          31.500
                  85495798.864 6  20534576.039                    20534576.410
                        41.500
                  96032542.851 6  23105806.156                    23105808.027
                        41.800
                                  19929357.188

                  85789568.019 6  20655810.484                    20655810.121
                        38.600
                  90126223.568 7  21669522.750                    21669526.055
                        42.000
                  87133849.504 7  20935340.859                    20935342.953
                        42.900
                  84648346.907 7  20323907.695                    20323907.781
                        42.100
 123554264.641 6  96276070.92444  23511595.656                    23511601.762
        41.300          27.000
 125288297.119 7  97627256.32044  23841572.031                    23841576.730
        43.000          27.400
 129610366.312 6 100995101.87043  24664035.094                    24664037.535
        40.500          22.000
 116276319.797 8  90604948.25546  22126648.641                    22126654.672
        49.400          38.100
 115057462.360 7  89655169.68245  21894706.258                    21894708.617
        44.100          30.400
 117629083.933 7  91659047.17445  22384069.742                    22384075.363
        47.300          35.600
 112868521.401 8  87949509.54446  21478165.633                    21478169.039
        51.600          39.200
 110452925.867 8  86067228.26545  21018494.242                    21018496.371
        49.500          34.700
 18  3 11 10 49  7.0000000  0 17G10G20R03R11R12R13R20R21R04G27G07G21
                                G30G28G08G15G13
 127934391.115 6  99689180.62643  24345111.805                    24345117.430
        41.100          22.500
 117851118.798 7  91832116.04645  22426339.516                    22426342.063
        44.500          31.700
                  85498118.886 6  20535130.516                    20535133.352
                        41.400
                  96036196.728 6  23106684.586                    23106686.871
                        41.700
                                  19929767.273

                  85787404.966 6  20655288.156                    20655289.469
                        38.700
                  90128607.161 7  21670095.109                    21670099.148
                        42.300
                  87132828.662 7  20935094.633                    20935097.477
                        43.100
                  84647118.562 7  20323613.000                    20323613.563
                        42.200
 123557386.132 6  96278503.25444  23512189.977                    23512195.727
        41.100          27.500
 125292094.510 7  97630215.31044  23842295.430                    23842299.004
        43.700          28.200
 129613152.002 6 100997272.53043  24664565.125                    24664567.609
        40.300          22.500
 116279195.228 8  90607188.84446  22127196.359                    22127201.715
        50.000          38.300
 115056276.197 7  89654245.39944  21894480.219                    21894483.102
        44.200          29.800
 117629696.432 7  91659524.44745  22384186.688                    22384192.172
        47.300          35.500
 112867834.589 8  87948974.35946  21478035.266                    21478038.406
        51.900          39.100
 110453996.416 8  86068062.45945  21018697.883                    21018700.563
        49.300          34.400
 18  3 11 10 49  8.0000000  0 17G10G20R03R11R12R13R20R21R04G27G07G21
                                G30G28G08G15G13
 127931417.157 6  99686863.25543  24344546.008                    24344551.680
        41.300          22.300
 117853640.146 7  91834080.73045  22426818.727                    22426821.320
        44.900          32.300
                  85500439.466 6  20535687.641                    20535689.859
                        41.200
                  96039850.782 6  23107565.008                    23107566.332
                        41.900
                                  19930176.930

                  85785242.354 6  20654766.828                    20654768.238
                        38.100
                  90130991.303 7  21670668.125                    21670672.391
                        42.200
                  87131808.490 7  20934850.961                    20934852.023
                        43.000
                  84645890.788 7  20323316.469                    20323318.309
                        42.100
 123560508.072 7  96280935.93144  23512784.719                    23512789.422
        42.200          27.400
 125295892.118 7  97633174.44744  23843019.242                    23843021.156
        44.700          28.700
 129615937.996 6 100999443.44943  24665094.578                    24665097.758
        39.800          22.600
 116282071.104 8  90609429.78146  22127744.008                    22127748.895
        50.500          38.400
 115055090.498 7  89653321.47044  21894254.609                    21894257.734
        44.100          29.900
 117630309.586 7  91660002.22745  22384303.414                    22384309.328
        47.900          35.900
 112867148.395 8  87948439.65846  21477904.273                    21477907.668
        52.100          39.400
 110455067.605 8  86068897.14645  21018901.625                    21018904.301
        49.000          34.500
 18  3 11 10 49  9.0000000  0 17G10G20R03R11R12R13R20R21R04G27G07G21
                                G30G28G08G15G13
 127928443.474 6  99684546.09443  24343979.688                    24343985.676
        41.000          22.600
 117856162.034 7  91836045.83345  22427299.539                    22427301.824
        45.100          31.700
                  85502760.523 6  20536247.688                    20536247.262
                        41.400
                  96043504.977 7  23108443.438                    23108445.594
                        42.300
                                  19930586.648

                  85783080.239 6  20654247.344                    20654247.875
                        38.600
                  90133375.978 7  21671242.016                    21671245.863
                        42.000
                  87130789.005 7  20934605.758                    20934607.316
                        42.900
                  84644663.655 6  20323023.688                    20323024.172
                        41.800
 123563630.448 7  96283368.94644  23513379.570                    23513383.770
        42.700          28.600
 125299689.896 7  97636133.74144  23843741.977                    23843744.137
        45.800          27.100
 129618724.264 6 101001614.57243  24665625.195                    24665628.027
        39.200          22.800
 116284947.402 8  90611671.05546  22128290.883                    22128296.434
        50.200          38.300
 115053905.337 7  89652397.97445  21894029.102                    21894031.922
        43.900          30.200
 117630923.416 8  91660480.53945  22384420.836                    22384425.902
        48.000          34.800
 112866462.826 8  87947905.44846  21477773.945                    21477777.152
        52.200          39.400
 110456139.429 8  86069732.32345  21019105.727                    21019108.559
        48.800          35.000
 18  3 11 10 49 10.0000000  0 17G10G20R03R11R12R13R20R21R04G27G07G21
                                G30G28G08G15G13
 127925470.045 6  99682229.12643  24343414.141                    24343419.777
        40.900          22.000
 117858684.432 7  91838011.33745  22427779.281                    22427781.914
        44.900          31.500
                  85505082.058 6  20536805.727                    20536805.191
                        41.600
                  96047159.300 6  23109322.461                    23109324.590
                        41.400
                                  19930996.609

                  85780918.543 6  20653727.664                    20653727.711
                        38.600
                  90135761.222 6  21671814.961                    21671819.188
                        41.900
                  87129770.145 7  20934360.344                    20934362.121
                        43.200
                  84643437.112 6  20322727.859                    20322728.992
                        41.600
 123566753.242 7  96285802.28244  23513973.055                    23513978.203
        42.600          28.500
 125303487.892 7  97639093.23044  23844464.961                    23844466.699
        46.000          29.600
 129621510.848 6 101003785.93643  24666155.438                    24666158.250
        38.500          22.800
 116287824.127 8  90613912.67046  22128837.711                    22128843.570
        49.600          38.300
 115052720.678 7  89651474.86744  21893804.320                    21893806.789
        44.200          29.000
 117631537.884 7  91660959.34745  22384537.305                    22384542.770
        47.500          34.900
 112865777.891 8  87947371.73146  21477643.430                    21477647.027
        52.000          39.200
 110457211.908 8  86070568.02345  21019309.422                    21019312.363
        48.500          35.000
 18  3 11 10 49 11.0000000  0 17G10G20R03R11R12R13R20R21R04G27G07G21
                                G30G28G08G15G13
 127922496.889 6  99679912.38443  24342848.234                    24342853.871
        40.600          21.300
 117861207.281 7  91839977.19645  22428259.133                    22428262.172
        44.100          31.700
                  85507404.068 6  20537361.750                    20537363.461
                        41.700
                  96050813.701 6  23110201.297                    23110203.762
                        41.300
                                  19931406.070

                  85778757.196 6  20653206.125                    20653208.020
                        38.600
                  90138146.979 6  21672389.266                    21672392.641
                        41.900
                  87128751.881 7  20934116.633                    20934118.102
                        42.600
                  84642211.135 6  20322433.508                    20322434.719
                        41.900
 123569876.438 7  96288235.93544  23514568.273                    23514572.230
        43.200          27.100
 125307286.002 7  97642052.81944  23845187.031                    23845189.176
        45.900          28.700
 129624297.709 6 101005957.53243  24666686.008                    24666688.664
        37.700          22.000
 116290701.238 8  90616154.57646  22129385.070                    22129391.348
        49.300          38.200
 115051536.447 7  89650552.09445  21893578.883                    21893581.164
        44.100          30.200
 117632152.968 7  91661438.63945  22384654.008                    22384659.977
        46.900          35.400
 112865093.528 8  87946838.46046  21477513.070                    21477516.695
        51.500          38.800
 110458284.967 8  86071404.17045  21019513.813                    21019516.293
        48.500          34.700
 18  3 11 10 49 12.0000000  0 17G10G20R03R11R12R13R20R21R04G27G07G21
                                G30G28G08G15G13
 127919523.940 6  99677595.81343  24342283.234                    24342288.820
        41.100          21.800
 117863730.662 7  91841943.46345  22428739.492                    22428742.230
        44.700          32.000
                  85509726.676 6  20537918.578                    20537921.250
                        41.400
                  96054468.237 6  23111080.414                    23111083.004
                        40.600
                                  19931817.258

                  85776596.290 6  20652684.039                    20652686.637
                        38.600
                  90140533.292 6  21672963.141                    21672966.027
                        41.800
                  87127734.317 7  20933871.781                    20933873.598
                        42.600
                  84640985.753 6  20322139.750                    20322140.164
                        41.800
 123573000.033 7  96290669.91144  23515162.742                    23515166.719
        44.300          29.100
 125311084.354 7  97645012.59444  23845909.836                    23845912.047
        46.400          28.100
 129627084.806 6 101008129.29343  24667215.688                    24667218.715
        37.100          21.700
 116293578.784 8  90618396.81746  22129932.922                    22129938.496
        49.300          38.000
 115050352.731 7  89649629.70945  21893353.172                    21893355.820
        43.700          30.900
 117632768.712 7  91661918.43945  22384770.391                    22384776.941
        46.800          35.400
 112864409.808 8  87946305.68846  21477383.039                    21477386.508
        51.700          38.800
 110459358.698 8  86072240.84645  21019718.438                    21019720.898
        48.400          35.100
 18  3 11 10 49 13.0000000  0 17G10G20R03R11R12R13R20R21R04G27G07G21
                                G30G28G08G15G13
 127916551.334 6  99675279.51243  24341716.922                    24341722.438
        41.300          21.800
 117866254.550 7  91843910.12745  22429219.977                    22429222.332
        44.900          32.700
                  85512049.818 6  20538477.523                    20538478.598
                        41.500
                  96058122.926 6  23111960.516                    23111962.168
                        40.700
                                  19932227.469

                  85774435.897 6  20652165.352                    20652165.973
                        37.900
                  90142920.165 7  21673538.148                    21673540.047
                        42.100
                  87126717.395 7  20933627.141                    20933629.676
                        42.600
                  84639760.953 6  20321845.648                    20321846.109
                        41.900
 123576124.116 7  96293104.26944  23515756.703                    23515761.023
        44.100          28.600
 125314882.896 7  97647972.52944  23846633.211                    23846634.918
        47.300          29.300
 129629872.292 6 101010301.36443  24667746.773                    24667749.453
        37.300          20.900
 116296456.774 8  90620639.40246  22130480.820                    22130486.582
        49.300          37.600
 115049169.487 7  89648707.69745  21893128.242                    21893130.680
        43.700          30.000
 117633385.167 7  91662398.79545  22384887.477                    22384894.383
        46.700          35.500
 112863726.713 8  87945773.40346  21477252.891                    21477256.980
        51.700          39.100
 110460433.076 8  86073078.02145  21019922.867                    21019925.402
        49.000          34.700
 18  3 11 10 49 14.0000000  0 17G10G20R03R11R12R13R20R21R04G27G07G21
                                G30G28G08G15G13
 127913578.979 6  99672963.38643  24341151.211                    24341156.695
        40.900          22.000
 117868778.982 7  91845877.22445  22429700.008                    22429702.832
        45.000          32.000
                  85514373.469 6  20539037.148                    20539037.121
                        41.500
                  96061777.730 6  23112840.945                    23112841.855
                        41.100
                                  19932638.617

                  85772275.951 6  20651645.977                    20651646.074
                        38.100
                  90145307.553 7  21674113.445                    21674114.398
                        42.200
                  87125701.164 7  20933382.664                    20933384.875
                        42.600
                  84638536.764 6  20321551.906                    20321552.969
                        41.800
 123579248.604 7  96295538.95244  23516351.367                    23516355.543
        44.000          28.900
 125318681.625 7  97650932.59944  23847355.672                    23847357.832
        47.000          29.900
 129632660.029 6 101012473.61443  24668275.914                    24668279.598
        37.100          21.100
 116299335.176 8  90622882.30746  22131028.391                    22131034.129
        49.100          38.300
 115047986.777 7  89647786.10845  21892903.406                    21892905.652
        43.500          30.100
 117634002.248 7  91662879.63545  22385005.406                    22385011.625
        46.900          35.700
 112863044.260 8  87945241.62346  21477123.094                    21477127.172
        51.500          39.300
 110461508.096 8  86073915.68845  21020127.617                    21020129.828
        49.000          34.500
 18  3 11 10 49 15.0000000  0 17G10G20R03R11R12R13R20R21R04G27G07G21
                                G30G28G08G15G13
 127910606.907 6  99670647.46843  24340585.914                    24340591.406
        41.100          21.500
 117871303.960 7  91847844.74245  22430179.883                    22430183.098
        44.700          31.800
                  85516697.685 6  20539594.711                    20539595.379
                        41.500
                  96065432.747 6  23113719.578                    23113721.203
                        41.400
                                  19933049.070

                  85770116.408 6  20651124.797                    20651126.340
                        38.300
                  90147695.558 7  21674686.094                    21674688.289
                        42.500
                  87124685.612 7  20933138.750                    20933140.879
                        42.600
                  84637313.200 6  20321257.703                    20321258.996
                        41.900
 123582373.578 7  96297974.01444  23516944.992                    23516951.012
        43.300          28.600
 125322480.578 7  97653892.83645  23848076.992                    23848081.402
        45.100          30.200
 129635448.094 6 101014646.12643  24668807.250                    24668810.332
        37.500          21.500
 116302214.040 8  90625125.57646  22131576.484                    22131582.129
        49.400          37.400
 115046804.599 7  89646864.92544  21892677.922                    21892680.836
        43.700          29.000
 117634619.984 7  91663360.97945  22385123.094                    22385129.094
        47.000          35.500
 112862362.476 8  87944710.36346  21476993.273                    21476996.980
        51.500          39.000
 110462583.801 8  86074753.89845  21020332.336                    21020334.332
        49.100          34.600
 18  3 11 10 49 16.0000000  0 17G10G20R03R11R12R13R20R21R04G27G07G21
                                G30G28G08G15G13
 127907635.100 6  99668331.77343  24340019.930                    24340025.910
        40.600          20.900
 117873829.433 7  91849812.64345  22430661.133                    22430663.531
        44.300          31.900
                  85519022.468 6  20540151.797                    20540153.852
                        41.400
                  96069087.883 6  23114599.344                    23114600.805
                        41.100
                                  19933459.602

                  85767957.312 6  20650604.531                    20650606.031
                        38.000
                  90150084.100 7  21675261.164                    21675262.766
                        42.400
                  87123670.717 7  20932895.523                    20932896.969
                        42.900
                  84636090.255 7  20320964.781                    20320964.648
                        42.100
 123585498.968 7  96300409.40244  23517539.359                    23517545.262
        42.700          27.000
 125326279.742 7  97656853.24044  23848798.539                    23848804.723
        42.400          28.700
 129638236.481 6 101016818.88743  24669337.555                    24669340.992
        37.500          20.400
 116305093.330 8  90627369.17646  22132124.484                    22132130.078
        49.700          37.500
 115045622.873 7  89645944.10444  21892453.039                    21892455.527
        43.700          29.800
 117635238.406 7  91663842.86945  22385240.891                    22385246.797
        46.800          34.800
 112861681.295 8  87944179.57346  21476864.055                    21476867.641
        51.600          38.900
 110463660.108 8  86075592.57845  21020537.156                    21020539.266
        48.700          34.200
 18  3 11 10 49 17.0000000  0 17G10G20R03R11R12R13R20R21R04G27G07G21
                                G30G28G08G15G13
 127904663.573 6  99666016.31643  24339454.563                    24339460.488
        40.300          22.000
 117876355.406 7  91851780.93445  22431141.234                    22431144.492
        44.600          31.900
                  85521347.794 6  20540709.867                    20540712.367
                        41.100
                  96072743.138 6  23115478.547                    23115479.863
                        41.300
                                  19933870.523

                  85765798.663 6  20650086.617                    20650086.137
                        38.100
                  90152473.144 7  21675835.016                    21675837.004
                        42.700
                  87122656.446 7  20932652.016                    20932653.043
                        43.300
                  84634867.877 7  20320670.813                    20320671.477
                        42.100
 123588624.783 6  96302845.09644  23518134.148                    23518140.219
        41.600          27.200
 125330079.179 6  97659813.81344  23849521.617                    23849527.410
        40.200          29.500
 129641025.049 6 101018991.78343  24669868.500                    24669871.879
        37.700          21.500
 116307973.004 8  90629613.07746  22132672.797                    22132677.805
        49.900          37.800
 115044441.649 7  89645023.67944  21892228.430                    21892231.070
        44.300          29.700
 117635857.439 7  91664325.23645  22385358.164                    22385364.805
        46.300          35.800
 112861000.710 8  87943649.25246  21476733.992                    21476738.191
        51.400          39.400
 110464737.059 8  86076431.75045  21020741.820                    21020744.648
        48.600          35.100
 18  3 11 10 49 18.0000000  0 17G10G20R03R11R12R13R20R21R04G27G07G21
                                G30G28G08G15G13
 127901692.277 6  99663701.02943  24338889.781                    24338895.309
        40.400          22.500
 117878881.880 7  91853749.61945  22431622.664                    22431625.395
        44.800          31.400
                  85523673.643 6  20541269.945                    20541270.684
                        41.500
                  96076398.512 6  23116358.719                    23116359.914
                        40.200
                                  19934282.281

                  85763640.453 6  20649566.930                    20649567.492
                        38.400
                  90154862.723 7  21676410.719                    21676411.387
                        42.700
                  87121642.846 7  20932407.641                    20932409.453
                        42.700
                  84633646.102 7  20320377.805                    20320378.938
                        42.100
 123591750.997 7  96305281.10444  23518728.992                    23518735.203
        42.000          27.000
 125333878.735 7  97662774.42644  23850247.195                    23850250.551
        43.300          28.300
 129643813.961 6 101021164.96443  24670399.594                    24670402.367
        38.000          21.100
 116310853.083 8  90631857.29646  22133220.523                    22133226.500
        49.900          38.200
 115043260.898 7  89644103.61144  21892004.055                    21892005.957
        44.300          29.700
 117636477.152 7  91664808.12745  22385475.789                    22385482.234
        46.300          35.100
 112860320.760 8  87943119.41746  21476604.836                    21476608.266
        51.600          39.000
 110465814.619 8  86077271.41345  21020946.641                    21020949.590
        48.900          34.300
 18  3 11 10 49 19.0000000  0 17G10G20R03R11R12R13R20R21R04G27G07G21
                                G30G28G08G15G13
 127898721.328 6  99661385.98943  24338323.922                    24338330.176
        40.200          23.500
 117881408.919 7  91855718.74645  22432102.820                    22432105.703
        45.100          31.500
                  85525999.975 6  20541828.953                    20541829.457
                        41.400
                  96080054.048 6  23117237.352                    23117239.465
                        40.300
                                  19934692.633

                  85761482.676 6  20649047.297                    20649048.480
                        38.300
                  90157252.887 7  21676983.805                    21676986.758
                        42.700
