% program   : RTKPOST ver.2.4.2
% inp file  : Z:\home\linda\Documents\Spring18\GitHub_Unis\data\processed_data\46250754.obs
% inp file  : Z:\home\linda\Documents\Spring18\GitHub_Unis\data\base_station_data\lyrs0750.18o
% inp file  : Z:\home\linda\Documents\Spring18\GitHub_Unis\data\processed_data\46250754.nav
% obs start : 2018/03/16 10:25:16.0 GPST (week1992 469516.0s)
% obs end   : 2018/03/16 10:40:16.0 GPST (week1992 470416.0s)
% pos mode  : static
% freqs     : L1+L2
% solution  : forward
% elev mask : 15.0 deg
% dynamics  : on
% tidecorr  : off
% ionos opt : broadcast
% tropo opt : saastamoinen
% ephemeris : broadcast
% navi sys  : gps glonass galileo qzss sbas
% amb res   : fix and hold
% amb glo   : on
% val thres : 3.0
% antenna1  :                       ( 0.0000  0.0000  0.0000)
% antenna2  :                       ( 0.0000  0.0000  0.0000)
% ref pos   : 78.228825638   15.397310064   495.6816
%
% (lat/lon/height=WGS84/ellipsoidal,Q=1:fix,2:float,3:sbas,4:dgps,5:single,6:ppp,ns=# of satellites)
%  GPST                  latitude(deg) longitude(deg)  height(m)   Q  ns   sdn(m)   sde(m)   sdu(m)  sdne(m)  sdeu(m)  sdun(m) age(s)  ratio
2018/03/16 10:25:16.000   78.246498614   16.063375370   574.2057   2   9   0.6309   0.3395   1.8431   0.0894   0.2828   0.8918   0.00    1.0
2018/03/16 10:25:17.000   78.246497603   16.063368251   573.8431   2   9   0.4488   0.2414   1.3127   0.0631   0.2014   0.6350   0.00    1.0
2018/03/16 10:25:18.000   78.246496738   16.063365841   573.9345   2   9   0.3670   0.1974   1.0737   0.0513   0.1648   0.5193   0.00    1.1
2018/03/16 10:25:19.000   78.246496216   16.063361798   573.7643   2   9   0.3180   0.1712   0.9300   0.0443   0.1427   0.4497   0.00    1.1
2018/03/16 10:25:20.000   78.246496284   16.063361392   573.7808   2   9   0.2843   0.1532   0.8313   0.0395   0.1275   0.4019   0.00    1.1
2018/03/16 10:25:21.000   78.246495747   16.063361733   573.7121   2   9   0.2594   0.1399   0.7579   0.0359   0.1163   0.3663   0.00    1.2
2018/03/16 10:25:22.000   78.246494685   16.063357010   573.3517   2   9   0.2399   0.1295   0.7005   0.0331   0.1075   0.3385   0.00    1.2
2018/03/16 10:25:23.000   78.246494091   16.063356606   573.2286   2   9   0.2241   0.1212   0.6540   0.0307   0.1003   0.3159   0.00    1.2
2018/03/16 10:25:24.000   78.246493876   16.063358114   573.1750   2   9   0.2110   0.1142   0.6151   0.0288   0.0943   0.2970   0.00    1.1
2018/03/16 10:25:25.000   78.246492398   16.063355085   572.6821   2   9   0.1998   0.1084   0.5819   0.0271   0.0892   0.2808   0.00    1.0
2018/03/16 10:25:26.000   78.246491535   16.063354712   572.4053   2   9   0.1901   0.1033   0.5531   0.0257   0.0848   0.2668   0.00    1.1
2018/03/16 10:25:27.000   78.246490573   16.063355128   572.0071   2   9   0.1816   0.0989   0.5278   0.0244   0.0809   0.2545   0.00    1.1
2018/03/16 10:25:28.000   78.246489379   16.063353984   571.5151   2   9   0.1741   0.0950   0.5052   0.0232   0.0775   0.2435   0.00    1.0
2018/03/16 10:25:29.000   78.246487629   16.063353810   570.8800   2   9   0.1674   0.0916   0.4850   0.0222   0.0744   0.2336   0.00    1.0
2018/03/16 10:25:30.000   78.246485434   16.063354095   570.0020   2   9   0.1613   0.0885   0.4666   0.0212   0.0716   0.2246   0.00    1.0
2018/03/16 10:25:31.000   78.246482669   16.063353957   568.9341   2   9   0.1557   0.0856   0.4497   0.0203   0.0690   0.2163   0.00    1.0
2018/03/16 10:25:32.000   78.246479589   16.063353829   567.8463   2   9   0.1506   0.0831   0.4343   0.0195   0.0666   0.2087   0.00    1.0
2018/03/16 10:25:33.000   78.246476966   16.063353621   566.8329   2   9   0.1459   0.0807   0.4199   0.0187   0.0644   0.2017   0.00    1.2
2018/03/16 10:25:34.000   78.246474126   16.063353763   565.7377   2   9   0.1415   0.0785   0.4066   0.0180   0.0624   0.1951   0.00    1.2
2018/03/16 10:25:35.000   78.246471037   16.063353567   564.5953   2   9   0.1375   0.0765   0.3942   0.0173   0.0605   0.1890   0.00    1.2
2018/03/16 10:25:36.000   78.246468293   16.063353006   563.6231   2   9   0.1337   0.0747   0.3826   0.0167   0.0587   0.1833   0.00    1.0
2018/03/16 10:25:37.000   78.246466073   16.063352540   562.8255   2   9   0.1301   0.0729   0.3716   0.0161   0.0570   0.1778   0.00    1.0
2018/03/16 10:25:38.000   78.246464414   16.063353176   562.1603   2   9   0.1268   0.0713   0.3612   0.0155   0.0555   0.1727   0.00    1.0
2018/03/16 10:25:39.000   78.246462987   16.063353528   561.6094   2   9   0.1236   0.0698   0.3515   0.0150   0.0540   0.1679   0.00    1.0
2018/03/16 10:25:40.000   78.246461682   16.063353903   561.1733   2   9   0.1207   0.0684   0.3422   0.0144   0.0525   0.1632   0.00    1.0
2018/03/16 10:25:41.000   78.246460795   16.063354554   560.8733   2   9   0.1178   0.0670   0.3333   0.0139   0.0512   0.1588   0.00    1.1
2018/03/16 10:25:42.000   78.246460314   16.063354984   560.6862   2   9   0.1151   0.0657   0.3249   0.0135   0.0499   0.1547   0.00    1.1
2018/03/16 10:25:43.000   78.246459956   16.063355903   560.5905   2   9   0.1126   0.0645   0.3169   0.0130   0.0487   0.1506   0.00    1.1
2018/03/16 10:25:44.000   78.246459603   16.063355980   560.4237   2   9   0.1102   0.0634   0.3092   0.0126   0.0475   0.1468   0.00    1.0
2018/03/16 10:25:45.000   78.246459322   16.063356561   560.3299   2   9   0.1078   0.0623   0.3018   0.0121   0.0464   0.1431   0.00    1.1
2018/03/16 10:25:46.000   78.246459078   16.063357583   560.2395   2   9   0.1056   0.0613   0.2948   0.0117   0.0453   0.1396   0.00    1.1
2018/03/16 10:25:47.000   78.246459023   16.063357665   560.2178   2   9   0.1035   0.0603   0.2880   0.0113   0.0443   0.1362   0.00    1.2
2018/03/16 10:25:48.000   78.246459124   16.063358191   560.2812   2   9   0.1014   0.0593   0.2815   0.0109   0.0433   0.1329   0.00    1.2
2018/03/16 10:25:49.000   78.246459254   16.063358983   560.4179   2   9   0.0995   0.0584   0.2752   0.0106   0.0423   0.1298   0.00    1.3
2018/03/16 10:25:50.000   78.246459269   16.063359525   560.5557   2   9   0.0976   0.0576   0.2691   0.0102   0.0414   0.1267   0.00    1.3
2018/03/16 10:25:51.000   78.246459063   16.063359352   560.6095   2   9   0.0957   0.0567   0.2633   0.0099   0.0405   0.1238   0.00    1.3
2018/03/16 10:25:52.000   78.246458726   16.063359059   560.5888   2   9   0.0940   0.0559   0.2577   0.0096   0.0397   0.1209   0.00    1.3
2018/03/16 10:25:53.000   78.246458415   16.063358966   560.5747   2   9   0.0923   0.0552   0.2522   0.0092   0.0388   0.1182   0.00    1.3
2018/03/16 10:25:54.000   78.246458009   16.063358623   560.5408   2   9   0.0907   0.0544   0.2470   0.0089   0.0380   0.1155   0.00    1.2
2018/03/16 10:25:55.000   78.246457648   16.063357709   560.5234   2   9   0.0891   0.0537   0.2419   0.0086   0.0373   0.1130   0.00    1.2
2018/03/16 10:25:56.000   78.246457324   16.063357054   560.5205   2   9   0.0876   0.0530   0.2370   0.0084   0.0365   0.1105   0.00    1.2
2018/03/16 10:25:57.000   78.246457164   16.063356616   560.5701   2   9   0.0861   0.0524   0.2322   0.0081   0.0358   0.1080   0.00    1.1
2018/03/16 10:25:58.000   78.246457077   16.063356063   560.5986   2   9   0.0847   0.0517   0.2276   0.0078   0.0351   0.1057   0.00    1.1
2018/03/16 10:25:59.000   78.246456726   16.063355719   560.5113   2   9   0.0833   0.0511   0.2231   0.0076   0.0344   0.1034   0.00    1.1
2018/03/16 10:26:00.000   78.246456256   16.063355556   560.3793   2   9   0.0820   0.0505   0.2188   0.0073   0.0337   0.1012   0.00    1.1
2018/03/16 10:26:01.000   78.246455690   16.063355613   560.1630   2   9   0.0807   0.0499   0.2146   0.0071   0.0331   0.0991   0.00    1.0
2018/03/16 10:26:02.000   78.246455024   16.063355496   559.8803   2   9   0.0794   0.0494   0.2105   0.0069   0.0325   0.0970   0.00    1.0
2018/03/16 10:26:03.000   78.246454370   16.063355402   559.5870   2   9   0.0782   0.0488   0.2065   0.0067   0.0319   0.0950   0.00    1.0
2018/03/16 10:26:04.000   78.246453614   16.063355127   559.2771   2   9   0.0770   0.0483   0.2027   0.0065   0.0313   0.0930   0.00    1.0
2018/03/16 10:26:05.000   78.246452816   16.063355236   558.9442   2   9   0.0759   0.0478   0.1990   0.0063   0.0307   0.0911   0.00    1.1
2018/03/16 10:26:06.000   78.246452107   16.063355473   558.5890   2   9   0.0748   0.0473   0.1953   0.0061   0.0301   0.0892   0.00    1.1
2018/03/16 10:26:07.000   78.246451389   16.063355821   558.2123   2   9   0.0737   0.0468   0.1918   0.0059   0.0296   0.0874   0.00    1.1
2018/03/16 10:26:08.000   78.246450607   16.063355870   557.8061   2   9   0.0726   0.0463   0.1884   0.0057   0.0291   0.0857   0.00    1.0
2018/03/16 10:26:09.000   78.246449692   16.063355980   557.3403   2   9   0.0716   0.0459   0.1850   0.0056   0.0285   0.0840   0.00    1.0
2018/03/16 10:26:10.000   78.246448823   16.063356337   556.8667   2   9   0.0706   0.0454   0.1818   0.0054   0.0280   0.0823   0.00    1.1
2018/03/16 10:26:11.000   78.246447883   16.063356530   556.3343   2   9   0.0696   0.0450   0.1786   0.0053   0.0276   0.0807   0.00    1.0
2018/03/16 10:26:12.000   78.246447084   16.063356804   555.8651   2   9   0.0687   0.0446   0.1755   0.0052   0.0271   0.0791   0.00    1.1
2018/03/16 10:26:13.000   78.246446479   16.063357247   555.4811   2   9   0.0678   0.0442   0.1725   0.0051   0.0266   0.0775   0.00    1.1
2018/03/16 10:26:14.000   78.246446061   16.063357806   555.1363   2   9   0.0669   0.0438   0.1696   0.0050   0.0262   0.0760   0.00    1.2
2018/03/16 10:26:15.000   78.246445945   16.063358547   554.9067   2   9   0.0660   0.0434   0.1668   0.0049   0.0257   0.0746   0.00    1.1
2018/03/16 10:26:16.000   78.246446033   16.063359384   554.7475   2   9   0.0652   0.0430   0.1640   0.0048   0.0253   0.0731   0.00    1.1
2018/03/16 10:26:17.000   78.246446449   16.063360305   554.7065   2   9   0.0643   0.0426   0.1613   0.0047   0.0249   0.0717   0.00    1.0
2018/03/16 10:26:18.000   78.246447056   16.063361466   554.7706   2   9   0.0635   0.0422   0.1586   0.0046   0.0245   0.0704   0.00    1.0
2018/03/16 10:26:19.000   78.246447800   16.063362416   554.8858   2   9   0.0627   0.0419   0.1561   0.0045   0.0241   0.0691   0.00    1.0
2018/03/16 10:26:20.000   78.246448553   16.063363409   555.0081   2   9   0.0620   0.0415   0.1536   0.0045   0.0237   0.0678   0.00    1.1
2018/03/16 10:26:21.000   78.246449074   16.063364492   555.0669   2   9   0.0612   0.0412   0.1511   0.0044   0.0233   0.0665   0.00    1.1
2018/03/16 10:26:22.000   78.246449278   16.063365157   555.0327   2   9   0.0605   0.0408   0.1488   0.0044   0.0229   0.0653   0.00    1.1
2018/03/16 10:26:23.000   78.246449398   16.063366123   554.9863   2   9   0.0598   0.0405   0.1464   0.0044   0.0225   0.0641   0.00    1.1
2018/03/16 10:26:24.000   78.246449293   16.063366914   554.8906   2   9   0.0591   0.0402   0.1442   0.0043   0.0222   0.0629   0.00    1.0
2018/03/16 10:26:25.000   78.246449200   16.063367510   554.7982   2   9   0.0584   0.0399   0.1419   0.0043   0.0218   0.0617   0.00    1.0
2018/03/16 10:26:26.000   78.246449143   16.063368002   554.7080   2   9   0.0577   0.0396   0.1398   0.0043   0.0215   0.0606   0.00    1.0
2018/03/16 10:26:27.000   78.246449102   16.063368501   554.6404   2   9   0.0570   0.0393   0.1377   0.0043   0.0211   0.0595   0.00    1.0
2018/03/16 10:26:28.000   78.246449149   16.063368901   554.6154   2   9   0.0564   0.0390   0.1356   0.0043   0.0208   0.0585   0.00    1.0
2018/03/16 10:26:29.000   78.246449272   16.063369235   554.6181   2   9   0.0558   0.0387   0.1336   0.0043   0.0205   0.0574   0.00    1.0
2018/03/16 10:26:30.000   78.246449533   16.063369659   554.6872   2   9   0.0552   0.0384   0.1316   0.0043   0.0202   0.0564   0.00    1.0
2018/03/16 10:26:31.000   78.246449943   16.063370077   554.7944   2   9   0.0546   0.0381   0.1297   0.0043   0.0199   0.0554   0.00    1.0
2018/03/16 10:26:32.000   78.246450303   16.063370202   554.8924   2   9   0.0540   0.0378   0.1278   0.0043   0.0196   0.0544   0.00    1.0
2018/03/16 10:26:33.000   78.246450570   16.063370435   554.9680   2   9   0.0534   0.0375   0.1260   0.0044   0.0193   0.0535   0.00    1.0
2018/03/16 10:26:34.000   78.246450903   16.063370667   555.0796   2   9   0.0528   0.0373   0.1242   0.0044   0.0190   0.0525   0.00    1.0
2018/03/16 10:26:35.000   78.246451348   16.063370900   555.2432   2   9   0.0523   0.0370   0.1224   0.0044   0.0187   0.0516   0.00    1.0
2018/03/16 10:26:36.000   78.246451907   16.063371205   555.4605   2   9   0.0517   0.0367   0.1207   0.0044   0.0184   0.0507   0.00    1.1
2018/03/16 10:26:37.000   78.246452538   16.063371525   555.7161   2   9   0.0512   0.0365   0.1191   0.0045   0.0181   0.0499   0.00    1.1
2018/03/16 10:26:38.000   78.246453454   16.063371754   556.0503   2   9   0.0507   0.0362   0.1174   0.0045   0.0179   0.0490   0.00    1.1
2018/03/16 10:26:39.000   78.246454506   16.063371895   556.4364   2   9   0.0502   0.0360   0.1158   0.0045   0.0176   0.0482   0.00    1.1
2018/03/16 10:26:40.000   78.246455673   16.063371924   556.8507   2   9   0.0497   0.0358   0.1142   0.0046   0.0173   0.0473   0.00    1.1
2018/03/16 10:26:41.000   78.246456969   16.063371961   557.2966   2   9   0.0492   0.0355   0.1127   0.0046   0.0171   0.0465   0.00    1.1
2018/03/16 10:26:42.000   78.246458436   16.063371948   557.8016   2   9   0.0487   0.0353   0.1112   0.0047   0.0168   0.0458   0.00    1.0
2018/03/16 10:26:43.000   78.246460009   16.063371858   558.3331   2   9   0.0482   0.0351   0.1097   0.0047   0.0166   0.0450   0.00    1.0
2018/03/16 10:26:44.000   78.246461676   16.063371801   558.8832   2   9   0.0478   0.0348   0.1083   0.0048   0.0163   0.0442   0.00    1.0
2018/03/16 10:26:45.000   78.246463363   16.063371832   559.4315   2   9   0.0473   0.0346   0.1069   0.0048   0.0161   0.0435   0.00    1.0
2018/03/16 10:26:46.000   78.246464972   16.063371779   559.9398   2   9   0.0469   0.0344   0.1055   0.0049   0.0159   0.0428   0.00    1.0
2018/03/16 10:26:47.000   78.246466483   16.063371584   560.4348   2   9   0.0464   0.0342   0.1041   0.0049   0.0156   0.0421   0.00    1.0
2018/03/16 10:26:48.000   78.246467825   16.063371427   560.8747   2   9   0.0460   0.0339   0.1028   0.0050   0.0154   0.0414   0.00    1.1
2018/03/16 10:26:49.000   78.246469072   16.063371279   561.2742   2   9   0.0456   0.0337   0.1015   0.0050   0.0152   0.0407   0.00    1.1
2018/03/16 10:26:50.000   78.246470220   16.063371074   561.6407   2   9   0.0452   0.0335   0.1002   0.0051   0.0150   0.0400   0.00    1.0
2018/03/16 10:26:51.000   78.246471279   16.063370812   561.9753   2   9   0.0447   0.0333   0.0990   0.0051   0.0148   0.0394   0.00    1.0
2018/03/16 10:26:52.000   78.246472089   16.063370629   562.2502   2   9   0.0443   0.0331   0.0978   0.0051   0.0145   0.0387   0.00    1.0
2018/03/16 10:26:53.000   78.246472701   16.063370348   562.4822   2   9   0.0440   0.0329   0.0966   0.0052   0.0143   0.0381   0.00    1.0
2018/03/16 10:26:54.000   78.246473205   16.063370095   562.6880   2   9   0.0436   0.0327   0.0954   0.0052   0.0141   0.0375   0.00    1.0
2018/03/16 10:26:55.000   78.246473553   16.063369874   562.8552   2   9   0.0432   0.0325   0.0942   0.0053   0.0139   0.0369   0.00    1.0
2018/03/16 10:26:56.000   78.246473768   16.063369524   562.9864   2   9   0.0428   0.0323   0.0931   0.0053   0.0137   0.0363   0.00    1.0
2018/03/16 10:26:57.000   78.246473830   16.063369095   563.0683   2   9   0.0424   0.0322   0.0920   0.0054   0.0135   0.0357   0.00    1.0
2018/03/16 10:26:58.000   78.246473678   16.063368591   563.0854   2   9   0.0421   0.0320   0.0909   0.0054   0.0133   0.0352   0.00    1.0
2018/03/16 10:26:59.000   78.246473313   16.063367782   563.0420   2   9   0.0417   0.0318   0.0899   0.0055   0.0132   0.0346   0.00    1.0
2018/03/16 10:27:00.000   78.246472871   16.063367043   562.9715   2   9   0.0414   0.0316   0.0888   0.0055   0.0130   0.0341   0.00    1.1
2018/03/16 10:27:01.000   78.246472372   16.063366332   562.8896   2   9   0.0410   0.0314   0.0878   0.0056   0.0128   0.0335   0.00    1.1
2018/03/16 10:27:02.000   78.246471886   16.063365589   562.7813   2   9   0.0407   0.0312   0.0868   0.0056   0.0126   0.0330   0.00    1.1
2018/03/16 10:27:03.000   78.246471496   16.063365139   562.7127   2   9   0.0404   0.0311   0.0858   0.0057   0.0124   0.0325   0.00    1.2
2018/03/16 10:27:04.000   78.246471319   16.063364821   562.6927   2   9   0.0400   0.0309   0.0848   0.0057   0.0122   0.0320   0.00    1.2
2018/03/16 10:27:05.000   78.246471329   16.063364761   562.7249   2   9   0.0397   0.0307   0.0839   0.0058   0.0121   0.0315   0.00    1.2
2018/03/16 10:27:06.000   78.246471448   16.063364863   562.7913   2   9   0.0394   0.0306   0.0829   0.0058   0.0119   0.0310   0.00    1.2
2018/03/16 10:27:07.000   78.246471631   16.063365110   562.9055   2   9   0.0391   0.0304   0.0820   0.0059   0.0117   0.0305   0.00    1.2
2018/03/16 10:27:08.000   78.246471884   16.063365370   563.0568   2   9   0.0388   0.0302   0.0811   0.0059   0.0116   0.0300   0.00    1.2
2018/03/16 10:27:09.000   78.246472183   16.063365732   563.2287   2   9   0.0384   0.0301   0.0802   0.0059   0.0114   0.0296   0.00    1.1
2018/03/16 10:27:10.000   78.246472544   16.063366000   563.4212   2   9   0.0381   0.0299   0.0794   0.0060   0.0112   0.0291   0.00    1.1
2018/03/16 10:27:11.000   78.246472902   16.063366294   563.6360   2   9   0.0378   0.0297   0.0785   0.0060   0.0111   0.0287   0.00    1.1
2018/03/16 10:27:12.000   78.246473314   16.063366570   563.8749   2   9   0.0376   0.0296   0.0777   0.0061   0.0109   0.0282   0.00    1.1
2018/03/16 10:27:13.000   78.246473715   16.063366870   564.1221   2   9   0.0373   0.0294   0.0769   0.0061   0.0108   0.0278   0.00    1.0
2018/03/16 10:27:14.000   78.246474066   16.063367144   564.3866   2   9   0.0370   0.0293   0.0760   0.0061   0.0106   0.0274   0.00    1.0
2018/03/16 10:27:15.000   78.246474408   16.063367390   564.6711   2   9   0.0367   0.0291   0.0753   0.0062   0.0104   0.0270   0.00    1.0
2018/03/16 10:27:16.000   78.246474754   16.063367711   564.9671   2   9   0.0364   0.0290   0.0745   0.0062   0.0103   0.0266   0.00    1.0
2018/03/16 10:27:17.000   78.246475133   16.063368036   565.2753   2   9   0.0362   0.0288   0.0737   0.0063   0.0101   0.0262   0.00    1.0
2018/03/16 10:27:18.000   78.246475569   16.063368299   565.6119   2   9   0.0359   0.0287   0.0729   0.0063   0.0100   0.0258   0.00    1.1
2018/03/16 10:27:19.000   78.246476122   16.063368565   565.9747   2   9   0.0356   0.0285   0.0722   0.0063   0.0098   0.0254   0.00    1.1
2018/03/16 10:27:20.000   78.246476798   16.063368777   566.3607   2   9   0.0354   0.0284   0.0715   0.0064   0.0097   0.0250   0.00    1.0
2018/03/16 10:27:21.000   78.246477466   16.063369017   566.6755   2   9   0.0351   0.0282   0.0708   0.0064   0.0096   0.0246   0.00    1.0
2018/03/16 10:27:22.000   78.246478174   16.063369236   566.9979   2   9   0.0349   0.0281   0.0702   0.0064   0.0094   0.0243   0.00    1.0
2018/03/16 10:27:23.000   78.246478904   16.063369451   567.3231   2   9   0.0346   0.0280   0.0696   0.0065   0.0093   0.0239   0.00    1.0
2018/03/16 10:27:24.000   78.246479754   16.063369832   567.6444   2   9   0.0344   0.0278   0.0689   0.0065   0.0091   0.0236   0.00    1.1
2018/03/16 10:27:25.000   78.246480654   16.063370304   567.9470   2   9   0.0341   0.0277   0.0683   0.0065   0.0090   0.0232   0.00    1.1
2018/03/16 10:27:26.000   78.246481545   16.063370797   568.2330   2   9   0.0339   0.0276   0.0677   0.0066   0.0089   0.0229   0.00    1.1
2018/03/16 10:27:27.000   78.246482414   16.063371215   568.4894   2   9   0.0336   0.0274   0.0671   0.0066   0.0087   0.0226   0.00    1.2
2018/03/16 10:27:28.000   78.246483237   16.063371559   568.7229   2   9   0.0334   0.0273   0.0665   0.0066   0.0086   0.0223   0.00    1.2
2018/03/16 10:27:29.000   78.246483920   16.063371965   568.9099   2   9   0.0332   0.0272   0.0659   0.0066   0.0084   0.0219   0.00    1.1
2018/03/16 10:27:30.000   78.246484512   16.063372408   569.0611   2   9   0.0329   0.0270   0.0654   0.0067   0.0083   0.0216   0.00    1.0
2018/03/16 10:27:31.000   78.246484960   16.063372882   569.1734   2   9   0.0327   0.0269   0.0648   0.0067   0.0082   0.0213   0.00    1.0
2018/03/16 10:27:32.000   78.246485292   16.063373466   569.2538   2   9   0.0325   0.0268   0.0642   0.0067   0.0080   0.0210   0.00    1.1
2018/03/16 10:27:33.000   78.246485555   16.063374039   569.3128   2   9   0.0323   0.0267   0.0637   0.0068   0.0079   0.0207   0.00    1.1
2018/03/16 10:27:34.000   78.246485762   16.063374534   569.3604   2   9   0.0321   0.0265   0.0631   0.0068   0.0078   0.0204   0.00    1.2
2018/03/16 10:27:35.000   78.246485937   16.063375043   569.3985   2   9   0.0318   0.0264   0.0626   0.0068   0.0077   0.0201   0.00    1.0
2018/03/16 10:27:36.000   78.246486042   16.063375663   569.4148   2   9   0.0316   0.0263   0.0621   0.0068   0.0075   0.0198   0.00    1.1
2018/03/16 10:27:37.000   78.246486097   16.063376140   569.3975   2   9   0.0314   0.0262   0.0616   0.0069   0.0074   0.0195   0.00    1.1
2018/03/16 10:27:38.000   78.246486144   16.063376601   569.3635   2   9   0.0312   0.0260   0.0610   0.0069   0.0073   0.0192   0.00    1.0
2018/03/16 10:27:39.000   78.246486187   16.063377112   569.3241   2   9   0.0310   0.0259   0.0605   0.0069   0.0071   0.0190   0.00    1.0
2018/03/16 10:27:40.000   78.246486194   16.063377685   569.2850   2   9   0.0308   0.0258   0.0600   0.0069   0.0070   0.0187   0.00    1.1
2018/03/16 10:27:41.000   78.246486185   16.063378141   569.2522   2   9   0.0306   0.0257   0.0595   0.0069   0.0069   0.0184   0.00    1.1
2018/03/16 10:27:42.000   78.246486143   16.063378466   569.2048   2   9   0.0304   0.0256   0.0590   0.0070   0.0068   0.0181   0.00    1.0
2018/03/16 10:27:43.000   78.246486103   16.063378827   569.1738   2   9   0.0302   0.0255   0.0586   0.0070   0.0066   0.0179   0.00    1.1
2018/03/16 10:27:44.000   78.246486024   16.063379121   569.1333   2   9   0.0300   0.0253   0.0581   0.0070   0.0065   0.0176   0.00    1.1
2018/03/16 10:27:45.000   78.246485943   16.063379339   569.1084   2   9   0.0298   0.0252   0.0576   0.0070   0.0064   0.0174   0.00    1.2
2018/03/16 10:27:46.000   78.246485836   16.063379404   569.0798   2   9   0.0296   0.0251   0.0572   0.0070   0.0063   0.0171   0.00    1.2
2018/03/16 10:27:47.000   78.246485764   16.063379445   569.0466   2   9   0.0294   0.0250   0.0567   0.0071   0.0061   0.0169   0.00    1.2
2018/03/16 10:27:48.000   78.246485695   16.063379466   569.0197   2   9   0.0293   0.0249   0.0562   0.0071   0.0060   0.0166   0.00    1.2
2018/03/16 10:27:49.000   78.246485639   16.063379458   569.0023   2   9   0.0291   0.0248   0.0558   0.0071   0.0059   0.0164   0.00    1.2
2018/03/16 10:27:50.000   78.246485564   16.063379452   569.0068   2   9   0.0289   0.0247   0.0554   0.0071   0.0058   0.0161   0.00    1.2
2018/03/16 10:27:51.000   78.246485527   16.063379533   569.0403   2   9   0.0287   0.0246   0.0549   0.0071   0.0056   0.0159   0.00    1.2
2018/03/16 10:27:52.000   78.246485548   16.063379674   569.0937   2   9   0.0285   0.0245   0.0545   0.0071   0.0055   0.0156   0.00    1.1
2018/03/16 10:27:53.000   78.246485546   16.063379697   569.1324   2   9   0.0284   0.0244   0.0541   0.0072   0.0054   0.0154   0.00    1.1
2018/03/16 10:27:54.000   78.246485514   16.063379950   569.1799   2   9   0.0282   0.0243   0.0537   0.0072   0.0053   0.0152   0.00    1.1
2018/03/16 10:27:55.000   78.246485380   16.063380515   569.2130   2   9   0.0280   0.0242   0.0532   0.0072   0.0051   0.0150   0.00    1.1
2018/03/16 10:27:56.000   78.246485128   16.063381346   569.2351   2   9   0.0279   0.0241   0.0528   0.0072   0.0050   0.0147   0.00    1.1
2018/03/16 10:27:57.000   78.246484851   16.063382200   569.2564   2   9   0.0277   0.0240   0.0524   0.0072   0.0049   0.0145   0.00    1.1
2018/03/16 10:27:58.000   78.246484596   16.063383136   569.2923   2   9   0.0275   0.0238   0.0520   0.0072   0.0048   0.0143   0.00    1.1
2018/03/16 10:27:59.000   78.246484366   16.063383996   569.3318   2   9   0.0274   0.0237   0.0516   0.0072   0.0046   0.0141   0.00    1.1
2018/03/16 10:28:00.000   78.246484128   16.063384704   569.3636   2   9   0.0272   0.0237   0.0512   0.0073   0.0045   0.0139   0.00    1.1
2018/03/16 10:28:01.000   78.246483888   16.063385304   569.3960   2   9   0.0270   0.0236   0.0509   0.0073   0.0044   0.0137   0.00    1.1
2018/03/16 10:28:02.000   78.246483678   16.063385731   569.4221   2   9   0.0269   0.0235   0.0505   0.0073   0.0043   0.0134   0.00    1.1
2018/03/16 10:28:03.000   78.246483479   16.063386086   569.4490   2   9   0.0267   0.0234   0.0501   0.0073   0.0041   0.0132   0.00    1.1
2018/03/16 10:28:04.000   78.246483256   16.063386176   569.4707   2   9   0.0266   0.0233   0.0497   0.0073   0.0040   0.0130   0.00    1.1
2018/03/16 10:28:05.000   78.246483061   16.063386078   569.5057   2   9   0.0264   0.0232   0.0494   0.0073   0.0039   0.0128   0.00    1.0
2018/03/16 10:28:06.000   78.246482900   16.063385927   569.5430   2   9   0.0263   0.0231   0.0490   0.0073   0.0037   0.0126   0.00    1.0
2018/03/16 10:28:07.000   78.246482768   16.063385735   569.5898   2   9   0.0261   0.0230   0.0487   0.0073   0.0036   0.0124   0.00    1.0
2018/03/16 10:28:08.000   78.246482699   16.063385569   569.6386   2   9   0.0260   0.0229   0.0483   0.0073   0.0035   0.0122   0.00    1.0
2018/03/16 10:28:09.000   78.246482630   16.063385305   569.6804   2   9   0.0258   0.0228   0.0480   0.0073   0.0033   0.0120   0.00    1.1
2018/03/16 10:28:10.000   78.246482540   16.063385036   569.7333   2   9   0.0257   0.0227   0.0476   0.0074   0.0032   0.0119   0.00    1.1
2018/03/16 10:28:11.000   78.246482483   16.063384674   569.7812   2   9   0.0255   0.0226   0.0473   0.0074   0.0030   0.0117   0.00    1.1
2018/03/16 10:28:12.000   78.246482412   16.063384335   569.8242   2   9   0.0254   0.0225   0.0469   0.0074   0.0029   0.0115   0.00    1.1
2018/03/16 10:28:13.000   78.246482297   16.063383939   569.8630   2   9   0.0252   0.0224   0.0466   0.0074   0.0027   0.0113   0.00    1.1
2018/03/16 10:28:14.000   78.246482208   16.063383620   569.9011   2   9   0.0251   0.0223   0.0463   0.0074   0.0025   0.0111   0.00    1.1
2018/03/16 10:28:15.000   78.246482134   16.063383322   569.9464   2   9   0.0250   0.0223   0.0459   0.0074   0.0024   0.0109   0.00    1.1
2018/03/16 10:28:16.000   78.246482076   16.063382943   569.9939   2   9   0.0248   0.0222   0.0456   0.0074   0.0022   0.0108   0.00    1.1
2018/03/16 10:28:17.000   78.246482028   16.063382518   570.0422   2   9   0.0247   0.0221   0.0453   0.0074   0.0020   0.0106   0.00    1.1
2018/03/16 10:28:18.000   78.246482030   16.063382099   570.0913   2   9   0.0246   0.0220   0.0450   0.0074   0.0018   0.0104   0.00    1.1
2018/03/16 10:28:19.000   78.246482019   16.063381715   570.1462   2   9   0.0244   0.0219   0.0447   0.0074   0.0016   0.0102   0.00    1.1
2018/03/16 10:28:20.000   78.246481998   16.063381401   570.2116   2   9   0.0243   0.0218   0.0444   0.0074   0.0013   0.0101   0.00    1.1
2018/03/16 10:28:21.000   78.246481960   16.063381191   570.2918   2   9   0.0242   0.0217   0.0441   0.0074   0.0010   0.0099   0.00    1.1
2018/03/16 10:28:22.000   78.246481904   16.063380839   570.3658   2   9   0.0240   0.0217   0.0438   0.0074   0.0006   0.0097   0.00    1.1
2018/03/16 10:28:23.000   78.246481829   16.063380354   570.4251   2   9   0.0239   0.0216   0.0435   0.0074  -0.0006   0.0096   0.00    1.1
2018/03/16 10:28:24.000   78.246481831   16.063379906   570.4821   2   9   0.0238   0.0215   0.0432   0.0074  -0.0010   0.0094   0.00    1.1
2018/03/16 10:28:25.000   78.246481884   16.063379430   570.5352   2   9   0.0236   0.0214   0.0429   0.0074  -0.0013   0.0092   0.00    1.1
2018/03/16 10:28:26.000   78.246481955   16.063379140   570.5961   2   9   0.0235   0.0213   0.0426   0.0075  -0.0015   0.0091   0.00    1.1
2018/03/16 10:28:27.000   78.246482050   16.063378876   570.6533   2   9   0.0234   0.0212   0.0423   0.0075  -0.0017   0.0089   0.00    1.1
2018/03/16 10:28:28.000   78.246482193   16.063378668   570.7047   2   9   0.0233   0.0212   0.0420   0.0075  -0.0019   0.0087   0.00    1.1
2018/03/16 10:28:29.000   78.246482374   16.063378556   570.7637   2   9   0.0231   0.0211   0.0418   0.0075  -0.0021   0.0086   0.00    1.1
2018/03/16 10:28:30.000   78.246482542   16.063378436   570.8216   2   9   0.0230   0.0210   0.0415   0.0075  -0.0022   0.0084   0.00    1.1
2018/03/16 10:28:31.000   78.246482674   16.063378187   570.8792   2   9   0.0229   0.0209   0.0412   0.0075  -0.0023   0.0083   0.00    1.1
2018/03/16 10:28:32.000   78.246482789   16.063377891   570.9339   2   9   0.0228   0.0208   0.0410   0.0075  -0.0025   0.0081   0.00    1.1
2018/03/16 10:28:33.000   78.246482919   16.063377632   570.9930   2   9   0.0227   0.0208   0.0407   0.0075  -0.0026   0.0080   0.00    1.1
2018/03/16 10:28:34.000   78.246483054   16.063377495   571.0520   2   9   0.0226   0.0207   0.0404   0.0075  -0.0027   0.0078   0.00    1.1
2018/03/16 10:28:35.000   78.246483201   16.063377500   571.0995   2   9   0.0224   0.0206   0.0402   0.0075  -0.0028   0.0077   0.00    1.1
2018/03/16 10:28:36.000   78.246483324   16.063377546   571.1355   2   9   0.0223   0.0205   0.0399   0.0075  -0.0029   0.0075   0.00    1.1
2018/03/16 10:28:37.000   78.246483431   16.063377641   571.1625   2   9   0.0222   0.0205   0.0397   0.0075  -0.0029   0.0074   0.00    1.1
2018/03/16 10:28:38.000   78.246483547   16.063377757   571.1832   2   9   0.0221   0.0204   0.0394   0.0075  -0.0030   0.0072   0.00    1.1
2018/03/16 10:28:39.000   78.246483667   16.063377811   571.1946   2   9   0.0220   0.0203   0.0392   0.0075  -0.0031   0.0071   0.00    1.1
2018/03/16 10:28:40.000   78.246483794   16.063377972   571.2095   2   9   0.0219   0.0202   0.0389   0.0075  -0.0032   0.0069   0.00    1.1
2018/03/16 10:28:41.000   78.246483970   16.063378151   571.2330   2   9   0.0218   0.0202   0.0387   0.0075  -0.0033   0.0068   0.00    1.1
2018/03/16 10:28:42.000   78.246484177   16.063378396   571.2599   2   9   0.0217   0.0201   0.0384   0.0075  -0.0033   0.0066   0.00    1.1
2018/03/16 10:28:43.000   78.246484424   16.063378701   571.2898   2   9   0.0216   0.0200   0.0382   0.0075  -0.0034   0.0065   0.00    1.1
2018/03/16 10:28:44.000   78.246484730   16.063379026   571.3269   2   9   0.0214   0.0200   0.0379   0.0075  -0.0035   0.0063   0.00    1.1
2018/03/16 10:28:45.000   78.246485057   16.063379351   571.3639   2   9   0.0213   0.0199   0.0377   0.0075  -0.0035   0.0062   0.00    1.1
2018/03/16 10:28:46.000   78.246485362   16.063379648   571.4004   2   9   0.0212   0.0198   0.0375   0.0075  -0.0036   0.0060   0.00    1.1
2018/03/16 10:28:47.000   78.246485635   16.063379863   571.4354   2   9   0.0211   0.0197   0.0372   0.0075  -0.0036   0.0059   0.00    1.1
2018/03/16 10:28:48.000   78.246485887   16.063379964   571.4756   2   9   0.0210   0.0197   0.0370   0.0075  -0.0037   0.0058   0.00    1.1
2018/03/16 10:28:49.000   78.246486112   16.063379901   571.5147   2   9   0.0209   0.0196   0.0368   0.0075  -0.0037   0.0056   0.00    1.1
2018/03/16 10:28:50.000   78.246486327   16.063379712   571.5568   2   9   0.0208   0.0195   0.0366   0.0075  -0.0038   0.0055   0.00    1.1
2018/03/16 10:28:51.000   78.246486564   16.063379498   571.6005   2   9   0.0207   0.0195   0.0364   0.0075  -0.0038   0.0053   0.00    1.1
2018/03/16 10:28:52.000   78.246486796   16.063379174   571.6441   2   9   0.0206   0.0194   0.0361   0.0075  -0.0039   0.0052   0.00    1.0
2018/03/16 10:28:53.000   78.246487032   16.063378845   571.6827   2   9   0.0205   0.0193   0.0359   0.0075  -0.0039   0.0050   0.00    1.0
2018/03/16 10:28:54.000   78.246487269   16.063378553   571.7206   2   9   0.0204   0.0193   0.0357   0.0075  -0.0040   0.0049   0.00    1.0
2018/03/16 10:28:55.000   78.246487463   16.063378147   571.7505   2   9   0.0203   0.0192   0.0355   0.0075  -0.0040   0.0047   0.00    1.0
2018/03/16 10:28:56.000   78.246487627   16.063377724   571.7728   2   9   0.0202   0.0191   0.0353   0.0074  -0.0040   0.0046   0.00    1.0
2018/03/16 10:28:57.000   78.246487783   16.063377303   571.7913   2   9   0.0201   0.0191   0.0351   0.0074  -0.0041   0.0045   0.00    1.0
2018/03/16 10:28:58.000   78.246487887   16.063376855   571.7992   2   9   0.0201   0.0190   0.0349   0.0074  -0.0041   0.0043   0.00    1.0
2018/03/16 10:28:59.000   78.246487950   16.063376338   571.7966   2   9   0.0200   0.0189   0.0347   0.0074  -0.0042   0.0042   0.00    1.1
2018/03/16 10:29:00.000   78.246487981   16.063375845   571.7845   2   9   0.0199   0.0189   0.0345   0.0074  -0.0042   0.0040   0.00    1.1
2018/03/16 10:29:01.000   78.246488013   16.063375406   571.7665   2   9   0.0198   0.0188   0.0343   0.0074  -0.0042   0.0039   0.00    1.1
2018/03/16 10:29:02.000   78.246488026   16.063375000   571.7392   2   9   0.0197   0.0187   0.0341   0.0074  -0.0043   0.0037   0.00    1.1
2018/03/16 10:29:03.000   78.246488031   16.063374617   571.7077   2   9   0.0196   0.0187   0.0339   0.0074  -0.0043   0.0036   0.00    1.1
2018/03/16 10:29:04.000   78.246487979   16.063374300   571.6640   2   9   0.0195   0.0186   0.0337   0.0074  -0.0043   0.0034   0.00    1.1
2018/03/16 10:29:05.000   78.246487908   16.063374011   571.6148   2   9   0.0194   0.0185   0.0335   0.0074  -0.0044   0.0032   0.00    1.1
2018/03/16 10:29:06.000   78.246487787   16.063373691   571.5584   2   9   0.0193   0.0185   0.0333   0.0074  -0.0044   0.0031   0.00    1.2
2018/03/16 10:29:07.000   78.246487675   16.063373355   571.5020   2   9   0.0192   0.0184   0.0331   0.0074  -0.0044   0.0029   0.00    1.2
2018/03/16 10:29:08.000   78.246487553   16.063372939   571.4461   2   9   0.0191   0.0184   0.0329   0.0074  -0.0044   0.0027   0.00    1.2
2018/03/16 10:29:09.000   78.246487417   16.063372596   571.3927   2   9   0.0191   0.0183   0.0327   0.0074  -0.0045   0.0025   0.00    1.2
2018/03/16 10:29:10.000   78.246487263   16.063372293   571.3440   2   9   0.0190   0.0182   0.0326   0.0074  -0.0045   0.0024   0.00    1.2
2018/03/16 10:29:11.000   78.246487079   16.063371901   571.2960   2   9   0.0189   0.0182   0.0324   0.0074  -0.0045   0.0021   0.00    1.2
2018/03/16 10:29:12.000   78.246486918   16.063371501   571.2524   2   9   0.0188   0.0181   0.0322   0.0074  -0.0045   0.0019   0.00    1.3
2018/03/16 10:29:13.000   78.246486762   16.063371114   571.2170   2   9   0.0187   0.0181   0.0320   0.0074  -0.0046   0.0017   0.00    1.3
2018/03/16 10:29:14.000   78.246486610   16.063370693   571.1893   2   9   0.0186   0.0180   0.0319   0.0074  -0.0046   0.0014   0.00    1.2
2018/03/16 10:29:15.000   78.246486473   16.063370240   571.1670   2   9   0.0186   0.0179   0.0317   0.0074  -0.0046   0.0011   0.00    1.2
2018/03/16 10:29:16.000   78.246486332   16.063369760   571.1473   2   9   0.0185   0.0179   0.0315   0.0074  -0.0046   0.0006   0.00    1.2
2018/03/16 10:29:17.000   78.246486205   16.063369294   571.1321   2   9   0.0184   0.0178   0.0313   0.0074  -0.0046  -0.0006   0.00    1.2
2018/03/16 10:29:18.000   78.246486101   16.063368788   571.1220   2   9   0.0183   0.0178   0.0312   0.0073  -0.0047  -0.0011   0.00    1.2
2018/03/16 10:29:19.000   78.246486038   16.063368307   571.1192   2   9   0.0182   0.0177   0.0310   0.0073  -0.0047  -0.0014   0.00    1.2
2018/03/16 10:29:20.000   78.246485983   16.063367827   571.1288   2   9   0.0182   0.0176   0.0308   0.0073  -0.0047  -0.0016   0.00    1.2
2018/03/16 10:29:21.000   78.246485936   16.063367305   571.1451   2   9   0.0181   0.0176   0.0307   0.0073  -0.0047  -0.0018   0.00    1.2
2018/03/16 10:29:22.000   78.246485895   16.063366780   571.1676   2   9   0.0180   0.0175   0.0305   0.0073  -0.0047  -0.0020   0.00    1.2
2018/03/16 10:29:23.000   78.246485856   16.063366299   571.1949   2   9   0.0179   0.0175   0.0303   0.0073  -0.0048  -0.0022   0.00    1.2
2018/03/16 10:29:24.000   78.246485818   16.063365853   571.2251   2   9   0.0178   0.0174   0.0302   0.0073  -0.0048  -0.0023   0.00    1.2
2018/03/16 10:29:25.000   78.246485791   16.063365399   571.2576   2   9   0.0178   0.0174   0.0300   0.0073  -0.0048  -0.0024   0.00    1.2
2018/03/16 10:29:26.000   78.246485780   16.063364932   571.2909   2   9   0.0177   0.0173   0.0299   0.0073  -0.0048  -0.0026   0.00    1.2
2018/03/16 10:29:27.000   78.246485776   16.063364474   571.3323   2   9   0.0176   0.0173   0.0297   0.0073  -0.0048  -0.0027   0.00    1.1
2018/03/16 10:29:28.000   78.246485793   16.063363964   571.3781   2   9   0.0175   0.0172   0.0296   0.0073  -0.0048  -0.0028   0.00    1.1
2018/03/16 10:29:29.000   78.246485807   16.063363420   571.4236   2   9   0.0175   0.0171   0.0294   0.0073  -0.0048  -0.0029   0.00    1.1
2018/03/16 10:29:30.000   78.246485839   16.063362900   571.4702   2   9   0.0174   0.0171   0.0292   0.0073  -0.0049  -0.0030   0.00    1.1
2018/03/16 10:29:31.000   78.246485893   16.063362300   571.5163   2   9   0.0173   0.0170   0.0291   0.0073  -0.0049  -0.0031   0.00    1.1
2018/03/16 10:29:32.000   78.246485960   16.063361715   571.5576   2   9   0.0172   0.0170   0.0289   0.0073  -0.0049  -0.0031   0.00    1.1
2018/03/16 10:29:33.000   78.246486036   16.063361062   571.6033   2   9   0.0172   0.0169   0.0288   0.0072  -0.0049  -0.0032   0.00    1.1
2018/03/16 10:29:34.000   78.246486112   16.063360389   571.6509   2   9   0.0171   0.0169   0.0287   0.0072  -0.0049  -0.0033   0.00    1.1
2018/03/16 10:29:35.000   78.246486220   16.063359706   571.7024   2   9   0.0170   0.0168   0.0285   0.0072  -0.0049  -0.0034   0.00    1.1
2018/03/16 10:29:36.000   78.246486353   16.063358893   571.7524   2   9   0.0170   0.0168   0.0284   0.0072  -0.0049  -0.0034   0.00    1.1
2018/03/16 10:29:37.000   78.246486470   16.063358058   571.8013   2   9   0.0169   0.0167   0.0282   0.0072  -0.0049  -0.0035   0.00    1.0
2018/03/16 10:29:38.000   78.246486572   16.063357342   571.8457   2   9   0.0168   0.0167   0.0281   0.0072  -0.0049  -0.0036   0.00    1.0
2018/03/16 10:29:39.000   78.246486666   16.063356733   571.8852   2   9   0.0168   0.0166   0.0279   0.0072  -0.0050  -0.0036   0.00    1.0
2018/03/16 10:29:40.000   78.246486748   16.063356249   571.9266   2   9   0.0167   0.0166   0.0278   0.0072  -0.0050  -0.0037   0.00    1.1
2018/03/16 10:29:41.000   78.246486865   16.063355900   571.9663   2   9   0.0166   0.0165   0.0277   0.0072  -0.0050  -0.0037   0.00    1.1
2018/03/16 10:29:42.000   78.246486987   16.063355595   572.0000   2   9   0.0165   0.0165   0.0275   0.0072  -0.0050  -0.0038   0.00    1.1
2018/03/16 10:29:43.000   78.246487090   16.063355319   572.0314   2   9   0.0165   0.0164   0.0274   0.0072  -0.0050  -0.0038   0.00    1.1
2018/03/16 10:29:44.000   78.246487174   16.063355037   572.0619   2   9   0.0164   0.0164   0.0273   0.0072  -0.0050  -0.0039   0.00    1.1
2018/03/16 10:29:45.000   78.246487250   16.063354833   572.0913   2   9   0.0164   0.0163   0.0271   0.0071  -0.0050  -0.0039   0.00    1.1
2018/03/16 10:29:46.000   78.246487326   16.063354661   572.1225   2   9   0.0163   0.0163   0.0270   0.0071  -0.0050  -0.0040   0.00    1.1
2018/03/16 10:29:47.000   78.246487391   16.063354523   572.1530   2   9   0.0162   0.0162   0.0269   0.0071  -0.0050  -0.0040   0.00    1.1
2018/03/16 10:29:48.000   78.246487468   16.063354348   572.1827   2   9   0.0162   0.0162   0.0267   0.0071  -0.0050  -0.0040   0.00    1.1
2018/03/16 10:29:49.000   78.246487554   16.063354189   572.2136   2   9   0.0161   0.0161   0.0266   0.0071  -0.0050  -0.0041   0.00    1.1
2018/03/16 10:29:50.000   78.246487638   16.063354073   572.2408   2   9   0.0160   0.0161   0.0265   0.0071  -0.0050  -0.0041   0.00    1.1
2018/03/16 10:29:51.000   78.246487736   16.063354033   572.2618   2   9   0.0160   0.0160   0.0263   0.0071  -0.0050  -0.0042   0.00    1.2
2018/03/16 10:29:52.000   78.246487810   16.063354057   572.2908   2   9   0.0159   0.0160   0.0262   0.0071  -0.0050  -0.0042   0.00    1.2
2018/03/16 10:29:53.000   78.246487875   16.063354180   572.3167   2   9   0.0158   0.0159   0.0261   0.0071  -0.0051  -0.0042   0.00    1.2
2018/03/16 10:29:54.000   78.246487914   16.063354394   572.3457   2   9   0.0158   0.0159   0.0260   0.0071  -0.0051  -0.0043   0.00    1.2
2018/03/16 10:29:55.000   78.246487926   16.063354687   572.3807   2   9   0.0157   0.0158   0.0258   0.0071  -0.0051  -0.0043   0.00    1.2
2018/03/16 10:29:56.000   78.246487930   16.063354933   572.4186   2   9   0.0157   0.0158   0.0257   0.0071  -0.0051  -0.0043   0.00    1.2
2018/03/16 10:29:57.000   78.246487955   16.063355119   572.4625   2   9   0.0156   0.0157   0.0256   0.0070  -0.0051  -0.0044   0.00    1.2
2018/03/16 10:29:58.000   78.246487995   16.063355281   572.5068   2   9   0.0155   0.0157   0.0255   0.0070  -0.0051  -0.0044   0.00    1.2
2018/03/16 10:29:59.000   78.246488043   16.063355323   572.5478   2   9   0.0155   0.0156   0.0254   0.0070  -0.0051  -0.0044   0.00    1.2
2018/03/16 10:30:00.000   78.246488110   16.063355265   572.5829   2   9   0.0154   0.0156   0.0252   0.0070  -0.0051  -0.0044   0.00    1.2
2018/03/16 10:30:01.000   78.246488153   16.063355187   572.6239   2   9   0.0154   0.0155   0.0251   0.0070  -0.0051  -0.0045   0.00    1.3
2018/03/16 10:30:02.000   78.246488185   16.063355065   572.6640   2   9   0.0153   0.0155   0.0250   0.0070  -0.0051  -0.0045   0.00    1.3
2018/03/16 10:30:03.000   78.246488210   16.063354883   572.7046   2   9   0.0152   0.0155   0.0249   0.0070  -0.0051  -0.0045   0.00    1.3
2018/03/16 10:30:04.000   78.246488207   16.063354679   572.7476   2   9   0.0152   0.0154   0.0248   0.0070  -0.0051  -0.0045   0.00    1.3
2018/03/16 10:30:05.000   78.246488191   16.063354472   572.7939   2   9   0.0151   0.0154   0.0247   0.0070  -0.0051  -0.0045   0.00    1.4
2018/03/16 10:30:06.000   78.246488162   16.063354217   572.8468   2   9   0.0151   0.0153   0.0246   0.0070  -0.0051  -0.0046   0.00    1.4
2018/03/16 10:30:07.000   78.246488102   16.063353930   572.9068   2   9   0.0150   0.0153   0.0245   0.0070  -0.0051  -0.0046   0.00    1.4
2018/03/16 10:30:08.000   78.246488015   16.063353612   572.9723   2   9   0.0150   0.0152   0.0243   0.0069  -0.0051  -0.0046   0.00    1.5
2018/03/16 10:30:09.000   78.246487910   16.063353264   573.0393   2   9   0.0149   0.0152   0.0242   0.0069  -0.0051  -0.0046   0.00    1.5
2018/03/16 10:30:10.000   78.246487804   16.063352780   573.1011   2   9   0.0148   0.0151   0.0241   0.0069  -0.0051  -0.0046   0.00    1.6
2018/03/16 10:30:11.000   78.246487699   16.063352234   573.1666   2   9   0.0148   0.0151   0.0240   0.0069  -0.0051  -0.0047   0.00    1.6
2018/03/16 10:30:12.000   78.246487590   16.063351591   573.2372   2   9   0.0147   0.0151   0.0239   0.0069  -0.0051  -0.0047   0.00    1.7
2018/03/16 10:30:13.000   78.246487477   16.063350890   573.3064   2   9   0.0147   0.0150   0.0238   0.0069  -0.0051  -0.0047   0.00    1.7
2018/03/16 10:30:14.000   78.246487377   16.063350163   573.3803   2   9   0.0146   0.0150   0.0237   0.0069  -0.0051  -0.0047   0.00    1.8
2018/03/16 10:30:15.000   78.246487262   16.063349412   573.4549   2   9   0.0146   0.0149   0.0236   0.0069  -0.0051  -0.0047   0.00    1.9
2018/03/16 10:30:16.000   78.246487135   16.063348511   573.5295   2   9   0.0145   0.0149   0.0235   0.0069  -0.0051  -0.0047   0.00    2.0
2018/03/16 10:30:17.000   78.246486995   16.063347485   573.6104   2   9   0.0145   0.0148   0.0234   0.0069  -0.0051  -0.0047   0.00    2.1
2018/03/16 10:30:18.000   78.246486847   16.063346452   573.6927   2   9   0.0144   0.0148   0.0233   0.0068  -0.0051  -0.0048   0.00    2.2
2018/03/16 10:30:19.000   78.246486698   16.063345295   573.7772   2   9   0.0144   0.0148   0.0232   0.0068  -0.0051  -0.0048   0.00    2.3
2018/03/16 10:30:20.000   78.246486536   16.063344074   573.8634   2   9   0.0143   0.0147   0.0231   0.0068  -0.0051  -0.0048   0.00    2.4
2018/03/16 10:30:21.000   78.246486380   16.063342792   573.9456   2   9   0.0143   0.0147   0.0230   0.0068  -0.0051  -0.0048   0.00    2.4
2018/03/16 10:30:22.000   78.246486240   16.063341495   574.0292   2   9   0.0142   0.0146   0.0229   0.0068  -0.0051  -0.0048   0.00    2.4
2018/03/16 10:30:23.000   78.246486104   16.063340347   574.1068   2   9   0.0141   0.0146   0.0228   0.0068  -0.0051  -0.0048   0.00    2.4
2018/03/16 10:30:24.000   78.246485959   16.063339274   574.1820   2   9   0.0141   0.0146   0.0227   0.0068  -0.0051  -0.0048   0.00    2.4
2018/03/16 10:30:25.000   78.246485829   16.063338272   574.2537   2   9   0.0140   0.0145   0.0226   0.0068  -0.0051  -0.0048   0.00    2.4
2018/03/16 10:30:26.000   78.246485694   16.063337316   574.3257   2   9   0.0140   0.0145   0.0225   0.0068  -0.0051  -0.0048   0.00    2.4
2018/03/16 10:30:27.000   78.246485578   16.063336526   574.3892   2   9   0.0139   0.0144   0.0224   0.0068  -0.0051  -0.0048   0.00    2.4
2018/03/16 10:30:28.000   78.246485491   16.063335793   574.4525   2   9   0.0139   0.0144   0.0223   0.0067  -0.0051  -0.0049   0.00    2.4
2018/03/16 10:30:29.000   78.246485438   16.063335116   574.5134   2   9   0.0138   0.0144   0.0222   0.0067  -0.0051  -0.0049   0.00    2.4
2018/03/16 10:30:30.000   78.246485403   16.063334489   574.5740   2   9   0.0138   0.0143   0.0221   0.0067  -0.0051  -0.0049   0.00    2.3
2018/03/16 10:30:31.000   78.246485359   16.063333847   574.6380   2   9   0.0138   0.0143   0.0220   0.0067  -0.0051  -0.0049   0.00    2.3
2018/03/16 10:30:32.000   78.246485326   16.063333215   574.6999   2   9   0.0137   0.0142   0.0219   0.0067  -0.0051  -0.0049   0.00    2.3
2018/03/16 10:30:33.000   78.246485294   16.063332587   574.7600   2   9   0.0137   0.0142   0.0218   0.0067  -0.0051  -0.0049   0.00    2.3
2018/03/16 10:30:34.000   78.246485268   16.063331967   574.8161   2   9   0.0136   0.0142   0.0217   0.0067  -0.0051  -0.0049   0.00    2.3
2018/03/16 10:30:35.000   78.246485244   16.063331411   574.8688   2   9   0.0136   0.0141   0.0217   0.0067  -0.0051  -0.0049   0.00    2.2
2018/03/16 10:30:36.000   78.246485222   16.063330922   574.9201   2   9   0.0135   0.0141   0.0216   0.0067  -0.0051  -0.0049   0.00    2.2
2018/03/16 10:30:37.000   78.246485208   16.063330558   574.9690   2   9   0.0135   0.0140   0.0215   0.0067  -0.0051  -0.0049   0.00    2.2
2018/03/16 10:30:38.000   78.246485180   16.063330204   575.0166   2   9   0.0134   0.0140   0.0214   0.0066  -0.0051  -0.0049   0.00    2.1
2018/03/16 10:30:39.000   78.246485156   16.063329917   575.0600   2   9   0.0134   0.0140   0.0213   0.0066  -0.0051  -0.0049   0.00    2.1
2018/03/16 10:30:40.000   78.246485138   16.063329701   575.1026   2   9   0.0133   0.0139   0.0212   0.0066  -0.0051  -0.0049   0.00    2.1
2018/03/16 10:30:41.000   78.246485130   16.063329451   575.1411   2   9   0.0133   0.0139   0.0211   0.0066  -0.0051  -0.0049   0.00    2.0
2018/03/16 10:30:42.000   78.246485112   16.063329263   575.1780   2   9   0.0132   0.0138   0.0210   0.0066  -0.0051  -0.0049   0.00    2.0
2018/03/16 10:30:43.000   78.246485098   16.063329070   575.2118   2   9   0.0132   0.0138   0.0210   0.0066  -0.0051  -0.0049   0.00    2.0
2018/03/16 10:30:44.000   78.246485076   16.063328907   575.2446   2   9   0.0131   0.0138   0.0209   0.0066  -0.0051  -0.0049   0.00    1.9
2018/03/16 10:30:45.000   78.246485037   16.063328720   575.2777   2   9   0.0131   0.0137   0.0208   0.0066  -0.0051  -0.0049   0.00    1.9
2018/03/16 10:30:46.000   78.246485004   16.063328537   575.3104   2   9   0.0131   0.0137   0.0207   0.0066  -0.0051  -0.0049   0.00    1.9
2018/03/16 10:30:47.000   78.246484960   16.063328386   575.3448   2   9   0.0130   0.0137   0.0206   0.0066  -0.0051  -0.0049   0.00    1.8
2018/03/16 10:30:48.000   78.246484939   16.063328256   575.3742   2   9   0.0130   0.0136   0.0205   0.0065  -0.0051  -0.0049   0.00    1.8
2018/03/16 10:30:49.000   78.246484908   16.063328142   575.4052   2   9   0.0129   0.0136   0.0205   0.0065  -0.0051  -0.0049   0.00    1.8
2018/03/16 10:30:50.000   78.246484879   16.063327975   575.4407   2   9   0.0129   0.0136   0.0204   0.0065  -0.0051  -0.0049   0.00    1.8
2018/03/16 10:30:51.000   78.246484858   16.063327866   575.4741   2   9   0.0128   0.0135   0.0203   0.0065  -0.0051  -0.0050   0.00    1.7
2018/03/16 10:30:52.000   78.246484851   16.063327829   575.5054   2   9   0.0128   0.0135   0.0202   0.0065  -0.0051  -0.0050   0.00    1.7
2018/03/16 10:30:53.000   78.246484860   16.063327889   575.5315   2   9   0.0128   0.0134   0.0201   0.0065  -0.0051  -0.0050   0.00    1.7
2018/03/16 10:30:54.000   78.246484871   16.063328032   575.5525   2   9   0.0127   0.0134   0.0201   0.0065  -0.0050  -0.0050   0.00    1.7
2018/03/16 10:30:55.000   78.246484902   16.063328281   575.5677   2   9   0.0127   0.0134   0.0200   0.0065  -0.0050  -0.0050   0.00    1.7
2018/03/16 10:30:56.000   78.246484977   16.063328625   575.5774   2   9   0.0126   0.0133   0.0199   0.0065  -0.0050  -0.0050   0.00    1.7
2018/03/16 10:30:57.000   78.246485075   16.063329077   575.5818   2   9   0.0126   0.0133   0.0198   0.0065  -0.0050  -0.0050   0.00    1.7
2018/03/16 10:30:58.000   78.246485192   16.063329655   575.5868   2   9   0.0125   0.0133   0.0198   0.0064  -0.0050  -0.0050   0.00    1.7
2018/03/16 10:30:59.000   78.246485303   16.063330288   575.5933   2   9   0.0125   0.0132   0.0197   0.0064  -0.0050  -0.0050   0.00    1.7
2018/03/16 10:31:00.000   78.246485430   16.063330929   575.6027   2   9   0.0125   0.0132   0.0196   0.0064  -0.0050  -0.0050   0.00    1.7
2018/03/16 10:31:01.000   78.246485561   16.063331547   575.6115   2   9   0.0124   0.0132   0.0195   0.0064  -0.0050  -0.0050   0.00    1.8
2018/03/16 10:31:02.000   78.246485681   16.063332101   575.6232   2   9   0.0124   0.0131   0.0195   0.0064  -0.0050  -0.0050   0.00    1.8
2018/03/16 10:31:03.000   78.246485778   16.063332633   575.6375   2   9   0.0123   0.0131   0.0194   0.0064  -0.0050  -0.0050   0.00    1.8
2018/03/16 10:31:04.000   78.246485870   16.063333122   575.6518   2   9   0.0123   0.0131   0.0193   0.0064  -0.0050  -0.0050   0.00    1.8
2018/03/16 10:31:05.000   78.246485975   16.063333602   575.6610   2   9   0.0123   0.0130   0.0192   0.0064  -0.0050  -0.0050   0.00    1.8
2018/03/16 10:31:06.000   78.246486093   16.063334081   575.6706   2   9   0.0122   0.0130   0.0192   0.0064  -0.0050  -0.0049   0.00    1.8
2018/03/16 10:31:07.000   78.246486209   16.063334652   575.6805   2   9   0.0122   0.0130   0.0191   0.0064  -0.0050  -0.0049   0.00    1.8
2018/03/16 10:31:08.000   78.246486331   16.063335218   575.6860   2   9   0.0121   0.0129   0.0190   0.0063  -0.0050  -0.0049   0.00    1.8
2018/03/16 10:31:09.000   78.246486438   16.063335731   575.6923   2   9   0.0121   0.0129   0.0189   0.0063  -0.0050  -0.0049   0.00    1.8
2018/03/16 10:31:10.000   78.246486530   16.063336147   575.6994   2   9   0.0121   0.0129   0.0189   0.0063  -0.0050  -0.0049   0.00    1.8
2018/03/16 10:31:11.000   78.246486608   16.063336483   575.7066   2   9   0.0120   0.0128   0.0188   0.0063  -0.0050  -0.0049   0.00    1.8
2018/03/16 10:31:12.000   78.246486682   16.063336698   575.7134   2   9   0.0120   0.0128   0.0187   0.0063  -0.0050  -0.0049   0.00    1.8
2018/03/16 10:31:13.000   78.246486760   16.063336825   575.7169   2   9   0.0120   0.0128   0.0187   0.0063  -0.0050  -0.0049   0.00    1.9
2018/03/16 10:31:14.000   78.246486826   16.063336898   575.7178   2   9   0.0119   0.0127   0.0186   0.0063  -0.0050  -0.0049   0.00    1.9
2018/03/16 10:31:15.000   78.246486888   16.063336907   575.7158   2   9   0.0119   0.0127   0.0185   0.0063  -0.0050  -0.0049   0.00    1.9
2018/03/16 10:31:16.000   78.246486941   16.063336898   575.7116   2   9   0.0118   0.0127   0.0185   0.0063  -0.0050  -0.0049   0.00    1.9
2018/03/16 10:31:17.000   78.246486991   16.063336905   575.7048   2   9   0.0118   0.0126   0.0184   0.0063  -0.0050  -0.0049   0.00    1.9
2018/03/16 10:31:18.000   78.246487048   16.063336892   575.6943   2   9   0.0118   0.0126   0.0183   0.0062  -0.0050  -0.0049   0.00    1.9
2018/03/16 10:31:19.000   78.246487104   16.063336875   575.6820   2   9   0.0117   0.0126   0.0183   0.0062  -0.0049  -0.0049   0.00    1.9
2018/03/16 10:31:20.000   78.246487157   16.063336816   575.6706   2   9   0.0117   0.0125   0.0182   0.0062  -0.0049  -0.0049   0.00    1.9
2018/03/16 10:31:21.000   78.246487206   16.063336714   575.6587   2   9   0.0117   0.0125   0.0181   0.0062  -0.0049  -0.0049   0.00    1.9
2018/03/16 10:31:22.000   78.246487259   16.063336604   575.6444   2   9   0.0116   0.0125   0.0181   0.0062  -0.0049  -0.0049   0.00    2.0
2018/03/16 10:31:23.000   78.246487324   16.063336422   575.6267   2   9   0.0116   0.0125   0.0180   0.0062  -0.0049  -0.0049   0.00    2.0
2018/03/16 10:31:24.000   78.246487378   16.063336162   575.6091   2   9   0.0116   0.0124   0.0179   0.0062  -0.0049  -0.0049   0.00    2.0
2018/03/16 10:31:25.000   78.246487428   16.063335838   575.5921   2   9   0.0115   0.0124   0.0179   0.0062  -0.0049  -0.0049   0.00    2.0
2018/03/16 10:31:26.000   78.246487464   16.063335467   575.5747   2   9   0.0115   0.0124   0.0178   0.0062  -0.0049  -0.0049   0.00    2.1
2018/03/16 10:31:27.000   78.246487501   16.063335101   575.5553   2   9   0.0114   0.0123   0.0177   0.0062  -0.0049  -0.0049   0.00    2.1
2018/03/16 10:31:28.000   78.246487554   16.063334804   575.5358   2   9   0.0114   0.0123   0.0177   0.0061  -0.0049  -0.0049   0.00    2.1
2018/03/16 10:31:29.000   78.246487614   16.063334607   575.5167   2   9   0.0114   0.0123   0.0176   0.0061  -0.0049  -0.0049   0.00    2.1
2018/03/16 10:31:30.000   78.246487671   16.063334458   575.4957   2   9   0.0113   0.0122   0.0176   0.0061  -0.0049  -0.0049   0.00    2.2
2018/03/16 10:31:31.000   78.246487725   16.063334311   575.4734   2   9   0.0113   0.0122   0.0175   0.0061  -0.0049  -0.0049   0.00    2.2
2018/03/16 10:31:32.000   78.246487775   16.063334150   575.4535   2   9   0.0113   0.0122   0.0174   0.0061  -0.0049  -0.0049   0.00    2.2
2018/03/16 10:31:33.000   78.246487832   16.063334019   575.4335   2   9   0.0112   0.0122   0.0174   0.0061  -0.0049  -0.0049   0.00    2.2
2018/03/16 10:31:34.000   78.246487884   16.063333913   575.4125   2   9   0.0112   0.0121   0.0173   0.0061  -0.0049  -0.0049   0.00    2.3
2018/03/16 10:31:35.000   78.246487929   16.063333772   575.3921   2   9   0.0112   0.0121   0.0173   0.0061  -0.0049  -0.0049   0.00    2.3
2018/03/16 10:31:36.000   78.246487965   16.063333591   575.3689   2   9   0.0111   0.0121   0.0172   0.0061  -0.0049  -0.0049   0.00    2.3
2018/03/16 10:31:37.000   78.246487993   16.063333452   575.3425   2   9   0.0111   0.0120   0.0171   0.0061  -0.0049  -0.0049   0.00    2.4
2018/03/16 10:31:38.000   78.246488020   16.063333317   575.3172   2   9   0.0111   0.0120   0.0171   0.0060  -0.0049  -0.0048   0.00    2.4
2018/03/16 10:31:39.000   78.246488037   16.063333234   575.2894   2   9   0.0110   0.0120   0.0170   0.0060  -0.0048  -0.0048   0.00    2.4
2018/03/16 10:31:40.000   78.246488052   16.063333199   575.2597   2   9   0.0110   0.0119   0.0170   0.0060  -0.0048  -0.0048   0.00    2.4
2018/03/16 10:31:41.000   78.246488049   16.063333162   575.2319   2   9   0.0110   0.0119   0.0169   0.0060  -0.0048  -0.0048   0.00    2.4
2018/03/16 10:31:42.000   78.246488035   16.063333111   575.2039   2   9   0.0109   0.0119   0.0168   0.0060  -0.0048  -0.0048   0.00    2.4
2018/03/16 10:31:43.000   78.246488012   16.063333032   575.1779   2   9   0.0109   0.0119   0.0168   0.0060  -0.0048  -0.0048   0.00    2.4
2018/03/16 10:31:44.000   78.246487987   16.063332935   575.1519   2   9   0.0109   0.0118   0.0167   0.0060  -0.0048  -0.0048   0.00    2.4
2018/03/16 10:31:45.000   78.246487968   16.063332833   575.1277   2   9   0.0109   0.0118   0.0167   0.0060  -0.0048  -0.0048   0.00    2.4
2018/03/16 10:31:46.000   78.246487950   16.063332719   575.1032   2   9   0.0108   0.0118   0.0166   0.0060  -0.0048  -0.0048   0.00    2.4
2018/03/16 10:31:47.000   78.246487945   16.063332607   575.0812   2   9   0.0108   0.0118   0.0166   0.0060  -0.0048  -0.0048   0.00    2.4
2018/03/16 10:31:48.000   78.246487939   16.063332549   575.0611   2   9   0.0108   0.0117   0.0165   0.0059  -0.0048  -0.0048   0.00    2.4
2018/03/16 10:31:49.000   78.246487923   16.063332485   575.0424   2   9   0.0107   0.0117   0.0165   0.0059  -0.0048  -0.0048   0.00    2.4
2018/03/16 10:31:50.000   78.246487898   16.063332453   575.0251   2   9   0.0107   0.0117   0.0164   0.0059  -0.0048  -0.0048   0.00    2.4
2018/03/16 10:31:51.000   78.246487868   16.063332433   575.0069   2   9   0.0107   0.0116   0.0163   0.0059  -0.0048  -0.0048   0.00    2.4
2018/03/16 10:31:52.000   78.246487843   16.063332485   574.9891   2   9   0.0106   0.0116   0.0163   0.0059  -0.0048  -0.0048   0.00    2.4
2018/03/16 10:31:53.000   78.246487811   16.063332562   574.9720   2   9   0.0106   0.0116   0.0162   0.0059  -0.0048  -0.0048   0.00    2.4
2018/03/16 10:31:54.000   78.246487780   16.063332645   574.9536   2   9   0.0106   0.0116   0.0162   0.0059  -0.0048  -0.0048   0.00    2.4
2018/03/16 10:31:55.000   78.246487739   16.063332705   574.9356   2   9   0.0105   0.0115   0.0161   0.0059  -0.0048  -0.0048   0.00    2.4
2018/03/16 10:31:56.000   78.246487689   16.063332764   574.9180   2   9   0.0105   0.0115   0.0161   0.0059  -0.0048  -0.0048   0.00    2.4
2018/03/16 10:31:57.000   78.246487630   16.063332814   574.9013   2   9   0.0105   0.0115   0.0160   0.0059  -0.0047  -0.0048   0.00    2.4
2018/03/16 10:31:58.000   78.246487568   16.063332876   574.8839   2   9   0.0105   0.0115   0.0160   0.0058  -0.0047  -0.0047   0.00    2.3
2018/03/16 10:31:59.000   78.246487513   16.063332958   574.8661   2   9   0.0104   0.0114   0.0159   0.0058  -0.0047  -0.0047   0.00    2.3
2018/03/16 10:32:00.000   78.246487451   16.063333031   574.8476   2   9   0.0104   0.0114   0.0159   0.0058  -0.0047  -0.0047   0.00    2.3
2018/03/16 10:32:01.000   78.246487383   16.063333097   574.8300   2   9   0.0104   0.0114   0.0158   0.0058  -0.0047  -0.0047   0.00    2.3
2018/03/16 10:32:02.000   78.246487313   16.063333137   574.8112   2   9   0.0103   0.0113   0.0158   0.0058  -0.0047  -0.0047   0.00    2.3
2018/03/16 10:32:03.000   78.246487237   16.063333207   574.7930   2   9   0.0103   0.0113   0.0157   0.0058  -0.0047  -0.0047   0.00    2.3
2018/03/16 10:32:04.000   78.246487170   16.063333364   574.7748   2   9   0.0103   0.0113   0.0157   0.0058  -0.0047  -0.0047   0.00    2.3
2018/03/16 10:32:05.000   78.246487101   16.063333561   574.7560   2   9   0.0102   0.0113   0.0156   0.0058  -0.0047  -0.0047   0.00    2.2
2018/03/16 10:32:06.000   78.246487034   16.063333788   574.7373   2   9   0.0102   0.0112   0.0156   0.0058  -0.0047  -0.0047   0.00    2.2
2018/03/16 10:32:07.000   78.246486969   16.063334018   574.7188   2   9   0.0102   0.0112   0.0155   0.0058  -0.0047  -0.0047   0.00    2.2
2018/03/16 10:32:08.000   78.246486910   16.063334268   574.7022   2   9   0.0102   0.0112   0.0155   0.0057  -0.0047  -0.0047   0.00    2.2
2018/03/16 10:32:09.000   78.246486848   16.063334518   574.6869   2   9   0.0101   0.0112   0.0154   0.0057  -0.0047  -0.0047   0.00    2.2
