     2.11           OBSERVATION DATA    M (MIXED)           RINEX VERSION / TYPE
teqc  2018Mar15                         20180319 14:17:33UTCPGM / RUN BY / DATE
Linux 2.6.32-573.12.1.x86_64|x86_64|gcc -static|Linux 64|=+ COMMENT
END OF STATIC MODE OBSERVATION                              COMMENT
BIT 2 OF LLI FLAGS DATA COLLECTED UNDER A/S CONDITION       COMMENT
-Unknown-                                                   MARKER NAME
4625                                                        MARKER NUMBER
-Unknown-           -Unknown-                               OBSERVER / AGENCY
5127468778          TRIMBLE             4.63                REC # / TYPE / VERS
47477114                            NONE                    ANT # / TYPE
 -4609473.0367        0.0000 -4393551.5723                  APPROX POSITION XYZ
        0.0000        0.0000        0.0000                  ANTENNA: DELTA H/E/N
     1     1                                                WAVELENGTH FACT L1/2
     7    L1    L2    C1    P1    P2    S1    S2            # / TYPES OF OBSERV
    18                                                      LEAP SECONDS
 SNR is mapped to RINEX snr flag value [0-9]                COMMENT
  L1 & L2: min(max(int(snr_dBHz/6), 0), 9)                  COMMENT
  2018     3    13    15     7   39.0000000     GPS         TIME OF FIRST OBS
                                                            END OF HEADER
 18  3 13 15  7 39.0000000  0 20R01G19G22G25R08R10R09R16R17R18R19G31
                                R02G12G06G03G32G24G17G14
                  85991229.493 6  20682572.578                    20682576.160
                        36.700
 114194036.978 7  88982369.39445  21730402.664                    21730404.109
        46.600          34.200
 121957718.041 7  95031985.86644  23207781.328                    23207781.320
        42.300          25.900
 117047733.866 7  91205966.47745  22273423.398                    22273429.895
        47.300          30.400
                  91498577.263 6  21968632.383                    21968633.965
                        37.200
                  86728728.550 5  20918682.242                    20918685.637
                        35.600
                  81044013.623 6  19513208.367                    19513208.719
                        41.400
                  94019849.077 4  22629486.055                    22629488.961
                        27.000
                  91369530.898 6  21953029.813                    21953030.543
                        39.300
                  82367693.331 6  19838931.945                    19838933.840
                        40.400
                  90437354.665 6  21736684.570                    21736684.957
                        38.100
 125117569.113 6                  23809082.898
        36.700
                  95389185.259 5  22983287.961                    22983289.016
                        35.000
 107899409.917 8  84077357.35146  20532575.219                    20532577.719
        51.100          38.200
 119435571.484 7  93066729.71045  22727838.984                    22727844.930
        45.800          33.500
 119512586.877 7  93126594.99045  22742459.211                    22742466.512
        44.600          31.200
 117780455.895 7  91776984.34344  22412883.336                    22412888.574
        44.600          29.400
 123202546.975 6  96002065.84744  23444679.414                    23444685.652
        41.600          25.500
 121350254.283 7  94558650.33145  23092183.523                    23092187.828
        44.600          32.700
 116777792.136 7  90995718.13144  22222081.211                    22222083.977
        43.300          25.800
 18  3 13 15  7 40.0000000  0 20R01G19G22G25R08R10R09R16R17R18R19G31
                                R02G12G06G03G32G24G17G14
                  85991552.044 6  20682649.914                    20682653.742
                        36.800
 114196303.104 7  88984135.20745  21730833.398                    21730835.504
        46.200          33.900
 121958750.359 7  95032790.25644  23207977.680                    23207977.742
        42.300          27.500
 117045194.194 7  91203987.51645  22272940.063                    22272946.535
        47.500          31.400
                  91501607.310 6  21969359.117                    21969362.016
                        37.100
                  86726454.907 5  20918133.555                    20918137.520
                        35.800
                  81045069.044 6  19513462.758                    19513463.148
                        41.500
                  94023556.076 4  22630378.328                    22630381.531
                        29.300
                  91372764.782 6  21953806.859                    21953807.805
                        39.700
                  82368037.916 6  19839015.367                    19839016.543
                        40.500
                  90434613.548 6  21736026.281                    21736026.664
                        38.000
 125114535.250 6                  23808505.484
        36.000
                  95386382.521 5  22982613.086                    22982613.992
                        34.100
 107899510.752 8  84077435.93846  20532594.477                    20532597.305
        51.500          38.700
 119433491.374 7  93065108.85445  22727443.547                    22727448.902
        45.800          32.300
 119512177.498 7  93126275.99245  22742381.172                    22742388.461
        44.600          31.700
 117782521.143 7  91778593.63344  22413276.352                    22413281.840
        44.200          29.700
 123206498.406 6  96005144.89744  23445431.773                    23445437.520
        41.700          27.000
 121353314.154 7  94561034.64645  23092766.383                    23092770.113
        45.300          33.400
 116777791.407 7  90995717.56744  22222080.852                    22222083.727
        43.300          26.100
 18  3 13 15  7 41.0000000  0 20R01G19G22G25R08R10R09R16R17R18R19G31
                                R02G12G06G03G32G24G17G14
                  85991875.317 6  20682727.336                    20682731.563
                        36.900
 114198569.872 7  88985901.52145  21731265.539                    21731266.602
        46.100          33.600
 121959783.299 7  95033595.12244  23208173.969                    23208174.656
        42.400          27.600
 117042654.943 7  91202008.89145  22272457.172                    22272463.238
        46.800          31.000
                  91504637.756 6  21970086.719                    21970089.031
                        36.800
                  86724181.660 6  20917585.281                    20917589.496
                        36.000
                  81046125.092 6  19513716.930                    19513716.930
                        41.200
                  94027263.341 5  22631271.469                    22631273.645
                        30.800
                  91375999.033 6  21954582.781                    21954585.258
                        39.900
                  82368383.222 6  19839098.219                    19839099.984
                        40.400
                  90431872.795 6  21735367.000                    21735367.773
                        38.100
 125111501.674 6                  23807927.836
        36.500
                  95383580.019 5  22981938.000                    22981939.270
                        33.000
 107899612.294 8  84077515.07746  20532613.703                    20532615.887
        51.600          38.300
 119431411.781 7  93063488.39845  22727047.484                    22727053.426
        45.800          32.300
 119511768.802 7  93125957.51945  22742303.961                    22742310.746
        45.200          32.600
 117784586.998 7  91780203.39544  22413669.047                    22413674.895
        43.900          28.700
 123210450.088 7  96008224.12844  23446183.469                    23446189.816
        42.100          25.800
 121356374.393 7  94563419.24045  23093348.492                    23093352.535
        45.800          34.000
 116777791.313 7  90995717.49444  22222080.023                    22222083.664
        43.000          26.700
 18  3 13 15  7 42.0000000  0 20R01G19G22G25R08R10R09R16R17R18R19G31
                                R02G12G06G03G32G24G17G14
                  85992199.283 6  20682805.914                    20682809.430
                        36.800
 114200837.214 7  88987668.28145  21731696.188                    21731698.453
        45.900          34.000
 121960816.806 6  95034400.43744  23208370.633                    23208371.293
        41.700          28.100
 117040116.117 7  91200030.59545  22271974.141                    22271980.195
        47.100          30.500
                  91507668.586 6  21970813.969                    21970816.746
                        37.100
                  86721908.793 6  20917037.016                    20917041.496
                        36.000
                  81047181.734 6  19513972.188                    19513971.477
                        41.500
                  94030970.702 5  22632164.336                    22632165.965
                        30.300
                  91379233.619 6  21955359.305                    21955361.145
                        41.500
                  82368729.199 6  19839181.625                    19839183.703
                        40.600
                  90429132.345 6  21734709.461                    21734709.164
                        38.400
 125108468.250 6                  23807351.320
        36.300
                  95380777.824 6  22981261.758                    22981264.223
                        37.400
 107899714.455 8  84077594.68646  20532633.422                    20532635.961
        51.400          38.500
 119429332.633 7  93061868.28145  22726651.945                    22726657.785
        45.700          32.800
 119511360.725 7  93125639.52845  22742225.852                    22742232.617
        45.500          32.800
 117786653.391 7  91781813.57344  22414062.367                    22414067.977
        44.300          28.800
 123214402.002 6  96011303.53444  23446935.000                    23446941.742
        41.900          25.300
 121359434.994 7  94565804.11445  23093931.531                    23093935.313
        45.000          33.300
 116777791.815 7  90995717.88644  22222081.352                    22222083.863
        42.800          27.300
 18  3 13 15  7 43.0000000  0 20R01G19G22G25R08R10R09R16R17R18R19G31
                                R02G12G06G03G32G24G17G14
                  85992523.995 6  20682884.391                    20682886.895
                        37.400
 114203105.255 7  88989435.59945  21732127.938                    21732129.480
        46.300          34.200
 121961850.986 7  95035206.29144  23208567.336                    23208567.879
        42.400          28.900
 117037577.717 7  91198052.62845  22271491.156                    22271497.363
        47.000          30.400
                  91510699.912 6  21971542.234                    21971544.418
                        36.500
                  86719636.344 6  20916489.008                    20916492.832
                        36.100
                  81048239.037 6  19514226.438                    19514226.262
                        41.400
                  94034678.365 4  22633056.602                    22633058.699
                        29.600
                  91382468.609 7  21956137.242                    21956138.910
                        42.300
                  82369075.898 6  19839264.945                    19839267.121
                        40.400
                  90426392.274 6  21734049.977                    21734050.930
                        38.100
 125105435.195 5                  23806773.766
        35.700
                  95377975.896 6  22980586.086                    22980588.281
                        38.200
 107899817.360 8  84077674.87546  20532653.008                    20532655.125
        51.200          38.600
 119427254.021 7  93060248.59045  22726255.938                    22726261.816
        45.100          31.900
 119510953.345 7  93125322.07745  22742148.789                    22742155.602
        44.500          33.300
 117788720.453 7  91783424.28044  22414455.875                    22414461.395
        44.700          28.400
 123218354.187 6  96014383.15944  23447687.664                    23447693.535
        41.800          24.800
 121362496.045 7  94568189.33945  23094513.211                    23094517.293
        45.500          33.700
 116777792.979 7  90995718.79744  22222080.680                    22222084.133
        42.800          26.800
 18  3 13 15  7 44.0000000  0 20R01G19G22G25R08R10R09R16R17R18R19G31
                                R02G12G06G03G32G24G17G14
                  85992849.429 6  20682962.445                    20682965.383
                        37.700
 114205373.901 7  88991203.38045  21732560.086                    21732560.898
        46.600          34.700
 121962885.794 7  95036012.63744  23208764.352                    23208764.754
        42.400          28.600
 117035039.763 7  91196075.00445  22271008.164                    22271014.426
        47.000          30.500
                  91513731.684 6  21972270.336                    21972272.688
                        36.500
                  86717364.296 5  20915941.164                    20915944.707
                        35.400
                  81049296.968 6  19514480.727                    19514480.270
                        41.200
                  94038386.111 5  22633950.969                    22633951.570
                        30.200
                  91385703.932 7  21956915.523                    21956916.406
                        42.800
                  82369423.307 6  19839348.859                    19839351.020
                        40.400
                  90423652.552 6  21733390.914                    21733391.563
                        38.200
 125102402.349 5                  23806196.953
        35.900
                  95375174.173 6  22979910.719                    22979913.352
                        38.100
 107899920.923 8  84077755.57846  20532672.539                    20532674.625
        51.500          38.300
 119425175.923 7  93058629.30745  22725861.039                    22725866.383
        45.300          33.100
 119510546.605 7  93125005.14745  22742071.344                    22742077.813
        45.000          33.400
 117790788.115 7  91785035.45344  22414849.672                    22414855.160
        44.800          28.900
 123222306.585 6  96017462.96044  23448439.984                    23448445.668
        41.800          26.100
 121365557.443 7  94570574.83945  23095095.758                    23095099.980
        44.900          33.500
 116777794.770 7  90995720.18844  22222081.555                    22222084.520
        42.600          26.900
 18  3 13 15  7 45.0000000  0 20R01G19G22G25R08R10R09R16R17R18R19G31
                                R02G12G06G03G32G24G17G14
                  85993175.593 6  20683040.563                    20683043.918
                        37.200
 114207643.218 7  88992971.68445  21732991.523                    21732992.715
        46.400          34.400
 121963921.158 7  95036819.41844  23208961.680                    23208962.152
        42.700          28.800
 117032502.288 7  91194097.75645  22270524.953                    22270531.242
        46.900          30.800
                  91516763.918 6  21972998.148                    21973000.418
                        37.000
                  86715092.666 5  20915392.797                    20915396.680
                        35.600
                  81050355.543 6  19514735.328                    19514735.129
                        41.000
                  94042094.119 4  22634843.555                    22634843.781
                        29.800
                  91388939.629 7  21957692.203                    21957693.832
                        42.000
                  82369771.475 6  19839432.672                    19839434.320
                        40.400
                  90420913.188 6  21732732.094                    21732733.508
                        38.200
 125099369.822 5                  23805619.523
        35.900
                  95372372.804 6  22979236.672                    22979239.113
                        37.700
 107900025.207 8  84077836.83346  20532692.273                    20532695.008
        51.700          38.700
 119423098.307 7  93057010.40145  22725465.039                    22725471.215
        45.600          33.000
 119510140.574 7  93124688.75845  22741994.070                    22742000.313
        45.000          33.100
 117792856.362 7  91786647.07944  22415243.000                    22415248.520
        45.100          29.000
 123226259.266 6  96020542.98044  23449191.758                    23449197.824
        41.400          25.200
 121368619.255 7  94572960.65945  23095679.609                    23095683.195
        45.500          33.200
 116777797.188 7  90995722.07644  22222082.453                    22222084.859
        42.400          26.600
 18  3 13 15  7 46.0000000  0 20R01G19G22G25R08R10R09R16R17R18R19G31
                                R02G12G06G03G32G24G17G14
                  85993502.539 6  20683118.398                    20683122.961
                        37.200
 114209913.227 7  88994740.52245  21733423.570                    21733425.102
        46.400          34.100
 121964957.190 7  95037626.72244  23209158.469                    23209159.137
        43.200          28.700
 117029965.281 7  91192120.87745  22270042.273                    22270048.613
        47.000          31.300
                  91519796.611 6  21973726.664                    21973728.348
                        37.700
                  86712821.468 5  20914845.617                    20914849.328
                        35.500
                  81051414.772 6  19514990.523                    19514990.367
                        41.100
                  94045802.298 4  22635734.664                    22635736.711
                        29.500
                  91392175.734 7  21958469.445                    21958471.668
                        42.200
                  82370120.371 6  19839517.227                    19839518.379
                        40.400
                  90418174.205 6  21732074.664                    21732075.402
                        38.500
 125096337.568 5                  23805042.406
        35.900
                  95369571.834 6  22978560.773                    22978563.813
                        37.200
 107900130.214 8  84077918.65446  20532712.453                    20532714.531
        51.300          38.400
 119421021.215 7  93055391.90745  22725070.016                    22725076.059
        45.500          33.100
 119509735.240 7  93124372.91845  22741916.891                    22741923.410
        44.700          32.600
 117794925.283 7  91788259.22744  22415636.383                    22415641.996
        44.600          29.300
 123230212.250 6  96023623.23544  23449943.766                    23449949.977
        41.400          25.800
 121371681.514 7  94575346.83845  23096262.125                    23096265.563
        45.800          33.400
 116777800.294 7  90995724.50044  22222082.688                    22222085.664
        42.300          24.900
 18  3 13 15  7 47.0000000  0 20R01G19G22G25R08R10R09R16R17R18R19G31
                                R02G12G06G03G32G24G17G14
                  85993830.245 6  20683198.133                    20683201.590
                        36.900
 114212183.914 7  88996509.89245  21733855.797                    21733856.910
        46.700          34.500
 121965993.867 7  95038434.51244  23209356.078                    23209356.613
        43.000          27.900
 117027428.756 7  91190144.36645  22269559.852                    22269565.840
        47.100          31.100
                  91522829.773 6  21974455.023                    21974456.875
                        37.900
                  86710550.717 5  20914297.844                    20914301.586
                        35.900
                  81052474.681 6  19515246.227                    19515245.590
                        41.200
                  94049510.723 4  22636627.375                    22636628.973
                        28.800
                  91395412.258 6  21959247.125                    21959249.863
                        41.600
                  82370470.016 6  19839600.789                    19839602.902
                        40.400
                  90415435.639 6  21731416.578                    21731417.418
                        38.700
 125093305.653 5                  23804465.250
        35.500
                  95366771.250 6  22977886.578                    22977889.105
                        37.100
 107900235.966 8  84078001.05746  20532732.516                    20532734.734
        51.300          38.300
 119418944.664 7  93053773.82345  22724674.961                    22724680.758
        45.400          32.500
 119509330.640 7  93124057.63845  22741839.875                    22741846.539
        45.100          33.000
 117796994.835 7  91789871.87544  22416030.250                    22416035.809
        44.300          29.400
 123234165.553 6  96026703.73244  23450695.719                    23450702.371
        41.400          25.900
 121374744.236 7  94577733.37645  23096844.172                    23096848.086
        45.200          33.700
 116777804.100 7  90995727.45644  22222083.367                    22222086.168
        42.800          26.800
 18  3 13 15  7 48.0000000  0 20R01G19G22G25R08R10R09R16R17R18R19G31
                                R02G12G06G03G32G24G17G14
                  85994158.704 6  20683276.672                    20683280.695
                        37.300
 114214455.249 7  88998279.75945  21734288.086                    21734289.395
        46.300          33.700
 121967031.178 7  95039242.80044  23209553.305                    23209554.012
        43.200          28.500
 117024892.716 7  91188168.24045  22269077.008                    22269083.281
        46.900          30.500
                  91525863.366 6  21975183.008                    21975184.930
                        37.100
                  86708280.383 5  20913750.031                    20913753.875
                        35.400
                  81053535.265 6  19515501.148                    19515500.820
                        41.200
                  94053219.316 4  22637520.750                    22637521.578
                        26.600
                  91398649.175 6  21960025.406                    21960027.273
                        41.900
                  82370820.396 6  19839685.445                    19839686.969
                        40.500
                  90412697.459 6  21730758.219                    21730758.449
                        38.700
 125090274.036 5                  23803887.305
        35.200
                  95363970.954 6  22977211.156                    22977214.453
                        37.900
 107900342.434 8  84078084.02546  20532752.828                    20532755.512
        51.300          38.300
 119416868.638 7  93052156.13545  22724279.930                    22724285.430
        45.500          32.800
 119508926.757 7  93123742.91145  22741763.180                    22741769.375
        44.600          33.100
 117799065.018 7  91791485.00944  22416424.211                    22416429.621
        43.800          29.900
 123238119.124 6  96029784.43844  23451448.836                    23451454.461
        41.000          26.400
 121377807.360 7  94580120.23645  23097426.875                    23097431.203
        45.600          33.700
 116777808.546 7  90995730.93644  22222084.406                    22222087.145
        42.300          27.000
 18  3 13 15  7 49.0000000  0 20R01G19G22G25R08R10R09R16R17R18R19G31
                                R02G12G06G03G32G24G17G14
                  85994487.908 6  20683356.406                    20683359.738
                        37.200
 114216727.233 7  89000050.14045  21734719.852                    21734721.465
        46.600          34.300
 121968069.091 7  95040051.57044  23209751.008                    23209751.520
        43.200          27.200
 117022357.115 7  91186192.46745  22268594.828                    22268600.809
        46.800          31.400
                  91528897.385 6  21975911.789                    21975913.297
                        37.600
                  86706010.451 5  20913202.227                    20913206.480
                        35.400
                  81054596.476 6  19515757.234                    19515756.473
                        40.900
                  94056928.099 4  22638412.023                    22638413.793
                        25.400
                  91401886.458 6  21960802.734                    21960804.438
                        41.400
                  82371171.491 6  19839770.094                    19839771.672
                        40.400
                  90409959.593 6  21730100.148                    21730100.688
                        38.900
 125087242.680 5                  23803310.805
        35.400
                  95361170.981 6  22976537.445                    22976539.328
                        37.800
 107900449.616 8  84078167.54546  20532773.086                    20532775.680
        51.300          38.400
 119414793.095 7  93050538.81145  22723885.344                    22723890.613
        45.800          33.100
 119508523.550 7  93123428.71745  22741686.297                    22741692.855
        44.500          33.400
 117801135.801 7  91793098.60944  22416818.398                    22416823.398
        43.600          28.400
 123242072.944 6  96032865.33443  23452200.648                    23452207.051
        41.300          23.200
 121380870.892 7  94582507.40145  23098010.047                    23098013.793
        45.200          33.900
 116777813.615 7  90995734.87444  22222084.820                    22222088.137
        42.700          26.900
 18  3 13 15  7 50.0000000  0 20R01G19G22G25R08R10R09R16R17R18R19G31
                                R02G12G06G03G32G24G17G14
                  85994817.864 6  20683435.859                    20683439.102
                        37.300
 114218999.900 7  89001821.04945  21735152.672                    21735154.215
        46.400          34.200
 121969107.639 7  95040860.83044  23209948.492                    23209949.508
        43.500          29.400
 117019821.990 7  91184217.06045  22268112.156                    22268118.477
        46.600          30.800
                  91531931.882 6  21976641.695                    21976642.023
                        37.400
                  86703740.968 5  20912654.930                    20912659.676
                        35.100
                  81055658.355 6  19516012.063                    19516012.387
                        41.000
                  94060637.063 4  22639304.703                    22639306.484
                        26.300
                  91405124.145 6  21961580.656                    21961582.445
                        41.500
                  82371523.311 6  19839854.133                    19839856.184
                        40.500
                  90407222.131 6  21729441.922                    21729442.797
                        38.900
 125084211.633 5                  23802733.898
        35.100
                  95358371.304 6  22975861.531                    22975864.793
                        37.200
 107900557.521 8  84078251.63846  20532793.820                    20532796.000
        51.300          38.300
 119412718.097 7  93048921.90445  22723490.094                    22723495.793
        45.700          33.000
 119508121.045 7  93123115.08545  22741609.773                    22741616.359
        44.300          33.100
 117803207.244 7  91794712.72244  22417212.578                    22417217.941
        44.200          29.300
 123246027.104 6  96035946.49844  23452953.508                    23452959.320
        41.500          24.300
 121383934.843 7  94584894.90245  23098593.406                    23098597.250
        45.400          34.300
 116777819.404 7  90995739.37644  22222085.898                    22222089.215
        42.200          26.500
 18  3 13 15  7 51.0000000  0 20R01G19G22G25R08R10R09R16R17R18R19G31
                                R02G12G06G03G32G24G17G14
                  85995148.589 6  20683514.461                    20683518.348
                        36.900
 114221273.256 7  89003592.48945  21735584.977                    21735586.656
        46.300          34.200
 121970146.837 7  95041670.59944  23210146.172                    23210146.637
        43.400          28.100
 117017287.351 7  91182242.02845  22267629.891                    22267635.969
        47.000          31.600
                  91534966.882 6  21977371.078                    21977370.813
                        37.900
                  86701471.915 5  20912108.672                    20912111.883
                        35.400
                  81056720.903 6  19516268.414                    19516268.168
                        40.900
                  94064346.312 4  22640198.203                    22640198.922
                        28.200
                  91408362.263 6  21962358.305                    21962360.555
                        41.900
                  82371875.873 6  19839939.680                    19839941.027
                        40.500
                  90404485.054 6  21728784.773                    21728784.773
                        38.800
 125081180.918 5                  23802157.992
        35.200
                  95355571.946 6  22975187.000                    22975190.613
                        37.900
 107900666.172 8  84078336.29846  20532814.398                    20532817.066
        51.300          38.100
 119410643.632 7  93047305.41445  22723095.391                    22723101.113
        45.800          33.100
 119507719.250 7  93122801.99745  22741533.359                    22741539.820
        44.600          32.200
 117805279.322 7  91796327.33244  22417607.156                    22417612.129
        44.400          29.300
 123249981.535 6  96039027.88244  23453705.625                    23453711.828
        41.100          25.000
 121386999.242 7  94587282.75345  23099176.359                    23099180.629
        45.500          33.600
 116777825.846 6  90995744.39544  22222087.227                    22222090.531
        41.600          25.900
 18  3 13 15  7 52.0000000  0 20R01G19G22G25R08R10R09R16R17R18R19G31
                                R02G12G06G03G32G24G17G14
                  85995480.064 6  20683594.219                    20683598.172
                        37.400
 114223547.266 7  89005364.43645  21736017.734                    21736019.480
        46.400          34.400
 121971186.695 7  95042480.88744  23210344.148                    23210344.875
        43.600          28.900
 117014753.182 7  91180267.36045  22267147.664                    22267153.926
        47.200          31.200
                  91538002.351 6  21978098.422                    21978099.391
                        37.400
                  86699203.325 6  20911560.594                    20911564.496
                        36.200
                  81057784.125 6  19516523.742                    19516524.340
                        40.900
                  94068055.699 4  22641090.219                    22641092.031
                        27.000
                  91411600.811 7  21963136.867                    21963138.695
                        42.200
                  82372229.188 6  19840024.750                    19840026.055
                        40.500
                  90401748.371 6  21728127.117                    21728127.527
                        38.700
 125078150.484 5                  23801581.289
        35.500
                  95352772.909 6  22974513.688                    22974515.590
                        37.400
 107900775.537 8  84078421.51746  20532834.969                    20532837.613
        51.600          38.800
 119408569.696 7  93045689.34045  22722700.297                    22722706.641
        45.400          32.200
 119507318.154 7  93122489.45445  22741457.086                    22741463.617
        44.800          32.700
 117807352.037 7  91797942.43844  22418001.414                    22418006.785
        44.700          29.300
 123253936.275 6  96042109.49944  23454458.648                    23454464.520
        41.300          24.100
 121390064.068 7  94589670.93945  23099759.109                    23099763.559
        44.900          34.100
 116777832.952 6  90995749.94344  22222087.930                    22222091.910
        41.400          26.000
 18  3 13 15  7 53.0000000  0 20R01G19G22G25R08R10R09R16R17R18R19G31
                                R02G12G06G03G32G24G17G14
                  85995812.264 6  20683674.039                    20683678.145
                        36.700
 114225821.924 7  89007136.89545  21736450.852                    21736452.539
        46.200          34.100
 121972227.149 7  95043291.62744  23210542.094                    23210542.336
        43.700          28.300
 117012219.449 7  91178293.03545  22266665.250                    22266671.613
        47.400          31.000
                  91541038.203 6  21978827.688                    21978828.969
                        36.500
                  86696935.151 6  20911013.641                    20911017.992
                        36.200
                  81058847.981 6  19516780.875                    19516779.930
                        41.200
                  94071765.321 4  22641982.828                    22641984.809
                        28.000
                  91414839.761 7  21963915.445                    21963917.191
                        42.000
                  82372583.199 6  19840109.672                    19840111.816
                        40.600
                  90399012.077 6  21727469.617                    21727469.453
                        38.300
 125075120.343 5                  23801004.445
        35.500
                  95349974.197 6  22973839.578                    22973840.984
                        37.100
 107900885.604 8  84078507.28646  20532856.336                    20532858.543
        51.800          38.400
 119406496.263 7  93044073.65545  22722306.188                    22722311.945
        45.800          33.200
 119506917.743 7  93122177.44445  22741380.398                    22741387.313
        45.000          32.600
 117809425.371 7  91799558.02544  22418395.695                    22418401.266
        43.800          28.900
 123257891.281 6  96045191.32044  23455211.234                    23455217.234
        41.000          25.300
 121393129.301 7  94592059.43245  23100342.750                    23100346.895
        45.800          34.400
 116777840.723 6  90995756.00344  22222089.641                    22222093.172
        41.800          26.000
 18  3 13 15  7 54.0000000  0 20R01G19G22G25R08R10R09R16R17R18R19G31
                                R02G12G06G03G32G24G17G14
                  85996145.171 6  20683754.305                    20683758.086
                        37.400
 114228097.223 7  89008909.85445  21736883.883                    21736885.418
        46.100          34.400
 121973268.211 7  95044102.84744  23210739.867                    23210741.207
        43.900          28.600
 117009686.123 7  91176319.02445  22266183.195                    22266189.191
        46.900          31.300
                  91544074.479 6  21979555.648                    21979557.168
                        36.900
                  86694667.381 5  20910466.727                    20910471.039
                        35.800
                  81059912.448 6  19517036.711                    19517036.500
                        41.200
                  94075475.124 4  22642875.500                    22642877.535
                        29.000
                  91418079.058 7  21964693.719                    21964695.145
                        42.300
                  82372937.931 6  19840195.188                    19840196.988
                        40.600
                  90396276.118 6  21726812.672                    21726811.973
                        38.600
 125072090.455 5                  23800427.492
        35.800
                  95347175.759 6  22973165.492                    22973167.355
                        37.400
 107900996.348 8  84078593.58546  20532877.070                    20532879.699
        51.200          38.600
 119404423.343 7  93042458.38045  22721911.820                    22721917.359
        45.700          33.400
 119506517.990 7  93121865.94445  22741304.477                    22741311.141
        44.900          33.300
 117811499.304 7  91801174.07844  22418790.031                    22418796.066
        43.400          28.900
 123261846.502 6  96048273.31144  23455963.695                    23455969.680
        41.300          24.500
 121396194.896 7  94594448.20845  23100926.664                    23100929.910
        46.300          34.400
 116777849.129 7  90995762.56944  22222091.211                    22222094.492
        42.300          25.300
 18  3 13 15  7 55.0000000  0 20R01G19G22G25R08R10R09R16R17R18R19G31
                                R02G12G06G03G32G24G17G14
                  85996478.830 6  20683834.641                    20683838.516
                        37.500
 114230373.170 7  89010683.31345  21737317.258                    21737318.742
        46.500          34.200
 121974309.871 7  95044914.53344  23210938.391                    23210939.117
        43.100          29.100
 117007153.250 7  91174345.36945  22265701.414                    22265707.539
        46.700          31.200
                  91547111.186 6  21980285.547                    21980286.285
                        37.400
                  86692400.058 5  20909920.438                    20909924.086
                        35.900
                  81060977.577 6  19517293.328                    19517292.363
                        41.100
                  94079185.052 4  22643767.117                    22643770.469
                        28.700
                  91421318.729 6  21965471.703                    21965473.555
                        41.700
                  82373293.362 6  19840281.063                    19840283.078
                        40.500
                  90393540.564 6  21726154.125                    21726154.918
                        38.600
 125069060.846 5                  23799851.141
        35.300
                  95344377.642 6  22972490.977                    22972492.895
                        37.000
 107901107.776 8  84078680.41346  20532898.281                    20532900.801
        51.400          38.700
 119402350.927 7  93040843.50745  22721517.125                    22721522.797
        45.700          33.000
 119506118.915 7  93121554.97345  22741228.508                    22741235.316
        44.600          33.000
 117813573.850 7  91802790.61144  22419185.570                    22419190.875
        43.700          28.600
 123265801.976 6  96051355.49944  23456716.523                    23456722.152
        41.000          24.300
 121399260.892 7  94596837.30045  23101509.633                    23101513.438
        46.400          33.500
 116777858.168 7  90995769.62944  22222093.602                    22222096.180
        43.000          27.300
 18  3 13 15  7 56.0000000  0 20R01G19G22G25R08R10R09R16R17R18R19G31
                                R02G12G06G03G32G24G17G14
                  85996813.197 6  20683915.063                    20683918.609
                        37.100
 114232649.743 7  89012457.26345  21737749.953                    21737751.992
        46.300          34.000
 121975352.155 7  95045726.70344  23211136.648                    23211137.430
        43.100          28.400
 117004620.807 7  91172372.03345  22265219.344                    22265225.555
        47.000          31.100
                  91550148.376 6  21981015.094                    21981015.871
                        38.000
                  86690133.128 6  20909373.352                    20909377.613
                        36.200
                  81062043.318 6  19517549.844                    19517549.703
                        41.400
                  94082895.220 4  22644661.352                    22644663.727
                        28.100
                  91424558.756 6  21966250.406                    21966251.945
                        41.900
                  82373649.501 6  19840366.617                    19840368.813
                        40.400
                  90390805.349 6  21725497.109                    21725497.598
                        38.400
 125066031.522 5                  23799275.633
        35.600
                  95341579.797 6  22971817.000                    22971819.113
                        38.400
 107901219.914 8  84078767.79246  20532919.922                    20532922.301
        50.800          38.900
 119400278.980 7  93039228.98445  22721123.031                    22721128.375
        46.000          34.300
 119505720.469 7  93121244.48345  22741152.773                    22741159.629
        45.200          32.500
 117815648.996 7  91804407.61744  22419580.242                    22419585.641
        43.300          28.300
 123269757.722 6  96054437.89944  23457469.219                    23457475.094
        41.200          24.700
 121402327.310 7  94599226.72645  23102093.414                    23102096.871
        45.200          33.800
 116777867.818 7  90995777.15644  22222096.008                    22222098.238
        43.200          26.700
 18  3 13 15  7 57.0000000  0 20R01G19G22G25R08R10R09R16R17R18R19G31
                                R02G12G06G03G32G24G17G14
                  85997148.324 6  20683995.328                    20683999.367
                        37.500
 114234927.016 7  89014231.75745  21738183.070                    21738185.676
        46.100          33.200
 121976395.108 7  95046539.40044  23211335.406                    23211336.035
        43.500          28.400
 117002088.848 7  91170399.07945  22264737.781                    22264743.594
        47.400          31.400
                  91553186.021 6  21981745.203                    21981745.508
                        37.600
                  86687866.639 5  20908826.328                    20908830.699
                        35.600
                  81063109.753 6  19517806.945                    19517806.547
                        41.400
                  94086605.582 4  22645555.266                    22645556.895
                        27.500
                  91427799.191 7  21967028.172                    21967030.391
                        42.200
                  82374006.356 6  19840453.195                    19840454.836
                        40.700
                  90388070.520 6  21724840.250                    21724840.078
                        38.300
 125063002.473 5                  23798698.805
        34.800
                  95338782.262 6  22971142.469                    22971145.141
                        37.900
 107901332.759 8  84078855.72346  20532940.969                    20532943.879
        51.000          38.700
 119398207.551 7  93037614.86445  22720728.813                    22720734.504
        45.400          32.800
 119505322.784 7  93120934.59745  22741077.477                    22741084.051
        44.900          32.600
 117817724.784 7  91806025.13044  22419975.375                    22419980.504
        44.000          28.800
 123273713.733 6  96057520.50543  23458222.227                    23458228.125
        41.300          22.600
 121405394.136 7  94601616.46945  23102676.859                    23102680.824
        45.300          32.800
 116777878.181 7  90995785.21644  22222097.781                    22222100.742
        43.400          27.100
 18  3 13 15  7 58.0000000  0 20R01G19G22G25R08R10R09R16R17R18R19G31
                                R02G12G06G03G32G24G17G14
                  85997484.204 6  20684076.070                    20684079.902
                        36.700
 114237204.961 7  89016006.78045  21738617.180                    21738619.008
        46.100          34.000
 121977438.659 7  95047352.55244  23211533.867                    23211534.602
        43.300          28.600
 116999557.340 7  91168426.46945  22264256.047                    22264261.648
        47.800          31.300
                  91556224.150 6  21982474.664                    21982474.832
                        37.800
                  86685600.582 5  20908279.945                    20908283.711
                        35.800
                  81064176.812 6  19518063.453                    19518063.582
                        41.400
                  94090316.112 4  22646449.180                    22646449.449
                        28.400
                  91431039.991 7  21967807.539                    21967809.355
                        42.400
                  82374363.957 6  19840538.906                    19840540.695
                        40.700
                  90385336.097 6  21724182.297                    21724182.914
                        38.300
 125059973.772 5                  23798121.984
        35.300
                  95335985.091 6  22970468.641                    22970470.621
                        38.400
 107901446.313 8  84078944.21246  20532962.648                    20532965.289
        51.400          38.600
 119396136.673 7  93036001.15445  22720334.977                    22720340.484
        45.600          33.200
 119504925.771 7  93120625.22845  22741001.859                    22741008.527
        44.700          33.100
 117819801.200 7  91807643.12744  22420370.414                    22420375.703
        44.300          28.700
 123277670.039 6  96060603.33844  23458974.906                    23458980.754
        41.700          24.200
 121408461.368 7  94604006.52545  23103260.883                    23103264.359
        45.300          33.100
 116777889.172 7  90995793.77144  22222099.352                    22222102.426
        43.600          26.000
 18  3 13 15  7 59.0000000  0 20R01G19G22G25R08R10R09R16R17R18R19G31
                                R02G12G06G03G32G24G17G14
                  85997820.858 6  20684157.242                    20684160.898
                        36.900
 114239483.559 7  89017782.31745  21739050.367                    21739052.613
        46.300          33.500
 121978482.863 7  95048166.21844  23211732.953                    23211733.578
        43.700          28.200
 116997026.305 8  91166454.22845  22263774.141                    22263780.492
        48.200          32.400
                  91559262.711 6  21983203.000                    21983203.988
                        37.800
                  86683334.957 6  20907733.422                    20907736.980
                        36.000
                  81065244.550 6  19518320.914                    19518320.219
                        41.400
                  94094026.882 4  22647341.258                    22647342.906
                        28.300
                  91434281.155 7  21968586.195                    21968588.254
                        42.200
                  82374722.310 6  19840625.359                    19840627.133
                        40.700
                  90382602.062 6  21723524.906                    21723525.379
                        38.300
 125056945.322 5                  23797545.836
        35.000
                  95333188.259 6  22969794.656                    22969797.227
                        38.600
 107901560.610 8  84079033.27546  20532984.297                    20532987.094
        51.300          38.400
 119394066.344 7  93034387.88945  22719941.000                    22719946.434
        45.800          33.400
 119504529.482 7  93120316.42445  22740925.992                    22740932.699
        45.200          33.000
 117821878.252 7  91809261.62544  22420765.820                    22420771.156
        43.900          29.500
 123281626.623 7  96063686.39743  23459727.680                    23459734.117
        42.200          23.600
 121411529.077 7  94606396.96245  23103844.141                    23103848.070
        45.800          34.200
 116777900.854 7  90995802.87144  22222101.758                    22222104.395
        43.000          26.600
 18  3 13 15  8  0.0000000  0 20R01G19G22G25R08R10R09R16R17R18R19G31
                                R02G12G06G03G32G24G17G14
                  85998158.198 6  20684238.336                    20684242.297
                        36.700
 114241762.809 7  89019558.36945  21739484.141                    21739485.707
        46.400          33.400
 121979527.691 7  95048980.36844  23211931.383                    23211931.926
        43.500          28.100
 116994495.712 7  91164482.32645  22263292.711                    22263298.707
        47.600          31.400
                  91562301.606 6  21983932.266                    21983934.152
                        37.700
                  86681069.704 6  20907186.805                    20907190.680
                        36.600
                  81066312.920 6  19518577.906                    19518577.531
                        41.200
                  94097737.832 4  22648235.016                    22648236.504
                        27.900
                  91437522.672 6  21969365.508                    21969366.785
                        41.600
                  82375081.415 6  19840711.664                    19840713.660
                        40.700
                  90379868.381 6  21722867.945                    21722868.457
                        38.600
 125053917.158 5                  23796970.867
        35.100
                  95330391.688 6  22969120.781                    22969123.336
                        38.400
 107901675.586 8  84079122.86746  20533006.125                    20533008.816
        50.800          38.600
 119391996.496 7  93032775.00045  22719546.648                    22719552.254
        46.300          32.800
 119504133.862 7  93120008.15745  22740850.727                    22740857.906
        45.200          32.500
 117823955.893 7  91810880.57144  22421161.016                    22421166.387
        43.300          28.600
 123285583.477 7  96066769.66044  23460480.500                    23460486.715
        42.400          24.700
 121414597.138 7  94608787.66145  23104427.992                    23104431.910
        45.200          34.700
 116777913.161 7  90995812.45844  22222103.109                    22222106.855
        43.000          24.800
 18  3 13 15  8  1.0000000  0 20R01G19G22G25R08R10R09R16R17R18R19G31
                                R02G12G06G03G32G24G17G14
                  85998496.291 6  20684320.188                    20684323.633
                        37.400
 114244042.673 7  89021334.89045  21739918.188                    21739919.941
        46.600          33.200
 121980573.130 7  95049795.00744  23212130.148                    23212130.738
        43.700          29.800
 116991965.551 7  91162510.76545  22262811.242                    22262817.414
        47.900          31.900
                  91565340.965 6  21984662.898                    21984663.070
                        37.000
                  86678804.876 6  20906640.742                    20906644.746
                        36.500
                  81067381.934 6  19518835.172                    19518835.160
                        41.100
                  94101448.969 4  22649127.711                    22649129.617
                        28.400
                  91440764.572 7  21970143.914                    21970145.742
                        42.000
                  82375441.228 6  19840798.867                    19840800.434
                        40.600
                  90377135.040 6  21722211.133                    21722211.477
                        38.400
 125050889.251 5                  23796393.695
        34.800
                  95327595.445 5  22968446.828                    22968449.770
                        34.200
 107901791.270 8  84079213.01846  20533028.398                    20533030.957
        51.000          38.300
 119389927.155 7  93031162.50245  22719153.484                    22719158.805
        46.100          33.200
 119503738.912 7  93119700.40445  22740775.672                    22740782.195
        44.900          33.100
 117826034.156 7  91812500.00944  22421556.438                    22421561.879
        43.900          28.200
 123289540.537 7  96069853.08544  23461233.273                    23461240.066
        42.600          25.700
 121417665.607 7  94611178.68245  23105011.781                    23105015.914
        45.500          34.200
 116777926.123 7  90995822.56844  22222106.750                    22222109.832
        42.700          26.900
 18  3 13 15  8  2.0000000  0 20R01G19G22G25R08R10R09R16R17R18R19G31
                                R02G12G06G03G32G24G17G14
                  85998835.113 6  20684401.164                    20684405.148
                        37.500
 114246323.262 7  89023111.97645  21740351.883                    21740353.555
        46.300          34.200
 121981619.187 7  95050610.12844  23212329.211                    23212330.016
        44.300          28.900
 116989435.897 7  91160539.59945  22262329.898                    22262336.203
        47.500          31.500
                  91568380.796 6  21985392.516                    21985393.363
                        37.000
                  86676540.443 6  20906095.000                    20906098.750
                        36.300
                  81068451.607 6  19519092.773                    19519092.523
                        41.200
                  94105160.344 4  22650020.945                    22650023.168
                        28.700
                  91444006.894 6  21970923.633                    21970924.645
                        38.900
                  82375801.770 6  19840885.477                    19840887.063
                        40.500
                  90374402.118 6  21721553.203                    21721554.570
                        38.600
 125047861.665 5                  23795817.180
        33.900
                  95324799.642 5  22967773.297                    22967776.203
                        35.000
 107901907.669 8  84079303.72146  20533050.367                    20533053.230
        50.900          38.200
 119387858.320 7  93029550.39645  22718759.328                    22718765.199
        46.500          33.200
 119503344.671 7  93119393.20545  22740700.758                    22740707.215
        44.300          32.900
 117828113.040 7  91814119.91444  22421952.320                    22421957.328
        44.000          29.500
 123293497.911 7  96072936.75244  23461986.953                    23461992.602
        42.400          26.000
 121420734.495 7  94613570.03445  23105596.188                    23105599.715
        45.900          33.800
 116777939.739 7  90995833.19044  22222109.391                    22222111.941
        42.300          26.800
 18  3 13 15  8  3.0000000  0 20R01G19G22G25R08R10R09R16R17R18R19G31
                                R02G12G06G03G32G24G17G14
                  85999174.696 6  20684482.727                    20684486.703
                        37.300
 114248604.506 7  89024889.57645  21740786.172                    21740787.832
        46.200          33.400
 121982665.889 7  95051425.75444  23212528.313                    23212528.766
        44.700          29.100
 116986906.695 7  91158568.77645  22261848.688                    22261854.758
        47.600          31.400
                  91571421.136 6  21986122.883                    21986123.195
                        36.400
                  86674276.442 6  20905548.047                    20905552.281
                        36.400
                  81069521.961 6  19519350.414                    19519350.352
                        41.200
                  94108871.870 4  22650914.625                    22650916.199
                        28.400
                  91447249.716 6  21971701.734                    21971703.727
                        39.000
                  82376163.042 6  19840972.148                    19840974.055
                        40.500
                  90371669.575 6  21720897.609                    21720897.961
                        38.600
 125044834.352 5                  23795241.539
        34.800
                  95322004.024 5  22967098.891                    22967102.121
                        34.800
 107902024.798 8  84079394.99646  20533072.773                    20533075.363
        50.800          38.400
 119385790.010 7  93027938.69445  22718366.555                    22718371.430
        45.800          33.100
 119502951.151 7  93119086.57745  22740625.953                    22740632.512
        45.200          34.400
 117830192.584 7  91815740.34144  22422347.898                    22422353.379
        43.200          29.500
 123297455.562 7  96076020.63144  23462740.117                    23462746.301
        42.000          25.600
 121423803.780 7  94615961.68845  23106180.250                    23106183.703
        45.400          34.200
 116777954.058 7  90995844.35044  22222111.938                    22222114.762
        42.200          26.900
 18  3 13 15  8  4.0000000  0 20R01G19G22G25R08R10R09R16R17R18R19G31
                                R02G12G06G03G32G24G17G14
                  85999515.038 6  20684565.063                    20684569.074
                        37.100
 114250886.466 7  89026667.73445  21741220.375                    21741221.816
        46.400          34.700
 121983713.293 7  95052241.92744  23212727.766                    23212728.781
        42.900          27.700
 116984377.994 7  91156598.35445  22261367.555                    22261373.422
        47.400          31.200
                  91574461.992 6  21986852.234                    21986853.020
                        36.600
                  86672012.903 6  20905002.672                    20905006.301
                        36.500
                  81070592.969 6  19519608.406                    19519608.148
                        41.500
                  94112583.641 4  22651807.883                    22651809.918
                        28.700
                  91450492.792 6  21972481.727                    21972483.031
                        37.800
                  82376525.056 6  19841059.984                    19841061.637
                        40.700
                  90368937.430 6  21720241.172                    21720241.301
                        38.200
 125041807.379 5                  23794665.867
        34.700
                  95319208.708 5  22966426.156                    22966429.301
                        35.900
 107902142.665 8  84079486.83846  20533095.164                    20533097.910
        50.800          38.100
