% program   : RTKPOST ver.2.4.2
% inp file  : Z:\home\linda\Documents\Spring18\GitHub_Unis\data\processed_data\4625074H.obs
% inp file  : Z:\home\linda\Documents\Spring18\GitHub_Unis\data\processed_data\4625074H.nav
% obs start : 2018/03/15 13:41:43.0 GPST (week1992 394903.0s)
% obs end   : 2018/03/15 13:57:08.0 GPST (week1992 395828.0s)
% pos mode  : single
% elev mask : 15.0 deg
% ionos opt : broadcast
% tropo opt : saastamoinen
% ephemeris : broadcast
% navi sys  : gps glonass galileo qzss sbas
%
% (lat/lon/height=WGS84/ellipsoidal,Q=1:fix,2:float,3:sbas,4:dgps,5:single,6:ppp,ns=# of satellites)
%  GPST                  latitude(deg) longitude(deg)  height(m)   Q  ns   sdn(m)   sde(m)   sdu(m)  sdne(m)  sdeu(m)  sdun(m) age(s)  ratio
2018/03/15 13:41:43.000   78.253593666   16.174465707   542.5214   5   6   2.5610   2.4837  14.8893  -1.3252  -4.1760   4.7216   0.00    0.0
2018/03/15 13:41:44.000   78.253583940   16.174502054   536.4263   5   6   2.5618   2.4838  14.8961  -1.3259  -4.1774   4.7247   0.00    0.0
2018/03/15 13:41:45.000   78.253588165   16.174519694   539.1815   5   6   2.5625   2.4840  14.9028  -1.3267  -4.1789   4.7277   0.00    0.0
2018/03/15 13:41:46.000   78.253590819   16.174486565   539.0204   5   6   2.5633   2.4841  14.9096  -1.3274  -4.1803   4.7307   0.00    0.0
2018/03/15 13:41:47.000   78.253591304   16.174487794   537.0513   5   6   2.5641   2.4843  14.9164  -1.3281  -4.1818   4.7338   0.00    0.0
2018/03/15 13:41:48.000   78.253587101   16.174509122   534.6250   5   6   2.5648   2.4844  14.9232  -1.3289  -4.1832   4.7368   0.00    0.0
2018/03/15 13:41:49.000   78.253589866   16.174486445   540.3736   5   6   2.5656   2.4846  14.9300  -1.3296  -4.1847   4.7398   0.00    0.0
2018/03/15 13:41:50.000   78.253587154   16.174504036   538.3906   5   6   2.5663   2.4848  14.9368  -1.3304  -4.1861   4.7429   0.00    0.0
2018/03/15 13:41:51.000   78.253595158   16.174457742   543.7570   5   6   2.5671   2.4849  14.9435  -1.3311  -4.1876   4.7459   0.00    0.0
2018/03/15 13:41:52.000   78.253590392   16.174502100   540.1643   5   6   2.5678   2.4851  14.9503  -1.3318  -4.1890   4.7490   0.00    0.0
2018/03/15 13:41:53.000   78.253592331   16.174507964   539.2469   5   6   2.5686   2.4852  14.9571  -1.3326  -4.1905   4.7520   0.00    0.0
2018/03/15 13:41:54.000   78.253591069   16.174501305   539.6559   5   6   2.5693   2.4854  14.9639  -1.3333  -4.1919   4.7551   0.00    0.0
2018/03/15 13:41:55.000   78.253584095   16.174504663   536.5801   5   7   2.5701   2.4855  12.7678  -1.3340  -4.1935   4.7671   0.00    0.0
2018/03/15 13:41:56.000   78.253590200   16.174489961   535.9944   5   6   4.4153   2.5374  17.7104   0.2189  -3.3683   8.1722   0.00    0.0
2018/03/15 13:41:57.000   78.253584755   16.174519813   536.4336   5   7   2.5716   2.4858  12.7801  -1.3355  -4.1964   4.7723   0.00    0.0
2018/03/15 13:41:58.000   78.253593163   16.174530982   538.5665   5   7   2.5724   2.4860  12.7863  -1.3363  -4.1979   4.7748   0.00    0.0
2018/03/15 13:41:59.000   78.253590712   16.174478293   538.1895   5   7   2.5731   2.4861  12.7924  -1.3370  -4.1993   4.7774   0.00    0.0
2018/03/15 13:42:00.000   78.253586663   16.174482921   534.9859   5   7   2.5739   2.4863  12.7986  -1.3377  -4.2007   4.7800   0.00    0.0
2018/03/15 13:42:01.000   78.253586731   16.174518618   534.4833   5   7   2.5747   2.4864  12.8048  -1.3385  -4.2022   4.7826   0.00    0.0
2018/03/15 13:42:02.000   78.253585814   16.174504597   539.1902   5   7   2.5754   2.4866  12.8109  -1.3392  -4.2036   4.7851   0.00    0.0
2018/03/15 13:42:03.000   78.253587775   16.174501301   541.4867   5   6   2.5762   2.4867  15.0253  -1.3400  -4.2049   4.7826   0.00    0.0
2018/03/15 13:42:04.000   78.253587523   16.174497583   536.2844   5   6   2.5770   2.4869  15.0321  -1.3407  -4.2064   4.7856   0.00    0.0
2018/03/15 13:42:05.000   78.253587311   16.174517674   537.0777   5   6   2.5778   2.4870  15.0389  -1.3414  -4.2078   4.7887   0.00    0.0
2018/03/15 13:42:06.000   78.253588830   16.174491802   538.0284   5   6   2.5785   2.4872  15.0458  -1.3422  -4.2093   4.7918   0.00    0.0
2018/03/15 13:42:07.000   78.253589609   16.174501475   537.1730   5   6   2.5793   2.4873  15.0526  -1.3429  -4.2107   4.7948   0.00    0.0
2018/03/15 13:42:08.000   78.253589751   16.174497746   540.5597   5   6   2.5801   2.4875  15.0594  -1.3437  -4.2122   4.7979   0.00    0.0
2018/03/15 13:42:09.000   78.253584810   16.174506974   539.4331   5   6   2.5808   2.4876  15.0663  -1.3444  -4.2136   4.8010   0.00    0.0
2018/03/15 13:42:10.000   78.253585368   16.174511459   538.2022   5   6   2.5816   2.4878  15.0731  -1.3451  -4.2151   4.8041   0.00    0.0
2018/03/15 13:42:11.000   78.253590991   16.174504034   537.5393   5   6   2.5824   2.4879  15.0800  -1.3459  -4.2165   4.8071   0.00    0.0
2018/03/15 13:42:12.000   78.253591785   16.174492826   537.9118   5   6   2.5832   2.4881  15.0868  -1.3466  -4.2180   4.8102   0.00    0.0
2018/03/15 13:42:13.000   78.253590536   16.174510580   538.7885   5   6   2.5839   2.4882  15.0937  -1.3474  -4.2194   4.8133   0.00    0.0
2018/03/15 13:42:14.000   78.253588486   16.174490454   540.9462   5   6   2.5847   2.4884  15.1006  -1.3481  -4.2209   4.8164   0.00    0.0
2018/03/15 13:42:15.000   78.253594943   16.174502304   542.3387   5   6   2.5855   2.4885  15.1074  -1.3488  -4.2223   4.8194   0.00    0.0
2018/03/15 13:42:16.000   78.253586888   16.174495130   537.8077   5   6   2.5863   2.4887  15.1143  -1.3496  -4.2238   4.8225   0.00    0.0
2018/03/15 13:42:17.000   78.253586096   16.174524115   536.0441   5   6   2.5870   2.4888  15.1212  -1.3503  -4.2252   4.8256   0.00    0.0
2018/03/15 13:42:18.000   78.253593170   16.174518126   536.3760   5   6   2.5878   2.4890  15.1280  -1.3511  -4.2267   4.8287   0.00    0.0
2018/03/15 13:42:19.000   78.253593316   16.174518138   537.4707   5   6   2.5886   2.4891  15.1349  -1.3518  -4.2281   4.8318   0.00    0.0
2018/03/15 13:42:20.000   78.253589770   16.174497845   539.5926   5   6   2.5894   2.4893  15.1418  -1.3525  -4.2296   4.8349   0.00    0.0
2018/03/15 13:42:21.000   78.253589193   16.174509743   537.2607   5   7   2.5902   2.4894  12.9288  -1.3533  -4.2311   4.8344   0.00    0.0
2018/03/15 13:42:22.000   78.253583922   16.174485245   540.9708   5   7   2.5909   2.4896  12.9351  -1.3540  -4.2326   4.8370   0.00    0.0
2018/03/15 13:42:23.000   78.253584947   16.174498111   539.2646   5   7   2.5917   2.4897  12.9413  -1.3548  -4.2340   4.8396   0.00    0.0
2018/03/15 13:42:24.000   78.253591832   16.174504326   540.1288   5   7   2.5925   2.4899  12.9476  -1.3555  -4.2355   4.8422   0.00    0.0
2018/03/15 13:42:25.000   78.253590869   16.174519337   537.8558   5   7   2.5933   2.4900  12.9538  -1.3563  -4.2369   4.8448   0.00    0.0
2018/03/15 13:42:26.000   78.253587118   16.174511394   538.1022   5   7   2.5941   2.4902  12.9601  -1.3570  -4.2384   4.8475   0.00    0.0
2018/03/15 13:42:27.000   78.253593515   16.174518826   539.0361   5   7   2.5949   2.4903  12.9663  -1.3577  -4.2398   4.8501   0.00    0.0
2018/03/15 13:42:28.000   78.253596470   16.174499054   539.2330   5   7   2.5956   2.4905  12.9726  -1.3585  -4.2413   4.8527   0.00    0.0
2018/03/15 13:42:29.000   78.253589531   16.174524289   535.3791   5   7   2.5964   2.4906  12.9789  -1.3592  -4.2427   4.8553   0.00    0.0
2018/03/15 13:42:30.000   78.253589040   16.174501477   539.6325   5   7   2.5972   2.4908  12.9852  -1.3600  -4.2442   4.8579   0.00    0.0
2018/03/15 13:42:31.000   78.253586245   16.174495120   536.1467   5   7   2.5980   2.4909  12.9914  -1.3607  -4.2456   4.8606   0.00    0.0
2018/03/15 13:42:32.000   78.253589466   16.174506798   538.6765   5   7   2.5988   2.4911  12.9977  -1.3615  -4.2471   4.8632   0.00    0.0
2018/03/15 13:42:33.000   78.253588376   16.174502299   535.8838   5   7   2.5996   2.4912  13.0040  -1.3622  -4.2485   4.8658   0.00    0.0
2018/03/15 13:42:34.000   78.253589748   16.174502093   537.8853   5   7   2.6004   2.4914  13.0103  -1.3629  -4.2500   4.8684   0.00    0.0
2018/03/15 13:42:35.000   78.253584902   16.174524326   536.1103   5   7   2.6012   2.4915  13.0166  -1.3637  -4.2515   4.8711   0.00    0.0
2018/03/15 13:42:36.000   78.253589296   16.174485947   539.7527   5   7   2.6020   2.4917  13.0229  -1.3644  -4.2529   4.8737   0.00    0.0
2018/03/15 13:42:37.000   78.253591415   16.174496155   538.0317   5   7   2.6028   2.4918  13.0292  -1.3652  -4.2544   4.8763   0.00    0.0
2018/03/15 13:42:38.000   78.253584490   16.174521560   535.8788   5   7   2.6035   2.4920  13.0355  -1.3659  -4.2558   4.8790   0.00    0.0
2018/03/15 13:42:39.000   78.253588774   16.174496478   538.2466   5   7   2.6043   2.4921  13.0418  -1.3667  -4.2573   4.8816   0.00    0.0
2018/03/15 13:42:40.000   78.253591589   16.174490665   537.6217   5   7   2.6051   2.4923  13.0481  -1.3674  -4.2587   4.8843   0.00    0.0
2018/03/15 13:42:41.000   78.253588922   16.174516378   537.8527   5   7   2.6059   2.4924  13.0544  -1.3681  -4.2602   4.8869   0.00    0.0
2018/03/15 13:42:42.000   78.253586203   16.174498792   537.5570   5   7   2.6067   2.4926  13.0608  -1.3689  -4.2617   4.8895   0.00    0.0
2018/03/15 13:42:43.000   78.253586058   16.174514861   536.3454   5   7   2.6075   2.4927  13.0671  -1.3696  -4.2631   4.8922   0.00    0.0
2018/03/15 13:42:44.000   78.253590576   16.174513644   537.1511   5   7   2.6083   2.4929  13.0734  -1.3704  -4.2646   4.8948   0.00    0.0
2018/03/15 13:42:45.000   78.253592574   16.174512403   537.5876   5   7   2.6091   2.4930  13.0798  -1.3711  -4.2660   4.8975   0.00    0.0
2018/03/15 13:42:46.000   78.253587231   16.174516277   535.9896   5   7   2.6099   2.4932  13.0861  -1.3719  -4.2675   4.9001   0.00    0.0
2018/03/15 13:42:47.000   78.253586993   16.174494214   536.2386   5   7   2.6107   2.4933  13.0924  -1.3726  -4.2689   4.9028   0.00    0.0
2018/03/15 13:42:48.000   78.253588817   16.174499984   539.2753   5   7   2.6115   2.4935  13.0988  -1.3734  -4.2704   4.9054   0.00    0.0
2018/03/15 13:42:49.000   78.253587366   16.174514218   539.4793   5   7   2.6123   2.4936  13.1051  -1.3741  -4.2719   4.9081   0.00    0.0
2018/03/15 13:42:50.000   78.253589712   16.174493089   540.3992   5   7   2.6131   2.4938  13.1115  -1.3748  -4.2733   4.9107   0.00    0.0
2018/03/15 13:42:51.000   78.253587458   16.174490287   540.6136   5   7   2.6139   2.4939  13.1178  -1.3756  -4.2748   4.9134   0.00    0.0
2018/03/15 13:42:52.000   78.253586828   16.174517662   536.9868   5   7   2.6147   2.4940  13.1242  -1.3763  -4.2762   4.9161   0.00    0.0
2018/03/15 13:42:53.000   78.253582211   16.174506503   536.6738   5   7   2.6155   2.4942  13.1306  -1.3771  -4.2777   4.9187   0.00    0.0
2018/03/15 13:42:54.000   78.253582830   16.174505407   538.4208   5   7   2.6163   2.4943  13.1369  -1.3778  -4.2792   4.9214   0.00    0.0
2018/03/15 13:42:55.000   78.253586949   16.174506586   539.2215   5   7   2.6171   2.4945  13.1433  -1.3786  -4.2806   4.9240   0.00    0.0
2018/03/15 13:42:56.000   78.253587609   16.174481560   540.7744   5   7   2.6179   2.4946  13.1497  -1.3793  -4.2821   4.9267   0.00    0.0
2018/03/15 13:42:57.000   78.253587076   16.174531904   537.0613   5   7   2.6188   2.4948  13.1561  -1.3801  -4.2836   4.9294   0.00    0.0
2018/03/15 13:42:58.000   78.253591123   16.174508476   539.7905   5   7   2.6196   2.4949  13.1624  -1.3808  -4.2850   4.9320   0.00    0.0
2018/03/15 13:42:59.000   78.253593633   16.174494815   539.6531   5   7   2.6204   2.4951  13.1688  -1.3816  -4.2865   4.9347   0.00    0.0
2018/03/15 13:43:00.000   78.253590258   16.174507595   537.0655   5   7   2.6212   2.4952  13.1752  -1.3823  -4.2879   4.9374   0.00    0.0
2018/03/15 13:43:01.000   78.253593659   16.174523388   538.9137   5   7   2.6220   2.4954  13.1816  -1.3830  -4.2894   4.9401   0.00    0.0
2018/03/15 13:43:02.000   78.253582038   16.174527333   534.7678   5   7   2.6228   2.4955  13.1880  -1.3838  -4.2909   4.9427   0.00    0.0
2018/03/15 13:43:03.000   78.253591995   16.174498238   538.3797   5   7   2.6236   2.4957  13.1944  -1.3845  -4.2923   4.9454   0.00    0.0
2018/03/15 13:43:04.000   78.253587158   16.174478949   539.3888   5   7   2.6244   2.4958  13.2008  -1.3853  -4.2938   4.9481   0.00    0.0
2018/03/15 13:43:05.000   78.253592262   16.174500348   539.8378   5   7   2.6252   2.4960  13.2072  -1.3860  -4.2953   4.9508   0.00    0.0
2018/03/15 13:43:06.000   78.253586541   16.174520454   536.3094   5   7   2.6261   2.4961  13.2137  -1.3868  -4.2967   4.9535   0.00    0.0
2018/03/15 13:43:07.000   78.253589357   16.174510873   537.7262   5   7   2.6269   2.4963  13.2201  -1.3875  -4.2982   4.9561   0.00    0.0
2018/03/15 13:43:08.000   78.253590112   16.174491737   538.7999   5   7   2.6277   2.4964  13.2265  -1.3883  -4.2997   4.9588   0.00    0.0
2018/03/15 13:43:09.000   78.253586425   16.174507928   538.0287   5   7   2.6285   2.4965  13.2329  -1.3890  -4.3011   4.9615   0.00    0.0
2018/03/15 13:43:10.000   78.253584613   16.174504032   538.1148   5   7   2.6293   2.4967  13.2394  -1.3898  -4.3026   4.9642   0.00    0.0
2018/03/15 13:43:11.000   78.253591784   16.174497952   541.2620   5   7   2.6301   2.4968  13.2458  -1.3905  -4.3041   4.9669   0.00    0.0
2018/03/15 13:43:12.000   78.253591691   16.174512786   539.5324   5   7   2.6309   2.4970  13.2522  -1.3913  -4.3055   4.9696   0.00    0.0
2018/03/15 13:43:13.000   78.253587577   16.174506983   539.7517   5   7   2.6318   2.4971  13.2587  -1.3920  -4.3070   4.9723   0.00    0.0
2018/03/15 13:43:14.000   78.253585770   16.174510772   538.9404   5   7   2.6326   2.4973  13.2651  -1.3927  -4.3085   4.9750   0.00    0.0
2018/03/15 13:43:15.000   78.253586270   16.174519395   540.1231   5   7   2.6334   2.4974  13.2716  -1.3935  -4.3099   4.9777   0.00    0.0
2018/03/15 13:43:16.000   78.253588499   16.174506762   539.9104   5   7   2.6342   2.4976  13.2780  -1.3942  -4.3114   4.9804   0.00    0.0
2018/03/15 13:43:17.000   78.253590507   16.174489550   539.9384   5   7   2.6350   2.4977  13.2845  -1.3950  -4.3129   4.9831   0.00    0.0
2018/03/15 13:43:18.000   78.253587562   16.174509320   537.9183   5   7   2.6359   2.4979  13.2909  -1.3957  -4.3143   4.9858   0.00    0.0
2018/03/15 13:43:19.000   78.253588117   16.174513317   539.7494   5   7   2.6367   2.4980  13.2974  -1.3965  -4.3158   4.9885   0.00    0.0
2018/03/15 13:43:20.000   78.253587115   16.174493258   541.9512   5   7   2.6375   2.4982  13.3039  -1.3972  -4.3173   4.9912   0.00    0.0
2018/03/15 13:43:21.000   78.253589134   16.174491820   541.4253   5   7   2.6383   2.4983  13.3103  -1.3980  -4.3187   4.9939   0.00    0.0
2018/03/15 13:43:22.000   78.253587609   16.174525329   540.8757   5   7   2.6392   2.4984  13.3168  -1.3987  -4.3202   4.9966   0.00    0.0
2018/03/15 13:43:23.000   78.253587191   16.174491269   540.0198   5   7   2.6400   2.4986  13.3233  -1.3995  -4.3217   4.9993   0.00    0.0
2018/03/15 13:43:24.000   78.253587163   16.174468050   540.5116   5   7   2.6408   2.4987  13.3298  -1.4002  -4.3232   5.0020   0.00    0.0
2018/03/15 13:43:25.000   78.253584713   16.174512116   538.0019   5   7   2.6416   2.4989  13.3362  -1.4010  -4.3246   5.0047   0.00    0.0
2018/03/15 13:43:26.000   78.253586621   16.174518507   537.0568   5   7   2.6425   2.4990  13.3427  -1.4017  -4.3261   5.0074   0.00    0.0
2018/03/15 13:43:27.000   78.253585949   16.174498646   538.1893   5   7   2.6433   2.4992  13.3492  -1.4025  -4.3276   5.0102   0.00    0.0
2018/03/15 13:43:28.000   78.253582868   16.174523519   535.4359   5   7   2.6441   2.4993  13.3557  -1.4032  -4.3290   5.0129   0.00    0.0
2018/03/15 13:43:29.000   78.253587140   16.174487696   538.7923   5   7   2.6450   2.4995  13.3622  -1.4040  -4.3305   5.0156   0.00    0.0
2018/03/15 13:43:30.000   78.253592970   16.174510641   539.1178   5   7   2.6458   2.4996  13.3687  -1.4047  -4.3320   5.0183   0.00    0.0
2018/03/15 13:43:31.000   78.253588862   16.174510966   537.8691   5   7   2.6466   2.4998  13.3752  -1.4055  -4.3335   5.0210   0.00    0.0
2018/03/15 13:43:32.000   78.253592113   16.174505227   539.6136   5   7   2.6475   2.4999  13.3818  -1.4062  -4.3349   5.0238   0.00    0.0
2018/03/15 13:43:33.000   78.253583733   16.174518767   535.2449   5   7   2.6483   2.5000  13.3883  -1.4070  -4.3364   5.0265   0.00    0.0
2018/03/15 13:43:34.000   78.253586820   16.174525293   538.3362   5   7   2.6491   2.5002  13.3948  -1.4077  -4.3379   5.0292   0.00    0.0
2018/03/15 13:43:35.000   78.253586380   16.174501982   538.3077   5   7   2.6500   2.5003  13.4013  -1.4085  -4.3393   5.0319   0.00    0.0
2018/03/15 13:43:36.000   78.253588047   16.174511053   537.0959   5   7   2.6508   2.5005  13.4078  -1.4092  -4.3408   5.0347   0.00    0.0
2018/03/15 13:43:37.000   78.253585978   16.174517547   538.3250   5   7   2.6516   2.5006  13.4144  -1.4100  -4.3423   5.0374   0.00    0.0
2018/03/15 13:43:38.000   78.253585975   16.174535122   537.3567   5   7   2.6525   2.5008  13.4209  -1.4107  -4.3438   5.0401   0.00    0.0
2018/03/15 13:43:39.000   78.253589096   16.174491083   539.2051   5   7   2.6533   2.5009  13.4274  -1.4114  -4.3452   5.0429   0.00    0.0
2018/03/15 13:43:40.000   78.253588965   16.174490397   536.3954   5   7   2.6541   2.5011  13.4340  -1.4122  -4.3467   5.0456   0.00    0.0
2018/03/15 13:43:41.000   78.253591731   16.174527316   536.9462   5   7   2.6550   2.5012  13.4405  -1.4129  -4.3482   5.0484   0.00    0.0
2018/03/15 13:43:42.000   78.253591374   16.174493316   539.0051   5   7   2.6558   2.5013  13.4471  -1.4137  -4.3497   5.0511   0.00    0.0
2018/03/15 13:43:43.000   78.253589724   16.174495421   537.4335   5   7   2.6567   2.5015  13.4536  -1.4144  -4.3511   5.0538   0.00    0.0
2018/03/15 13:43:44.000   78.253586630   16.174518197   536.5992   5   7   2.6575   2.5016  13.4602  -1.4152  -4.3526   5.0566   0.00    0.0
2018/03/15 13:43:45.000   78.253585548   16.174518884   535.6729   5   7   2.6583   2.5018  13.4668  -1.4159  -4.3541   5.0593   0.00    0.0
2018/03/15 13:43:46.000   78.253589323   16.174503176   537.7464   5   7   2.6592   2.5019  13.4733  -1.4167  -4.3556   5.0621   0.00    0.0
2018/03/15 13:43:47.000   78.253585815   16.174508058   535.5285   5   7   2.6600   2.5021  13.4799  -1.4174  -4.3570   5.0648   0.00    0.0
2018/03/15 13:43:48.000   78.253586748   16.174517206   535.1252   5   7   2.6609   2.5022  13.4865  -1.4182  -4.3585   5.0676   0.00    0.0
2018/03/15 13:43:49.000   78.253587724   16.174528255   536.0002   5   7   2.6617   2.5023  13.4930  -1.4189  -4.3600   5.0703   0.00    0.0
2018/03/15 13:43:50.000   78.253587577   16.174511207   536.8541   5   7   2.6626   2.5025  13.4996  -1.4197  -4.3615   5.0731   0.00    0.0
2018/03/15 13:43:51.000   78.253587515   16.174517093   535.0738   5   7   2.6634   2.5026  13.5062  -1.4204  -4.3629   5.0758   0.00    0.0
2018/03/15 13:43:52.000   78.253587533   16.174482561   539.6755   5   7   2.6642   2.5028  13.5128  -1.4212  -4.3644   5.0786   0.00    0.0
2018/03/15 13:43:53.000   78.253588831   16.174528739   537.0240   5   7   2.6651   2.5029  13.5194  -1.4219  -4.3659   5.0813   0.00    0.0
2018/03/15 13:43:54.000   78.253586615   16.174529853   538.6253   5   7   2.6659   2.5031  13.5260  -1.4227  -4.3674   5.0841   0.00    0.0
2018/03/15 13:43:55.000   78.253595739   16.174479316   542.2802   5   7   2.6668   2.5032  13.5326  -1.4234  -4.3689   5.0869   0.00    0.0
2018/03/15 13:43:56.000   78.253587073   16.174502449   538.6599   5   7   2.6676   2.5033  13.5392  -1.4242  -4.3703   5.0896   0.00    0.0
2018/03/15 13:43:57.000   78.253584416   16.174561219   535.1941   5   7   2.6685   2.5035  13.5458  -1.4249  -4.3718   5.0924   0.00    0.0
2018/03/15 13:43:58.000   78.253592110   16.174473545   541.9767   5   7   2.6693   2.5036  13.5524  -1.4257  -4.3733   5.0952   0.00    0.0
2018/03/15 13:43:59.000   78.253591392   16.174516830   539.6119   5   7   2.6702   2.5038  13.5590  -1.4264  -4.3748   5.0979   0.00    0.0
2018/03/15 13:44:00.000   78.253589042   16.174524383   538.1485   5   7   2.6710   2.5039  13.5656  -1.4272  -4.3762   5.1007   0.00    0.0
2018/03/15 13:44:01.000   78.253587662   16.174548647   534.4421   5   7   2.6719   2.5040  13.5722  -1.4279  -4.3777   5.1035   0.00    0.0
2018/03/15 13:44:02.000   78.253587906   16.174491374   539.2578   5   7   2.6728   2.5042  13.5788  -1.4287  -4.3792   5.1062   0.00    0.0
2018/03/15 13:44:03.000   78.253588721   16.174521894   538.4930   5   7   2.6736   2.5043  13.5855  -1.4294  -4.3807   5.1090   0.00    0.0
2018/03/15 13:44:04.000   78.253587122   16.174473863   540.4875   5   7   2.6745   2.5045  13.5921  -1.4302  -4.3822   5.1118   0.00    0.0
2018/03/15 13:44:05.000   78.253584426   16.174529129   535.9141   5   7   2.6753   2.5046  13.5987  -1.4309  -4.3836   5.1146   0.00    0.0
2018/03/15 13:44:06.000   78.253589198   16.174507415   539.0848   5   7   2.6762   2.5048  13.6054  -1.4317  -4.3851   5.1173   0.00    0.0
2018/03/15 13:44:07.000   78.253589493   16.174492258   538.4827   5   7   2.6770   2.5049  13.6120  -1.4324  -4.3866   5.1201   0.00    0.0
2018/03/15 13:44:08.000   78.253585776   16.174510429   539.6398   5   7   2.6779   2.5050  13.6186  -1.4332  -4.3881   5.1229   0.00    0.0
2018/03/15 13:44:09.000   78.253590847   16.174552514   536.1666   5   7   2.6788   2.5052  13.6253  -1.4339  -4.3896   5.1257   0.00    0.0
2018/03/15 13:44:10.000   78.253592088   16.174517456   537.8155   5   7   2.6796   2.5053  13.6319  -1.4347  -4.3910   5.1285   0.00    0.0
2018/03/15 13:44:11.000   78.253590891   16.174516626   538.7371   5   7   2.6805   2.5055  13.6386  -1.4354  -4.3925   5.1313   0.00    0.0
2018/03/15 13:44:12.000   78.253590374   16.174513650   541.1985   5   7   2.6813   2.5056  13.6452  -1.4362  -4.3940   5.1340   0.00    0.0
2018/03/15 13:44:13.000   78.253583743   16.174517114   539.4325   5   7   2.6822   2.5057  13.6519  -1.4369  -4.3955   5.1368   0.00    0.0
2018/03/15 13:44:14.000   78.253588128   16.174506465   540.3143   5   7   2.6831   2.5059  13.6586  -1.4377  -4.3970   5.1396   0.00    0.0
2018/03/15 13:44:15.000   78.253589593   16.174524907   539.3512   5   7   2.6839   2.5060  13.6652  -1.4384  -4.3984   5.1424   0.00    0.0
2018/03/15 13:44:16.000   78.253588091   16.174514659   539.4210   5   7   2.6848   2.5062  13.6719  -1.4392  -4.3999   5.1452   0.00    0.0
2018/03/15 13:44:17.000   78.253592292   16.174528368   541.5062   5   7   2.6856   2.5063  13.6786  -1.4399  -4.4014   5.1480   0.00    0.0
2018/03/15 13:44:18.000   78.253589061   16.174513888   538.5279   5   7   2.6865   2.5064  13.6853  -1.4407  -4.4029   5.1508   0.00    0.0
2018/03/15 13:44:19.000   78.253588334   16.174498535   538.7072   5   7   2.6874   2.5066  13.6920  -1.4414  -4.4044   5.1536   0.00    0.0
2018/03/15 13:44:20.000   78.253589449   16.174505443   537.8955   5   7   2.6882   2.5067  13.6986  -1.4422  -4.4058   5.1564   0.00    0.0
2018/03/15 13:44:21.000   78.253586587   16.174531385   537.5145   5   7   2.6891   2.5069  13.7053  -1.4429  -4.4073   5.1592   0.00    0.0
2018/03/15 13:44:22.000   78.253589039   16.174492733   539.8546   5   7   2.6900   2.5070  13.7120  -1.4437  -4.4088   5.1620   0.00    0.0
2018/03/15 13:44:23.000   78.253591278   16.174509520   538.8517   5   7   2.6908   2.5071  13.7187  -1.4444  -4.4103   5.1648   0.00    0.0
2018/03/15 13:44:24.000   78.253589239   16.174511794   536.4614   5   7   2.6917   2.5073  13.7254  -1.4452  -4.4118   5.1676   0.00    0.0
2018/03/15 13:44:25.000   78.253588511   16.174499513   538.7574   5   7   2.6926   2.5074  13.7321  -1.4459  -4.4132   5.1704   0.00    0.0
2018/03/15 13:44:26.000   78.253587513   16.174515882   537.2180   5   7   2.6935   2.5076  13.7388  -1.4467  -4.4147   5.1732   0.00    0.0
2018/03/15 13:44:27.000   78.253589042   16.174525510   536.1590   5   7   2.6943   2.5077  13.7455  -1.4474  -4.4162   5.1760   0.00    0.0
2018/03/15 13:44:28.000   78.253586315   16.174513560   538.1504   5   7   2.6952   2.5078  13.7522  -1.4482  -4.4177   5.1789   0.00    0.0
2018/03/15 13:44:29.000   78.253589284   16.174522198   536.5491   5   7   2.6961   2.5080  13.7590  -1.4489  -4.4192   5.1817   0.00    0.0
2018/03/15 13:44:30.000   78.253590947   16.174534385   538.1848   5   7   2.6969   2.5081  13.7657  -1.4497  -4.4207   5.1845   0.00    0.0
2018/03/15 13:44:31.000   78.253592609   16.174512099   538.7244   5   7   2.6978   2.5082  13.7724  -1.4504  -4.4221   5.1873   0.00    0.0
2018/03/15 13:44:32.000   78.253586694   16.174500743   537.8786   5   7   2.6987   2.5084  13.7791  -1.4512  -4.4236   5.1901   0.00    0.0
2018/03/15 13:44:33.000   78.253590011   16.174505279   539.8712   5   7   2.6996   2.5085  13.7859  -1.4519  -4.4251   5.1929   0.00    0.0
2018/03/15 13:44:34.000   78.253588548   16.174511574   539.0331   5   7   2.7004   2.5087  13.7926  -1.4527  -4.4266   5.1958   0.00    0.0
2018/03/15 13:44:35.000   78.253586556   16.174504241   538.8210   5   7   2.7013   2.5088  13.7993  -1.4534  -4.4281   5.1986   0.00    0.0
2018/03/15 13:44:36.000   78.253587724   16.174512610   537.1089   5   7   2.7022   2.5089  13.8061  -1.4542  -4.4296   5.2014   0.00    0.0
2018/03/15 13:44:37.000   78.253592221   16.174518964   537.5722   5   7   2.7031   2.5091  13.8128  -1.4549  -4.4310   5.2042   0.00    0.0
2018/03/15 13:44:38.000   78.253590030   16.174516834   536.1855   5   7   2.7040   2.5092  13.8196  -1.4557  -4.4325   5.2071   0.00    0.0
2018/03/15 13:44:39.000   78.253593084   16.174525528   539.8957   5   7   2.7048   2.5093  13.8263  -1.4564  -4.4340   5.2099   0.00    0.0
2018/03/15 13:44:40.000   78.253592296   16.174515681   540.3551   5   7   2.7057   2.5095  13.8331  -1.4572  -4.4355   5.2127   0.00    0.0
2018/03/15 13:44:41.000   78.253593138   16.174524448   539.0105   5   7   2.7066   2.5096  13.8398  -1.4579  -4.4370   5.2155   0.00    0.0
2018/03/15 13:44:42.000   78.253590944   16.174523698   537.4164   5   7   2.7075   2.5098  13.8466  -1.4587  -4.4385   5.2184   0.00    0.0
2018/03/15 13:44:43.000   78.253589559   16.174517233   539.5636   5   7   2.7084   2.5099  13.8534  -1.4594  -4.4399   5.2212   0.00    0.0
2018/03/15 13:44:44.000   78.253590636   16.174492401   541.9691   5   7   2.7093   2.5100  13.8601  -1.4602  -4.4414   5.2240   0.00    0.0
2018/03/15 13:44:45.000   78.253593220   16.174497883   541.1742   5   7   2.7101   2.5102  13.8669  -1.4609  -4.4429   5.2269   0.00    0.0
2018/03/15 13:44:46.000   78.253590745   16.174508153   541.7179   5   7   2.7110   2.5103  13.8737  -1.4617  -4.4444   5.2297   0.00    0.0
2018/03/15 13:44:47.000   78.253590395   16.174500773   540.0965   5   7   2.7119   2.5104  13.8804  -1.4624  -4.4459   5.2326   0.00    0.0
2018/03/15 13:44:48.000   78.253594300   16.174510708   538.7414   5   7   2.7128   2.5106  13.8872  -1.4632  -4.4474   5.2354   0.00    0.0
2018/03/15 13:44:49.000   78.253590392   16.174523362   538.9836   5   7   2.7137   2.5107  13.8940  -1.4639  -4.4488   5.2382   0.00    0.0
2018/03/15 13:44:50.000   78.253594451   16.174523278   539.6424   5   7   2.7146   2.5108  13.9008  -1.4647  -4.4503   5.2411   0.00    0.0
2018/03/15 13:44:51.000   78.253592116   16.174495204   542.1810   5   7   2.7155   2.5110  13.9076  -1.4654  -4.4518   5.2439   0.00    0.0
2018/03/15 13:44:52.000   78.253591354   16.174536472   538.4638   5   7   2.7163   2.5111  13.9144  -1.4662  -4.4533   5.2468   0.00    0.0
2018/03/15 13:44:53.000   78.253592305   16.174515230   538.0865   5   7   2.7172   2.5112  13.9212  -1.4670  -4.4548   5.2496   0.00    0.0
2018/03/15 13:44:54.000   78.253588355   16.174493021   541.6312   5   7   2.7181   2.5114  13.9280  -1.4677  -4.4563   5.2525   0.00    0.0
2018/03/15 13:44:55.000   78.253590694   16.174525699   539.1325   5   7   2.7190   2.5115  13.9348  -1.4685  -4.4577   5.2553   0.00    0.0
2018/03/15 13:44:56.000   78.253594113   16.174509484   541.1753   5   7   2.7199   2.5116  13.9416  -1.4692  -4.4592   5.2582   0.00    0.0
2018/03/15 13:44:57.000   78.253596444   16.174516116   542.1318   5   7   2.7208   2.5118  13.9484  -1.4700  -4.4607   5.2610   0.00    0.0
2018/03/15 13:44:58.000   78.253586725   16.174476067   541.4232   5   6   4.6331   2.5476  19.2357  -0.7548  -3.7796   8.7946   0.00    0.0
2018/03/15 13:44:59.000   78.253594224   16.174513789   536.1265   5   6   2.7243   2.5121  16.2655  -1.4713  -4.4593   5.3436   0.00    0.0
2018/03/15 13:45:00.000   78.253592270   16.174518828   538.1809   5   6   2.7253   2.5122  16.2727  -1.4720  -4.4607   5.3469   0.00    0.0
2018/03/15 13:45:01.000   78.253588654   16.174522153   536.1236   5   6   2.7262   2.5123  16.2799  -1.4728  -4.4621   5.3502   0.00    0.0
2018/03/15 13:45:02.000   78.253591854   16.174527628   539.3270   5   6   2.7271   2.5125  16.2871  -1.4735  -4.4635   5.3535   0.00    0.0
2018/03/15 13:45:03.000   78.253588022   16.174531222   534.9732   5   6   2.7280   2.5126  16.2943  -1.4743  -4.4650   5.3568   0.00    0.0
2018/03/15 13:45:04.000   78.253594436   16.174492261   536.5151   5   7   2.7271   2.5127  13.9962  -1.4752  -4.4711   5.2811   0.00    0.0
2018/03/15 13:45:05.000   78.253590346   16.174518314   538.7577   5   7   2.7280   2.5129  14.0030  -1.4760  -4.4726   5.2839   0.00    0.0
2018/03/15 13:45:06.000   78.253583060   16.174531972   538.6222   5   7   2.7289   2.5130  14.0099  -1.4767  -4.4741   5.2868   0.00    0.0
2018/03/15 13:45:07.000   78.253593110   16.174513666   538.2118   5   7   2.7298   2.5131  14.0167  -1.4775  -4.4755   5.2897   0.00    0.0
2018/03/15 13:45:08.000   78.253589526   16.174518653   538.3302   5   7   2.7307   2.5133  14.0235  -1.4782  -4.4770   5.2925   0.00    0.0
2018/03/15 13:45:09.000   78.253589693   16.174550375   537.4378   5   7   2.7316   2.5134  14.0304  -1.4790  -4.4785   5.2954   0.00    0.0
2018/03/15 13:45:10.000   78.253593875   16.174519462   540.3138   5   7   2.7325   2.5135  14.0372  -1.4797  -4.4800   5.2983   0.00    0.0
2018/03/15 13:45:11.000   78.253590173   16.174540082   534.6791   5   7   2.7334   2.5137  14.0441  -1.4805  -4.4815   5.3012   0.00    0.0
2018/03/15 13:45:12.000   78.253588985   16.174517061   538.9841   5   7   2.7343   2.5138  14.0510  -1.4812  -4.4830   5.3040   0.00    0.0
2018/03/15 13:45:13.000   78.253586430   16.174526985   536.4839   5   7   2.7352   2.5139  14.0578  -1.4820  -4.4844   5.3069   0.00    0.0
2018/03/15 13:45:14.000   78.253587167   16.174506578   538.7951   5   7   2.7361   2.5140  14.0647  -1.4827  -4.4859   5.3098   0.00    0.0
2018/03/15 13:45:15.000   78.253590079   16.174548375   535.0663   5   7   2.7370   2.5142  14.0716  -1.4835  -4.4874   5.3127   0.00    0.0
2018/03/15 13:45:16.000   78.253593136   16.174516533   539.3834   5   7   2.7379   2.5143  14.0784  -1.4842  -4.4889   5.3156   0.00    0.0
2018/03/15 13:45:17.000   78.253589225   16.174536165   536.2562   5   7   2.7388   2.5144  14.0853  -1.4849  -4.4904   5.3184   0.00    0.0
2018/03/15 13:45:18.000   78.253595855   16.174518921   537.6736   5   7   2.7397   2.5146  14.0922  -1.4857  -4.4919   5.3213   0.00    0.0
2018/03/15 13:45:19.000   78.253595978   16.174520841   538.5331   5   7   2.7406   2.5147  14.0991  -1.4864  -4.4933   5.3242   0.00    0.0
2018/03/15 13:45:20.000   78.253594393   16.174520019   539.6365   5   7   2.7415   2.5148  14.1059  -1.4872  -4.4948   5.3271   0.00    0.0
2018/03/15 13:45:21.000   78.253587269   16.174522866   537.7414   5   7   2.7424   2.5150  14.1128  -1.4879  -4.4963   5.3300   0.00    0.0
2018/03/15 13:45:22.000   78.253590717   16.174510739   539.7165   5   7   2.7433   2.5151  14.1197  -1.4887  -4.4978   5.3329   0.00    0.0
2018/03/15 13:45:23.000   78.253591067   16.174511753   541.2668   5   7   2.7442   2.5152  14.1266  -1.4894  -4.4993   5.3358   0.00    0.0
2018/03/15 13:45:24.000   78.253591550   16.174500586   542.0436   5   7   2.7452   2.5154  14.1335  -1.4902  -4.5008   5.3387   0.00    0.0
2018/03/15 13:45:25.000   78.253590448   16.174507218   539.8138   5   7   2.7461   2.5155  14.1404  -1.4909  -4.5022   5.3416   0.00    0.0
2018/03/15 13:45:26.000   78.253592710   16.174509089   539.4295   5   7   2.7470   2.5156  14.1473  -1.4917  -4.5037   5.3445   0.00    0.0
2018/03/15 13:45:27.000   78.253595880   16.174542736   539.5999   5   7   2.7479   2.5158  14.1542  -1.4924  -4.5052   5.3473   0.00    0.0
2018/03/15 13:45:28.000   78.253594491   16.174525167   540.3589   5   7   2.7488   2.5159  14.1611  -1.4932  -4.5067   5.3502   0.00    0.0
2018/03/15 13:45:29.000   78.253595199   16.174486428   543.6711   5   7   2.7497   2.5160  14.1680  -1.4939  -4.5082   5.3531   0.00    0.0
2018/03/15 13:45:30.000   78.253590684   16.174509657   538.7722   5   7   2.7506   2.5161  14.1750  -1.4947  -4.5097   5.3560   0.00    0.0
2018/03/15 13:45:31.000   78.253589070   16.174525503   540.3589   5   7   2.7515   2.5163  14.1819  -1.4954  -4.5111   5.3590   0.00    0.0
2018/03/15 13:45:32.000   78.253594819   16.174505630   541.1239   5   7   2.7525   2.5164  14.1888  -1.4962  -4.5126   5.3619   0.00    0.0
2018/03/15 13:45:33.000   78.253589579   16.174533991   536.6783   5   7   2.7534   2.5165  14.1957  -1.4969  -4.5141   5.3648   0.00    0.0
2018/03/15 13:45:34.000   78.253591531   16.174532205   538.9245   5   7   2.7543   2.5167  14.2026  -1.4977  -4.5156   5.3677   0.00    0.0
2018/03/15 13:45:35.000   78.253592646   16.174519147   537.9266   5   7   2.7552   2.5168  14.2096  -1.4984  -4.5171   5.3706   0.00    0.0
2018/03/15 13:45:36.000   78.253591693   16.174529011   538.6551   5   7   2.7561   2.5169  14.2165  -1.4992  -4.5185   5.3735   0.00    0.0
2018/03/15 13:45:37.000   78.253590568   16.174518538   539.2269   5   7   2.7571   2.5170  14.2234  -1.4999  -4.5200   5.3764   0.00    0.0
2018/03/15 13:45:38.000   78.253592616   16.174511431   542.0046   5   7   2.7580   2.5172  14.2304  -1.5007  -4.5215   5.3793   0.00    0.0
2018/03/15 13:45:39.000   78.253584978   16.174531648   537.9432   5   7   2.7589   2.5173  14.2373  -1.5014  -4.5230   5.3822   0.00    0.0
2018/03/15 13:45:40.000   78.253589535   16.174515865   538.4407   5   7   2.7598   2.5174  14.2443  -1.5022  -4.5245   5.3851   0.00    0.0
2018/03/15 13:45:41.000   78.253592380   16.174487230   540.7114   5   7   2.7607   2.5176  14.2512  -1.5029  -4.5260   5.3880   0.00    0.0
2018/03/15 13:45:42.000   78.253592535   16.174511871   539.8328   5   7   2.7617   2.5177  14.2582  -1.5037  -4.5274   5.3910   0.00    0.0
2018/03/15 13:45:43.000   78.253593349   16.174535055   537.3236   5   7   2.7626   2.5178  14.2651  -1.5044  -4.5289   5.3939   0.00    0.0
2018/03/15 13:45:44.000   78.253590703   16.174507192   536.5088   5   7   2.7635   2.5179  14.2721  -1.5052  -4.5304   5.3968   0.00    0.0
2018/03/15 13:45:45.000   78.253588576   16.174511546   536.8438   5   7   2.7644   2.5181  14.2790  -1.5059  -4.5319   5.3997   0.00    0.0
2018/03/15 13:45:46.000   78.253589695   16.174509824   540.0820   5   7   2.7654   2.5182  14.2860  -1.5067  -4.5334   5.4026   0.00    0.0
2018/03/15 13:45:47.000   78.253591953   16.174491836   538.8720   5   7   2.7663   2.5183  14.2930  -1.5074  -4.5348   5.4056   0.00    0.0
2018/03/15 13:45:48.000   78.253591393   16.174518031   539.7071   5   7   2.7672   2.5184  14.2999  -1.5081  -4.5363   5.4085   0.00    0.0
2018/03/15 13:45:49.000   78.253594818   16.174490566   538.8601   5   7   2.7681   2.5186  14.3069  -1.5089  -4.5378   5.4114   0.00    0.0
2018/03/15 13:45:50.000   78.253589909   16.174513840   535.8545   5   7   2.7691   2.5187  14.3139  -1.5096  -4.5393   5.4143   0.00    0.0
2018/03/15 13:45:51.000   78.253590906   16.174519253   537.7785   5   7   2.7700   2.5188  14.3208  -1.5104  -4.5408   5.4173   0.00    0.0
2018/03/15 13:45:52.000   78.253590657   16.174508834   537.1764   5   7   2.7709   2.5189  14.3278  -1.5111  -4.5422   5.4202   0.00    0.0
2018/03/15 13:45:53.000   78.253589412   16.174489944   540.0123   5   7   2.7719   2.5191  14.3348  -1.5119  -4.5437   5.4231   0.00    0.0
2018/03/15 13:45:54.000   78.253590472   16.174511010   539.9121   5   7   2.7728   2.5192  14.3418  -1.5126  -4.5452   5.4261   0.00    0.0
2018/03/15 13:45:55.000   78.253590057   16.174519451   538.1761   5   7   2.7737   2.5193  14.3488  -1.5134  -4.5467   5.4290   0.00    0.0
2018/03/15 13:45:56.000   78.253592235   16.174503541   540.5259   5   7   2.7747   2.5194  14.3558  -1.5141  -4.5482   5.4319   0.00    0.0
2018/03/15 13:45:57.000   78.253588614   16.174522988   537.7967   5   7   2.7756   2.5196  14.3628  -1.5149  -4.5496   5.4349   0.00    0.0
2018/03/15 13:45:58.000   78.253587526   16.174513311   536.4068   5   7   2.7765   2.5197  14.3698  -1.5156  -4.5511   5.4378   0.00    0.0
2018/03/15 13:45:59.000   78.253590340   16.174523773   538.6906   5   7   2.7775   2.5198  14.3767  -1.5164  -4.5526   5.4408   0.00    0.0
2018/03/15 13:46:00.000   78.253590078   16.174529871   536.8531   5   7   2.7784   2.5199  14.3837  -1.5171  -4.5541   5.4437   0.00    0.0
2018/03/15 13:46:01.000   78.253590802   16.174516569   537.7339   5   7   2.7793   2.5201  14.3908  -1.5178  -4.5555   5.4466   0.00    0.0
2018/03/15 13:46:02.000   78.253591628   16.174511010   538.2003   5   7   2.7803   2.5202  14.3978  -1.5186  -4.5570   5.4496   0.00    0.0
2018/03/15 13:46:03.000   78.253586800   16.174545449   536.4598   5   7   2.7812   2.5203  14.4048  -1.5193  -4.5585   5.4525   0.00    0.0
2018/03/15 13:46:04.000   78.253588582   16.174505114   539.5437   5   7   2.7821   2.5204  14.4118  -1.5201  -4.5600   5.4555   0.00    0.0
2018/03/15 13:46:05.000   78.253592039   16.174503219   536.0906   5   7   2.7831   2.5206  14.4188  -1.5208  -4.5615   5.4584   0.00    0.0
2018/03/15 13:46:06.000   78.253591975   16.174527851   536.8636   5   7   2.7840   2.5207  14.4258  -1.5216  -4.5629   5.4614   0.00    0.0
2018/03/15 13:46:07.000   78.253593889   16.174519209   538.0575   5   7   2.7849   2.5208  14.4328  -1.5223  -4.5644   5.4643   0.00    0.0
2018/03/15 13:46:08.000   78.253591003   16.174514094   538.3165   5   7   2.7859   2.5209  14.4399  -1.5231  -4.5659   5.4673   0.00    0.0
2018/03/15 13:46:09.000   78.253594886   16.174533022   535.9300   5   7   2.7868   2.5210  14.4469  -1.5238  -4.5674   5.4702   0.00    0.0
2018/03/15 13:46:10.000   78.253588309   16.174511947   534.9452   5   7   2.7878   2.5212  14.4539  -1.5246  -4.5688   5.4732   0.00    0.0
2018/03/15 13:46:11.000   78.253587774   16.174526399   534.8513   5   7   2.7887   2.5213  14.4609  -1.5253  -4.5703   5.4761   0.00    0.0
2018/03/15 13:46:12.000   78.253590051   16.174521348   537.5319   5   7   2.7897   2.5214  14.4680  -1.5260  -4.5718   5.4791   0.00    0.0
2018/03/15 13:46:13.000   78.253592336   16.174501979   539.3889   5   8   2.7578   2.2089  12.0312  -1.3462  -3.3356   5.1594   0.00    0.0
2018/03/15 13:46:14.000   78.253591818   16.174494014   541.1750   5   8   2.7586   2.2090  12.0368  -1.3467  -3.3368   5.1618   0.00    0.0
2018/03/15 13:46:15.000   78.253592942   16.174481430   541.9906   5   8   2.7595   2.2090  12.0423  -1.3472  -3.3379   5.1642   0.00    0.0
2018/03/15 13:46:16.000   78.253590998   16.174484607   540.5234   5   8   2.7603   2.2091  12.0479  -1.3477  -3.3390   5.1666   0.00    0.0
2018/03/15 13:46:17.000   78.253587037   16.174499849   538.6355   5   8   2.7612   2.2092  12.0535  -1.3482  -3.3402   5.1690   0.00    0.0
2018/03/15 13:46:18.000   78.253587754   16.174483425   539.9236   5   8   2.7620   2.2093  12.0590  -1.3487  -3.3413   5.1714   0.00    0.0
2018/03/15 13:46:19.000   78.253591315   16.174506143   538.8843   5   8   2.7629   2.2094  12.0646  -1.3492  -3.3425   5.1738   0.00    0.0
2018/03/15 13:46:20.000   78.253592107   16.174496196   541.3682   5   8   2.7637   2.2095  12.0702  -1.3497  -3.3436   5.1762   0.00    0.0
2018/03/15 13:46:21.000   78.253591971   16.174484922   539.8350   5   8   2.7646   2.2096  12.0758  -1.3502  -3.3447   5.1786   0.00    0.0
2018/03/15 13:46:22.000   78.253594527   16.174464674   541.6503   5   8   2.7654   2.2097  12.0814  -1.3507  -3.3459   5.1810   0.00    0.0
2018/03/15 13:46:23.000   78.253591686   16.174475616   542.3507   5   8   2.7662   2.2098  12.0869  -1.3512  -3.3470   5.1834   0.00    0.0
2018/03/15 13:46:24.000   78.253581512   16.174491642   539.5398   5   8   2.7671   2.2099  12.0925  -1.3517  -3.3481   5.1858   0.00    0.0
2018/03/15 13:46:25.000   78.253585793   16.174476791   538.7832   5   8   2.7679   2.2100  12.0981  -1.3522  -3.3493   5.1882   0.00    0.0
2018/03/15 13:46:26.000   78.253589319   16.174489182   536.7126   5   7   2.8029   2.5231  14.5667  -1.5364  -4.5924   5.5206   0.00    0.0
2018/03/15 13:46:27.000   78.253593252   16.174477129   541.7581   5   6   3.0165   2.3026  12.5094  -1.3460  -3.0342   5.2070   0.00    0.0
2018/03/15 13:46:28.000   78.253592174   16.174482808   540.7861   5   7   2.7723   2.3016  12.5089  -1.3773  -3.0398   5.1652   0.00    0.0
2018/03/15 13:46:29.000   78.253598200   16.174472062   542.4266   5   6   3.0177   2.3028  12.5201  -1.3470  -3.0366   5.2111   0.00    0.0
2018/03/15 13:46:30.000   78.253592818   16.174477594   539.6976   5   6   2.8107   2.5236  16.9243  -1.5388  -4.5864   5.6468   0.00    0.0
2018/03/15 13:46:31.000   78.253592289   16.174487291   538.4797   5   6   2.8117   2.5237  16.9316  -1.5395  -4.5877   5.6501   0.00    0.0
2018/03/15 13:46:32.000   78.253595538   16.174501761   535.5464   5   6   2.8126   2.5238  16.9388  -1.5403  -4.5891   5.6535   0.00    0.0
2018/03/15 13:46:33.000   78.253591708   16.174489526   540.1543   5   5   3.1398   2.9577  22.6657  -0.4753  -6.6545   3.3205   0.00    0.0
2018/03/15 13:46:34.000   78.253586465   16.174472556   539.3484   5   6   2.8146   2.5241  16.9533  -1.5417  -4.5918   5.6602   0.00    0.0
2018/03/15 13:46:35.000   78.253583650   16.174463880   542.8479   5   5   3.1402   2.9593  22.7091  -0.4813  -6.6650   3.3287   0.00    0.0
2018/03/15 13:46:36.000   78.253580457   16.174530371   532.2553   5   5   3.1404   2.9601  22.7310  -0.4842  -6.6703   3.3327   0.00    0.0
2018/03/15 13:46:37.000   78.253584323   16.174484333   542.2925   5   5   3.1406   2.9608  22.7528  -0.4872  -6.6755   3.3368   0.00    0.0
2018/03/15 13:46:38.000   78.253588290   16.174496763   536.6171   5   6   2.8186   2.5245  16.9823  -1.5447  -4.5972   5.6737   0.00    0.0
2018/03/15 13:46:39.000   78.253586406   16.174507213   535.8981   5   6   2.8195   2.5247  16.9895  -1.5454  -4.5986   5.6770   0.00    0.0
2018/03/15 13:46:40.000   78.253589441   16.174515738   536.2023   5   6   2.8205   2.5248  16.9968  -1.5461  -4.5999   5.6804   0.00    0.0
2018/03/15 13:46:41.000   78.253589357   16.174523311   535.1918   5   6   2.8215   2.5249  17.0040  -1.5469  -4.6013   5.6837   0.00    0.0
2018/03/15 13:46:42.000   78.253585724   16.174535337   534.5783   5   6   2.8225   2.5250  17.0113  -1.5476  -4.6026   5.6871   0.00    0.0
2018/03/15 13:46:43.000   78.253588950   16.174499903   538.0618   5   6   2.8235   2.5251  17.0185  -1.5483  -4.6040   5.6905   0.00    0.0
2018/03/15 13:46:44.000   78.253586558   16.174514084   534.3119   5   7   2.8201   2.5252  14.6944  -1.5498  -4.6188   5.5742   0.00    0.0
2018/03/15 13:46:45.000   78.253589360   16.174507158   535.1524   5   7   2.8211   2.5253  14.7015  -1.5505  -4.6203   5.5772   0.00    0.0
2018/03/15 13:46:46.000   78.253584759   16.174499933   535.9952   5   7   2.8221   2.5254  14.7086  -1.5513  -4.6218   5.5802   0.00    0.0
2018/03/15 13:46:47.000   78.253588832   16.174500224   538.8835   5   8   2.7867   2.2121  12.2218  -1.3632  -3.3743   5.2413   0.00    0.0
2018/03/15 13:46:48.000   78.253583967   16.174509520   537.2694   5   8   2.7875   2.2122  12.2275  -1.3637  -3.3754   5.2437   0.00    0.0
2018/03/15 13:46:49.000   78.253585225   16.174501451   536.7720   5   8   2.7884   2.2122  12.2331  -1.3642  -3.3765   5.2462   0.00    0.0
2018/03/15 13:46:50.000   78.253585867   16.174491517   534.8625   5   8   2.7893   2.2123  12.2388  -1.3647  -3.3777   5.2486   0.00    0.0
2018/03/15 13:46:51.000   78.253584210   16.174524716   533.4115   5   8   2.7901   2.2124  12.2445  -1.3652  -3.3788   5.2510   0.00    0.0
2018/03/15 13:46:52.000   78.253589491   16.174519170   534.7203   5   8   2.7910   2.2125  12.2501  -1.3657  -3.3800   5.2535   0.00    0.0
2018/03/15 13:46:53.000   78.253588261   16.174487416   535.3162   5   8   2.7918   2.2126  12.2558  -1.3662  -3.3811   5.2559   0.00    0.0
2018/03/15 13:46:54.000   78.253591281   16.174505513   535.9753   5   8   2.7927   2.2127  12.2615  -1.3667  -3.3822   5.2583   0.00    0.0
2018/03/15 13:46:55.000   78.253588799   16.174493325   536.6939   5   8   2.7936   2.2128  12.2671  -1.3672  -3.3834   5.2608   0.00    0.0
2018/03/15 13:46:56.000   78.253589534   16.174505631   534.5056   5   8   2.7944   2.2129  12.2728  -1.3677  -3.3845   5.2632   0.00    0.0
2018/03/15 13:46:57.000   78.253590938   16.174484157   536.8646   5   8   2.7953   2.2130  12.2785  -1.3682  -3.3856   5.2656   0.00    0.0
2018/03/15 13:46:58.000   78.253585412   16.174498171   538.1891   5   8   2.7961   2.2131  12.2842  -1.3687  -3.3868   5.2681   0.00    0.0
2018/03/15 13:46:59.000   78.253585244   16.174518641   535.1950   5   8   2.7970   2.2132  12.2898  -1.3692  -3.3879   5.2705   0.00    0.0
2018/03/15 13:47:00.000   78.253587724   16.174510573   535.9493   5   8   2.7979   2.2133  12.2955  -1.3697  -3.3890   5.2729   0.00    0.0
2018/03/15 13:47:01.000   78.253584895   16.174509317   536.2808   5   8   2.7987   2.2134  12.3012  -1.3702  -3.3902   5.2754   0.00    0.0
2018/03/15 13:47:02.000   78.253589543   16.174497376   539.0000   5   8   2.7996   2.2134  12.3069  -1.3707  -3.3913   5.2778   0.00    0.0
2018/03/15 13:47:03.000   78.253582504   16.174526146   533.3255   5   8   2.8005   2.2135  12.3126  -1.3712  -3.3925   5.2803   0.00    0.0
2018/03/15 13:47:04.000   78.253587179   16.174517419   535.0314   5   8   2.8013   2.2136  12.3183  -1.3717  -3.3936   5.2827   0.00    0.0
2018/03/15 13:47:05.000   78.253583592   16.174506913   534.3525   5   8   2.8022   2.2137  12.3240  -1.3722  -3.3947   5.2852   0.00    0.0
2018/03/15 13:47:06.000   78.253583872   16.174513360   536.4298   5   8   2.8031   2.2138  12.3297  -1.3727  -3.3959   5.2876   0.00    0.0
2018/03/15 13:47:07.000   78.253586337   16.174497753   535.6252   5   8   2.8039   2.2139  12.3354  -1.3732  -3.3970   5.2900   0.00    0.0
2018/03/15 13:47:08.000   78.253585481   16.174500014   536.8992   5   8   2.8048   2.2140  12.3411  -1.3737  -3.3981   5.2925   0.00    0.0
2018/03/15 13:47:09.000   78.253585168   16.174489376   536.9208   5   8   2.8057   2.2141  12.3468  -1.3742  -3.3993   5.2949   0.00    0.0
2018/03/15 13:47:10.000   78.253583716   16.174499954   539.9001   5   8   2.8065   2.2142  12.3525  -1.3747  -3.4004   5.2974   0.00    0.0
2018/03/15 13:47:11.000   78.253586710   16.174512881   537.4599   5   8   2.8074   2.2143  12.3582  -1.3752  -3.4016   5.2998   0.00    0.0
2018/03/15 13:47:12.000   78.253585804   16.174511181   534.2439   5   8   2.8083   2.2144  12.3639  -1.3757  -3.4027   5.3023   0.00    0.0
2018/03/15 13:47:13.000   78.253584888   16.174518206   535.0661   5   8   2.8091   2.2145  12.3696  -1.3762  -3.4038   5.3047   0.00    0.0
2018/03/15 13:47:14.000   78.253581652   16.174507051   533.7419   5   8   2.8100   2.2145  12.3754  -1.3767  -3.4050   5.3072   0.00    0.0
2018/03/15 13:47:15.000   78.253587970   16.174509436   536.0239   5   8   2.8109   2.2146  12.3811  -1.3772  -3.4061   5.3096   0.00    0.0
2018/03/15 13:47:16.000   78.253581632   16.174508933   535.2826   5   8   2.8117   2.2147  12.3868  -1.3777  -3.4072   5.3121   0.00    0.0
2018/03/15 13:47:17.000   78.253587179   16.174505836   537.5658   5   8   2.8126   2.2148  12.3925  -1.3782  -3.4084   5.3146   0.00    0.0
2018/03/15 13:47:18.000   78.253591088   16.174496083   538.8316   5   8   2.8135   2.2149  12.3983  -1.3787  -3.4095   5.3170   0.00    0.0
2018/03/15 13:47:19.000   78.253589422   16.174497935   536.9618   5   8   2.8143   2.2150  12.4040  -1.3792  -3.4106   5.3195   0.00    0.0
2018/03/15 13:47:20.000   78.253586345   16.174497383   535.2964   5   8   2.8152   2.2151  12.4097  -1.3797  -3.4118   5.3219   0.00    0.0
2018/03/15 13:47:21.000   78.253585815   16.174494249   538.1008   5   8   2.8161   2.2152  12.4155  -1.3802  -3.4129   5.3244   0.00    0.0
2018/03/15 13:47:22.000   78.253585542   16.174526036   534.6685   5   8   2.8170   2.2153  12.4212  -1.3807  -3.4141   5.3269   0.00    0.0
2018/03/15 13:47:23.000   78.253582598   16.174497058   535.3302   5   8   2.8178   2.2154  12.4269  -1.3812  -3.4152   5.3293   0.00    0.0
2018/03/15 13:47:24.000   78.253580197   16.174518861   534.4719   5   8   2.8187   2.2155  12.4327  -1.3817  -3.4163   5.3318   0.00    0.0
2018/03/15 13:47:25.000   78.253579916   16.174521466   535.3270   5   8   2.8196   2.2155  12.4384  -1.3822  -3.4175   5.3342   0.00    0.0
2018/03/15 13:47:26.000   78.253588194   16.174495492   536.1873   5   8   2.8205   2.2156  12.4442  -1.3827  -3.4186   5.3367   0.00    0.0
2018/03/15 13:47:27.000   78.253583953   16.174509164   536.8322   5   7   2.8621   2.5299  15.0022  -1.5813  -4.6814   5.7038   0.00    0.0
2018/03/15 13:47:28.000   78.253587765   16.174491280   536.6893   5   8   2.8222   2.2158  12.4557  -1.3837  -3.4209   5.3416   0.00    0.0
2018/03/15 13:47:29.000   78.253585982   16.174492022   537.7015   5   8   2.8231   2.2159  12.4614  -1.3842  -3.4220   5.3441   0.00    0.0
2018/03/15 13:47:30.000   78.253580782   16.174507114   534.4506   5   7   2.8650   2.5302  15.0238  -1.5835  -4.6857   5.7129   0.00    0.0
2018/03/15 13:47:31.000   78.253583501   16.174493684   537.0060   5   8   2.8248   2.2161  12.4729  -1.3852  -3.4243   5.3490   0.00    0.0
2018/03/15 13:47:32.000   78.253584951   16.174488607   535.8373   5   8   2.8257   2.2162  12.4787  -1.3857  -3.4254   5.3515   0.00    0.0
2018/03/15 13:47:33.000   78.253582773   16.174505730   534.0661   5   8   2.8266   2.2163  12.4845  -1.3862  -3.4265   5.3540   0.00    0.0
2018/03/15 13:47:34.000   78.253586302   16.174498749   535.5333   5   8   2.8275   2.2164  12.4902  -1.3867  -3.4277   5.3564   0.00    0.0
2018/03/15 13:47:35.000   78.253586603   16.174504249   535.3188   5   8   2.8284   2.2164  12.4960  -1.3872  -3.4288   5.3589   0.00    0.0
2018/03/15 13:47:36.000   78.253588560   16.174511681   535.4283   5   8   2.8292   2.2165  12.5018  -1.3877  -3.4299   5.3614   0.00    0.0
2018/03/15 13:47:37.000   78.253586522   16.174512787   535.4143   5   8   2.8301   2.2166  12.5075  -1.3882  -3.4311   5.3639   0.00    0.0
2018/03/15 13:47:38.000   78.253578140   16.174497985   533.5831   5   8   2.8310   2.2167  12.5133  -1.3887  -3.4322   5.3663   0.00    0.0
2018/03/15 13:47:39.000   78.253583831   16.174506626   534.3339   5   8   2.8319   2.2168  12.5191  -1.3892  -3.4334   5.3688   0.00    0.0
2018/03/15 13:47:40.000   78.253583627   16.174507291   533.3317   5   8   2.8328   2.2169  12.5249  -1.3897  -3.4345   5.3713   0.00    0.0
2018/03/15 13:47:41.000   78.253587633   16.174496817   535.9103   5   8   2.8336   2.2170  12.5306  -1.3902  -3.4356   5.3738   0.00    0.0
2018/03/15 13:47:42.000   78.253587169   16.174500589   537.6025   5   8   2.8345   2.2171  12.5364  -1.3907  -3.4368   5.3763   0.00    0.0
2018/03/15 13:47:43.000   78.253585029   16.174517415   536.1792   5   8   2.8354   2.2172  12.5422  -1.3912  -3.4379   5.3787   0.00    0.0
2018/03/15 13:47:44.000   78.253586097   16.174497001   537.5280   5   8   2.8363   2.2172  12.5480  -1.3917  -3.4390   5.3812   0.00    0.0
2018/03/15 13:47:45.000   78.253584551   16.174511800   534.5903   5   8   2.8372   2.2173  12.5538  -1.3921  -3.4402   5.3837   0.00    0.0
2018/03/15 13:47:46.000   78.253584901   16.174488440   536.6421   5   8   2.8380   2.2174  12.5596  -1.3926  -3.4413   5.3862   0.00    0.0
2018/03/15 13:47:47.000   78.253582051   16.174506118   533.9483   5   8   2.8389   2.2175  12.5654  -1.3931  -3.4424   5.3887   0.00    0.0
2018/03/15 13:47:48.000   78.253584487   16.174504859   535.5509   5   8   2.8398   2.2176  12.5712  -1.3936  -3.4436   5.3911   0.00    0.0
2018/03/15 13:47:49.000   78.253583241   16.174510340   535.7333   5   8   2.8407   2.2177  12.5770  -1.3941  -3.4447   5.3936   0.00    0.0
2018/03/15 13:47:50.000   78.253586538   16.174505718   534.2715   5   8   2.8416   2.2178  12.5828  -1.3946  -3.4458   5.3961   0.00    0.0
2018/03/15 13:47:51.000   78.253583729   16.174506633   533.7419   5   8   2.8425   2.2179  12.5886  -1.3951  -3.4470   5.3986   0.00    0.0
2018/03/15 13:47:52.000   78.253585631   16.174489155   536.6437   5   8   2.8433   2.2179  12.5944  -1.3956  -3.4481   5.4011   0.00    0.0
2018/03/15 13:47:53.000   78.253584568   16.174509322   534.7560   5   8   2.8442   2.2180  12.6002  -1.3961  -3.4492   5.4036   0.00    0.0
2018/03/15 13:47:54.000   78.253580558   16.174519969   532.3508   5   8   2.8451   2.2181  12.6060  -1.3966  -3.4504   5.4061   0.00    0.0
2018/03/15 13:47:55.000   78.253578537   16.174515396   532.2637   5   8   2.8460   2.2182  12.6118  -1.3971  -3.4515   5.4086   0.00    0.0
2018/03/15 13:47:56.000   78.253585314   16.174513150   534.9181   5   8   2.8469   2.2183  12.6176  -1.3976  -3.4526   5.4111   0.00    0.0
2018/03/15 13:47:57.000   78.253576973   16.174513528   532.6710   5   8   2.8478   2.2184  12.6235  -1.3981  -3.4538   5.4135   0.00    0.0
2018/03/15 13:47:58.000   78.253582514   16.174508046   535.7505   5   8   2.8487   2.2185  12.6293  -1.3986  -3.4549   5.4160   0.00    0.0
2018/03/15 13:47:59.000   78.253583789   16.174520173   535.2393   5   8   2.8496   2.2186  12.6351  -1.3991  -3.4560   5.4185   0.00    0.0
2018/03/15 13:48:00.000   78.253582782   16.174516860   533.9108   5   8   2.8504   2.2186  12.6409  -1.3996  -3.4571   5.4210   0.00    0.0
2018/03/15 13:48:01.000   78.253579939   16.174510551   532.5739   5   8   2.8513   2.2187  12.6467  -1.4001  -3.4583   5.4235   0.00    0.0
2018/03/15 13:48:02.000   78.253581746   16.174511840   534.3502   5   8   2.8522   2.2188  12.6526  -1.4006  -3.4594   5.4260   0.00    0.0
2018/03/15 13:48:03.000   78.253583914   16.174507749   534.0209   5   8   2.8531   2.2189  12.6584  -1.4011  -3.4605   5.4285   0.00    0.0
2018/03/15 13:48:04.000   78.253589249   16.174507645   537.5653   5   8   2.8540   2.2190  12.6642  -1.4016  -3.4617   5.4310   0.00    0.0
2018/03/15 13:48:05.000   78.253579515   16.174522321   532.0522   5   8   2.8549   2.2191  12.6701  -1.4021  -3.4628   5.4335   0.00    0.0
2018/03/15 13:48:06.000   78.253585295   16.174536884   533.8960   5   8   2.8558   2.2192  12.6759  -1.4026  -3.4639   5.4360   0.00    0.0
2018/03/15 13:48:07.000   78.253582312   16.174549822   531.4422   5   8   2.8567   2.2193  12.6817  -1.4031  -3.4651   5.4385   0.00    0.0
2018/03/15 13:48:08.000   78.253587503   16.174525214   533.8755   5   8   2.8576   2.2193  12.6876  -1.4036  -3.4662   5.4410   0.00    0.0
2018/03/15 13:48:09.000   78.253591088   16.174518212   535.7374   5   8   2.8585   2.2194  12.6934  -1.4040  -3.4673   5.4435   0.00    0.0
2018/03/15 13:48:10.000   78.253578658   16.174519307   530.8984   5   8   2.8594   2.2195  12.6993  -1.4045  -3.4685   5.4460   0.00    0.0
2018/03/15 13:48:11.000   78.253586167   16.174510460   534.8030   5   8   2.8602   2.2196  12.7051  -1.4050  -3.4696   5.4485   0.00    0.0
2018/03/15 13:48:12.000   78.253584604   16.174521174   532.6812   5   8   2.8611   2.2197  12.7110  -1.4055  -3.4707   5.4510   0.00    0.0
2018/03/15 13:48:13.000   78.253584072   16.174513113   533.2693   5   8   2.8620   2.2198  12.7168  -1.4060  -3.4718   5.4535   0.00    0.0
2018/03/15 13:48:14.000   78.253590716   16.174505094   534.9276   5   8   2.8629   2.2199  12.7227  -1.4065  -3.4730   5.4560   0.00    0.0
2018/03/15 13:48:15.000   78.253583186   16.174516592   531.9300   5   8   2.8638   2.2199  12.7285  -1.4070  -3.4741   5.4585   0.00    0.0
2018/03/15 13:48:16.000   78.253582036   16.174516473   532.9356   5   8   2.8647   2.2200  12.7344  -1.4075  -3.4752   5.4610   0.00    0.0
2018/03/15 13:48:17.000   78.253589719   16.174495403   536.2760   5   8   2.8656   2.2201  12.7402  -1.4080  -3.4764   5.4636   0.00    0.0
2018/03/15 13:48:18.000   78.253582195   16.174519668   533.5056   5   8   2.8665   2.2202  12.7461  -1.4085  -3.4775   5.4661   0.00    0.0
2018/03/15 13:48:19.000   78.253582607   16.174527529   533.0151   5   8   2.8674   2.2203  12.7519  -1.4090  -3.4786   5.4686   0.00    0.0
2018/03/15 13:48:20.000   78.253580721   16.174520911   531.1373   5   8   2.8683   2.2204  12.7578  -1.4095  -3.4797   5.4711   0.00    0.0
2018/03/15 13:48:21.000   78.253586198   16.174515040   533.8694   5   8   2.8692   2.2205  12.7637  -1.4100  -3.4809   5.4736   0.00    0.0
2018/03/15 13:48:22.000   78.253582735   16.174521766   532.1873   5   8   2.8701   2.2205  12.7695  -1.4105  -3.4820   5.4761   0.00    0.0
2018/03/15 13:48:23.000   78.253579882   16.174513287   531.6167   5   8   2.8710   2.2206  12.7754  -1.4110  -3.4831   5.4786   0.00    0.0
2018/03/15 13:48:24.000   78.253589356   16.174495553   536.6504   5   8   2.8719   2.2207  12.7813  -1.4114  -3.4843   5.4811   0.00    0.0
2018/03/15 13:48:25.000   78.253582717   16.174501498   533.5884   5   8   2.8728   2.2208  12.7872  -1.4119  -3.4854   5.4836   0.00    0.0
2018/03/15 13:48:26.000   78.253586436   16.174502702   534.8309   5   8   2.8737   2.2209  12.7930  -1.4124  -3.4865   5.4862   0.00    0.0
2018/03/15 13:48:27.000   78.253584140   16.174509190   533.9644   5   8   2.8746   2.2210  12.7989  -1.4129  -3.4876   5.4887   0.00    0.0
2018/03/15 13:48:28.000   78.253584300   16.174498342   535.2696   5   8   2.8755   2.2211  12.8048  -1.4134  -3.4888   5.4912   0.00    0.0
2018/03/15 13:48:29.000   78.253582702   16.174511017   534.3241   5   8   2.8764   2.2211  12.8107  -1.4139  -3.4899   5.4937   0.00    0.0
2018/03/15 13:48:30.000   78.253585202   16.174504060   534.9807   5   8   2.8773   2.2212  12.8166  -1.4144  -3.4910   5.4962   0.00    0.0
2018/03/15 13:48:31.000   78.253582314   16.174531365   531.1072   5   8   2.8782   2.2213  12.8224  -1.4149  -3.4921   5.4987   0.00    0.0
2018/03/15 13:48:32.000   78.253583980   16.174505223   534.8713   5   8   2.8791   2.2214  12.8283  -1.4154  -3.4933   5.5013   0.00    0.0
2018/03/15 13:48:33.000   78.253580921   16.174514858   531.9371   5   8   2.8800   2.2215  12.8342  -1.4159  -3.4944   5.5038   0.00    0.0
2018/03/15 13:48:34.000   78.253585817   16.174512864   533.1267   5   8   2.8809   2.2216  12.8401  -1.4164  -3.4955   5.5063   0.00    0.0
2018/03/15 13:48:35.000   78.253583805   16.174507489   535.4201   5   8   2.8818   2.2216  12.8460  -1.4169  -3.4966   5.5088   0.00    0.0
2018/03/15 13:48:36.000   78.253590600   16.174493383   537.9456   5   8   2.8827   2.2217  12.8519  -1.4173  -3.4978   5.5113   0.00    0.0
2018/03/15 13:48:37.000   78.253588878   16.174507314   534.6437   5   8   2.8836   2.2218  12.8578  -1.4178  -3.4989   5.5139   0.00    0.0
2018/03/15 13:48:38.000   78.253587162   16.174499694   536.4777   5   8   2.8845   2.2219  12.8637  -1.4183  -3.5000   5.5164   0.00    0.0
2018/03/15 13:48:39.000   78.253584043   16.174504488   532.5767   5   8   2.8854   2.2220  12.8696  -1.4188  -3.5011   5.5189   0.00    0.0
