     2.11           OBSERVATION DATA    M (MIXED)           RINEX VERSION / TYPE
teqc  2018Mar15                         20180319 14:17:32UTCPGM / RUN BY / DATE
Linux 2.6.32-573.12.1.x86_64|x86_64|gcc -static|Linux 64|=+ COMMENT
END OF STATIC MODE OBSERVATION                              COMMENT
BIT 2 OF LLI FLAGS DATA COLLECTED UNDER A/S CONDITION       COMMENT
-Unknown-                                                   MARKER NAME
4625                                                        MARKER NUMBER
-Unknown-           -Unknown-                               OBSERVER / AGENCY
5127468778          TRIMBLE             4.63                REC # / TYPE / VERS
47477114                            NONE                    ANT # / TYPE
  6378137.0000        0.0000        0.0000                  APPROX POSITION XYZ
        0.0000        0.0000        0.0000                  ANTENNA: DELTA H/E/N
     1     1                                                WAVELENGTH FACT L1/2
     7    L1    L2    C1    P1    P2    S1    S2            # / TYPES OF OBSERV
    18                                                      LEAP SECONDS
 SNR is mapped to RINEX snr flag value [0-9]                COMMENT
  L1 & L2: min(max(int(snr_dBHz/6), 0), 9)                  COMMENT
  2018     3    11    13    16   20.0000000     GPS         TIME OF FIRST OBS
                                                            END OF HEADER
 18  3 11 13 16 20.0000000  0 17G10R06G15R05R13R14R15R22R23G17G11G32
                                G28G01G24G12G19
 120627376.076 7  93995438.21645  22954638.570                    22954644.289
        43.000          30.800
                  89189284.935 6  21489470.375                    21489471.457
                        36.400
 128805476.629 6 100367940.16042  24510869.852                    24510875.555
        38.700          14.800
                  86289784.840 5  20754370.180                    20754371.816
                        34.300
                  88272424.314 6  21253614.266                    21253615.512
                        36.000
                  80838379.840 6  19497953.344                    19497955.352
                        40.500
                  88378562.020 6  21264222.453                    21264226.133
                        37.100
                  86915296.873 6  20934210.539                    20934212.590
                        40.300
                  87432524.998 6  21014472.094                    21014476.391
                        36.300
 117352320.238 8  91443372.16645  22331403.336                    22331406.629
        48.200          33.200
 120480201.609 7  93880629.64644  22926620.211                    22926622.535
        43.900          26.800
 123783347.525 6  96454430.30244  23555162.156                    23555170.082
        40.900          27.600
 123825263.014 7  96487221.63243  23563165.789                    23563168.289
        43.300          22.000
 118281625.007 7  92167500.90045  22508243.734                    22508250.906
        43.500          32.100
 110727353.471 8  86281101.57646  21070722.531                    21070728.020
        49.500          37.300
 126233704.726 7  98363801.68444  24021440.336                    24021444.230
        44.100          24.900
 120289832.577 7  93732346.96144  22890394.961                    22890396.375
        44.600          28.800
 18  3 11 13 16 21.0000000  0 17G10R06G15R05R13R14R15R22R23G17G11G32
                                G28G01G24G12G19
 120629776.149 7  93997308.40445  22955095.188                    22955101.094
        43.400          30.700
                  89187362.349 6  21489008.539                    21489008.418
                        36.000
 128809608.657 6 100371159.89942  24511656.008                    24511661.813
        38.400          16.300
                  86291494.159 5  20754781.492                    20754782.961
                        34.300
                  88275485.660 6  21254351.711                    21254352.563
                        36.000
                  80838408.124 6  19497960.320                    19497962.172
                        40.400
                  88376083.502 6  21263624.953                    21263629.297
                        37.100
                  86917193.291 6  20934666.578                    20934668.758
                        40.200
                  87430637.116 6  21014019.680                    21014023.121
                        36.400
 117351112.834 8  91442431.33845  22331173.781                    22331176.305
        48.600          32.900
 120482117.492 7  93882122.56044  22926984.641                    22926987.305
        43.800          27.500
 123780819.776 6  96452460.68044  23554680.078                    23554689.066
        39.400          26.800
 123828635.298 7  96489849.38443  23563807.445                    23563810.598
        43.400          22.600
 118281579.928 7  92167465.77745  22508234.922                    22508242.344
        43.600          31.400
 110727312.938 8  86281069.99146  21070714.656                    21070720.418
        49.600          37.300
 126230095.264 7  98360989.11344  24020753.820                    24020757.328
        44.300          24.300
 120287053.068 7  93730181.09344  22889865.445                    22889867.316
        43.800          28.800
 18  3 11 13 16 22.0000000  0 17G10R06G15R05R13R14R15R22R23G17G11G32
                                G28G01G24G12G19
 120632176.783 7  93999179.03445  22955551.750                    22955557.574
        43.000          31.200
                  89185440.320 6  21488545.023                    21488544.980
                        36.200
 128813740.830 6 100374379.76442  24512442.336                    24512448.086
        37.400          14.800
                  86293204.156 5  20755192.047                    20755194.367
                        34.400
                  88278547.393 5  21255088.805                    21255089.086
                        35.700
                  80838437.050 6  19497967.023                    19497968.891
                        40.600
                  88373605.399 6  21263029.125                    21263033.594
                        37.100
                  86919090.350 6  20935124.148                    20935126.367
                        40.400
                  87428749.750 6  21013564.586                    21013569.223
                        36.700
 117349906.027 8  91441490.98045  22330944.102                    22330946.953
        48.800          33.000
 120484034.052 7  93883615.99644  22927348.672                    22927352.082
        43.400          27.900
 123778292.394 6  96450491.35644  23554200.156                    23554207.754
        40.600          26.900
 123832007.827 7  96492477.34843  23564449.492                    23564453.152
        42.600          22.800
 118281535.573 7  92167431.22145  22508226.828                    22508234.012
        44.200          31.800
 110727273.073 8  86281038.92746  21070707.078                    21070712.750
        49.600          37.700
 126226485.973 7  98358176.68944  24020066.797                    24020070.441
        44.500          25.000
 120284274.005 7  93728015.56944  22889335.516                    22889338.250
        42.600          29.800
 18  3 11 13 16 23.0000000  0 17G10R06G15R05R13R14R15R22R23G17G11G32
                                G28G01G24G12G19
 120634578.001 7  94001050.10845  22956009.352                    22956014.578
        43.800          30.000
                  89183518.792 6  21488082.156                    21488082.043
                        36.700
 128817873.188 6 100377599.76042  24513228.609                    24513234.238
        37.700          16.900
                  86294914.788 5  20755604.422                    20755605.746
                        34.500
                  88281609.507 5  21255826.078                    21255826.871
                        35.200
                  80838466.602 6  19497974.297                    19497976.594
                        40.500
                  88371127.643 6  21262432.883                    21262437.164
                        37.500
                  86920988.034 6  20935581.883                    20935582.844
                        40.200
                  87426863.023 6  21013112.383                    21013115.410
                        36.700
 117348699.774 8  91440551.04145  22330714.125                    22330717.461
        48.400          33.300
 120485951.290 7  93885109.94744  22927713.508                    22927716.785
        42.500          27.600
 123775765.508 7  96448522.41244  23553720.258                    23553726.809
        42.600          26.900
 123835380.674 7  96495105.52344  23565093.383                    23565093.703
        43.900          24.000
 118281491.883 7  92167397.17245  22508218.867                    22508225.434
        43.800          31.600
 110727233.874 8  86281008.38646  21070699.484                    21070705.477
        49.600          37.500
 126222876.854 7  98355364.38044  24019379.953                    24019383.594
        44.600          24.600
 120281495.403 7  93725850.43444  22888807.602                    22888809.617
        42.500          29.600
 18  3 11 13 16 24.0000000  0 17G10R06G15R05R13R14R15R22R23G17G11G32
                                G28G01G24G12G19
 120636979.817 7  94002921.65045  22956466.563                    22956471.375
        44.500          30.400
                  89181597.830 6  21487618.023                    21487619.063
                        36.200
 128822005.744 6 100380819.93242  24514015.125                    24514020.992
        37.500          16.300
                  86296626.126 5  20756015.461                    20756017.289
                        34.500
                  88284671.992 5  21256562.250                    21256563.367
                        35.600
                  80838496.824 6  19497981.250                    19497983.539
                        40.700
                  88368650.294 6  21261836.977                    21261840.906
                        37.300
                  86922886.374 6  20936038.945                    20936040.570
                        40.400
                  87424976.842 6  21012658.930                    21012662.578
                        36.500
 117347494.108 8  91439611.57145  22330484.781                    22330487.836
        48.700          33.200
 120487869.260 7  93886604.46044  22928078.992                    22928081.793
        42.900          27.600
 123773239.067 7  96446553.78144  23553239.859                    23553245.977
        44.400          28.300
 123838753.755 7  96497733.89344  23565732.805                    23565735.316
        43.600          24.100
 118281448.999 7  92167363.76145  22508210.836                    22508217.238
        43.900          30.900
 110727195.352 8  86280978.36546  21070692.391                    21070697.797
        50.000          36.900
 126219267.977 7  98352552.28344  24018693.070                    24018696.512
        44.500          25.100
 120278717.291 7  93723685.69344  22888279.367                    22888281.043
        43.400          29.500
 18  3 11 13 16 25.0000000  0 17G10R06G15R05R13R14R15R22R23G17G11G32
                                G28G01G24G12G19
 120639382.208 7  94004793.65145  22956924.289                    22956928.938
        44.500          30.400
                  89179677.457 6  21487155.125                    21487156.289
                        36.200
 128826138.561 6 100384040.26442  24514801.523                    24514807.488
        37.300          16.300
                  86298338.113 5  20756427.836                    20756428.926
                        34.400
                  88287734.873 6  21257300.258                    21257301.070
                        36.000
                  80838527.718 6  19497988.859                    19497991.188
                        40.400
                  88366173.363 6  21261240.906                    21261245.500
                        37.500
                  86924785.400 6  20936495.531                    20936498.074
                        40.400
                  87423091.263 6  21012205.266                    21012209.469
                        36.100
 117346289.050 8  91438672.57345  22330256.516                    22330258.863
        48.800          32.900
 120489787.885 7  93888099.47944  22928445.031                    22928446.848
        44.200          28.300
 123770713.054 7  96444585.46344  23552760.281                    23552765.406
        45.400          27.600
 123842127.189 7  96500362.54243  23566373.820                    23566378.266
        42.600          22.500
 118281406.860 7  92167330.92845  22508202.648                    22508209.352
        44.100          31.000
 110727157.544 8  86280948.90346  21070685.297                    21070690.926
        49.700          37.300
 126215659.256 7  98349740.30244  24018006.242                    24018010.156
        44.600          25.000
 120275939.702 7  93721521.35544  22887751.297                    22887752.125
        44.900          28.700
 18  3 11 13 16 26.0000000  0 17G10R06G15R05R13R14R15R22R23G17G11G32
                                G28G01G24G12G19
 120641785.209 7  94006666.13545  22957380.617                    22957386.285
        43.800          30.900
                  89177757.664 6  21486692.008                    21486694.016
                        36.100
 128830271.459 6 100387260.70242  24515587.617                    24515594.133
        37.900          16.900
                  86300050.793 5  20756839.391                    20756840.664
                        34.800
                  88290798.148 5  21258037.938                    21258039.145
                        35.700
                  80838559.295 6  19497995.930                    19497998.840
                        40.400
                  88363696.796 6  21260644.164                    21260649.008
                        37.800
                  86926685.060 6  20936953.602                    20936955.398
                        40.100
                  87421206.272 5  21011752.305                    21011756.379
                        35.900
 117345084.591 8  91437734.04045  22330026.406                    22330029.273
        48.300          33.200
 120491707.214 7  93889595.04544  22928810.570                    22928811.762
        45.400          29.000
 123768187.507 7  96442617.48044  23552279.648                    23552284.363
        46.000          28.500
 123845500.874 7  96502991.38543  23567017.789                    23567020.273
        43.000          22.800
 118281365.495 7  92167298.68945  22508195.508                    22508201.176
        44.100          31.600
 110727120.408 8  86280919.97146  21070677.922                    21070683.496
        49.800          37.500
 126212050.793 7  98346928.51943  24017319.961                    24017323.699
        44.700          23.600
 120273162.613 7  93719357.39644  22887223.016                    22887223.484
        45.200          29.600
 18  3 11 13 16 27.0000000  0 17G10R06G15R05R13R14R15R22R23G17G11G32
                                G28G01G24G12G19
 120644188.767 7  94008539.05045  22957837.695                    22957843.480
        44.100          30.400
                  89175838.415 6  21486229.586                    21486231.551
                        36.200
 128834404.548 6 100390481.28842  24516374.219                    24516380.383
        37.900          16.300
                  86301764.099 5  20757251.211                    20757253.375
                        34.900
                  88293861.751 6  21258775.648                    21258776.492
                        36.000
                  80838591.484 6  19498003.875                    19498006.855
                        40.400
                  88361220.625 6  21260049.688                    21260053.523
                        38.100
                  86928585.352 6  20937411.219                    20937413.129
                        40.400
                  87419321.863 6  21011298.781                    21011303.180
                        36.000
 117343880.654 7  91436795.90645  22329796.984                    22329800.219
        47.700          33.400
 120493627.167 7  93891091.12044  22929175.797                    22929177.527
        46.200          28.000
 123765662.351 7  96440649.78844  23551798.680                    23551803.402
        45.700          27.700
 123848874.805 7  96505620.41443  23567659.195                    23567661.797
        42.300          22.600
 118281324.779 7  92167266.96645  22508187.086                    22508193.508
        44.300          31.700
 110727083.935 8  86280891.54446  21070671.414                    21070677.063
        49.800          37.400
 126208442.475 7  98344116.83943  24016633.211                    24016636.887
        44.800          22.900
 120270385.956 7  93717193.75144  22886693.914                    22886695.473
        45.000          29.400
 18  3 11 13 16 28.0000000  0 17G10R06G15R05R13R14R15R22R23G17G11G32
                                G28G01G24G12G19
 120646592.897 7  94010412.39545  22958296.117                    22958301.016
        44.700          30.500
                  89173919.703 6  21485767.797                    21485769.617
                        36.200
 128838537.839 6 100393702.01142  24517161.289                    24517166.813
        38.900          16.900
                  86303478.126 5  20757663.563                    20757665.277
                        35.000
                  88296925.772 5  21259513.570                    21259514.348
                        35.800
                  80838624.360 6  19498011.984                    19498014.098
                        40.600
                  88358744.804 6  21259453.164                    21259457.859
                        37.700
                  86930486.322 6  20937868.758                    20937870.668
                        40.100
                  87417438.051 6  21010846.805                    21010850.988
                        36.100
 117342677.349 8  91435858.28045  22329568.438                    22329571.457
        48.200          33.700
 120495547.842 7  93892587.77544  22929540.672                    22929543.027
        44.800          26.300
 123763137.646 7  96438682.45344  23551317.922                    23551322.551
        44.900          27.200
 123852249.070 7  96508249.71543  23568301.227                    23568303.480
        43.000          22.900
 118281284.887 7  92167235.89245  22508180.234                    22508185.617
        44.400          31.800
 110727048.229 8  86280863.72246  21070664.508                    21070669.691
        49.600          37.300
 126204834.395 7  98341305.34643  24015946.625                    24015950.484
        44.200          22.900
 120267609.811 7  93715030.51644  22886165.359                    22886166.895
        44.400          29.300
 18  3 11 13 16 29.0000000  0 17G10R06G15R05R13R14R15R22R23G17G11G32
                                G28G01G24G12G19
 120648997.643 7  94012286.22745  22958753.398                    22958758.754
        44.700          30.600
                  89172001.543 6  21485306.430                    21485306.656
                        36.400
 128842671.330 6 100396922.88842  24517948.531                    24517953.750
        39.300          16.300
                  86305192.825 5  20758075.445                    20758077.047
                        35.000
                  88299990.188 5  21260250.695                    21260252.398
                        35.300
                  80838657.918 6  19498020.734                    19498022.574
                        40.400
                  88356269.443 6  21258858.438                    21258861.699
                        37.100
                  86932387.948 6  20938327.602                    20938328.434
                        40.200
                  87415554.842 5  21010393.781                    21010397.863
                        35.600
 117341474.635 8  91434921.10745  22329340.000                    22329342.402
        48.500          33.400
 120497469.233 7  93894084.98244  22929904.289                    22929908.699
        43.000          26.400
 123760613.395 7  96436715.48344  23550837.180                    23550842.113
        43.600          27.300
 123855623.623 7  96510879.25943  23568943.031                    23568945.891
        42.500          22.800
 118281245.746 7  92167205.39145  22508172.320                    22508179.090
        44.300          31.000
 110727013.179 8  86280836.40546  21070657.672                    21070663.098
        49.500          37.100
 126201226.520 7  98338494.03143  24015260.078                    24015263.609
        44.500          22.600
 120264834.144 7  93712867.65544  22885636.219                    22885638.785
        43.800          29.100
 18  3 11 13 16 30.0000000  0 17G10R06G15R05R13R14R15R22R23G17G11G32
                                G28G01G24G12G19
 120651402.988 7  94014160.54244  22959210.164                    22959216.707
        44.100          29.800
                  89170083.940 6  21484845.648                    21484845.039
                        36.300
 128846805.032 6 100400143.94642  24518735.016                    24518740.133
        39.900          16.300
                  86306908.239 5  20758488.898                    20758489.992
                        35.200
                  88303054.970 5  21260988.086                    21260991.082
                        35.600
                  80838692.142 6  19498028.734                    19498030.781
                        40.500
                  88353794.428 6  21258262.977                    21258266.508
                        37.300
                  86934290.245 6  20938785.195                    20938787.332
                        40.700
                  87413672.250 6  21009942.078                    21009945.629
                        36.100
 117340272.515 8  91433984.40045  22329110.273                    22329113.852
        48.000          33.500
 120499391.398 6  93895582.78044  22930268.477                    22930274.691
        40.700          27.600
 123758089.568 7  96434748.85744  23550355.805                    23550362.410
        42.100          27.200
 123858998.496 6  96513509.02643  23569585.242                    23569588.742
        41.900          22.300
 118281207.354 7  92167175.48245  22508164.539                    22508171.242
        44.800          31.900
 110726978.821 8  86280809.63346  21070651.188                    21070656.684
        49.700          37.600
 126197618.846 7  98335682.85843  24014573.867                    24014577.211
        44.500          22.900
 120262058.977 7  93710705.19444  22885108.406                    22885110.918
        43.800          28.700
 18  3 11 13 16 31.0000000  0 17G10R06G15R05R13R14R15R22R23G17G11G32
                                G28G01G24G12G19
 120653808.902 7  94016035.28245  22959667.641                    22959674.488
        44.100          30.800
                  89168166.897 6  21484383.406                    21484383.203
                        36.300
 128850938.931 6 100403365.18742  24519521.477                    24519526.875
        40.000          16.900
                  86308624.324 5  20758900.992                    20758903.070
                        34.500
                  88306120.138 6  21261727.523                    21261727.957
                        36.000
                  80838727.035 6  19498036.328                    19498039.324
                        40.400
                  88351319.813 6  21257666.828                    21257671.086
                        37.300
                  86936193.241 6  20939242.703                    20939245.000
                        40.600
                  87411790.226 6  21009489.352                    21009493.160
                        36.400
 117339070.976 8  91433048.14045  22328881.859                    22328884.969
        48.300          33.500
 120501314.287 6  93897081.10544  22930636.656                    22930639.840
        40.800          27.300
 123755566.129 6  96432782.55144  23549874.758                    23549882.320
        39.400          26.600
 123862373.600 7  96516138.95943  23570228.203                    23570230.855
        42.900          22.600
 118281169.665 7  92167146.11845  22508158.531                    22508163.992
        45.000          31.800
 110726945.164 8  86280783.40546  21070644.992                    21070650.551
        49.700          37.300
 126194011.389 7  98332871.85743  24013887.133                    24013890.934
        44.200          23.800
 120259284.284 7  93708543.10844  22884580.570                    22884582.750
        44.600          29.100
 18  3 11 13 16 32.0000000  0 17G10R06G15R05R13R14R15R22R23G17G11G32
                                G28G01G24G12G19
 120656215.440 7  94017910.51245  22960126.711                    22960132.395
        45.000          30.700
                  89166250.419 6  21483921.422                    21483921.715
                        36.200
 128855073.000 6 100406586.56142  24520308.625                    24520313.805
        39.900          16.300
                  86310341.094 5  20759313.219                    20759315.945
                        34.400
                  88309185.724 5  21262464.742                    21262466.031
                        35.600
                  80838762.607 6  19498045.695                    19498047.699
                        40.500
                  88348845.624 6  21257072.945                    21257076.555
                        37.600
                  86938096.872 6  20939702.188                    20939703.695
                        40.400
                  87409908.819 6  21009037.766                    21009040.664
                        36.100
 117337870.043 8  91432112.35145  22328653.305                    22328656.617
        48.300          32.900
 120503237.806 7  93898579.90744  22931005.203                    22931006.145
        43.200          27.500
 123753043.146 6  96430816.64344  23549394.297                    23549402.730
        38.900          25.000
 123865749.005 7  96518769.15043  23570870.609                    23570872.953
        42.600          22.300
 118281132.820 7  92167117.41345  22508150.484                    22508157.406
        44.700          31.900
 110726912.163 8  86280757.69146  21070638.586                    21070644.508
        49.500          37.400
 126190404.132 7  98330061.00143  24013200.781                    24013203.977
        44.200          22.500
 120256510.115 7  93706381.42644  22884053.609                    22884054.883
        45.100          29.300
 18  3 11 13 16 33.0000000  0 17G10R06G15R05R13R14R15R22R23G17G11G32
                                G28G01G24G12G19
 120658622.521 7  94019786.16645  22960584.688                    22960590.332
        44.600          30.300
                  89164334.508 6  21483459.711                    21483459.980
                        36.100
 128859207.236 6 100409808.06342  24521095.688                    24521100.699
        39.400          16.300
                  86312058.527 5  20759727.359                    20759728.590
                        34.000
                  88312251.695 6  21263203.367                    21263204.625
                        36.000
                  80838798.818 6  19498054.328                    19498056.688
                        40.500
                  88346371.777 6  21256476.570                    21256480.664
                        37.600
                  86940001.150 6  20940161.172                    20940162.164
                        40.200
                  87408027.965 6  21008585.570                    21008588.676
                        36.200
 117336669.690 8  91431177.01945  22328425.086                    22328428.016
        48.400          33.400
 120505161.970 7  93900079.23244  22931372.063                    22931372.723
        45.200          27.000
 123750520.570 6  96428851.07444  23548915.609                    23548922.078
        40.400          25.700
 123869124.724 7  96521399.56943  23571512.289                    23571515.035
        43.200          21.800
 118281096.654 7  92167089.23845  22508143.875                    22508150.648
        44.500          32.400
 110726879.854 8  86280732.52146  21070631.984                    21070638.098
        49.100          37.100
 126186797.080 7  98327250.31343  24012514.906                    24012517.992
        44.100          23.300
 120253736.432 7  93704220.11244  22883525.977                    22883527.055
        45.200          28.900
 18  3 11 13 16 34.0000000  0 17G10R06G15R05R13R14R15R22R23G17G11G32
                                G28G01G24G12G19
 120661030.212 7  94021662.29145  22961041.695                    22961048.273
        43.800          30.400
                  89162419.149 6  21482997.516                    21482998.406
                        36.200
 128863341.688 6 100413029.72942  24521882.211                    24521887.309
        39.400          16.300
                  86313776.616 5  20760140.859                    20760142.621
                        34.300
                  88315318.041 5  21263941.688                    21263942.836
                        35.600
                  80838835.674 6  19498062.922                    19498065.469
                        40.500
                  88343898.369 6  21255882.188                    21255886.160
                        37.600
                  86941906.092 6  20940619.711                    20940621.320
                        40.400
                  87406147.706 5  21008133.195                    21008136.563
                        35.800
 117335469.918 8  91430242.13745  22328197.148                    22328199.840
        48.800          33.800
 120507086.830 7  93901579.13744  22931737.516                    22931738.879
        45.800          26.400
 123747998.443 7  96426885.84844  23548436.344                    23548442.625
        42.200          26.900
 123872500.677 7  96524030.18943  23572154.578                    23572158.406
        42.600          21.800
 118281061.232 7  92167061.64345  22508136.867                    22508143.656
        44.400          32.400
 110726848.231 8  86280707.87946  21070626.594                    21070631.762
        49.300          37.600
 126183190.215 7  98324439.77343  24011828.133                    24011831.574
        44.600          23.200
 120250963.231 7  93702059.17144  22882998.180                    22882999.160
        45.000          29.400
 18  3 11 13 16 35.0000000  0 17G10R06G15R05R13R14R15R22R23G17G11G32
                                G28G01G24G12G19
 120663438.490 7  94023538.86645  22961500.758                    22961506.512
        44.100          30.700
                  89160504.348 6  21482536.180                    21482537.313
                        36.400
 128867476.258 6 100416251.50442  24522669.016                    24522673.742
        39.400          16.300
                  86315495.375 5  20760554.039                    20760555.410
                        34.500
                  88318384.758 5  21264680.602                    21264681.520
                        35.200
                  80838873.210 6  19498072.023                    19498074.539
                        40.500
                  88341425.298 6  21255286.297                    21255290.527
                        37.700
                  86943811.689 6  20941078.469                    20941079.844
                        40.400
                  87404268.028 5  21007681.727                    21007684.965
                        35.800
 117334270.702 7  91429307.68745  22327967.945                    22327971.656
        47.900          33.600
 120509012.393 7  93903079.60044  22932102.813                    22932105.219
        45.100          28.600
 123745476.789 7  96424920.96544  23547957.617                    23547962.957
        44.100          28.700
 123875876.954 7  96526661.05943  23572797.992                    23572799.926
        43.200          22.600
 118281026.544 7  92167034.61645  22508129.563                    22508136.875
        44.000          32.300
 110726817.301 8  86280683.77446  21070620.359                    21070626.008
        49.100          37.600
 126179583.558 7  98321629.38243  24011141.781                    24011145.012
        44.600          22.800
 120248190.461 7  93699898.56544  22882469.453                    22882471.766
        44.200          28.900
 18  3 11 13 16 36.0000000  0 17G10R06G15R05R13R14R15R22R23G17G11G32
                                G28G01G24G12G19
 120665847.311 7  94025415.86745  22961959.594                    22961964.930
        44.500          30.500
                  89158590.046 6  21482075.477                    21482076.289
                        36.700
 128871611.063 6 100419473.43042  24523455.547                    24523460.469
        39.000          16.300
                  86317214.798 5  20760967.250                    20760968.789
                        34.400
                  88321451.864 5  21265418.266                    21265420.250
                        35.600
                  80838911.376 6  19498081.273                    19498083.898
                        40.500
                  88338952.621 6  21254691.414                    21254696.027
                        37.500
                  86945717.897 6  20941538.297                    20941539.500
                        40.400
                  87402388.924 5  21007230.070                    21007233.945
                        35.600
 117333072.036 8  91428373.66545  22327740.320                    22327744.078
        48.000          34.000
 120510938.624 7  93904580.59044  22932467.938                    22932471.754
        43.700          27.500
 123742955.508 7  96422956.34644  23547478.000                    23547483.176
        45.000          28.900
 123879253.467 7  96529292.10443  23573439.953                    23573442.832
        42.800          22.600
 118280992.595 7  92167008.16345  22508123.320                    22508130.391
        44.100          32.100
 110726786.982 8  86280660.15446  21070614.664                    21070620.203
        49.300          37.600
 126175977.073 7  98318819.13443  24010455.672                    24010458.523
        44.600          22.900
 120245418.162 7  93697738.33344  22881941.813                    22881943.996
        43.800          28.700
 18  3 11 13 16 37.0000000  0 17G10R06G15R05R13R14R15R22R23G17G11G32
                                G28G01G24G12G19
 120668256.757 7  94027293.36445  22962417.531                    22962424.047
        43.300          30.500
                  89156676.327 6  21481613.789                    21481614.262
                        36.700
 128875746.088 6 100422695.52842  24524242.000                    24524247.582
        38.500          15.600
                  86318934.898 5  20761381.461                    20761382.652
                        34.200
                  88324519.379 5  21266156.398                    21266157.934
                        35.300
                  80838950.220 6  19498090.891                    19498092.629
                        40.300
                  88336480.369 6  21254096.664                    21254101.031
                        37.600
                  86947624.820 6  20941996.461                    20941998.551
                        40.200
                  87400510.438 6  21006778.211                    21006781.641
                        36.200
 117331874.036 8  91427440.17745  22327513.188                    22327515.730
        48.800          34.100
 120512865.627 7  93906082.15444  22932834.172                    22932838.383
        43.100          28.100
 123740434.743 7  96420992.10444  23546998.438                    23547003.738
        45.200          29.100
 123882630.284 7  96531923.39443  23574082.883                    23574085.570
        42.700          22.300
 118280959.476 7  92166982.35545  22508116.344                    22508123.914
        43.700          32.100
 110726757.387 8  86280637.09346  21070608.883                    21070614.945
        49.200          37.500
 126172370.834 7  98316009.07843  24009769.219                    24009772.184
        44.900          22.000
 120242646.396 7  93695578.52044  22881414.641                    22881416.676
        43.600          28.800
 18  3 11 13 16 38.0000000  0 17G10R06G15R05R13R14R15R22R23G17G11G32
                                G28G01G24G12G19
 120670666.801 7  94029171.32545  22962875.914                    22962882.215
        42.600          30.400
                  89154763.181 6  21481153.398                    21481153.215
                        36.500
 128879881.272 6 100425917.77142  24525028.250                    24525034.355
        38.500          15.600
                  86320655.714 5  20761794.977                    20761796.723
                        34.800
                  88327587.296 5  21266895.594                    21266896.883
                        35.700
                  80838989.741 6  19498100.586                    19498102.805
                        40.400
                  88334008.519 6  21253502.398                    21253506.145
                        38.100
                  86949532.385 6  20942457.273                    20942457.859
                        40.500
                  87398632.556 5  21006326.906                    21006331.078
                        35.900
 117330676.643 8  91426507.13145  22327284.477                    22327287.910
        48.400          33.600
 120514793.333 7  93907584.25544  22933201.906                    22933205.355
        43.000          27.200
 123737914.411 7  96419028.18144  23546518.648                    23546523.738
        45.300          27.200
 123886007.430 7  96534554.93443  23574725.867                    23574727.879
        42.900          22.000
 118280927.077 7  92166957.10245  22508110.875                    22508118.141
        43.800          32.800
 110726728.534 8  86280614.61146  21070603.133                    21070608.895
        49.600          37.300
 126168764.817 7  98313199.19543  24009082.781                    24009086.227
        44.900          22.300
 120239875.154 7  93693419.12944  22880887.492                    22880889.121
        44.200          29.800
 18  3 11 13 16 39.0000000  0 17G10R06G15R05R13R14R15R22R23G17G11G32
                                G28G01G24G12G19
 120673077.432 7  94031049.73445  22963335.039                    22963340.719
        43.900          30.400
                  89152850.592 6  21480692.117                    21480692.672
                        36.500
 128884016.691 6 100429140.13342  24525815.133                    24525821.727
        38.400          15.600
                  86322377.186 5  20762209.344                    20762210.957
                        35.000
                  88330655.572 5  21267634.188                    21267635.805
                        35.600
                  80839029.930 6  19498109.773                    19498112.023
                        40.500
                  88331537.047 6  21252906.891                    21252911.168
                        38.200
                  86951440.590 6  20942916.125                    20942917.895
                        40.400
                  87396755.276 6  21005876.063                    21005879.500
                        36.000
 117329479.795 7  91425574.52745  22327055.727                    22327059.988
        47.200          33.200
 120516721.708 7  93909086.86644  22933569.453                    22933571.938
        43.900          28.300
 123735394.497 7  96417064.58744  23546038.648                    23546044.160
        44.500          26.200
 123889384.828 7  96537186.67843  23575367.039                    23575370.504
        42.800          22.300
 118280895.411 7  92166932.41945  22508105.219                    22508112.000
        43.600          31.000
 110726700.361 8  86280592.65346  21070598.078                    21070603.855
        49.500          37.300
 126165158.987 7  98310389.45643  24008397.039                    24008399.965
        44.800          22.300
 120237104.371 7  93691260.07744  22880360.641                    22880361.996
        44.700          28.700
 18  3 11 13 16 40.0000000  0 17G10R06G15R05R13R14R15R22R23G17G11G32
                                G28G01G24G12G19
 120675488.681 7  94032928.62545  22963794.313                    22963800.156
        44.400          30.300
                  89150938.563 6  21480231.031                    21480232.320
                        36.800
 128888152.338 6 100432362.70142  24526602.617                    24526608.629
        37.500          15.600
                  86324099.364 5  20762623.266                    20762624.863
                        34.600
                  88333724.279 5  21268372.102                    21268374.277
                        35.300
                  80839070.822 6  19498120.078                    19498122.414
                        40.600
                  88329065.987 6  21252312.977                    21252317.098
                        37.800
                  86953349.518 6  20943375.672                    20943377.969
                        40.400
                  87394878.594 6  21005423.883                    21005428.512
                        36.000
 117328283.586 8  91424642.42645  22326829.547                    22326831.832
        48.700          33.000
 120518650.837 7  93910590.06344  22933936.883                    22933939.313
        43.800          28.100
 123732875.041 7  96415101.34344  23545558.633                    23545564.809
        43.000          26.000
 123892762.565 7  96539818.66943  23576011.180                    23576013.566
        42.700          22.200
 118280864.526 7  92166908.35345  22508099.500                    22508106.020
        44.000          31.600
 110726672.933 8  86280571.28246  21070592.555                    21070598.414
        49.500          37.000
 126161553.408 7  98307579.91243  24007710.883                    24007713.496
        44.700          22.000
 120234334.109 7  93689101.43444  22879833.305                    22879835.168
        44.900          29.800
 18  3 11 13 16 41.0000000  0 17G10R06G15R05R13R14R15R22R23G17G11G32
                                G28G01G24G12G19
 120677900.522 7  94034807.99245  22964252.938                    22964259.188
        43.900          30.500
                  89149027.146 6  21479771.703                    21479771.367
                        36.100
 128892288.201 6 100435585.43242  24527389.172                    24527395.664
        37.400          15.600
                  86325822.252 5  20763038.070                    20763039.266
                        34.700
                  88336793.352 5  21269113.250                    21269112.949
                        35.300
                  80839112.391 6  19498130.500                    19498132.516
                        40.400
                  88326595.329 6  21251718.336                    21251722.734
                        37.600
                  86955259.130 6  20943835.359                    20943837.211
                        40.300
                  87393002.522 6  21004973.703                    21004977.266
                        36.500
 117327088.000 8  91423710.81645  22326602.078                    22326604.699
        49.000          33.800
 120520580.670 7  93912093.82044  22934303.547                    22934306.707
        43.800          27.000
 123730356.031 6  96413138.46744  23545077.773                    23545085.098
        41.400          25.600
 123896140.604 7  96542450.90143  23576654.133                    23576656.352
        43.200          22.300
 118280834.423 7  92166884.90445  22508094.148                    22508100.199
        43.600          32.100
 110726646.183 8  86280550.44046  21070587.539                    21070593.313
        49.500          37.200
 126157948.063 7  98304770.54143  24007024.680                    24007027.668
        44.700          21.800
 120231564.349 7  93686943.17345  22879306.336                    22879307.957
        44.900          30.200
 18  3 11 13 16 42.0000000  0 17G10R06G15R05R13R14R15R22R23G17G11G32
                                G28G01G24G12G19
 120680312.994 7  94036687.83745  22964712.367                    22964717.867
        43.700          30.500
                  89147116.284 6  21479309.250                    21479311.176
                        36.500
 128896424.156 6 100438808.25642  24528176.570                    24528182.754
        36.800          15.600
                  86327545.802 5  20763452.508                    20763453.750
                        34.600
                  88339862.833 5  21269850.695                    21269852.516
                        35.400
                  80839154.624 6  19498140.422                    19498142.254
                        40.500
                  88324125.053 6  21251124.547                    21251128.305
                        37.200
                  86957169.392 6  20944296.406                    20944297.750
                        40.500
                  87391127.031 6  21004523.273                    21004526.816
                        36.000
 117325892.990 8  91422779.64045  22326374.086                    22326377.395
        48.100          33.600
 120522511.214 7  93913598.14644  22934671.430                    22934674.152
        44.300          25.800
 123727837.439 6  96411175.91244  23544597.586                    23544605.895
        38.800          24.000
 123899518.938 7  96545083.36543  23577296.414                    23577299.281
        42.500          22.300
 118280805.061 7  92166862.03045  22508088.875                    22508094.281
        43.700          32.100
 110726620.147 8  86280530.15046  21070582.805                    21070588.816
        49.400          37.200
 126154342.917 7  98301961.34743  24006338.656                    24006341.797
        44.700          21.800
 120228795.092 7  93684785.30744  22878779.547                    22878781.055
        44.600          29.400
 18  3 11 13 16 43.0000000  0 17G10R06G15R05R13R14R15R22R23G17G11G32
                                G28G01G24G12G19
 120682725.969 7  94038568.07245  22965171.742                    22965177.273
        44.900          31.200
                  89145205.983 6  21478849.680                    21478850.906
                        36.400
 128900560.336 6 100442031.25942  24528963.758                    24528969.523
        38.300          15.600
                  86329269.985 5  20763866.602                    20763868.422
                        34.600
                  88342932.663 5  21270590.398                    21270591.305
                        35.300
                  80839197.468 6  19498150.844                    19498152.973
                        40.300
                  88321655.132 6  21250529.359                    21250533.719
                        37.500
                  86959080.249 6  20944756.594                    20944757.820
                        40.500
                  87389252.093 6  21004072.758                    21004076.063
                        36.500
 117324698.502 8  91421848.87245  22326146.352                    22326150.133
        48.700          33.700
 120524442.367 7  93915102.93744  22935038.922                    22935041.438
        44.700          28.700
 123725319.163 6  96409213.65144  23544118.703                    23544125.914
        39.000          25.600
 123902897.504 7  96547716.00843  23577939.414                    23577942.031
        43.100          22.300
 118280776.372 7  92166839.67745  22508082.859                    22508088.754
        43.800          31.200
 110726594.746 8  86280510.35946  21070578.047                    21070583.887
        49.500          37.400
 126150737.919 7  98299152.25343  24005652.711                    24005655.727
        44.900          22.300
 120226026.235 7  93682627.75644  22878252.359                    22878253.574
        44.800          29.600
 18  3 11 13 16 44.0000000  0 17G10R06G15R05R13R14R15R22R23G17G11G32
                                G28G01G24G12G19
 120685139.510 7  94040448.75945  22965631.156                    22965635.813
        45.200          32.100
                  89143296.228 6  21478389.555                    21478390.953
                        36.400
 128904696.648 6 100445254.34742  24529751.164                    24529756.859
        38.700          16.900
                  86330994.824 5  20764281.617                    20764283.340
                        35.000
                  88346002.854 5  21271330.477                    21271330.875
                        35.800
                  80839240.952 6  19498160.539                    19498162.813
                        40.400
                  88319185.606 6  21249936.172                    21249939.094
                        37.300
                  86960991.769 6  20945216.445                    20945218.281
                        40.500
                  87387377.742 6  21003621.758                    21003625.113
                        36.800
 117323504.620 8  91420918.59345  22325920.070                    22325922.676
        49.200          33.100
 120526374.206 7  93916608.26744  22935406.672                    22935408.988
        44.900          27.200
 123722801.395 6  96407251.81444  23543640.633                    23543646.746
        40.300          25.000
 123906276.325 7  96550348.85943  23578582.094                    23578585.219
        42.900          21.500
 118280748.479 7  92166817.94545  22508078.000                    22508083.898
        43.300          32.000
 110726570.008 8  86280491.08346  21070573.391                    21070579.000
        49.700          37.400
 126147133.128 7  98296343.30743  24004966.719                    24004969.680
        44.700          21.800
 120223257.903 7  93680470.61744  22877725.594                    22877726.547
        44.900          29.400
 18  3 11 13 16 45.0000000  0 17G10R06G15R05R13R14R15R22R23G17G11G32
                                G28G01G24G12G19
 120687553.699 7  94042329.96445  22966090.313                    22966095.930
        44.600          30.700
                  89141387.083 6  21477931.445                    21477930.699
                        36.900
 128908833.192 6 100448477.60342  24530538.156                    24530543.820
        38.400          17.800
                  86332720.378 5  20764697.086                    20764698.723
                        34.900
                  88349073.477 5  21272068.734                    21272070.227
                        35.700
                  80839285.136 6  19498171.547                    19498173.945
                        40.400
                  88316716.483 6  21249340.906                    21249346.086
                        37.400
                  86962903.975 6  20945676.477                    20945678.715
                        40.200
                  87385504.010 6  21003171.625                    21003174.965
                        36.600
 117322311.361 8  91419988.78145  22325693.438                    22325695.723
        49.100          33.600
 120528306.785 7  93918114.17744  22935774.094                    22935776.844
        44.500          27.700
 123720284.080 7  96405290.32544  23543163.102                    23543168.797
        42.000          27.700
 123909655.471 7  96552981.95643  23579224.492                    23579228.152
        42.600          22.600
 118280721.332 7  92166796.79245  22508072.305                    22508078.813
        43.400          31.300
 110726545.984 8  86280472.35746  21070568.875                    21070574.000
        49.200          37.500
 126143528.554 7  98293534.55343  24004280.258                    24004283.551
        44.300          22.300
 120220490.075 7  93678313.86644  22877198.938                    22877200.027
        45.300          29.500
 18  3 11 13 16 46.0000000  0 17G10R06G15R05R13R14R15R22R23G17G11G32
                                G28G01G24G12G19
 120689968.417 7  94044211.57845  22966549.555                    22966555.254
        44.300          30.400
                  89139478.450 6  21477471.313                    21477470.508
                        36.800
 128912969.895 6 100451701.03042  24531325.984                    24531330.582
        38.700          16.900
                  86334446.573 5  20765112.203                    20765113.836
                        35.200
                  88352144.465 5  21272809.023                    21272809.566
                        35.600
                  80839329.983 6  19498182.148                    19498184.605
                        40.400
                  88314247.703 6  21248747.500                    21248751.793
                        37.700
                  86964816.814 6  20946137.758                    20946139.555
                        40.200
                  87383630.836 6  21002720.836                    21002725.297
                        36.600
 117321118.661 8  91419059.40745  22325466.070                    22325469.195
        48.400          33.300
 120530240.039 7  93919620.62544  22936141.320                    22936144.977
        43.900          27.500
 123717767.225 7  96403329.16444  23542684.453                    23542689.316
        44.000          29.600
 123913034.878 7  96555615.25543  23579869.813                    23579871.250
        43.300          22.900
 118280694.924 7  92166776.20545  22508067.016                    22508073.574
        43.600          31.500
 110726522.646 8  86280454.17646  21070564.258                    21070570.367
        49.600          37.300
 126139924.188 7  98290725.93843  24003593.992                    24003597.895
        44.200          22.000
 120217722.706 7  93676157.47645  22876672.719                    22876673.617
        44.900          30.000
 18  3 11 13 16 47.0000000  0 17G10R06G15R05R13R14R15R22R23G17G11G32
                                G28G01G24G12G19
 120692383.752 7  94046093.66045  22967009.289                    22967014.855
        44.400          30.600
                  89137570.384 6  21477011.422                    21477011.074
                        36.800
 128917106.817 6 100454924.59842  24532113.609                    24532117.605
        39.300          16.300
                  86336173.477 5  20765527.031                    20765529.059
                        34.900
                  88355215.838 5  21273548.375                    21273549.051
                        35.300
                  80839375.516 6  19498193.375                    19498195.465
                        40.600
                  88311779.361 6  21248154.000                    21248157.527
                        37.900
                  86966730.294 6  20946598.961                    20946600.512
                        40.300
                  87381758.297 6  21002271.664                    21002275.008
                        36.500
 117319926.542 8  91418130.47545  22325238.063                    22325241.867
        48.100          33.400
 120532174.012 7  93921127.61944  22936509.148                    22936512.547
        43.500          26.300
 123715250.800 7  96401368.31845  23542205.711                    23542211.168
        45.100          30.500
 123916414.601 7  96558248.80343  23580511.078                    23580513.863
        42.800          22.500
 118280669.245 7  92166756.19645  22508062.430                    22508068.855
        43.500          31.600
 110726500.009 8  86280436.53146  21070559.523                    21070565.574
        49.400          37.100
 126136320.031 7  98287917.50543  24002908.352                    24002911.840
        44.600          22.000
 120214955.839 7  93674001.48144  22876145.258                    22876147.156
        44.400          29.500
 18  3 11 13 16 48.0000000  0 17G10R06G15R05R13R14R15R22R23G17G11G32
                                G28G01G24G12G19
 120694799.652 7  94047976.18545  22967469.008                    22967474.465
        44.600          31.400
                  89135662.819 6  21476551.625                    21476551.281
                        36.800
 128921243.895 6 100458148.29642  24532901.023                    24532905.160
        39.400          16.300
                  86337901.035 5  20765942.172                    20765944.434
                        34.300
                  88358287.563 5  21274287.555                    21274288.914
                        35.600
                  80839421.645 6  19498204.477                    19498207.012
                        40.600
                  88309311.342 6  21247559.102                    21247564.102
                        37.900
                  86968644.415 6  20947059.734                    20947061.445
                        40.400
                  87379886.300 6  21001820.727                    21001825.414
                        37.100
 117318734.987 8  91417202.00645  22325012.547                    22325014.953
        49.000          33.400
 120534108.659 7  93922635.12944  22936877.578                    22936880.820
        43.800          27.100
 123712734.809 7  96399407.79045  23541727.148                    23541732.418
        45.200          30.200
 123919794.600 7  96560882.56643  23581154.570                    23581157.227
        42.900          22.600
 118280644.327 7  92166736.77145  22508057.664                    22508063.898
        43.300          32.400
 110726478.012 8  86280419.39946  21070555.594                    21070561.293
        49.500          37.500
 126132716.054 7  98285109.21143  24002223.070                    24002226.383
        44.500          21.800
 120212189.424 7  93671845.83544  22875619.336                    22875620.816
        45.000          28.900
 18  3 11 13 16 49.0000000  0 17G10R06G15R05R13R14R15R22R23G17G11G32
                                G28G01G24G12G19
 120697216.169 7  94049859.19545  22967928.148                    22967934.691
        43.500          30.900
                  89133755.834 6  21476092.156                    21476092.254
                        36.000
 128925381.165 6 100461372.15042  24533688.297                    24533692.555
        40.200          16.300
                  86339629.271 5  20766358.555                    20766360.332
                        34.300
                  88361359.720 5  21275027.398                    21275028.930
                        35.700
                  80839468.477 6  19498216.055                    19498218.129
                        40.200
                  88306843.774 6  21246966.672                    21246970.203
                        37.500
