% program   : RTKPOST ver.2.4.2
% inp file  : Z:\home\linda\Documents\Spring18\GitHub_Unis\data\processed_data\4625070A.obs
% inp file  : Z:\home\linda\Documents\Spring18\GitHub_Unis\data\base_station_data\lyrs0700.18o
% inp file  : Z:\home\linda\Documents\Spring18\GitHub_Unis\data\processed_data\4625070A.nav
% obs start : 2018/03/11 14:22:12.0 GPST (week1992  51732.0s)
% obs end   : 2018/03/11 14:37:48.0 GPST (week1992  52668.0s)
% pos mode  : static
% freqs     : L1+L2
% solution  : forward
% elev mask : 15.0 deg
% dynamics  : on
% tidecorr  : off
% ionos opt : iono-free
% tropo opt : saastamoinen
% ephemeris : broadcast
% navi sys  : gps glonass galileo qzss sbas
% amb res   : fix and hold
% amb glo   : on
% val thres : 3.0
% antenna1  :                       ( 0.0000  0.0000  0.0000)
% antenna2  :                       ( 0.0000  0.0000  0.0000)
% ref pos   : 78.228825638   15.397310064   495.6816
%
% (lat/lon/height=WGS84/ellipsoidal,Q=1:fix,2:float,3:sbas,4:dgps,5:single,6:ppp,ns=# of satellites)
%  GPST                  latitude(deg) longitude(deg)  height(m)   Q  ns   sdn(m)   sde(m)   sdu(m)  sdne(m)  sdeu(m)  sdun(m) age(s)  ratio
2018/03/11 14:22:12.000   78.249626354   16.122682816   657.9112   2   9   1.4973   0.9943   6.6258  -0.5461  -1.3241   2.8426   0.00    1.1
2018/03/11 14:22:13.000   78.249627986   16.122701683   661.2426   2   9   1.0681   0.7043   4.7451  -0.3917  -0.9487   2.0358   0.00    1.1
2018/03/11 14:22:14.000   78.249628912   16.122712643   660.8199   2   9   0.8739   0.5753   3.8864  -0.3209  -0.7771   1.6673   0.00    1.1
2018/03/11 14:22:15.000   78.249624986   16.122719459   659.9965   2   9   0.7569   0.4982   3.3664  -0.2779  -0.6730   1.4441   0.00    1.1
2018/03/11 14:22:16.000   78.249623795   16.122725572   660.2175   2   9   0.6763   0.4456   3.0071  -0.2482  -0.6011   1.2899   0.00    1.1
2018/03/11 14:22:17.000   78.249622817   16.122736588   659.8226   2   9   0.6163   0.4067   2.7386  -0.2259  -0.5473   1.1746   0.00    1.1
2018/03/11 14:22:18.000   78.249620956   16.122744504   658.7096   2   9   0.5693   0.3764   2.5274  -0.2083  -0.5050   1.0838   0.00    1.1
2018/03/11 14:22:19.000   78.249618346   16.122757307   657.2402   2   9   0.5310   0.3519   2.3549  -0.1940  -0.4704   1.0097   0.00    1.1
2018/03/11 14:22:20.000   78.249617714   16.122765895   656.4551   2   9   0.4989   0.3316   2.2100  -0.1819  -0.4413   0.9474   0.00    1.1
2018/03/11 14:22:21.000   78.249615371   16.122773984   655.1725   2   9   0.4716   0.3145   2.0858  -0.1715  -0.4164   0.8940   0.00    1.1
2018/03/11 14:22:22.000   78.249612819   16.122778375   653.5073   2   9   0.4478   0.2997   1.9773  -0.1625  -0.3946   0.8473   0.00    1.0
2018/03/11 14:22:23.000   78.249611293   16.122782053   652.7866   2   9   0.4268   0.2867   1.8813  -0.1544  -0.3753   0.8060   0.00    1.0
2018/03/11 14:22:24.000   78.249609987   16.122783014   652.3562   2   9   0.4080   0.2753   1.7953  -0.1472  -0.3580   0.7690   0.00    1.0
2018/03/11 14:22:25.000   78.249609202   16.122783226   652.1148   2   9   0.3912   0.2651   1.7175  -0.1406  -0.3424   0.7354   0.00    1.0
2018/03/11 14:22:26.000   78.249609155   16.122782594   652.0721   2   9   0.3758   0.2559   1.6465  -0.1346  -0.3281   0.7048   0.00    1.0
2018/03/11 14:22:27.000   78.249609521   16.122782006   652.1767   2   9   0.3618   0.2476   1.5813  -0.1291  -0.3150   0.6767   0.00    1.1
2018/03/11 14:22:28.000   78.249610184   16.122782905   652.4245   2   9   0.3489   0.2400   1.5211  -0.1240  -0.3028   0.6507   0.00    1.1
2018/03/11 14:22:29.000   78.249610482   16.122782852   652.3681   2   9   0.3370   0.2330   1.4652  -0.1193  -0.2916   0.6266   0.00    1.1
2018/03/11 14:22:30.000   78.249610180   16.122783386   652.1996   2   9   0.3259   0.2266   1.4130  -0.1149  -0.2810   0.6041   0.00    1.1
2018/03/11 14:22:31.000   78.249610908   16.122782522   652.1044   2   9   0.3156   0.2207   1.3641  -0.1107  -0.2712   0.5829   0.00    1.1
2018/03/11 14:22:32.000   78.249611202   16.122779778   652.3461   2   9   0.3059   0.2152   1.3182  -0.1068  -0.2619   0.5631   0.00    1.1
2018/03/11 14:22:33.000   78.249611585   16.122777322   652.6096   2   9   0.2968   0.2100   1.2749  -0.1031  -0.2532   0.5444   0.00    1.1
2018/03/11 14:22:34.000   78.249611860   16.122774935   652.9110   2   9   0.2882   0.2052   1.2340  -0.0996  -0.2449   0.5267   0.00    1.1
2018/03/11 14:22:35.000   78.249611877   16.122774829   652.9115   2   9   0.2801   0.2007   1.1952  -0.0963  -0.2371   0.5099   0.00    1.1
2018/03/11 14:22:36.000   78.249611431   16.122774112   652.7858   2   9   0.2725   0.1965   1.1585  -0.0931  -0.2297   0.4940   0.00    1.2
2018/03/11 14:22:37.000   78.249611239   16.122775692   652.7535   2   9   0.2652   0.1925   1.1235  -0.0901  -0.2226   0.4788   0.00    1.2
2018/03/11 14:22:38.000   78.249611082   16.122778090   652.6921   2   9   0.2583   0.1887   1.0902  -0.0873  -0.2159   0.4644   0.00    1.2
2018/03/11 14:22:39.000   78.249610845   16.122780747   652.6414   2   9   0.2518   0.1851   1.0585  -0.0845  -0.2094   0.4506   0.00    1.2
2018/03/11 14:22:40.000   78.249610539   16.122781531   652.6220   2   9   0.2455   0.1817   1.0282  -0.0819  -0.2033   0.4375   0.00    1.2
2018/03/11 14:22:41.000   78.249610472   16.122781880   652.7590   2   9   0.2396   0.1785   0.9992  -0.0794  -0.1974   0.4249   0.00    1.2
2018/03/11 14:22:42.000   78.249610310   16.122783156   652.9330   2   9   0.2339   0.1754   0.9715  -0.0770  -0.1918   0.4129   0.00    1.3
2018/03/11 14:22:43.000   78.249610215   16.122782792   652.9563   2   9   0.2285   0.1724   0.9449  -0.0748  -0.1865   0.4014   0.00    1.3
2018/03/11 14:22:44.000   78.249610130   16.122782391   653.0605   2   9   0.2233   0.1696   0.9195  -0.0726  -0.1813   0.3903   0.00    1.3
2018/03/11 14:22:45.000   78.249610313   16.122781803   653.1334   2   9   0.2183   0.1670   0.8951  -0.0704  -0.1764   0.3797   0.00    1.3
2018/03/11 14:22:46.000   78.249610660   16.122781502   653.2002   2   9   0.2135   0.1644   0.8716  -0.0684  -0.1716   0.3695   0.00    1.3
2018/03/11 14:22:47.000   78.249610902   16.122780975   653.2657   2   9   0.2090   0.1619   0.8491  -0.0665  -0.1670   0.3597   0.00    1.3
2018/03/11 14:22:48.000   78.249611250   16.122780472   653.3159   2   9   0.2046   0.1596   0.8275  -0.0646  -0.1627   0.3503   0.00    1.3
2018/03/11 14:22:49.000   78.249611697   16.122780152   653.3621   2   9   0.2004   0.1573   0.8067  -0.0628  -0.1584   0.3413   0.00    1.3
2018/03/11 14:22:50.000   78.249611912   16.122779964   653.3731   2   9   0.1963   0.1551   0.7866  -0.0611  -0.1544   0.3326   0.00    1.3
2018/03/11 14:22:51.000   78.249612103   16.122780092   653.3669   2   9   0.1924   0.1530   0.7674  -0.0594  -0.1505   0.3242   0.00    1.3
2018/03/11 14:22:52.000   78.249612117   16.122780280   653.3356   2   9   0.1887   0.1510   0.7488  -0.0578  -0.1467   0.3161   0.00    1.3
2018/03/11 14:22:53.000   78.249612341   16.122781776   653.3214   2   9   0.1851   0.1490   0.7309  -0.0562  -0.1430   0.3083   0.00    1.3
2018/03/11 14:22:54.000   78.249612265   16.122782980   653.1742   2   9   0.1816   0.1471   0.7136  -0.0547  -0.1395   0.3008   0.00    1.3
2018/03/11 14:22:55.000   78.249612062   16.122784488   653.0539   2   9   0.1783   0.1453   0.6970  -0.0533  -0.1362   0.2935   0.00    1.3
2018/03/11 14:22:56.000   78.249611623   16.122785314   652.8778   2   9   0.1750   0.1435   0.6810  -0.0519  -0.1329   0.2866   0.00    1.3
2018/03/11 14:22:57.000   78.249611261   16.122785251   652.7438   2   9   0.1719   0.1418   0.6655  -0.0506  -0.1297   0.2798   0.00    1.4
2018/03/11 14:22:58.000   78.249610893   16.122785311   652.5842   2   9   0.1689   0.1401   0.6505  -0.0493  -0.1267   0.2733   0.00    1.4
2018/03/11 14:22:59.000   78.249610624   16.122785464   652.5000   2   9   0.1660   0.1385   0.6360  -0.0480  -0.1238   0.2670   0.00    1.4
2018/03/11 14:23:00.000   78.249610898   16.122783735   652.5997   2   9   0.1632   0.1370   0.6221  -0.0468  -0.1209   0.2609   0.00    1.4
2018/03/11 14:23:01.000   78.249611239   16.122782937   652.7112   2   9   0.1605   0.1354   0.6086  -0.0456  -0.1182   0.2550   0.00    1.4
2018/03/11 14:23:02.000   78.249611717   16.122783343   652.8889   2   9   0.1579   0.1340   0.5955  -0.0445  -0.1155   0.2493   0.00    1.4
2018/03/11 14:23:03.000   78.249612269   16.122782752   653.1098   2   9   0.1554   0.1325   0.5829  -0.0434  -0.1129   0.2438   0.00    1.4
2018/03/11 14:23:04.000   78.249612628   16.122782051   653.3065   2   9   0.1529   0.1312   0.5707  -0.0424  -0.1105   0.2385   0.00    1.4
2018/03/11 14:23:05.000   78.249612803   16.122781620   653.4458   2   9   0.1505   0.1298   0.5589  -0.0413  -0.1080   0.2333   0.00    1.4
2018/03/11 14:23:06.000   78.249612897   16.122781781   653.5492   2   9   0.1482   0.1285   0.5474  -0.0403  -0.1057   0.2283   0.00    1.4
2018/03/11 14:23:07.000   78.249612888   16.122781920   653.5677   2   9   0.1460   0.1272   0.5363  -0.0394  -0.1035   0.2235   0.00    1.4
2018/03/11 14:23:08.000   78.249612933   16.122782440   653.5978   2   9   0.1438   0.1259   0.5256  -0.0385  -0.1013   0.2188   0.00    1.4
2018/03/11 14:23:09.000   78.249612745   16.122782825   653.5401   2   9   0.1417   0.1247   0.5152  -0.0376  -0.0991   0.2142   0.00    1.4
2018/03/11 14:23:10.000   78.249612465   16.122783662   653.4659   2   9   0.1397   0.1235   0.5051  -0.0367  -0.0971   0.2098   0.00    1.4
2018/03/11 14:23:11.000   78.249612054   16.122784055   653.3367   2   9   0.1377   0.1224   0.4953  -0.0359  -0.0951   0.2055   0.00    1.4
2018/03/11 14:23:12.000   78.249611713   16.122784441   653.2133   2   9   0.1358   0.1212   0.4858  -0.0351  -0.0931   0.2014   0.00    1.4
2018/03/11 14:23:13.000   78.249611458   16.122784790   653.0814   2   9   0.1339   0.1201   0.4766  -0.0343  -0.0913   0.1974   0.00    1.4
2018/03/11 14:23:14.000   78.249611264   16.122785664   652.9879   2   9   0.1321   0.1191   0.4677  -0.0335  -0.0894   0.1935   0.00    1.4
2018/03/11 14:23:15.000   78.249611297   16.122785709   652.9648   2   9   0.1304   0.1180   0.4590  -0.0328  -0.0877   0.1897   0.00    1.4
2018/03/11 14:23:16.000   78.249611439   16.122785737   652.9931   2   9   0.1287   0.1170   0.4506  -0.0321  -0.0859   0.1860   0.00    1.4
2018/03/11 14:23:17.000   78.249611555   16.122785898   652.9940   2   9   0.1270   0.1160   0.4424  -0.0314  -0.0843   0.1824   0.00    1.4
2018/03/11 14:23:18.000   78.249611584   16.122785981   653.0025   2   9   0.1254   0.1150   0.4345  -0.0307  -0.0826   0.1790   0.00    1.4
2018/03/11 14:23:19.000   78.249611618   16.122785751   653.0291   2   9   0.1238   0.1140   0.4268  -0.0301  -0.0811   0.1756   0.00    1.4
2018/03/11 14:23:20.000   78.249611642   16.122785873   653.0532   2   9   0.1223   0.1131   0.4193  -0.0294  -0.0795   0.1723   0.00    1.4
2018/03/11 14:23:21.000   78.249611622   16.122785542   653.0317   2   9   0.1208   0.1121   0.4120  -0.0288  -0.0780   0.1691   0.00    1.4
2018/03/11 14:23:22.000   78.249611672   16.122785790   653.0189   2   9   0.1193   0.1112   0.4049  -0.0282  -0.0766   0.1660   0.00    1.4
2018/03/11 14:23:23.000   78.249611701   16.122785678   652.9955   2   9   0.1179   0.1103   0.3980  -0.0277  -0.0752   0.1630   0.00    1.4
2018/03/11 14:23:24.000   78.249611840   16.122786010   653.0079   2   9   0.1165   0.1094   0.3913  -0.0271  -0.0738   0.1601   0.00    1.4
2018/03/11 14:23:25.000   78.249611827   16.122785908   653.0208   2   9   0.1152   0.1086   0.3848  -0.0266  -0.0724   0.1572   0.00    1.4
2018/03/11 14:23:26.000   78.249611995   16.122785333   653.0759   2   9   0.1139   0.1077   0.3784  -0.0260  -0.0711   0.1544   0.00    1.4
2018/03/11 14:23:27.000   78.249611995   16.122785615   653.1383   2   9   0.1126   0.1069   0.3722  -0.0255  -0.0699   0.1517   0.00    1.4
2018/03/11 14:23:28.000   78.249611940   16.122785980   653.1933   2   9   0.1113   0.1061   0.3662  -0.0250  -0.0686   0.1491   0.00    1.4
2018/03/11 14:23:29.000   78.249611869   16.122786234   653.2405   2   9   0.1101   0.1053   0.3604  -0.0246  -0.0674   0.1465   0.00    1.4
2018/03/11 14:23:30.000   78.249611872   16.122785945   653.2749   2   9   0.1089   0.1045   0.3546  -0.0241  -0.0663   0.1440   0.00    1.4
2018/03/11 14:23:31.000   78.249611848   16.122785750   653.2670   2   9   0.1078   0.1038   0.3491  -0.0237  -0.0651   0.1416   0.00    1.4
2018/03/11 14:23:32.000   78.249611771   16.122786106   653.2534   2   9   0.1066   0.1030   0.3437  -0.0232  -0.0640   0.1392   0.00    1.4
2018/03/11 14:23:33.000   78.249611653   16.122785668   653.2006   2   9   0.1055   0.1023   0.3384  -0.0228  -0.0629   0.1369   0.00    1.4
2018/03/11 14:23:34.000   78.249611598   16.122785509   653.1659   2   9   0.1044   0.1015   0.3332  -0.0224  -0.0618   0.1347   0.00    1.4
2018/03/11 14:23:35.000   78.249611511   16.122785521   653.1043   2   9   0.1033   0.1008   0.3282  -0.0220  -0.0608   0.1325   0.00    1.4
2018/03/11 14:23:36.000   78.249611504   16.122785338   653.0808   2   9   0.1023   0.1001   0.3233  -0.0216  -0.0598   0.1303   0.00    1.4
2018/03/11 14:23:37.000   78.249611577   16.122785373   653.0774   2   9   0.1013   0.0994   0.3185  -0.0212  -0.0588   0.1282   0.00    1.4
2018/03/11 14:23:38.000   78.249611702   16.122785235   653.0823   2   9   0.1003   0.0987   0.3138  -0.0209  -0.0578   0.1262   0.00    1.4
2018/03/11 14:23:39.000   78.249611844   16.122785323   653.0854   2   9   0.0993   0.0980   0.3093  -0.0205  -0.0569   0.1242   0.00    1.3
2018/03/11 14:23:40.000   78.249611978   16.122784945   653.0751   2   9   0.0984   0.0974   0.3048  -0.0202  -0.0560   0.1223   0.00    1.3
2018/03/11 14:23:41.000   78.249612154   16.122784967   653.0653   2   9   0.0974   0.0967   0.3005  -0.0198  -0.0551   0.1204   0.00    1.3
2018/03/11 14:23:42.000   78.249612271   16.122785035   653.0261   2   9   0.0965   0.0961   0.2962  -0.0195  -0.0542   0.1185   0.00    1.3
2018/03/11 14:23:43.000   78.249612248   16.122785324   652.9823   2   9   0.0956   0.0955   0.2921  -0.0192  -0.0533   0.1167   0.00    1.3
2018/03/11 14:23:44.000   78.249612282   16.122785468   652.9707   2   9   0.0947   0.0948   0.2881  -0.0189  -0.0525   0.1149   0.00    1.3
2018/03/11 14:23:45.000   78.249612337   16.122785488   652.9532   2   9   0.0939   0.0942   0.2841  -0.0186  -0.0517   0.1132   0.00    1.3
2018/03/11 14:23:46.000   78.249612346   16.122785656   652.9339   2   9   0.0930   0.0936   0.2802  -0.0183  -0.0509   0.1115   0.00    1.3
2018/03/11 14:23:47.000   78.249612287   16.122785567   652.9114   2   9   0.0922   0.0930   0.2765  -0.0181  -0.0501   0.1099   0.00    1.3
2018/03/11 14:23:48.000   78.249612178   16.122785614   652.8987   2   9   0.0914   0.0924   0.2728  -0.0178  -0.0493   0.1083   0.00    1.3
2018/03/11 14:23:49.000   78.249612040   16.122786263   652.8850   2   9   0.0906   0.0918   0.2692  -0.0175  -0.0486   0.1067   0.00    1.3
2018/03/11 14:23:50.000   78.249611891   16.122786902   652.8618   2   9   0.0898   0.0913   0.2656  -0.0173  -0.0479   0.1051   0.00    1.3
2018/03/11 14:23:51.000   78.249611851   16.122787696   652.8445   2   9   0.0890   0.0907   0.2622  -0.0170  -0.0471   0.1036   0.00    1.3
2018/03/11 14:23:52.000   78.249611800   16.122788535   652.8302   2   9   0.0883   0.0901   0.2588  -0.0168  -0.0464   0.1022   0.00    1.3
2018/03/11 14:23:53.000   78.249611750   16.122788928   652.8093   2   9   0.0875   0.0896   0.2555  -0.0166  -0.0457   0.1007   0.00    1.3
2018/03/11 14:23:54.000   78.249611765   16.122788999   652.7888   2   9   0.0868   0.0891   0.2523  -0.0164  -0.0451   0.0993   0.00    1.3
2018/03/11 14:23:55.000   78.249611813   16.122789160   652.7686   2   9   0.0861   0.0885   0.2491  -0.0161  -0.0444   0.0979   0.00    1.3
2018/03/11 14:23:56.000   78.249611841   16.122789036   652.7586   2   9   0.0854   0.0880   0.2460  -0.0159  -0.0438   0.0966   0.00    1.2
2018/03/11 14:23:57.000   78.249611952   16.122788937   652.7494   2   9   0.0847   0.0875   0.2430  -0.0157  -0.0431   0.0953   0.00    1.2
2018/03/11 14:23:58.000   78.249612041   16.122788590   652.7295   2   9   0.0840   0.0870   0.2400  -0.0155  -0.0425   0.0940   0.00    1.2
2018/03/11 14:23:59.000   78.249612094   16.122788518   652.6928   2   9   0.0833   0.0864   0.2371  -0.0153  -0.0419   0.0927   0.00    1.2
2018/03/11 14:24:00.000   78.249612214   16.122788233   652.6573   2   9   0.0827   0.0859   0.2342  -0.0152  -0.0413   0.0915   0.00    1.2
2018/03/11 14:24:01.000   78.249612309   16.122788305   652.6427   2   9   0.0820   0.0854   0.2314  -0.0150  -0.0407   0.0902   0.00    1.2
2018/03/11 14:24:02.000   78.249612350   16.122787983   652.6464   2   9   0.0814   0.0850   0.2287  -0.0148  -0.0402   0.0891   0.00    1.2
2018/03/11 14:24:03.000   78.249612418   16.122787730   652.6510   2   9   0.0808   0.0845   0.2260  -0.0146  -0.0396   0.0879   0.00    1.2
2018/03/11 14:24:04.000   78.249612468   16.122787626   652.6639   2   9   0.0801   0.0840   0.2234  -0.0145  -0.0390   0.0868   0.00    1.2
2018/03/11 14:24:05.000   78.249612479   16.122787799   652.6756   2   9   0.0795   0.0835   0.2208  -0.0143  -0.0385   0.0856   0.00    1.2
2018/03/11 14:24:06.000   78.249612470   16.122788055   652.6523   2   9   0.0789   0.0831   0.2183  -0.0142  -0.0380   0.0845   0.00    1.2
2018/03/11 14:24:07.000   78.249612397   16.122788414   652.6301   2   9   0.0784   0.0826   0.2158  -0.0140  -0.0375   0.0835   0.00    1.2
2018/03/11 14:24:08.000   78.249612296   16.122788898   652.5851   2   9   0.0778   0.0821   0.2134  -0.0139  -0.0369   0.0824   0.00    1.2
2018/03/11 14:24:09.000   78.249612220   16.122789053   652.5560   2   9   0.0772   0.0817   0.2110  -0.0138  -0.0364   0.0814   0.00    1.2
2018/03/11 14:24:10.000   78.249612179   16.122789442   652.5341   2   9   0.0767   0.0812   0.2087  -0.0136  -0.0360   0.0804   0.00    1.2
2018/03/11 14:24:11.000   78.249612062   16.122789407   652.5255   2   9   0.0761   0.0808   0.2064  -0.0135  -0.0355   0.0794   0.00    1.2
2018/03/11 14:24:12.000   78.249612007   16.122789414   652.5280   2   9   0.0756   0.0804   0.2041  -0.0134  -0.0350   0.0784   0.00    1.2
2018/03/11 14:24:13.000   78.249611927   16.122789224   652.5350   2   9   0.0750   0.0799   0.2019  -0.0133  -0.0345   0.0774   0.00    1.2
2018/03/11 14:24:14.000   78.249611955   16.122789325   652.5502   2   9   0.0745   0.0795   0.1998  -0.0131  -0.0341   0.0765   0.00    1.2
2018/03/11 14:24:15.000   78.249612041   16.122789377   652.5761   2   9   0.0740   0.0791   0.1976  -0.0130  -0.0336   0.0756   0.00    1.2
2018/03/11 14:24:16.000   78.249612126   16.122789457   652.5838   2   9   0.0735   0.0787   0.1956  -0.0129  -0.0332   0.0747   0.00    1.1
2018/03/11 14:24:17.000   78.249612223   16.122789619   652.5792   2   9   0.0730   0.0783   0.1935  -0.0128  -0.0328   0.0738   0.00    1.1
2018/03/11 14:24:18.000   78.249612304   16.122789802   652.5531   2   9   0.0725   0.0778   0.1915  -0.0127  -0.0323   0.0729   0.00    1.1
2018/03/11 14:24:19.000   78.249612367   16.122789790   652.5190   2   9   0.0720   0.0774   0.1895  -0.0126  -0.0319   0.0721   0.00    1.1
2018/03/11 14:24:20.000   78.249612371   16.122789575   652.4781   2   9   0.0715   0.0770   0.1876  -0.0125  -0.0315   0.0712   0.00    1.1
2018/03/11 14:24:21.000   78.249612340   16.122789237   652.4477   2   9   0.0710   0.0766   0.1857  -0.0124  -0.0311   0.0704   0.00    1.1
2018/03/11 14:24:22.000   78.249612278   16.122788890   652.4128   2   9   0.0705   0.0763   0.1838  -0.0123  -0.0307   0.0696   0.00    1.1
2018/03/11 14:24:23.000   78.249612177   16.122788635   652.3816   2   9   0.0701   0.0759   0.1820  -0.0122  -0.0303   0.0688   0.00    1.1
2018/03/11 14:24:24.000   78.249612090   16.122788221   652.3698   2   9   0.0696   0.0755   0.1802  -0.0122  -0.0299   0.0680   0.00    1.1
2018/03/11 14:24:25.000   78.249612033   16.122787963   652.3644   2   9   0.0692   0.0751   0.1784  -0.0121  -0.0295   0.0673   0.00    1.1
2018/03/11 14:24:26.000   78.249612022   16.122787879   652.3674   2   9   0.0687   0.0747   0.1766  -0.0120  -0.0292   0.0665   0.00    1.1
2018/03/11 14:24:27.000   78.249612072   16.122787830   652.3694   2   9   0.0683   0.0744   0.1749  -0.0119  -0.0288   0.0658   0.00    1.1
2018/03/11 14:24:28.000   78.249612144   16.122787850   652.3730   2   9   0.0678   0.0740   0.1732  -0.0119  -0.0285   0.0651   0.00    1.1
2018/03/11 14:24:29.000   78.249612221   16.122787995   652.3780   2   9   0.0674   0.0736   0.1716  -0.0118  -0.0281   0.0644   0.00    1.1
2018/03/11 14:24:30.000   78.249612240   16.122787803   652.3895   2   9   0.0670   0.0733   0.1700  -0.0117  -0.0278   0.0637   0.00    1.1
2018/03/11 14:24:31.000   78.249612269   16.122787643   652.3908   2   9   0.0666   0.0729   0.1684  -0.0116  -0.0274   0.0630   0.00    1.1
2018/03/11 14:24:32.000   78.249612211   16.122787647   652.3999   2   9   0.0662   0.0725   0.1668  -0.0116  -0.0271   0.0623   0.00    1.1
2018/03/11 14:24:33.000   78.249612160   16.122787565   652.4099   2   9   0.0658   0.0722   0.1652  -0.0115  -0.0267   0.0616   0.00    1.1
2018/03/11 14:24:34.000   78.249612143   16.122787363   652.4197   2   9   0.0654   0.0718   0.1637  -0.0115  -0.0264   0.0610   0.00    1.1
2018/03/11 14:24:35.000   78.249612084   16.122787058   652.4212   2   9   0.0650   0.0715   0.1622  -0.0114  -0.0261   0.0603   0.00    1.1
2018/03/11 14:24:36.000   78.249612002   16.122787144   652.4201   2   9   0.0646   0.0712   0.1607  -0.0113  -0.0258   0.0597   0.00    1.1
2018/03/11 14:24:37.000   78.249611932   16.122787320   652.4185   2   9   0.0642   0.0708   0.1593  -0.0113  -0.0255   0.0591   0.00    1.1
2018/03/11 14:24:38.000   78.249611820   16.122787454   652.4236   2   9   0.0638   0.0705   0.1579  -0.0112  -0.0252   0.0585   0.00    1.1
2018/03/11 14:24:39.000   78.249611785   16.122787584   652.4245   2   9   0.0634   0.0702   0.1565  -0.0112  -0.0249   0.0579   0.00    1.0
2018/03/11 14:24:40.000   78.249611790   16.122787958   652.4276   2   9   0.0630   0.0698   0.1551  -0.0111  -0.0246   0.0573   0.00    1.0
2018/03/11 14:24:41.000   78.249611748   16.122788259   652.4230   2   9   0.0627   0.0695   0.1537  -0.0111  -0.0243   0.0567   0.00    1.0
2018/03/11 14:24:42.000   78.249611721   16.122788391   652.3958   2   9   0.0623   0.0692   0.1524  -0.0110  -0.0240   0.0561   0.00    1.0
2018/03/11 14:24:43.000   78.249611710   16.122788759   652.3840   2   9   0.0620   0.0689   0.1510  -0.0110  -0.0237   0.0556   0.00    1.0
2018/03/11 14:24:44.000   78.249611695   16.122788984   652.3625   2   9   0.0616   0.0685   0.1497  -0.0110  -0.0234   0.0550   0.00    1.0
2018/03/11 14:24:45.000   78.249611630   16.122789141   652.3322   2   9   0.0612   0.0682   0.1485  -0.0109  -0.0231   0.0545   0.00    1.0
2018/03/11 14:24:46.000   78.249611593   16.122789029   652.3060   2   9   0.0609   0.0679   0.1472  -0.0109  -0.0229   0.0539   0.00    1.0
2018/03/11 14:24:47.000   78.249611581   16.122789023   652.2856   2   9   0.0606   0.0676   0.1460  -0.0108  -0.0226   0.0534   0.00    1.0
2018/03/11 14:24:48.000   78.249611578   16.122789008   652.2717   2   9   0.0602   0.0673   0.1447  -0.0108  -0.0223   0.0529   0.00    1.0
2018/03/11 14:24:49.000   78.249611624   16.122788978   652.2732   2   9   0.0599   0.0670   0.1435  -0.0108  -0.0221   0.0524   0.00    1.0
2018/03/11 14:24:50.000   78.249611682   16.122788614   652.2724   2   9   0.0595   0.0667   0.1424  -0.0107  -0.0218   0.0519   0.00    1.0
2018/03/11 14:24:51.000   78.249611774   16.122788598   652.2692   2   9   0.0592   0.0664   0.1412  -0.0107  -0.0216   0.0514   0.00    1.0
2018/03/11 14:24:52.000   78.249611829   16.122788510   652.2616   2   9   0.0589   0.0661   0.1400  -0.0107  -0.0213   0.0509   0.00    1.0
2018/03/11 14:24:53.000   78.249611886   16.122788484   652.2382   2   9   0.0586   0.0658   0.1389  -0.0106  -0.0211   0.0504   0.00    1.0
2018/03/11 14:24:54.000   78.249611896   16.122788470   652.2217   2   9   0.0583   0.0655   0.1378  -0.0106  -0.0208   0.0500   0.00    1.0
2018/03/11 14:24:55.000   78.249611902   16.122788446   652.2058   2   9   0.0579   0.0652   0.1367  -0.0106  -0.0206   0.0495   0.00    1.0
2018/03/11 14:24:56.000   78.249611900   16.122788361   652.1998   2   9   0.0576   0.0649   0.1356  -0.0105  -0.0204   0.0490   0.00    1.0
2018/03/11 14:24:57.000   78.249611842   16.122788257   652.2064   2   9   0.0573   0.0647   0.1345  -0.0105  -0.0201   0.0486   0.00    1.0
2018/03/11 14:24:58.000   78.249611796   16.122788240   652.2164   2   9   0.0570   0.0644   0.1335  -0.0105  -0.0199   0.0482   0.00    1.1
2018/03/11 14:24:59.000   78.249611726   16.122788031   652.2238   2   9   0.0567   0.0641   0.1324  -0.0104  -0.0197   0.0477   0.00    1.1
2018/03/11 14:25:00.000   78.249611667   16.122788066   652.2252   2   9   0.0564   0.0638   0.1314  -0.0104  -0.0194   0.0473   0.00    1.1
2018/03/11 14:25:01.000   78.249611619   16.122788281   652.2205   2   9   0.0561   0.0636   0.1304  -0.0104  -0.0192   0.0469   0.00    1.1
2018/03/11 14:25:02.000   78.249611600   16.122788529   652.2185   2   9   0.0558   0.0633   0.1294  -0.0104  -0.0190   0.0464   0.00    1.1
2018/03/11 14:25:03.000   78.249611619   16.122788598   652.2134   2   9   0.0555   0.0630   0.1284  -0.0103  -0.0188   0.0460   0.00    1.1
2018/03/11 14:25:04.000   78.249611652   16.122788677   652.2114   2   9   0.0553   0.0627   0.1275  -0.0103  -0.0186   0.0456   0.00    1.1
2018/03/11 14:25:05.000   78.249611684   16.122788724   652.2145   2   9   0.0550   0.0625   0.1265  -0.0103  -0.0184   0.0452   0.00    1.1
2018/03/11 14:25:06.000   78.249611739   16.122788666   652.2174   2   9   0.0547   0.0622   0.1256  -0.0103  -0.0182   0.0448   0.00    1.1
2018/03/11 14:25:07.000   78.249611735   16.122788872   652.2218   2   9   0.0544   0.0620   0.1246  -0.0102  -0.0180   0.0445   0.00    1.1
2018/03/11 14:25:08.000   78.249611708   16.122788804   652.2217   2   9   0.0541   0.0617   0.1237  -0.0102  -0.0178   0.0441   0.00    1.1
2018/03/11 14:25:09.000   78.249611637   16.122788602   652.2214   2   9   0.0539   0.0614   0.1228  -0.0102  -0.0176   0.0437   0.00    1.1
2018/03/11 14:25:10.000   78.249611608   16.122788483   652.2183   2   9   0.0536   0.0612   0.1219  -0.0102  -0.0174   0.0433   0.00    1.1
2018/03/11 14:25:11.000   78.249611596   16.122788441   652.2148   2   9   0.0533   0.0609   0.1210  -0.0102  -0.0172   0.0430   0.00    1.1
2018/03/11 14:25:12.000   78.249611561   16.122788263   652.2094   2   9   0.0531   0.0607   0.1202  -0.0101  -0.0170   0.0426   0.00    1.1
2018/03/11 14:25:13.000   78.249611536   16.122788282   652.2096   2   9   0.0528   0.0604   0.1193  -0.0101  -0.0168   0.0422   0.00    1.1
2018/03/11 14:25:14.000   78.249611543   16.122788281   652.2115   2   9   0.0526   0.0602   0.1185  -0.0101  -0.0166   0.0419   0.00    1.1
2018/03/11 14:25:15.000   78.249611550   16.122788359   652.2114   2   9   0.0523   0.0599   0.1176  -0.0101  -0.0164   0.0416   0.00    1.1
2018/03/11 14:25:16.000   78.249611546   16.122788417   652.2089   2   9   0.0520   0.0597   0.1168  -0.0101  -0.0162   0.0412   0.00    1.2
2018/03/11 14:25:17.000   78.249611562   16.122788565   652.2097   2   9   0.0518   0.0595   0.1160  -0.0100  -0.0160   0.0409   0.00    1.2
2018/03/11 14:25:18.000   78.249611572   16.122788741   652.2049   2   9   0.0515   0.0592   0.1152  -0.0100  -0.0159   0.0405   0.00    1.2
2018/03/11 14:25:19.000   78.249611532   16.122788914   652.1979   2   9   0.0513   0.0590   0.1144  -0.0100  -0.0157   0.0402   0.00    1.2
2018/03/11 14:25:20.000   78.249611500   16.122789142   652.1896   2   9   0.0511   0.0588   0.1136  -0.0100  -0.0155   0.0399   0.00    1.2
2018/03/11 14:25:21.000   78.249611433   16.122789289   652.1800   2   9   0.0508   0.0585   0.1129  -0.0100  -0.0153   0.0396   0.00    1.2
2018/03/11 14:25:22.000   78.249611380   16.122789311   652.1707   2   9   0.0506   0.0583   0.1121  -0.0099  -0.0152   0.0393   0.00    1.2
2018/03/11 14:25:23.000   78.249611337   16.122789264   652.1710   2   9   0.0503   0.0581   0.1113  -0.0099  -0.0150   0.0390   0.00    1.2
2018/03/11 14:25:24.000   78.249611308   16.122789007   652.1691   2   9   0.0501   0.0578   0.1106  -0.0099  -0.0148   0.0387   0.00    1.2
2018/03/11 14:25:25.000   78.249611302   16.122788817   652.1649   2   9   0.0499   0.0576   0.1099  -0.0099  -0.0147   0.0384   0.00    1.2
2018/03/11 14:25:26.000   78.249611316   16.122788766   652.1581   2   9   0.0496   0.0574   0.1091  -0.0099  -0.0145   0.0381   0.00    1.1
2018/03/11 14:25:27.000   78.249611352   16.122788691   652.1598   2   9   0.0494   0.0572   0.1084  -0.0099  -0.0143   0.0378   0.00    1.1
2018/03/11 14:25:28.000   78.249611388   16.122788803   652.1590   2   9   0.0492   0.0569   0.1077  -0.0099  -0.0142   0.0375   0.00    1.1
2018/03/11 14:25:29.000   78.249611415   16.122789017   652.1586   2   9   0.0490   0.0567   0.1070  -0.0098  -0.0140   0.0372   0.00    1.1
2018/03/11 14:25:30.000   78.249611405   16.122788924   652.1660   2   9   0.0487   0.0565   0.1063  -0.0098  -0.0139   0.0369   0.00    1.1
2018/03/11 14:25:31.000   78.249611392   16.122788890   652.1773   2   9   0.0485   0.0563   0.1056  -0.0098  -0.0137   0.0366   0.00    1.1
2018/03/11 14:25:32.000   78.249611394   16.122788692   652.1889   2   9   0.0483   0.0561   0.1050  -0.0098  -0.0136   0.0364   0.00    1.1
2018/03/11 14:25:33.000   78.249611407   16.122788630   652.1952   2   9   0.0481   0.0558   0.1043  -0.0098  -0.0134   0.0361   0.00    1.1
2018/03/11 14:25:34.000   78.249611413   16.122788588   652.1961   2   9   0.0479   0.0556   0.1036  -0.0098  -0.0133   0.0358   0.00    1.1
2018/03/11 14:25:35.000   78.249611402   16.122788545   652.1914   2   9   0.0477   0.0554   0.1030  -0.0098  -0.0131   0.0356   0.00    1.1
2018/03/11 14:25:36.000   78.249611386   16.122788488   652.1797   2   9   0.0475   0.0552   0.1024  -0.0097  -0.0130   0.0353   0.00    1.1
2018/03/11 14:25:37.000   78.249611365   16.122788418   652.1642   2   9   0.0473   0.0550   0.1017  -0.0097  -0.0128   0.0350   0.00    1.1
2018/03/11 14:25:38.000   78.249611347   16.122788499   652.1524   2   9   0.0470   0.0548   0.1011  -0.0097  -0.0127   0.0348   0.00    1.1
2018/03/11 14:25:39.000   78.249611334   16.122788555   652.1473   2   9   0.0468   0.0546   0.1005  -0.0097  -0.0125   0.0345   0.00    1.1
2018/03/11 14:25:40.000   78.249611336   16.122788609   652.1501   2   9   0.0466   0.0544   0.0999  -0.0097  -0.0124   0.0343   0.00    1.1
2018/03/11 14:25:41.000   78.249611335   16.122788477   652.1587   2   9   0.0464   0.0542   0.0993  -0.0097  -0.0123   0.0341   0.00    1.1
2018/03/11 14:25:42.000   78.249611342   16.122788499   652.1697   2   9   0.0462   0.0540   0.0987  -0.0097  -0.0121   0.0338   0.00    1.1
2018/03/11 14:25:43.000   78.249611381   16.122788322   652.1744   2   9   0.0460   0.0538   0.0981  -0.0096  -0.0120   0.0336   0.00    1.1
2018/03/11 14:25:44.000   78.249611389   16.122788152   652.1797   2   9   0.0459   0.0536   0.0975  -0.0096  -0.0119   0.0333   0.00    1.1
2018/03/11 14:25:45.000   78.249611396   16.122788033   652.1817   2   9   0.0457   0.0534   0.0969  -0.0096  -0.0117   0.0331   0.00    1.0
2018/03/11 14:25:46.000   78.249611391   16.122787999   652.1797   2   9   0.0455   0.0532   0.0963  -0.0096  -0.0116   0.0329   0.00    1.0
2018/03/11 14:25:47.000   78.249611379   16.122787962   652.1767   2   9   0.0453   0.0530   0.0958  -0.0096  -0.0115   0.0327   0.00    1.0
2018/03/11 14:25:48.000   78.249611384   16.122787882   652.1762   2   9   0.0451   0.0528   0.0952  -0.0096  -0.0113   0.0324   0.00    1.0
2018/03/11 14:25:49.000   78.249611411   16.122787640   652.1745   2   9   0.0449   0.0526   0.0947  -0.0096  -0.0112   0.0322   0.00    1.0
2018/03/11 14:25:50.000   78.249611434   16.122787532   652.1729   2   9   0.0447   0.0524   0.0941  -0.0096  -0.0111   0.0320   0.00    1.0
2018/03/11 14:25:51.000   78.249611467   16.122787333   652.1729   2   9   0.0445   0.0523   0.0936  -0.0095  -0.0109   0.0318   0.00    1.0
2018/03/11 14:25:52.000   78.249611504   16.122787148   652.1684   2   9   0.0443   0.0521   0.0930  -0.0095  -0.0108   0.0316   0.00    1.0
2018/03/11 14:25:53.000   78.249611490   16.122787103   652.1631   2   9   0.0442   0.0519   0.0925  -0.0095  -0.0107   0.0314   0.00    1.0
2018/03/11 14:25:54.000   78.249611471   16.122787162   652.1586   2   9   0.0440   0.0517   0.0920  -0.0095  -0.0106   0.0311   0.00    1.0
2018/03/11 14:25:55.000   78.249611443   16.122787192   652.1585   2   9   0.0438   0.0515   0.0915  -0.0095  -0.0104   0.0309   0.00    1.0
2018/03/11 14:25:56.000   78.249611438   16.122787215   652.1610   2   9   0.0436   0.0513   0.0910  -0.0095  -0.0103   0.0307   0.00    1.0
2018/03/11 14:25:57.000   78.249611438   16.122787247   652.1638   2   9   0.0435   0.0512   0.0905  -0.0095  -0.0102   0.0305   0.00    1.0
2018/03/11 14:25:58.000   78.249611452   16.122787264   652.1681   2   9   0.0433   0.0510   0.0900  -0.0095  -0.0101   0.0303   0.00    1.0
2018/03/11 14:25:59.000   78.249611451   16.122787356   652.1703   2   9   0.0431   0.0508   0.0895  -0.0094  -0.0100   0.0301   0.00    1.0
2018/03/11 14:26:00.000   78.249611464   16.122787252   652.1703   2   9   0.0429   0.0506   0.0890  -0.0094  -0.0099   0.0300   0.00    1.0
2018/03/11 14:26:01.000   78.249611455   16.122787198   652.1634   2   9   0.0428   0.0504   0.0885  -0.0094  -0.0097   0.0298   0.00    1.0
2018/03/11 14:26:02.000   78.249611453   16.122787266   652.1514   2   9   0.0426   0.0503   0.0880  -0.0094  -0.0096   0.0296   0.00    1.0
2018/03/11 14:26:03.000   78.249611425   16.122787346   652.1344   2   9   0.0424   0.0501   0.0875  -0.0094  -0.0095   0.0294   0.00    1.0
2018/03/11 14:26:04.000   78.249611398   16.122787391   652.1206   2   9   0.0423   0.0499   0.0871  -0.0094  -0.0094   0.0292   0.00    1.0
2018/03/11 14:26:05.000   78.249611386   16.122787480   652.1147   2   9   0.0421   0.0498   0.0866  -0.0094  -0.0093   0.0290   0.00    1.0
2018/03/11 14:26:06.000   78.249611390   16.122787705   652.1176   2   9   0.0419   0.0496   0.0861  -0.0094  -0.0092   0.0288   0.00    1.0
2018/03/11 14:26:07.000   78.249611412   16.122787812   652.1221   2   9   0.0418   0.0494   0.0857  -0.0094  -0.0091   0.0287   0.00    1.0
2018/03/11 14:26:08.000   78.249611448   16.122787894   652.1230   2   9   0.0416   0.0492   0.0852  -0.0093  -0.0089   0.0285   0.00    1.1
2018/03/11 14:26:09.000   78.249611479   16.122787983   652.1221   2   9   0.0415   0.0491   0.0848  -0.0093  -0.0088   0.0283   0.00    1.1
2018/03/11 14:26:10.000   78.249611485   16.122788183   652.1175   2   9   0.0413   0.0489   0.0844  -0.0093  -0.0087   0.0281   0.00    1.1
2018/03/11 14:26:11.000   78.249611491   16.122788267   652.1080   2   9   0.0412   0.0488   0.0839  -0.0093  -0.0086   0.0280   0.00    1.1
2018/03/11 14:26:12.000   78.249611510   16.122788231   652.0965   2   9   0.0410   0.0486   0.0835  -0.0093  -0.0085   0.0278   0.00    1.1
2018/03/11 14:26:13.000   78.249611546   16.122788178   652.0864   2   9   0.0408   0.0484   0.0831  -0.0093  -0.0084   0.0276   0.00    1.1
2018/03/11 14:26:14.000   78.249611567   16.122788215   652.0799   2   9   0.0407   0.0483   0.0826  -0.0093  -0.0083   0.0275   0.00    1.1
2018/03/11 14:26:15.000   78.249611601   16.122788243   652.0744   2   9   0.0405   0.0481   0.0822  -0.0093  -0.0082   0.0273   0.00    1.1
2018/03/11 14:26:16.000   78.249611611   16.122788168   652.0703   2   9   0.0404   0.0479   0.0818  -0.0092  -0.0081   0.0272   0.00    1.1
2018/03/11 14:26:17.000   78.249611621   16.122788280   652.0710   2   9   0.0402   0.0478   0.0814  -0.0092  -0.0080   0.0270   0.00    1.1
2018/03/11 14:26:18.000   78.249611607   16.122788414   652.0698   2   9   0.0401   0.0476   0.0810  -0.0092  -0.0079   0.0268   0.00    1.1
2018/03/11 14:26:19.000   78.249611588   16.122788641   652.0719   2   9   0.0400   0.0475   0.0806  -0.0092  -0.0078   0.0267   0.00    1.1
2018/03/11 14:26:20.000   78.249611588   16.122788696   652.0762   2   9   0.0398   0.0473   0.0802  -0.0092  -0.0077   0.0265   0.00    1.1
2018/03/11 14:26:21.000   78.249611602   16.122788847   652.0830   2   9   0.0397   0.0472   0.0798  -0.0092  -0.0076   0.0264   0.00    1.1
2018/03/11 14:26:22.000   78.249611609   16.122788851   652.0912   2   9   0.0395   0.0470   0.0794  -0.0092  -0.0075   0.0262   0.00    1.1
2018/03/11 14:26:23.000   78.249611626   16.122788784   652.0967   2   9   0.0394   0.0469   0.0790  -0.0092  -0.0074   0.0261   0.00    1.1
2018/03/11 14:26:24.000   78.249611622   16.122788745   652.0988   2   9   0.0392   0.0467   0.0786  -0.0092  -0.0073   0.0259   0.00    1.1
2018/03/11 14:26:25.000   78.249611611   16.122788767   652.0961   2   9   0.0391   0.0466   0.0782  -0.0091  -0.0072   0.0258   0.00    1.1
2018/03/11 14:26:26.000   78.249611600   16.122788837   652.0905   2   9   0.0390   0.0464   0.0779  -0.0091  -0.0071   0.0256   0.00    1.1
2018/03/11 14:26:27.000   78.249611588   16.122788863   652.0863   2   9   0.0388   0.0463   0.0775  -0.0091  -0.0070   0.0255   0.00    1.1
2018/03/11 14:26:28.000   78.249611597   16.122788948   652.0865   2   9   0.0387   0.0461   0.0771  -0.0091  -0.0069   0.0254   0.00    1.1
2018/03/11 14:26:29.000   78.249611612   16.122788964   652.0931   2   9   0.0385   0.0460   0.0768  -0.0091  -0.0068   0.0252   0.00    1.1
2018/03/11 14:26:30.000   78.249611638   16.122788920   652.1002   2   9   0.0384   0.0458   0.0764  -0.0091  -0.0067   0.0251   0.00    1.1
2018/03/11 14:26:31.000   78.249611681   16.122788829   652.1101   2   9   0.0383   0.0457   0.0760  -0.0091  -0.0066   0.0250   0.00    1.1
2018/03/11 14:26:32.000   78.249611721   16.122788541   652.1156   2   9   0.0381   0.0455   0.0757  -0.0091  -0.0065   0.0248   0.00    1.2
2018/03/11 14:26:33.000   78.249611761   16.122788299   652.1201   2   9   0.0380   0.0454   0.0753  -0.0091  -0.0064   0.0247   0.00    1.2
2018/03/11 14:26:34.000   78.249611773   16.122788032   652.1169   2   9   0.0379   0.0453   0.0750  -0.0090  -0.0063   0.0246   0.00    1.2
2018/03/11 14:26:35.000   78.249611768   16.122787865   652.1107   2   9   0.0378   0.0451   0.0746  -0.0090  -0.0062   0.0244   0.00    1.2
2018/03/11 14:26:36.000   78.249611745   16.122787762   652.1027   2   9   0.0376   0.0450   0.0743  -0.0090  -0.0061   0.0243   0.00    1.2
2018/03/11 14:26:37.000   78.249611700   16.122787721   652.0958   2   9   0.0375   0.0448   0.0740  -0.0090  -0.0061   0.0242   0.00    1.2
2018/03/11 14:26:38.000   78.249611675   16.122787756   652.0937   2   9   0.0374   0.0447   0.0736  -0.0090  -0.0060   0.0240   0.00    1.2
2018/03/11 14:26:39.000   78.249611644   16.122787678   652.0974   2   9   0.0372   0.0446   0.0733  -0.0090  -0.0059   0.0239   0.00    1.2
2018/03/11 14:26:40.000   78.249611622   16.122787671   652.1011   2   9   0.0371   0.0444   0.0730  -0.0090  -0.0058   0.0238   0.00    1.2
2018/03/11 14:26:41.000   78.249611603   16.122787738   652.1045   2   9   0.0370   0.0443   0.0726  -0.0090  -0.0057   0.0237   0.00    1.2
2018/03/11 14:26:42.000   78.249611588   16.122787763   652.1078   2   9   0.0369   0.0442   0.0723  -0.0090  -0.0056   0.0235   0.00    1.2
2018/03/11 14:26:43.000   78.249611594   16.122787842   652.1110   2   9   0.0367   0.0440   0.0720  -0.0089  -0.0055   0.0234   0.00    1.2
2018/03/11 14:26:44.000   78.249611608   16.122787868   652.1117   2   9   0.0366   0.0439   0.0717  -0.0089  -0.0054   0.0233   0.00    1.2
2018/03/11 14:26:45.000   78.249611615   16.122787833   652.1099   2   9   0.0365   0.0438   0.0714  -0.0089  -0.0053   0.0232   0.00    1.2
2018/03/11 14:26:46.000   78.249611637   16.122787799   652.1081   2   9   0.0364   0.0436   0.0711  -0.0089  -0.0052   0.0231   0.00    1.2
2018/03/11 14:26:47.000   78.249611650   16.122787781   652.1062   2   9   0.0363   0.0435   0.0707  -0.0089  -0.0051   0.0230   0.00    1.2
2018/03/11 14:26:48.000   78.249611663   16.122787758   652.1054   2   9   0.0362   0.0434   0.0704  -0.0089  -0.0050   0.0228   0.00    1.2
2018/03/11 14:26:49.000   78.249611683   16.122787776   652.1036   2   9   0.0360   0.0432   0.0701  -0.0089  -0.0049   0.0227   0.00    1.2
2018/03/11 14:26:50.000   78.249611688   16.122787829   652.0991   2   9   0.0359   0.0431   0.0698  -0.0089  -0.0049   0.0226   0.00    1.2
2018/03/11 14:26:51.000   78.249611700   16.122787801   652.0963   2   9   0.0358   0.0430   0.0695  -0.0089  -0.0048   0.0225   0.00    1.2
2018/03/11 14:26:51.999   78.249611720   16.122787728   652.0938   2   9   0.0357   0.0429   0.0692  -0.0088  -0.0047   0.0224   0.00    1.2
2018/03/11 14:26:53.000   78.249611746   16.122787739   652.0949   2   9   0.0356   0.0427   0.0689  -0.0088  -0.0046   0.0223   0.00    1.3
2018/03/11 14:26:54.000   78.249611804   16.122787670   652.0968   2   9   0.0355   0.0426   0.0687  -0.0088  -0.0045   0.0222   0.00    1.3
2018/03/11 14:26:55.000   78.249611859   16.122787710   652.1000   2   9   0.0353   0.0425   0.0684  -0.0088  -0.0044   0.0221   0.00    1.3
2018/03/11 14:26:56.000   78.249611884   16.122787638   652.1050   2   9   0.0352   0.0424   0.0681  -0.0088  -0.0043   0.0220   0.00    1.3
2018/03/11 14:26:57.000   78.249611876   16.122787627   652.1089   2   9   0.0351   0.0422   0.0678  -0.0088  -0.0042   0.0219   0.00    1.3
2018/03/11 14:26:58.000   78.249611864   16.122787753   652.1127   2   9   0.0350   0.0421   0.0675  -0.0088  -0.0041   0.0218   0.00    1.3
2018/03/11 14:26:59.000   78.249611821   16.122787909   652.1171   2   9   0.0349   0.0420   0.0672  -0.0088  -0.0040   0.0217   0.00    1.3
2018/03/11 14:27:00.000   78.249611776   16.122788008   652.1211   2   9   0.0348   0.0419   0.0670  -0.0088  -0.0039   0.0216   0.00    1.3
2018/03/11 14:27:01.000   78.249611749   16.122788067   652.1275   2   9   0.0347   0.0417   0.0667  -0.0087  -0.0038   0.0215   0.00    1.3
2018/03/11 14:27:02.000   78.249611752   16.122787976   652.1356   2   9   0.0346   0.0416   0.0664  -0.0087  -0.0037   0.0214   0.00    1.3
2018/03/11 14:27:03.000   78.249611759   16.122787867   652.1417   2   9   0.0345   0.0415   0.0662  -0.0087  -0.0036   0.0213   0.00    1.3
2018/03/11 14:27:04.000   78.249611768   16.122787748   652.1489   2   9   0.0344   0.0414   0.0659  -0.0087  -0.0035   0.0212   0.00    1.3
2018/03/11 14:27:05.000   78.249611772   16.122787651   652.1548   2   9   0.0343   0.0413   0.0656  -0.0087  -0.0034   0.0211   0.00    1.3
2018/03/11 14:27:06.000   78.249611767   16.122787575   652.1593   2   9   0.0342   0.0412   0.0654  -0.0087  -0.0033   0.0210   0.00    1.3
2018/03/11 14:27:07.000   78.249611745   16.122787619   652.1614   2   9   0.0341   0.0410   0.0651  -0.0087  -0.0032   0.0209   0.00    1.3
2018/03/11 14:27:08.000   78.249611733   16.122787721   652.1616   2   9   0.0340   0.0409   0.0648  -0.0087  -0.0031   0.0208   0.00    1.3
2018/03/11 14:27:09.000   78.249611732   16.122787773   652.1621   2   9   0.0339   0.0408   0.0646  -0.0087  -0.0030   0.0207   0.00    1.3
2018/03/11 14:27:10.000   78.249611732   16.122787803   652.1638   2   9   0.0338   0.0407   0.0643  -0.0086  -0.0029   0.0206   0.00    1.3
2018/03/11 14:27:11.000   78.249611764   16.122787744   652.1658   2   9   0.0336   0.0406   0.0641  -0.0086  -0.0028   0.0205   0.00    1.3
2018/03/11 14:27:12.000   78.249611790   16.122787600   652.1703   2   9   0.0335   0.0405   0.0638  -0.0086  -0.0027   0.0204   0.00    1.3
2018/03/11 14:27:13.000   78.249611795   16.122787511   652.1703   2   9   0.0334   0.0404   0.0636  -0.0086  -0.0026   0.0203   0.00    1.3
2018/03/11 14:27:14.000   78.249611801   16.122787356   652.1644   2   9   0.0334   0.0402   0.0633  -0.0086  -0.0025   0.0202   0.00    1.3
2018/03/11 14:27:15.000   78.249611781   16.122787166   652.1540   2   9   0.0333   0.0401   0.0631  -0.0086  -0.0024   0.0201   0.00    1.3
2018/03/11 14:27:16.000   78.249611745   16.122787075   652.1432   2   9   0.0332   0.0400   0.0629  -0.0086  -0.0022   0.0201   0.00    1.3
2018/03/11 14:27:17.000   78.249611702   16.122787026   652.1327   2   9   0.0331   0.0399   0.0626  -0.0086  -0.0021   0.0200   0.00    1.3
2018/03/11 14:27:18.000   78.249611690   16.122786937   652.1250   2   9   0.0330   0.0398   0.0624  -0.0086  -0.0020   0.0199   0.00    1.3
2018/03/11 14:27:19.000   78.249611707   16.122786867   652.1226   2   9   0.0329   0.0397   0.0621  -0.0085  -0.0018   0.0198   0.00    1.3
2018/03/11 14:27:20.000   78.249611751   16.122786684   652.1238   2   9   0.0328   0.0396   0.0619  -0.0085  -0.0017   0.0197   0.00    1.4
2018/03/11 14:27:21.000   78.249611792   16.122786558   652.1280   2   9   0.0327   0.0395   0.0617  -0.0085  -0.0015   0.0196   0.00    1.4
2018/03/11 14:27:22.000   78.249611815   16.122786423   652.1340   2   9   0.0326   0.0394   0.0614  -0.0085  -0.0014   0.0196   0.00    1.4
2018/03/11 14:27:23.000   78.249611821   16.122786375   652.1394   2   9   0.0325   0.0393   0.0612  -0.0085  -0.0012   0.0195   0.00    1.4
2018/03/11 14:27:24.000   78.249611818   16.122786367   652.1450   2   9   0.0324   0.0392   0.0610  -0.0085  -0.0009   0.0194   0.00    1.4
2018/03/11 14:27:25.000   78.249611796   16.122786399   652.1511   2   9   0.0323   0.0391   0.0608  -0.0085  -0.0006   0.0193   0.00    1.4
2018/03/11 14:27:26.000   78.249611760   16.122786452   652.1566   2   9   0.0322   0.0390   0.0605  -0.0085   0.0003   0.0192   0.00    1.4
2018/03/11 14:27:27.000   78.249611744   16.122786525   652.1639   2   9   0.0321   0.0389   0.0603  -0.0085   0.0008   0.0192   0.00    1.4
2018/03/11 14:27:28.000   78.249611709   16.122786620   652.1705   2   9   0.0320   0.0387   0.0601  -0.0084   0.0010   0.0191   0.00    1.4
2018/03/11 14:27:29.000   78.249611683   16.122786706   652.1786   2   9   0.0319   0.0386   0.0599  -0.0084   0.0012   0.0190   0.00    1.4
2018/03/11 14:27:30.000   78.249611655   16.122786775   652.1868   2   9   0.0319   0.0385   0.0597  -0.0084   0.0014   0.0189   0.00    1.4
2018/03/11 14:27:31.000   78.249611642   16.122786838   652.1920   2   9   0.0318   0.0384   0.0595  -0.0084   0.0015   0.0188   0.00    1.4
2018/03/11 14:27:32.000   78.249611636   16.122786954   652.1948   2   9   0.0317   0.0383   0.0592  -0.0084   0.0017   0.0188   0.00    1.4
2018/03/11 14:27:33.000   78.249611627   16.122787080   652.1977   2   9   0.0316   0.0382   0.0590  -0.0084   0.0018   0.0187   0.00    1.4
2018/03/11 14:27:34.000   78.249611627   16.122787145   652.2001   2   9   0.0315   0.0381   0.0588  -0.0084   0.0019   0.0186   0.00    1.4
2018/03/11 14:27:35.000   78.249611645   16.122787200   652.2017   2   9   0.0314   0.0380   0.0586  -0.0084   0.0020   0.0185   0.00    1.4
2018/03/11 14:27:36.000   78.249611654   16.122787258   652.2013   2   9   0.0313   0.0379   0.0584  -0.0084   0.0021   0.0185   0.00    1.4
2018/03/11 14:27:37.000   78.249611671   16.122787237   652.1997   2   9   0.0312   0.0378   0.0582  -0.0083   0.0022   0.0184   0.00    1.4
2018/03/11 14:27:38.000   78.249611680   16.122787268   652.1957   2   9   0.0312   0.0377   0.0580  -0.0083   0.0023   0.0183   0.00    1.4
2018/03/11 14:27:39.000   78.249611684   16.122787220   652.1917   2   9   0.0311   0.0377   0.0578  -0.0083   0.0024   0.0183   0.00    1.4
2018/03/11 14:27:40.000   78.249611679   16.122787224   652.1868   2   9   0.0310   0.0376   0.0576  -0.0083   0.0025   0.0182   0.00    1.4
2018/03/11 14:27:41.000   78.249611690   16.122787120   652.1836   2   9   0.0309   0.0375   0.0574  -0.0083   0.0025   0.0181   0.00    1.4
2018/03/11 14:27:42.000   78.249611727   16.122786930   652.1829   2   9   0.0308   0.0374   0.0572  -0.0083   0.0026   0.0180   0.00    1.4
2018/03/11 14:27:43.000   78.249611777   16.122786724   652.1853   2   9   0.0307   0.0373   0.0570  -0.0083   0.0027   0.0180   0.00    1.4
2018/03/11 14:27:44.000   78.249611803   16.122786580   652.1889   2   9   0.0307   0.0372   0.0568  -0.0083   0.0027   0.0179   0.00    1.4
2018/03/11 14:27:45.000   78.249611814   16.122786413   652.1950   2   9   0.0306   0.0371   0.0566  -0.0083   0.0028   0.0178   0.00    1.4
2018/03/11 14:27:46.000   78.249611805   16.122786337   652.2010   2   9   0.0305   0.0370   0.0564  -0.0082   0.0029   0.0178   0.00    1.4
2018/03/11 14:27:47.000   78.249611783   16.122786222   652.2056   2   9   0.0304   0.0369   0.0562  -0.0082   0.0029   0.0177   0.00    1.4
2018/03/11 14:27:48.000   78.249611755   16.122786227   652.2099   2   9   0.0303   0.0368   0.0560  -0.0082   0.0030   0.0176   0.00    1.4
2018/03/11 14:27:49.000   78.249611704   16.122786250   652.2123   2   9   0.0303   0.0367   0.0559  -0.0082   0.0030   0.0176   0.00    1.4
2018/03/11 14:27:50.000   78.249611665   16.122786286   652.2150   2   9   0.0302   0.0366   0.0557  -0.0082   0.0031   0.0175   0.00    1.4
2018/03/11 14:27:51.000   78.249611641   16.122786260   652.2190   2   9   0.0301   0.0365   0.0555  -0.0082   0.0031   0.0174   0.00    1.4
2018/03/11 14:27:52.000   78.249611652   16.122786163   652.2235   2   9   0.0300   0.0364   0.0553  -0.0082   0.0032   0.0174   0.00    1.4
2018/03/11 14:27:53.000   78.249611665   16.122786098   652.2280   2   9   0.0300   0.0364   0.0551  -0.0082   0.0032   0.0173   0.00    1.4
2018/03/11 14:27:54.000   78.249611668   16.122785960   652.2331   2   9   0.0299   0.0363   0.0549  -0.0082   0.0033   0.0173   0.00    1.4
2018/03/11 14:27:55.000   78.249611672   16.122785933   652.2360   2   9   0.0298   0.0362   0.0548  -0.0082   0.0033   0.0172   0.00    1.4
2018/03/11 14:27:56.000   78.249611669   16.122785955   652.2399   2   9   0.0297   0.0361   0.0546  -0.0081   0.0034   0.0171   0.00    1.4
2018/03/11 14:27:57.000   78.249611670   16.122785944   652.2427   2   9   0.0297   0.0360   0.0544  -0.0081   0.0034   0.0171   0.00    1.4
2018/03/11 14:27:58.000   78.249611666   16.122786005   652.2467   2   9   0.0296   0.0359   0.0542  -0.0081   0.0034   0.0170   0.00    1.4
2018/03/11 14:27:59.000   78.249611669   16.122785970   652.2501   2   9   0.0295   0.0358   0.0541  -0.0081   0.0035   0.0170   0.00    1.4
2018/03/11 14:28:00.000   78.249611678   16.122786023   652.2532   2   9   0.0294   0.0357   0.0539  -0.0081   0.0035   0.0169   0.00    1.4
2018/03/11 14:28:01.000   78.249611682   16.122785982   652.2542   2   9   0.0294   0.0357   0.0537  -0.0081   0.0036   0.0168   0.00    1.4
2018/03/11 14:28:02.000   78.249611694   16.122785938   652.2555   2   9   0.0293   0.0356   0.0535  -0.0081   0.0036   0.0168   0.00    1.4
2018/03/11 14:28:03.000   78.249611700   16.122785880   652.2559   2   9   0.0292   0.0355   0.0534  -0.0081   0.0036   0.0167   0.00    1.4
2018/03/11 14:28:04.000   78.249611704   16.122785873   652.2578   2   9   0.0291   0.0354   0.0532  -0.0081   0.0037   0.0167   0.00    1.4
2018/03/11 14:28:05.000   78.249611703   16.122785855   652.2613   2   9   0.0291   0.0353   0.0530  -0.0080   0.0037   0.0166   0.00    1.4
2018/03/11 14:28:06.000   78.249611718   16.122785769   652.2645   2   9   0.0290   0.0352   0.0529  -0.0080   0.0037   0.0165   0.00    1.4
2018/03/11 14:28:07.000   78.249611744   16.122785683   652.2678   2   9   0.0289   0.0351   0.0527  -0.0080   0.0038   0.0165   0.00    1.4
2018/03/11 14:28:08.000   78.249611757   16.122785595   652.2715   2   9   0.0289   0.0351   0.0525  -0.0080   0.0038   0.0164   0.00    1.4
2018/03/11 14:28:09.000   78.249611768   16.122785525   652.2755   2   9   0.0288   0.0350   0.0524  -0.0080   0.0038   0.0164   0.00    1.4
2018/03/11 14:28:10.000   78.249611758   16.122785517   652.2772   2   9   0.0287   0.0349   0.0522  -0.0080   0.0038   0.0163   0.00    1.4
2018/03/11 14:28:11.000   78.249611746   16.122785531   652.2786   2   9   0.0286   0.0348   0.0521  -0.0080   0.0039   0.0163   0.00    1.4
2018/03/11 14:28:12.000   78.249611709   16.122785595   652.2800   2   9   0.0286   0.0347   0.0519  -0.0080   0.0039   0.0162   0.00    1.4
2018/03/11 14:28:13.000   78.249611658   16.122785742   652.2812   2   9   0.0285   0.0347   0.0517  -0.0080   0.0039   0.0162   0.00    1.4
2018/03/11 14:28:14.000   78.249611622   16.122785805   652.2845   2   9   0.0284   0.0346   0.0516  -0.0080   0.0040   0.0161   0.00    1.4
2018/03/11 14:28:15.000   78.249611618   16.122785836   652.2909   2   9   0.0284   0.0345   0.0514  -0.0079   0.0040   0.0160   0.00    1.4
2018/03/11 14:28:16.000   78.249611651   16.122785784   652.2956   2   9   0.0283   0.0344   0.0513  -0.0079   0.0040   0.0160   0.00    1.4
2018/03/11 14:28:17.000   78.249611692   16.122785678   652.2991   2   9   0.0282   0.0343   0.0511  -0.0079   0.0040   0.0159   0.00    1.4
2018/03/11 14:28:18.000   78.249611730   16.122785593   652.2999   2   9   0.0282   0.0343   0.0510  -0.0079   0.0041   0.0159   0.00    1.4
2018/03/11 14:28:19.000   78.249611757   16.122785415   652.2999   2   9   0.0281   0.0342   0.0508  -0.0079   0.0041   0.0158   0.00    1.4
2018/03/11 14:28:20.000   78.249611767   16.122785319   652.3014   2   9   0.0280   0.0341   0.0507  -0.0079   0.0041   0.0158   0.00    1.4
2018/03/11 14:28:21.000   78.249611759   16.122785308   652.3035   2   9   0.0280   0.0340   0.0505  -0.0079   0.0041   0.0157   0.00    1.4
2018/03/11 14:28:22.000   78.249611734   16.122785289   652.3041   2   9   0.0279   0.0339   0.0504  -0.0079   0.0042   0.0157   0.00    1.4
2018/03/11 14:28:23.000   78.249611712   16.122785248   652.3059   2   9   0.0278   0.0339   0.0502  -0.0079   0.0042   0.0156   0.00    1.4
2018/03/11 14:28:24.000   78.249611704   16.122785228   652.3087   2   9   0.0278   0.0338   0.0501  -0.0079   0.0042   0.0156   0.00    1.4
2018/03/11 14:28:25.000   78.249611696   16.122785253   652.3116   2   9   0.0277   0.0337   0.0499  -0.0078   0.0042   0.0155   0.00    1.4
2018/03/11 14:28:26.000   78.249611703   16.122785245   652.3145   2   9   0.0276   0.0336   0.0498  -0.0078   0.0042   0.0155   0.00    1.4
2018/03/11 14:28:27.000   78.249611708   16.122785224   652.3169   2  10   0.0276   0.0336   0.0496  -0.0078   0.0042   0.0154   0.00    1.0
2018/03/11 14:28:28.000   78.249611715   16.122785149   652.3195   2  10   0.0275   0.0335   0.0495  -0.0078   0.0042   0.0154   0.00    1.1
2018/03/11 14:28:29.000   78.249611723   16.122785110   652.3226   2  10   0.0275   0.0334   0.0493  -0.0078   0.0043   0.0153   0.00    1.1
2018/03/11 14:28:30.000   78.249611735   16.122785028   652.3251   2  10   0.0274   0.0333   0.0492  -0.0078   0.0043   0.0153   0.00    1.1
2018/03/11 14:28:31.000   78.249611752   16.122784937   652.3239   2  10   0.0273   0.0333   0.0491  -0.0078   0.0043   0.0152   0.00    1.2
2018/03/11 14:28:32.000   78.249611750   16.122784888   652.3240   2  10   0.0273   0.0332   0.0489  -0.0078   0.0043   0.0152   0.00    1.2
2018/03/11 14:28:33.000   78.249611739   16.122784821   652.3208   2  10   0.0272   0.0331   0.0488  -0.0078   0.0043   0.0151   0.00    1.2
2018/03/11 14:28:34.000   78.249611730   16.122784785   652.3195   2  10   0.0271   0.0330   0.0486  -0.0078   0.0043   0.0151   0.00    1.2
2018/03/11 14:28:35.000   78.249611718   16.122784722   652.3203   2  10   0.0271   0.0330   0.0485  -0.0078   0.0043   0.0151   0.00    1.3
2018/03/11 14:28:36.000   78.249611714   16.122784575   652.3209   2  10   0.0270   0.0329   0.0484  -0.0078   0.0043   0.0150   0.00    1.3
2018/03/11 14:28:37.000   78.249611718   16.122784425   652.3236   2  10   0.0270   0.0328   0.0482  -0.0078   0.0043   0.0150   0.00    1.3
2018/03/11 14:28:38.000   78.249611737   16.122784279   652.3274   2  10   0.0269   0.0327   0.0481  -0.0077   0.0043   0.0149   0.00    1.3
2018/03/11 14:28:39.000   78.249611756   16.122784069   652.3318   2  10   0.0268   0.0327   0.0480  -0.0077   0.0043   0.0149   0.00    1.4
2018/03/11 14:28:40.000   78.249611777   16.122783917   652.3350   2  10   0.0268   0.0326   0.0478  -0.0077   0.0043   0.0148   0.00    1.4
2018/03/11 14:28:41.000   78.249611798   16.122783846   652.3353   2  10   0.0267   0.0325   0.0477  -0.0077   0.0043   0.0148   0.00    1.4
2018/03/11 14:28:42.000   78.249611817   16.122783807   652.3336   2  10   0.0267   0.0325   0.0476  -0.0077   0.0043   0.0147   0.00    1.4
2018/03/11 14:28:43.000   78.249611831   16.122783753   652.3303   2  10   0.0266   0.0324   0.0474  -0.0077   0.0043   0.0147   0.00    1.5
2018/03/11 14:28:44.000   78.249611837   16.122783684   652.3285   2  10   0.0266   0.0323   0.0473  -0.0077   0.0043   0.0146   0.00    1.5
2018/03/11 14:28:45.000   78.249611838   16.122783639   652.3286   2  10   0.0265   0.0322   0.0472  -0.0077   0.0043   0.0146   0.00    1.5
2018/03/11 14:28:46.000   78.249611847   16.122783545   652.3315   2  10   0.0264   0.0322   0.0470  -0.0077   0.0043   0.0146   0.00    1.5
2018/03/11 14:28:47.000   78.249611845   16.122783467   652.3353   2  10   0.0264   0.0321   0.0469  -0.0077   0.0044   0.0145   0.00    1.5
2018/03/11 14:28:48.000   78.249611845   16.122783426   652.3389   2  10   0.0263   0.0320   0.0468  -0.0077   0.0044   0.0145   0.00    1.5
2018/03/11 14:28:49.000   78.249611844   16.122783391   652.3436   2  10   0.0263   0.0320   0.0467  -0.0077   0.0044   0.0144   0.00    1.5
2018/03/11 14:28:50.000   78.249611846   16.122783376   652.3469   2  10   0.0262   0.0319   0.0465  -0.0077   0.0044   0.0144   0.00    1.5
2018/03/11 14:28:51.000   78.249611857   16.122783351   652.3511   2  10   0.0262   0.0318   0.0464  -0.0077   0.0044   0.0143   0.00    1.5
2018/03/11 14:28:52.000   78.249611869   16.122783316   652.3562   2  10   0.0261   0.0318   0.0463  -0.0076   0.0044   0.0143   0.00    1.5
2018/03/11 14:28:53.000   78.249611882   16.122783274   652.3624   2  10   0.0260   0.0317   0.0462  -0.0076   0.0044   0.0143   0.00    1.5
2018/03/11 14:28:54.000   78.249611892   16.122783198   652.3674   2  10   0.0260   0.0316   0.0460  -0.0076   0.0044   0.0142   0.00    1.5
2018/03/11 14:28:55.000   78.249611899   16.122783099   652.3706   2  10   0.0259   0.0316   0.0459  -0.0076   0.0044   0.0142   0.00    1.5
2018/03/11 14:28:56.000   78.249611890   16.122783009   652.3729   2  10   0.0259   0.0315   0.0458  -0.0076   0.0044   0.0141   0.00    1.5
2018/03/11 14:28:57.000   78.249611875   16.122782976   652.3741   2  10   0.0258   0.0314   0.0457  -0.0076   0.0044   0.0141   0.00    1.5
2018/03/11 14:28:58.000   78.249611863   16.122782941   652.3735   2  10   0.0258   0.0314   0.0456  -0.0076   0.0044   0.0141   0.00    1.5
2018/03/11 14:28:59.000   78.249611843   16.122782917   652.3733   2  10   0.0257   0.0313   0.0454  -0.0076   0.0044   0.0140   0.00    1.5
2018/03/11 14:29:00.000   78.249611823   16.122782858   652.3726   2  10   0.0257   0.0312   0.0453  -0.0076   0.0044   0.0140   0.00    1.5
2018/03/11 14:29:01.000   78.249611816   16.122782780   652.3737   2  10   0.0256   0.0312   0.0452  -0.0076   0.0044   0.0139   0.00    1.5
2018/03/11 14:29:02.000   78.249611828   16.122782653   652.3772   2  10   0.0256   0.0311   0.0451  -0.0076   0.0044   0.0139   0.00    1.5
2018/03/11 14:29:03.000   78.249611853   16.122782448   652.3805   2  10   0.0255   0.0310   0.0450  -0.0076   0.0044   0.0139   0.00    1.5
2018/03/11 14:29:04.000   78.249611872   16.122782322   652.3826   2  10   0.0255   0.0310   0.0449  -0.0076   0.0044   0.0138   0.00    1.5
2018/03/11 14:29:05.000   78.249611883   16.122782261   652.3821   2  10   0.0254   0.0309   0.0447  -0.0075   0.0044   0.0138   0.00    1.5
