% program   : RTKPOST ver.2.4.2
% inp file  : Z:\home\linda\Documents\Spring18\GitHub_Unis\data\processed_data\46250729.obs
% inp file  : Z:\home\linda\Documents\Spring18\GitHub_Unis\data\base_station_data\lyrs0720.18o
% inp file  : Z:\home\linda\Documents\Spring18\GitHub_Unis\data\processed_data\46250729.nav
% obs start : 2018/03/13 15:17:03.0 GPST (week1992 227823.0s)
% obs end   : 2018/03/13 15:33:35.0 GPST (week1992 228815.0s)
% pos mode  : static
% freqs     : L1+L2
% solution  : forward
% elev mask : 15.0 deg
% dynamics  : on
% tidecorr  : off
% ionos opt : iono-free
% tropo opt : saastamoinen
% ephemeris : broadcast
% navi sys  : gps glonass galileo qzss sbas
% amb res   : fix and hold
% amb glo   : on
% val thres : 3.0
% antenna1  :                       ( 0.0000  0.0000  0.0000)
% antenna2  :                       ( 0.0000  0.0000  0.0000)
% ref pos   : 78.228825638   15.397310064   495.6816
%
% (lat/lon/height=WGS84/ellipsoidal,Q=1:fix,2:float,3:sbas,4:dgps,5:single,6:ppp,ns=# of satellites)
%  GPST                  latitude(deg) longitude(deg)  height(m)   Q  ns   sdn(m)   sde(m)   sdu(m)  sdne(m)  sdeu(m)  sdun(m) age(s)  ratio
2018/03/13 15:17:03.000   78.255303119   16.193754608   487.2815   2  10   1.0482   0.8063   3.5413  -0.2454   0.4970   1.2495   0.00    1.2
2018/03/13 15:17:04.000   78.255302020   16.193758164   486.7241   2  10   0.7426   0.5706   2.5141  -0.1736   0.3523   0.8879   0.00    1.2
2018/03/13 15:17:05.000   78.255300383   16.193769613   487.7567   2  10   0.6067   0.4660   2.0547  -0.1418   0.2877   0.7259   0.00    1.1
2018/03/13 15:17:06.000   78.255299603   16.193779635   487.9246   2  10   0.5255   0.4036   1.7795  -0.1229   0.2490   0.6287   0.00    1.1
2018/03/13 15:17:07.000   78.255301156   16.193773797   487.8444   2  10   0.4700   0.3610   1.5908  -0.1100   0.2224   0.5621   0.00    1.2
2018/03/13 15:17:08.000   78.255302363   16.193762824   488.5799   2  10   0.4290   0.3295   1.4510  -0.1006   0.2027   0.5127   0.00    1.2
2018/03/13 15:17:09.000   78.255302922   16.193767694   488.5411   2  10   0.3971   0.3050   1.3419  -0.0932   0.1872   0.4742   0.00    1.2
2018/03/13 15:17:10.000   78.255303424   16.193768399   488.4896   2  10   0.3713   0.2853   1.2535  -0.0873   0.1747   0.4429   0.00    1.2
2018/03/13 15:17:11.000   78.255303356   16.193771905   488.2802   2  10   0.3499   0.2690   1.1800  -0.0825   0.1643   0.4169   0.00    1.2
2018/03/13 15:17:12.000   78.255303653   16.193773475   488.0182   2  10   0.3318   0.2551   1.1174  -0.0784   0.1554   0.3947   0.00    1.3
2018/03/13 15:17:13.000   78.255303344   16.193775036   487.7443   2  10   0.3162   0.2432   1.0632  -0.0749   0.1476   0.3755   0.00    1.3
2018/03/13 15:17:14.000   78.255303532   16.193776674   487.9051   2  10   0.3026   0.2328   1.0157  -0.0718   0.1408   0.3587   0.00    1.3
2018/03/13 15:17:15.000   78.255304371   16.193777575   487.9397   2  10   0.2905   0.2236   0.9735  -0.0692   0.1347   0.3437   0.00    1.3
2018/03/13 15:17:16.000   78.255304736   16.193775266   487.7515   2  10   0.2798   0.2154   0.9356  -0.0668   0.1293   0.3303   0.00    1.3
2018/03/13 15:17:17.000   78.255305137   16.193773973   487.6219   2  10   0.2701   0.2081   0.9014  -0.0647   0.1243   0.3181   0.00    1.3
2018/03/13 15:17:18.000   78.255305166   16.193771570   487.6202   2   9   0.2625   0.2016   0.8706  -0.0646   0.1209   0.3059   0.00    1.0
2018/03/13 15:17:19.000   78.255305671   16.193770993   487.9022   2   9   0.2555   0.1958   0.8424  -0.0644   0.1177   0.2948   0.00    1.0
2018/03/13 15:17:20.000   78.255305224   16.193770513   488.0876   2   9   0.2490   0.1904   0.8163  -0.0641   0.1147   0.2846   0.00    1.0
2018/03/13 15:17:21.000   78.255305266   16.193770489   488.1024   2   9   0.2430   0.1854   0.7921  -0.0637   0.1118   0.2751   0.00    1.0
2018/03/13 15:17:22.000   78.255304978   16.193770156   488.1658   2   9   0.2374   0.1808   0.7700  -0.0633   0.1091   0.2666   0.00    1.0
2018/03/13 15:17:23.000   78.255304578   16.193770774   488.0629   2   9   0.2321   0.1765   0.7493  -0.0628   0.1065   0.2587   0.00    1.0
2018/03/13 15:17:24.000   78.255304628   16.193771168   488.0727   2   9   0.2272   0.1725   0.7299  -0.0623   0.1040   0.2512   0.00    1.1
2018/03/13 15:17:25.000   78.255303795   16.193772785   487.9502   2   9   0.2226   0.1688   0.7116  -0.0618   0.1017   0.2443   0.00    1.1
2018/03/13 15:17:26.000   78.255303339   16.193774117   487.8616   2   9   0.2182   0.1652   0.6943  -0.0613   0.0994   0.2377   0.00    1.2
2018/03/13 15:17:27.000   78.255303635   16.193774126   487.9748   2   9   0.2140   0.1619   0.6779  -0.0608   0.0972   0.2315   0.00    1.1
2018/03/13 15:17:28.000   78.255303869   16.193775208   488.0436   2   8   0.2115   0.1588   0.6668  -0.0609   0.0938   0.2298   0.00    1.2
2018/03/13 15:17:29.000   78.255303824   16.193776341   488.0285   2   9   0.2090   0.1556   0.6542  -0.0606   0.0877   0.2282   0.00    1.2
2018/03/13 15:17:30.000   78.255303925   16.193776279   488.0236   2   9   0.2065   0.1525   0.6421  -0.0604   0.0820   0.2266   0.00    1.1
2018/03/13 15:17:31.000   78.255303681   16.193777285   487.8884   2   9   0.2041   0.1496   0.6304  -0.0602   0.0765   0.2248   0.00    1.1
2018/03/13 15:17:32.000   78.255303338   16.193778445   487.8446   2  10   0.2013   0.1467   0.6189  -0.0593   0.0709   0.2233   0.00    1.1
2018/03/13 15:17:33.000   78.255303000   16.193779878   487.8351   2  10   0.1986   0.1441   0.6079  -0.0586   0.0654   0.2217   0.00    1.2
2018/03/13 15:17:34.000   78.255302976   16.193781500   487.8278   2  10   0.1959   0.1415   0.5972  -0.0579   0.0602   0.2200   0.00    1.2
2018/03/13 15:17:35.000   78.255302996   16.193782547   487.7338   2  10   0.1934   0.1391   0.5868  -0.0572   0.0551   0.2181   0.00    1.1
2018/03/13 15:17:36.000   78.255302881   16.193782230   487.8388   2  10   0.1909   0.1369   0.5768  -0.0566   0.0502   0.2161   0.00    1.1
2018/03/13 15:17:37.000   78.255302848   16.193781159   487.8724   2  10   0.1885   0.1347   0.5670  -0.0560   0.0453   0.2140   0.00    1.1
2018/03/13 15:17:38.000   78.255302729   16.193781650   487.9176   2  10   0.1861   0.1326   0.5574  -0.0555   0.0404   0.2119   0.00    1.1
2018/03/13 15:17:39.000   78.255302319   16.193781365   487.8873   2  10   0.1838   0.1306   0.5481  -0.0549   0.0355   0.2097   0.00    1.0
2018/03/13 15:17:40.000   78.255302271   16.193780840   487.8254   2  10   0.1816   0.1287   0.5391  -0.0544   0.0304   0.2074   0.00    1.0
2018/03/13 15:17:41.000   78.255302388   16.193780082   487.8397   2  10   0.1794   0.1269   0.5302  -0.0539   0.0250   0.2051   0.00    1.0
2018/03/13 15:17:42.000   78.255302276   16.193780363   487.8218   2  10   0.1772   0.1251   0.5216  -0.0534   0.0189   0.2028   0.00    1.0
2018/03/13 15:17:43.000   78.255302361   16.193780539   487.7803   2  10   0.1751   0.1235   0.5131  -0.0530   0.0107   0.2004   0.00    1.0
2018/03/13 15:17:44.000   78.255302290   16.193780699   487.8150   2  10   0.1731   0.1218   0.5049  -0.0525  -0.0102   0.1980   0.00    1.1
2018/03/13 15:17:45.000   78.255302277   16.193780787   487.8570   2  10   0.1711   0.1203   0.4968  -0.0521  -0.0173   0.1957   0.00    1.1
2018/03/13 15:17:46.000   78.255302095   16.193780358   487.8683   2  10   0.1691   0.1188   0.4888  -0.0516  -0.0218   0.1933   0.00    1.1
2018/03/13 15:17:47.000   78.255302000   16.193780360   487.8076   2  10   0.1672   0.1173   0.4811  -0.0512  -0.0252   0.1909   0.00    1.1
2018/03/13 15:17:48.000   78.255302039   16.193779917   487.8905   2   9   0.1653   0.1160   0.4741  -0.0508  -0.0258   0.1884   0.00    1.1
2018/03/13 15:17:49.000   78.255301752   16.193780749   487.7928   2  10   0.1635   0.1146   0.4667  -0.0504  -0.0283   0.1861   0.00    1.4
2018/03/13 15:17:50.000   78.255301646   16.193781571   487.7564   2  10   0.1617   0.1133   0.4596  -0.0500  -0.0303   0.1837   0.00    1.5
2018/03/13 15:17:51.000   78.255301468   16.193782082   487.7593   2  10   0.1599   0.1120   0.4525  -0.0496  -0.0320   0.1814   0.00    1.7
2018/03/13 15:17:52.000   78.255301775   16.193781574   487.7824   2   9   0.1585   0.1110   0.4468  -0.0489  -0.0321   0.1799   0.00    1.1
2018/03/13 15:17:53.000   78.255301839   16.193782149   487.8336   2   8   0.1571   0.1100   0.4415  -0.0482  -0.0306   0.1783   0.00    1.1
2018/03/13 15:17:54.000   78.255302196   16.193782447   487.8510   2   8   0.1557   0.1091   0.4363  -0.0476  -0.0292   0.1767   0.00    1.1
2018/03/13 15:17:55.000   78.255302602   16.193782639   487.9536   2   8   0.1543   0.1082   0.4311  -0.0470  -0.0278   0.1751   0.00    1.1
2018/03/13 15:17:56.000   78.255302917   16.193782324   488.0062   2   8   0.1529   0.1073   0.4260  -0.0464  -0.0265   0.1735   0.00    1.1
2018/03/13 15:17:57.000   78.255303061   16.193783168   488.0420   2   8   0.1516   0.1064   0.4210  -0.0459  -0.0252   0.1719   0.00    1.1
2018/03/13 15:17:58.000   78.255303108   16.193783551   488.0821   2   8   0.1503   0.1055   0.4160  -0.0453  -0.0239   0.1703   0.00    1.2
2018/03/13 15:17:59.000   78.255302974   16.193784044   488.0457   2   7   0.1492   0.1049   0.4112  -0.0451  -0.0234   0.1690   0.00    1.2
2018/03/13 15:18:00.000   78.255302895   16.193784344   487.9857   2   7   0.1481   0.1043   0.4065  -0.0448  -0.0228   0.1677   0.00    1.1
2018/03/13 15:18:01.000   78.255302808   16.193784554   487.9601   2   7   0.1471   0.1038   0.4018  -0.0445  -0.0223   0.1663   0.00    1.1
2018/03/13 15:18:02.000   78.255302707   16.193784892   487.9211   2   7   0.1460   0.1032   0.3972  -0.0443  -0.0219   0.1649   0.00    1.1
2018/03/13 15:18:03.000   78.255302537   16.193785127   487.8913   2   7   0.1450   0.1026   0.3926  -0.0440  -0.0214   0.1636   0.00    1.1
2018/03/13 15:18:04.000   78.255302399   16.193785155   487.8588   2   7   0.1440   0.1020   0.3881  -0.0438  -0.0210   0.1622   0.00    1.1
2018/03/13 15:18:05.000   78.255302342   16.193785429   487.8314   2   7   0.1430   0.1015   0.3836  -0.0435  -0.0206   0.1608   0.00    1.1
2018/03/13 15:18:06.000   78.255302275   16.193785858   487.7895   2   7   0.1420   0.1009   0.3792  -0.0433  -0.0202   0.1595   0.00    1.1
2018/03/13 15:18:07.000   78.255302082   16.193786150   487.7800   2   7   0.1410   0.1003   0.3748  -0.0430  -0.0199   0.1581   0.00    1.1
2018/03/13 15:18:08.000   78.255301932   16.193786457   487.7277   2   7   0.1401   0.0998   0.3705  -0.0428  -0.0196   0.1567   0.00    1.1
2018/03/13 15:18:09.000   78.255301892   16.193786749   487.7188   2   7   0.1391   0.0993   0.3662  -0.0426  -0.0193   0.1553   0.00    1.1
2018/03/13 15:18:10.000   78.255301985   16.193786859   487.7096   2   7   0.1382   0.0987   0.3620  -0.0423  -0.0190   0.1540   0.00    1.1
2018/03/13 15:18:11.000   78.255301795   16.193787597   487.6823   2   7   0.1372   0.0982   0.3579  -0.0421  -0.0187   0.1526   0.00    1.1
2018/03/13 15:18:12.000   78.255301526   16.193787971   487.6289   2   7   0.1363   0.0976   0.3538  -0.0419  -0.0185   0.1513   0.00    1.1
2018/03/13 15:18:13.000   78.255301318   16.193788165   487.5622   2   7   0.1354   0.0971   0.3497  -0.0416  -0.0183   0.1499   0.00    1.1
2018/03/13 15:18:14.000   78.255301202   16.193788428   487.5276   2   7   0.1345   0.0966   0.3457  -0.0414  -0.0181   0.1485   0.00    1.1
2018/03/13 15:18:15.000   78.255301114   16.193788693   487.4994   2   7   0.1336   0.0961   0.3417  -0.0412  -0.0179   0.1472   0.00    1.1
2018/03/13 15:18:16.000   78.255301001   16.193789398   487.4740   2   7   0.1328   0.0956   0.3378  -0.0410  -0.0178   0.1459   0.00    1.1
2018/03/13 15:18:17.000   78.255300871   16.193790413   487.4713   2   7   0.1319   0.0951   0.3340  -0.0407  -0.0177   0.1445   0.00    1.1
2018/03/13 15:18:18.000   78.255300748   16.193791371   487.4643   2   7   0.1310   0.0946   0.3302  -0.0405  -0.0175   0.1432   0.00    1.1
2018/03/13 15:18:19.000   78.255300602   16.193791771   487.4639   2   7   0.1302   0.0941   0.3264  -0.0403  -0.0174   0.1419   0.00    1.1
2018/03/13 15:18:20.000   78.255300450   16.193792184   487.4414   2   7   0.1294   0.0936   0.3227  -0.0401  -0.0173   0.1406   0.00    1.1
2018/03/13 15:18:21.000   78.255300462   16.193792588   487.4044   2   7   0.1285   0.0931   0.3190  -0.0399  -0.0173   0.1393   0.00    1.1
2018/03/13 15:18:22.000   78.255300431   16.193792780   487.3610   2   7   0.1277   0.0926   0.3154  -0.0397  -0.0172   0.1380   0.00    1.1
2018/03/13 15:18:23.000   78.255300263   16.193792852   487.3377   2   7   0.1269   0.0921   0.3119  -0.0394  -0.0171   0.1368   0.00    1.1
2018/03/13 15:18:24.000   78.255300221   16.193792990   487.3136   2   7   0.1261   0.0916   0.3084  -0.0392  -0.0171   0.1355   0.00    1.2
2018/03/13 15:18:25.000   78.255300135   16.193793094   487.3058   2   7   0.1253   0.0912   0.3049  -0.0390  -0.0171   0.1343   0.00    1.2
2018/03/13 15:18:26.000   78.255300168   16.193793054   487.3137   2   7   0.1246   0.0907   0.3015  -0.0388  -0.0171   0.1330   0.00    1.2
2018/03/13 15:18:27.000   78.255300142   16.193793525   487.3194   2   7   0.1238   0.0902   0.2981  -0.0386  -0.0170   0.1318   0.00    1.2
2018/03/13 15:18:28.000   78.255300054   16.193793664   487.3273   2   7   0.1230   0.0897   0.2948  -0.0384  -0.0170   0.1306   0.00    1.2
2018/03/13 15:18:29.000   78.255299950   16.193793514   487.3410   2   7   0.1223   0.0893   0.2916  -0.0382  -0.0170   0.1294   0.00    1.2
2018/03/13 15:18:30.000   78.255299907   16.193793479   487.3391   2   7   0.1215   0.0888   0.2883  -0.0380  -0.0170   0.1282   0.00    1.2
2018/03/13 15:18:31.000   78.255299850   16.193793543   487.3450   2   7   0.1208   0.0884   0.2852  -0.0378  -0.0170   0.1270   0.00    1.2
2018/03/13 15:18:32.000   78.255299816   16.193793469   487.3782   2   7   0.1201   0.0879   0.2820  -0.0376  -0.0171   0.1258   0.00    1.2
2018/03/13 15:18:33.000   78.255299776   16.193793286   487.4169   2   7   0.1194   0.0875   0.2790  -0.0374  -0.0171   0.1247   0.00    1.2
2018/03/13 15:18:34.000   78.255299709   16.193793518   487.4386   2   8   0.1186   0.0869   0.2759  -0.0371  -0.0167   0.1235   0.00    1.1
2018/03/13 15:18:35.000   78.255299701   16.193793975   487.4664   2   8   0.1179   0.0863   0.2729  -0.0367  -0.0163   0.1223   0.00    1.0
2018/03/13 15:18:36.000   78.255299685   16.193794260   487.4984   2   8   0.1172   0.0858   0.2699  -0.0364  -0.0160   0.1212   0.00    1.1
2018/03/13 15:18:37.000   78.255299590   16.193794563   487.5180   2   8   0.1165   0.0852   0.2670  -0.0360  -0.0157   0.1201   0.00    1.1
2018/03/13 15:18:38.000   78.255299589   16.193795047   487.5254   2   8   0.1158   0.0847   0.2642  -0.0357  -0.0154   0.1189   0.00    1.0
2018/03/13 15:18:39.000   78.255299605   16.193795582   487.5756   2   8   0.1151   0.0841   0.2613  -0.0353  -0.0151   0.1178   0.00    1.0
2018/03/13 15:18:40.000   78.255299593   16.193796358   487.6136   2   8   0.1144   0.0836   0.2585  -0.0350  -0.0148   0.1168   0.00    1.0
2018/03/13 15:18:41.000   78.255299565   16.193796425   487.6176   2   8   0.1137   0.0831   0.2558  -0.0347  -0.0146   0.1157   0.00    1.1
2018/03/13 15:18:42.000   78.255299546   16.193796529   487.6099   2   8   0.1131   0.0825   0.2531  -0.0344  -0.0143   0.1146   0.00    1.1
2018/03/13 15:18:43.000   78.255299457   16.193796422   487.6034   2   8   0.1124   0.0820   0.2504  -0.0341  -0.0141   0.1136   0.00    1.1
2018/03/13 15:18:44.000   78.255299410   16.193796375   487.6092   2   8   0.1118   0.0815   0.2478  -0.0338  -0.0139   0.1125   0.00    1.2
2018/03/13 15:18:45.000   78.255299395   16.193796343   487.6249   2   8   0.1111   0.0810   0.2452  -0.0335  -0.0138   0.1115   0.00    1.2
2018/03/13 15:18:46.000   78.255299397   16.193795847   487.6495   2   8   0.1105   0.0805   0.2426  -0.0332  -0.0136   0.1105   0.00    1.2
2018/03/13 15:18:47.000   78.255299430   16.193795611   487.6750   2   8   0.1098   0.0800   0.2401  -0.0329  -0.0134   0.1095   0.00    1.2
2018/03/13 15:18:48.000   78.255299553   16.193795374   487.7189   2   8   0.1092   0.0795   0.2377  -0.0326  -0.0133   0.1085   0.00    1.2
2018/03/13 15:18:49.000   78.255299550   16.193794945   487.7324   2   8   0.1086   0.0791   0.2352  -0.0323  -0.0132   0.1075   0.00    1.2
2018/03/13 15:18:50.000   78.255299571   16.193794715   487.7598   2   8   0.1080   0.0786   0.2328  -0.0321  -0.0131   0.1065   0.00    1.2
2018/03/13 15:18:51.000   78.255299615   16.193794314   487.7817   2   8   0.1074   0.0781   0.2305  -0.0318  -0.0130   0.1056   0.00    1.1
2018/03/13 15:18:52.000   78.255299581   16.193794241   487.7919   2   8   0.1068   0.0777   0.2281  -0.0316  -0.0129   0.1047   0.00    1.1
2018/03/13 15:18:53.000   78.255299547   16.193794332   487.8159   2   8   0.1062   0.0772   0.2258  -0.0313  -0.0128   0.1037   0.00    1.1
2018/03/13 15:18:54.000   78.255299473   16.193794429   487.8435   2   8   0.1057   0.0768   0.2236  -0.0311  -0.0127   0.1028   0.00    1.1
2018/03/13 15:18:55.000   78.255299382   16.193794657   487.8585   2   8   0.1051   0.0763   0.2213  -0.0308  -0.0127   0.1019   0.00    1.1
2018/03/13 15:18:56.000   78.255299292   16.193794671   487.8759   2   8   0.1045   0.0759   0.2192  -0.0306  -0.0126   0.1010   0.00    1.1
2018/03/13 15:18:57.000   78.255299300   16.193794770   487.9070   2   8   0.1039   0.0754   0.2170  -0.0303  -0.0126   0.1001   0.00    1.1
2018/03/13 15:18:58.000   78.255299344   16.193794703   487.9498   2   8   0.1034   0.0750   0.2149  -0.0301  -0.0126   0.0992   0.00    1.1
2018/03/13 15:18:59.000   78.255299233   16.193794221   487.9678   2   8   0.1028   0.0746   0.2128  -0.0299  -0.0126   0.0984   0.00    1.1
2018/03/13 15:19:00.000   78.255299183   16.193794530   487.9796   2   8   0.1023   0.0742   0.2107  -0.0297  -0.0125   0.0975   0.00    1.1
2018/03/13 15:19:01.000   78.255299042   16.193794567   487.9969   2   8   0.1018   0.0737   0.2087  -0.0294  -0.0125   0.0967   0.00    1.1
2018/03/13 15:19:02.000   78.255299012   16.193794521   488.0164   2   8   0.1012   0.0733   0.2067  -0.0292  -0.0125   0.0959   0.00    1.1
2018/03/13 15:19:03.000   78.255298910   16.193794451   488.0352   2   8   0.1007   0.0729   0.2047  -0.0290  -0.0125   0.0950   0.00    1.0
2018/03/13 15:19:04.000   78.255298828   16.193794137   488.0439   2   8   0.1002   0.0725   0.2027  -0.0288  -0.0125   0.0942   0.00    1.0
2018/03/13 15:19:05.000   78.255298704   16.193793918   488.0517   2   8   0.0997   0.0721   0.2008  -0.0286  -0.0126   0.0934   0.00    1.0
2018/03/13 15:19:06.000   78.255298599   16.193793938   488.0706   2   8   0.0992   0.0717   0.1989  -0.0284  -0.0126   0.0926   0.00    1.0
2018/03/13 15:19:07.000   78.255298519   16.193793856   488.0914   2   8   0.0986   0.0713   0.1970  -0.0282  -0.0126   0.0919   0.00    1.0
2018/03/13 15:19:08.000   78.255298455   16.193793993   488.0932   2   8   0.0981   0.0709   0.1952  -0.0280  -0.0126   0.0911   0.00    1.0
2018/03/13 15:19:09.000   78.255298377   16.193793690   488.0699   2   8   0.0976   0.0706   0.1934  -0.0278  -0.0126   0.0903   0.00    1.0
2018/03/13 15:19:10.000   78.255298264   16.193793835   488.0375   2   8   0.0972   0.0702   0.1916  -0.0276  -0.0127   0.0896   0.00    1.0
2018/03/13 15:19:11.000   78.255298115   16.193793501   488.0193   2   8   0.0967   0.0698   0.1899  -0.0274  -0.0127   0.0888   0.00    1.0
2018/03/13 15:19:12.000   78.255298044   16.193793255   488.0436   2   7   0.0962   0.0695   0.1884  -0.0272  -0.0126   0.0881   0.00    1.0
2018/03/13 15:19:13.000   78.255297895   16.193793172   488.0498   2   8   0.0957   0.0691   0.1870  -0.0270  -0.0126   0.0874   0.00    1.1
2018/03/13 15:19:14.000   78.255297826   16.193793276   488.0769   2   8   0.0952   0.0687   0.1856  -0.0269  -0.0127   0.0866   0.00    1.1
2018/03/13 15:19:15.000   78.255297647   16.193793380   488.0723   2   8   0.0948   0.0684   0.1842  -0.0267  -0.0127   0.0859   0.00    1.1
2018/03/13 15:19:16.000   78.255297414   16.193793766   488.0515   2   8   0.0943   0.0680   0.1828  -0.0265  -0.0127   0.0852   0.00    1.1
2018/03/13 15:19:17.000   78.255297157   16.193793936   488.0389   2   9   0.0938   0.0676   0.1814  -0.0263  -0.0129   0.0845   0.00    1.1
2018/03/13 15:19:18.000   78.255296888   16.193793982   488.0233   2   9   0.0934   0.0673   0.1800  -0.0261  -0.0132   0.0838   0.00    1.1
2018/03/13 15:19:19.000   78.255296759   16.193794037   488.0005   2   9   0.0929   0.0669   0.1786  -0.0259  -0.0134   0.0831   0.00    1.1
2018/03/13 15:19:20.000   78.255296635   16.193794327   487.9892   2   9   0.0925   0.0665   0.1773  -0.0258  -0.0136   0.0824   0.00    1.1
2018/03/13 15:19:21.000   78.255296488   16.193794209   488.0068   2   9   0.0920   0.0662   0.1760  -0.0256  -0.0138   0.0818   0.00    1.1
2018/03/13 15:19:22.000   78.255296368   16.193794408   488.0215   2   9   0.0916   0.0658   0.1746  -0.0254  -0.0140   0.0811   0.00    1.1
2018/03/13 15:19:23.000   78.255296247   16.193794791   488.0308   2   9   0.0912   0.0654   0.1733  -0.0252  -0.0142   0.0804   0.00    1.1
2018/03/13 15:19:24.000   78.255296171   16.193794966   488.0355   2   9   0.0907   0.0651   0.1720  -0.0250  -0.0143   0.0798   0.00    1.1
2018/03/13 15:19:25.000   78.255295996   16.193795254   488.0359   2   9   0.0903   0.0647   0.1708  -0.0249  -0.0145   0.0792   0.00    1.1
2018/03/13 15:19:26.000   78.255295961   16.193795289   488.0448   2   9   0.0899   0.0644   0.1695  -0.0247  -0.0147   0.0785   0.00    1.0
2018/03/13 15:19:27.000   78.255295905   16.193795335   488.0469   2   9   0.0894   0.0640   0.1682  -0.0245  -0.0148   0.0779   0.00    1.1
2018/03/13 15:19:28.000   78.255295833   16.193795287   488.0453   2   9   0.0890   0.0637   0.1670  -0.0244  -0.0150   0.0773   0.00    1.0
2018/03/13 15:19:29.000   78.255295743   16.193795274   488.0430   2   9   0.0886   0.0634   0.1658  -0.0242  -0.0151   0.0766   0.00    1.0
2018/03/13 15:19:30.000   78.255295619   16.193795227   488.0336   2   9   0.0882   0.0630   0.1645  -0.0240  -0.0152   0.0760   0.00    1.0
2018/03/13 15:19:31.000   78.255295516   16.193795154   488.0291   2   9   0.0878   0.0627   0.1633  -0.0239  -0.0153   0.0754   0.00    1.0
2018/03/13 15:19:32.000   78.255295412   16.193794795   488.0233   2   9   0.0874   0.0624   0.1621  -0.0237  -0.0155   0.0748   0.00    1.0
2018/03/13 15:19:33.000   78.255295265   16.193794832   488.0190   2   9   0.0870   0.0621   0.1610  -0.0236  -0.0156   0.0742   0.00    1.0
2018/03/13 15:19:34.000   78.255295183   16.193795120   488.0235   2   9   0.0866   0.0617   0.1598  -0.0234  -0.0157   0.0736   0.00    1.0
2018/03/13 15:19:35.000   78.255295197   16.193795323   488.0440   2   9   0.0862   0.0614   0.1586  -0.0233  -0.0158   0.0730   0.00    1.0
2018/03/13 15:19:36.000   78.255295204   16.193795256   488.0551   2   9   0.0858   0.0611   0.1575  -0.0231  -0.0159   0.0724   0.00    1.0
2018/03/13 15:19:37.000   78.255295168   16.193795251   488.0602   2   9   0.0854   0.0608   0.1564  -0.0230  -0.0160   0.0719   0.00    1.0
2018/03/13 15:19:38.000   78.255295133   16.193795379   488.0525   2   9   0.0850   0.0605   0.1553  -0.0228  -0.0161   0.0713   0.00    1.0
2018/03/13 15:19:39.000   78.255295085   16.193795652   488.0393   2   9   0.0846   0.0602   0.1541  -0.0227  -0.0162   0.0707   0.00    1.0
2018/03/13 15:19:40.000   78.255295023   16.193795887   488.0292   2   9   0.0843   0.0599   0.1531  -0.0226  -0.0162   0.0702   0.00    1.0
2018/03/13 15:19:41.000   78.255294984   16.193796148   488.0221   2   9   0.0839   0.0596   0.1520  -0.0224  -0.0163   0.0696   0.00    1.0
2018/03/13 15:19:42.000   78.255294960   16.193796399   488.0255   2   9   0.0835   0.0593   0.1509  -0.0223  -0.0164   0.0691   0.00    1.1
2018/03/13 15:19:43.000   78.255295037   16.193796559   488.0378   2   9   0.0832   0.0590   0.1498  -0.0222  -0.0165   0.0685   0.00    1.1
2018/03/13 15:19:44.000   78.255295092   16.193796470   488.0348   2   9   0.0828   0.0587   0.1488  -0.0220  -0.0165   0.0680   0.00    1.1
2018/03/13 15:19:45.000   78.255295220   16.193796426   488.0461   2   9   0.0824   0.0584   0.1477  -0.0219  -0.0166   0.0675   0.00    1.1
2018/03/13 15:19:46.000   78.255295282   16.193796331   488.0584   2   8   0.0821   0.0582   0.1467  -0.0218  -0.0166   0.0669   0.00    1.1
2018/03/13 15:19:47.000   78.255295301   16.193796246   488.0612   2   8   0.0817   0.0579   0.1457  -0.0217  -0.0166   0.0664   0.00    1.1
2018/03/13 15:19:48.000   78.255295212   16.193796109   488.0393   2   8   0.0814   0.0576   0.1447  -0.0216  -0.0166   0.0659   0.00    1.1
2018/03/13 15:19:49.000   78.255295129   16.193795859   488.0144   2   8   0.0810   0.0574   0.1437  -0.0215  -0.0166   0.0654   0.00    1.2
2018/03/13 15:19:50.000   78.255295059   16.193795736   487.9913   2   8   0.0807   0.0571   0.1428  -0.0214  -0.0165   0.0649   0.00    1.2
2018/03/13 15:19:51.000   78.255294957   16.193795559   487.9684   2   8   0.0803   0.0569   0.1418  -0.0213  -0.0165   0.0644   0.00    1.2
2018/03/13 15:19:52.000   78.255294862   16.193795197   487.9520   2   8   0.0800   0.0566   0.1409  -0.0212  -0.0165   0.0638   0.00    1.2
2018/03/13 15:19:53.000   78.255294858   16.193795024   487.9437   2   9   0.0796   0.0563   0.1399  -0.0211  -0.0166   0.0633   0.00    1.2
2018/03/13 15:19:54.000   78.255294844   16.193794998   487.9439   2  10   0.0793   0.0561   0.1390  -0.0211  -0.0167   0.0628   0.00    1.2
2018/03/13 15:19:55.000   78.255294839   16.193795197   487.9414   2   9   0.0790   0.0558   0.1380  -0.0210  -0.0168   0.0623   0.00    1.2
2018/03/13 15:19:56.000   78.255294861   16.193795225   487.9381   2   8   0.0786   0.0556   0.1371  -0.0209  -0.0168   0.0619   0.00    1.3
2018/03/13 15:19:57.000   78.255294767   16.193795264   487.9269   2   8   0.0783   0.0553   0.1362  -0.0208  -0.0168   0.0614   0.00    1.3
2018/03/13 15:19:58.000   78.255294716   16.193795080   487.9237   2   9   0.0780   0.0550   0.1353  -0.0208  -0.0168   0.0609   0.00    1.3
2018/03/13 15:19:59.000   78.255294648   16.193794816   487.9159   2   9   0.0776   0.0548   0.1344  -0.0207  -0.0169   0.0604   0.00    1.3
2018/03/13 15:20:00.000   78.255294573   16.193794401   487.9086   2   9   0.0773   0.0545   0.1335  -0.0207  -0.0169   0.0599   0.00    1.3
2018/03/13 15:20:01.000   78.255294543   16.193794085   487.9007   2   9   0.0770   0.0543   0.1326  -0.0206  -0.0170   0.0595   0.00    1.3
2018/03/13 15:20:02.000   78.255294504   16.193793936   487.8966   2   9   0.0767   0.0540   0.1318  -0.0206  -0.0169   0.0590   0.00    1.3
2018/03/13 15:20:03.000   78.255294467   16.193793733   487.8914   2   9   0.0764   0.0538   0.1310  -0.0205  -0.0168   0.0586   0.00    1.4
2018/03/13 15:20:04.000   78.255294440   16.193793439   487.8834   2   9   0.0762   0.0536   0.1302  -0.0204  -0.0167   0.0582   0.00    1.4
2018/03/13 15:20:05.000   78.255294377   16.193793223   487.8706   2   9   0.0759   0.0533   0.1294  -0.0203  -0.0167   0.0578   0.00    1.5
2018/03/13 15:20:06.000   78.255294363   16.193792913   487.8676   2   9   0.0756   0.0531   0.1286  -0.0202  -0.0166   0.0574   0.00    1.5
2018/03/13 15:20:07.000   78.255294334   16.193792609   487.8564   2   9   0.0753   0.0529   0.1278  -0.0201  -0.0165   0.0570   0.00    1.4
2018/03/13 15:20:08.000   78.255294263   16.193792355   487.8481   2   8   0.0751   0.0526   0.1271  -0.0201  -0.0164   0.0566   0.00    1.1
2018/03/13 15:20:09.000   78.255294203   16.193792027   487.8425   2   8   0.0748   0.0524   0.1263  -0.0200  -0.0163   0.0562   0.00    1.1
2018/03/13 15:20:10.000   78.255294231   16.193791590   487.8395   2   9   0.0745   0.0522   0.1255  -0.0199  -0.0163   0.0558   0.00    1.0
2018/03/13 15:20:11.000   78.255294175   16.193791455   487.8373   2  10   0.0742   0.0520   0.1248  -0.0198  -0.0162   0.0554   0.00    1.0
2018/03/13 15:20:12.000   78.255294140   16.193791097   487.8294   2  10   0.0740   0.0517   0.1240  -0.0197  -0.0161   0.0551   0.00    1.1
2018/03/13 15:20:13.000   78.255294056   16.193790774   487.8185   2  10   0.0737   0.0515   0.1233  -0.0196  -0.0161   0.0547   0.00    1.2
2018/03/13 15:20:14.000   78.255293992   16.193790499   487.8091   2  10   0.0734   0.0513   0.1226  -0.0195  -0.0160   0.0543   0.00    1.0
2018/03/13 15:20:15.000   78.255293946   16.193790274   487.8032   2  10   0.0731   0.0511   0.1218  -0.0194  -0.0159   0.0540   0.00    1.0
2018/03/13 15:20:16.000   78.255293848   16.193789935   487.7967   2  10   0.0728   0.0509   0.1211  -0.0193  -0.0159   0.0536   0.00    1.1
2018/03/13 15:20:17.000   78.255293783   16.193789610   487.7853   2  10   0.0725   0.0507   0.1204  -0.0192  -0.0158   0.0532   0.00    1.1
2018/03/13 15:20:18.000   78.255293717   16.193789449   487.7749   2  10   0.0722   0.0504   0.1197  -0.0191  -0.0158   0.0529   0.00    1.2
2018/03/13 15:20:19.000   78.255293656   16.193789221   487.7639   2  10   0.0719   0.0502   0.1190  -0.0190  -0.0157   0.0525   0.00    1.2
2018/03/13 15:20:20.000   78.255293613   16.193788811   487.7515   2  10   0.0716   0.0500   0.1183  -0.0189  -0.0156   0.0522   0.00    1.3
2018/03/13 15:20:21.000   78.255293583   16.193788523   487.7402   2  10   0.0714   0.0498   0.1176  -0.0188  -0.0156   0.0518   0.00    1.3
2018/03/13 15:20:22.000   78.255293552   16.193788200   487.7263   2  10   0.0711   0.0496   0.1169  -0.0187  -0.0155   0.0515   0.00    1.3
2018/03/13 15:20:23.000   78.255293507   16.193787880   487.7180   2  10   0.0708   0.0494   0.1162  -0.0186  -0.0155   0.0511   0.00    1.1
2018/03/13 15:20:24.000   78.255293413   16.193787557   487.7148   2   9   0.0705   0.0492   0.1156  -0.0186  -0.0154   0.0508   0.00    1.1
2018/03/13 15:20:25.000   78.255293297   16.193787325   487.7071   2   9   0.0703   0.0490   0.1149  -0.0185  -0.0153   0.0504   0.00    1.1
2018/03/13 15:20:26.000   78.255293224   16.193787063   487.7033   2   9   0.0700   0.0488   0.1143  -0.0184  -0.0152   0.0501   0.00    1.1
2018/03/13 15:20:27.000   78.255293158   16.193786820   487.6988   2   9   0.0697   0.0487   0.1136  -0.0184  -0.0151   0.0497   0.00    1.1
2018/03/13 15:20:28.000   78.255293103   16.193786594   487.6919   2   9   0.0695   0.0485   0.1130  -0.0183  -0.0151   0.0494   0.00    1.1
2018/03/13 15:20:29.000   78.255293035   16.193786373   487.6879   2   9   0.0692   0.0483   0.1123  -0.0182  -0.0150   0.0491   0.00    1.1
2018/03/13 15:20:30.000   78.255292956   16.193786301   487.6796   2   9   0.0689   0.0481   0.1117  -0.0181  -0.0149   0.0487   0.00    1.1
2018/03/13 15:20:31.000   78.255292875   16.193786314   487.6785   2   9   0.0687   0.0479   0.1111  -0.0181  -0.0148   0.0484   0.00    1.1
2018/03/13 15:20:32.000   78.255292835   16.193786483   487.6755   2   9   0.0684   0.0477   0.1104  -0.0180  -0.0147   0.0481   0.00    1.2
2018/03/13 15:20:33.000   78.255292759   16.193786427   487.6700   2   9   0.0682   0.0476   0.1098  -0.0179  -0.0147   0.0478   0.00    1.1
2018/03/13 15:20:34.000   78.255292675   16.193786541   487.6625   2   9   0.0679   0.0474   0.1092  -0.0179  -0.0146   0.0474   0.00    1.1
2018/03/13 15:20:35.000   78.255292590   16.193786465   487.6574   2   9   0.0677   0.0472   0.1086  -0.0178  -0.0145   0.0471   0.00    1.1
2018/03/13 15:20:36.000   78.255292489   16.193786264   487.6504   2   9   0.0674   0.0470   0.1080  -0.0177  -0.0145   0.0468   0.00    1.1
2018/03/13 15:20:37.000   78.255292429   16.193786165   487.6436   2   9   0.0672   0.0468   0.1074  -0.0177  -0.0144   0.0465   0.00    1.1
2018/03/13 15:20:38.000   78.255292390   16.193786176   487.6392   2   9   0.0669   0.0467   0.1068  -0.0176  -0.0143   0.0462   0.00    1.1
2018/03/13 15:20:39.000   78.255292357   16.193786142   487.6302   2   9   0.0667   0.0465   0.1062  -0.0176  -0.0143   0.0459   0.00    1.1
2018/03/13 15:20:40.000   78.255292327   16.193786037   487.6197   2   9   0.0664   0.0463   0.1056  -0.0175  -0.0142   0.0456   0.00    1.1
2018/03/13 15:20:41.000   78.255292289   16.193785789   487.6127   2   9   0.0662   0.0462   0.1051  -0.0174  -0.0141   0.0453   0.00    1.1
2018/03/13 15:20:42.000   78.255292271   16.193785479   487.6093   2   9   0.0659   0.0460   0.1045  -0.0174  -0.0141   0.0450   0.00    1.1
2018/03/13 15:20:43.000   78.255292207   16.193785259   487.6011   2   9   0.0657   0.0458   0.1039  -0.0173  -0.0140   0.0447   0.00    1.1
2018/03/13 15:20:44.000   78.255292148   16.193785252   487.5945   2   9   0.0654   0.0457   0.1034  -0.0172  -0.0139   0.0444   0.00    1.1
2018/03/13 15:20:45.000   78.255292100   16.193785138   487.5905   2   9   0.0652   0.0455   0.1028  -0.0172  -0.0139   0.0441   0.00    1.1
2018/03/13 15:20:46.000   78.255292026   16.193785012   487.5845   2   9   0.0650   0.0453   0.1023  -0.0171  -0.0138   0.0438   0.00    1.1
2018/03/13 15:20:47.000   78.255291968   16.193784801   487.5800   2   9   0.0647   0.0452   0.1017  -0.0171  -0.0138   0.0435   0.00    1.1
2018/03/13 15:20:48.000   78.255291922   16.193784663   487.5737   2   8   0.0645   0.0450   0.1012  -0.0170  -0.0137   0.0432   0.00    1.1
2018/03/13 15:20:49.000   78.255291859   16.193784599   487.5674   2   8   0.0643   0.0449   0.1006  -0.0170  -0.0136   0.0429   0.00    1.1
2018/03/13 15:20:50.000   78.255291781   16.193784367   487.5648   2   8   0.0641   0.0447   0.1001  -0.0170  -0.0136   0.0426   0.00    1.1
2018/03/13 15:20:51.000   78.255291740   16.193784273   487.5636   2   8   0.0639   0.0445   0.0996  -0.0169  -0.0135   0.0424   0.00    1.1
2018/03/13 15:20:52.000   78.255291700   16.193784133   487.5637   2   8   0.0637   0.0444   0.0990  -0.0169  -0.0135   0.0421   0.00    1.1
2018/03/13 15:20:53.000   78.255291688   16.193784044   487.5645   2   8   0.0635   0.0442   0.0985  -0.0169  -0.0134   0.0418   0.00    1.0
2018/03/13 15:20:54.000   78.255291680   16.193783916   487.5630   2   8   0.0632   0.0441   0.0980  -0.0168  -0.0134   0.0415   0.00    1.0
2018/03/13 15:20:55.000   78.255291677   16.193783788   487.5618   2   8   0.0630   0.0439   0.0975  -0.0168  -0.0133   0.0413   0.00    1.0
2018/03/13 15:20:56.000   78.255291677   16.193783674   487.5629   2   8   0.0628   0.0438   0.0970  -0.0168  -0.0132   0.0410   0.00    1.0
2018/03/13 15:20:57.000   78.255291667   16.193783587   487.5580   2   8   0.0626   0.0436   0.0965  -0.0167  -0.0132   0.0407   0.00    1.0
2018/03/13 15:20:58.000   78.255291655   16.193783359   487.5566   2   8   0.0624   0.0435   0.0960  -0.0167  -0.0131   0.0405   0.00    1.0
2018/03/13 15:20:59.000   78.255291655   16.193783205   487.5562   2   8   0.0622   0.0433   0.0955  -0.0167  -0.0131   0.0402   0.00    1.0
2018/03/13 15:21:00.000   78.255291651   16.193782954   487.5573   2   8   0.0620   0.0432   0.0950  -0.0166  -0.0130   0.0399   0.00    1.0
2018/03/13 15:21:01.000   78.255291634   16.193782745   487.5597   2   8   0.0618   0.0430   0.0945  -0.0166  -0.0130   0.0397   0.00    1.0
2018/03/13 15:21:02.000   78.255291627   16.193782554   487.5656   2   8   0.0616   0.0429   0.0940  -0.0165  -0.0129   0.0394   0.00    1.0
2018/03/13 15:21:03.000   78.255291654   16.193782399   487.5683   2   8   0.0614   0.0428   0.0935  -0.0165  -0.0129   0.0392   0.00    1.0
2018/03/13 15:21:04.000   78.255291699   16.193782146   487.5692   2   8   0.0612   0.0426   0.0931  -0.0165  -0.0128   0.0389   0.00    1.0
2018/03/13 15:21:05.000   78.255291707   16.193781952   487.5671   2   9   0.0610   0.0425   0.0926  -0.0164  -0.0128   0.0387   0.00    1.0
2018/03/13 15:21:06.000   78.255291715   16.193781800   487.5708   2   9   0.0608   0.0423   0.0921  -0.0164  -0.0127   0.0384   0.00    1.0
2018/03/13 15:21:07.000   78.255291724   16.193781680   487.5792   2  10   0.0606   0.0422   0.0917  -0.0163  -0.0127   0.0382   0.00    1.0
2018/03/13 15:21:08.000   78.255291720   16.193781596   487.5859   2  10   0.0603   0.0420   0.0912  -0.0163  -0.0127   0.0379   0.00    1.1
2018/03/13 15:21:09.000   78.255291715   16.193781539   487.5932   2  10   0.0601   0.0419   0.0907  -0.0162  -0.0127   0.0377   0.00    1.1
2018/03/13 15:21:10.000   78.255291696   16.193781520   487.5963   2  10   0.0599   0.0418   0.0903  -0.0161  -0.0126   0.0375   0.00    1.2
2018/03/13 15:21:11.000   78.255291669   16.193781407   487.6012   2  10   0.0597   0.0416   0.0898  -0.0161  -0.0126   0.0372   0.00    1.2
2018/03/13 15:21:12.000   78.255291620   16.193781255   487.6019   2  10   0.0595   0.0415   0.0894  -0.0160  -0.0126   0.0370   0.00    1.2
2018/03/13 15:21:13.000   78.255291565   16.193781236   487.6002   2  10   0.0593   0.0413   0.0889  -0.0159  -0.0126   0.0368   0.00    1.2
2018/03/13 15:21:14.000   78.255291542   16.193781253   487.6020   2  10   0.0591   0.0412   0.0885  -0.0159  -0.0125   0.0366   0.00    1.2
2018/03/13 15:21:15.000   78.255291543   16.193781247   487.6045   2  10   0.0589   0.0411   0.0881  -0.0158  -0.0125   0.0363   0.00    1.2
2018/03/13 15:21:16.000   78.255291563   16.193781236   487.6097   2  10   0.0586   0.0409   0.0876  -0.0158  -0.0125   0.0361   0.00    1.3
2018/03/13 15:21:17.000   78.255291560   16.193781158   487.6173   2  10   0.0584   0.0408   0.0872  -0.0157  -0.0125   0.0359   0.00    1.3
2018/03/13 15:21:18.000   78.255291559   16.193781148   487.6166   2  10   0.0582   0.0406   0.0868  -0.0157  -0.0124   0.0357   0.00    1.3
2018/03/13 15:21:19.000   78.255291546   16.193781127   487.6224   2  10   0.0580   0.0405   0.0864  -0.0156  -0.0124   0.0355   0.00    1.3
2018/03/13 15:21:20.000   78.255291493   16.193781083   487.6246   2  10   0.0578   0.0404   0.0859  -0.0155  -0.0124   0.0352   0.00    1.3
2018/03/13 15:21:21.000   78.255291465   16.193781031   487.6333   2  10   0.0576   0.0402   0.0855  -0.0155  -0.0124   0.0350   0.00    1.4
2018/03/13 15:21:22.000   78.255291461   16.193781057   487.6335   2  10   0.0574   0.0401   0.0851  -0.0154  -0.0123   0.0348   0.00    1.4
2018/03/13 15:21:23.000   78.255291475   16.193781020   487.6411   2  10   0.0572   0.0400   0.0847  -0.0154  -0.0123   0.0346   0.00    1.4
2018/03/13 15:21:24.000   78.255291454   16.193780952   487.6479   2  10   0.0570   0.0399   0.0843  -0.0153  -0.0123   0.0344   0.00    1.4
2018/03/13 15:21:25.000   78.255291437   16.193780937   487.6517   2  10   0.0568   0.0397   0.0839  -0.0153  -0.0123   0.0342   0.00    1.3
2018/03/13 15:21:26.000   78.255291446   16.193780854   487.6619   2  10   0.0566   0.0396   0.0835  -0.0152  -0.0122   0.0340   0.00    1.3
2018/03/13 15:21:27.000   78.255291447   16.193780659   487.6671   2  10   0.0564   0.0395   0.0831  -0.0152  -0.0122   0.0338   0.00    1.3
2018/03/13 15:21:28.000   78.255291410   16.193780628   487.6710   2  10   0.0562   0.0393   0.0827  -0.0151  -0.0122   0.0336   0.00    1.3
2018/03/13 15:21:29.000   78.255291388   16.193780704   487.6688   2  10   0.0560   0.0392   0.0823  -0.0151  -0.0122   0.0334   0.00    1.3
2018/03/13 15:21:30.000   78.255291395   16.193780789   487.6700   2  10   0.0558   0.0391   0.0819  -0.0150  -0.0121   0.0332   0.00    1.3
2018/03/13 15:21:31.000   78.255291378   16.193780862   487.6768   2  10   0.0556   0.0390   0.0816  -0.0150  -0.0121   0.0330   0.00    1.3
2018/03/13 15:21:32.000   78.255291341   16.193780768   487.6801   2  10   0.0555   0.0388   0.0812  -0.0149  -0.0121   0.0328   0.00    1.3
2018/03/13 15:21:33.000   78.255291342   16.193780858   487.6949   2   9   0.0553   0.0387   0.0809  -0.0149  -0.0121   0.0326   0.00    1.0
2018/03/13 15:21:34.000   78.255291371   16.193780769   487.6929   2   6   0.0552   0.0387   0.0808  -0.0149  -0.0122   0.0325   0.00    1.3
2018/03/13 15:21:35.000   78.255296101   16.193756839   487.2600   1   5   0.0022   0.0022   0.0088  -0.0018  -0.0038   0.0040   0.00    7.0
2018/03/13 15:21:36.000   78.255296098   16.193756860   487.2590   1   5   0.0022   0.0022   0.0088  -0.0018  -0.0038   0.0040   0.00    6.9
2018/03/13 15:21:37.000   78.255291471   16.193780683   487.7073   2   9   0.0549   0.0384   0.0803  -0.0150  -0.0125   0.0322   0.00    1.6
2018/03/13 15:21:38.000   78.255291541   16.193780543   487.7153   2   9   0.0548   0.0383   0.0802  -0.0151  -0.0126   0.0321   0.00    1.8
2018/03/13 15:21:39.000   78.255291588   16.193780467   487.7238   2   9   0.0547   0.0382   0.0800  -0.0151  -0.0127   0.0320   0.00    1.5
2018/03/13 15:21:40.000   78.255291627   16.193780452   487.7355   2   9   0.0546   0.0381   0.0799  -0.0152  -0.0127   0.0319   0.00    1.3
2018/03/13 15:21:41.000   78.255291691   16.193780547   487.7449   2   9   0.0545   0.0380   0.0797  -0.0152  -0.0128   0.0318   0.00    1.0
2018/03/13 15:21:42.000   78.255291734   16.193780665   487.7536   2   9   0.0544   0.0379   0.0796  -0.0152  -0.0129   0.0317   0.00    1.0
2018/03/13 15:21:43.000   78.255291799   16.193780829   487.7614   2   9   0.0543   0.0378   0.0794  -0.0153  -0.0130   0.0316   0.00    1.1
2018/03/13 15:21:44.000   78.255291827   16.193780890   487.7651   2   9   0.0542   0.0377   0.0792  -0.0153  -0.0130   0.0315   0.00    1.1
2018/03/13 15:21:45.000   78.255291870   16.193780948   487.7675   2   9   0.0541   0.0376   0.0791  -0.0153  -0.0131   0.0314   0.00    1.1
2018/03/13 15:21:46.000   78.255291919   16.193781096   487.7735   2   9   0.0540   0.0375   0.0789  -0.0154  -0.0131   0.0313   0.00    1.1
2018/03/13 15:21:47.000   78.255291951   16.193781128   487.7790   2   9   0.0538   0.0374   0.0788  -0.0154  -0.0132   0.0312   0.00    1.1
2018/03/13 15:21:48.000   78.255291972   16.193781144   487.7886   2   9   0.0537   0.0373   0.0786  -0.0154  -0.0133   0.0311   0.00    1.1
2018/03/13 15:21:49.000   78.255291986   16.193781324   487.7996   2   9   0.0536   0.0372   0.0785  -0.0155  -0.0133   0.0310   0.00    1.0
2018/03/13 15:21:50.000   78.255292007   16.193781367   487.8038   2   9   0.0535   0.0371   0.0783  -0.0155  -0.0134   0.0309   0.00    1.0
2018/03/13 15:21:51.000   78.255292037   16.193781391   487.8096   2   9   0.0534   0.0370   0.0782  -0.0155  -0.0134   0.0308   0.00    1.0
2018/03/13 15:21:52.000   78.255292107   16.193781390   487.8192   2   9   0.0533   0.0369   0.0780  -0.0156  -0.0135   0.0307   0.00    1.0
2018/03/13 15:21:53.000   78.255292149   16.193781312   487.8250   2   8   0.0532   0.0368   0.0779  -0.0156  -0.0136   0.0306   0.00    1.1
2018/03/13 15:21:54.000   78.255292174   16.193781285   487.8360   2   8   0.0531   0.0367   0.0777  -0.0157  -0.0136   0.0305   0.00    1.1
2018/03/13 15:21:55.000   78.255292233   16.193781359   487.8442   2   7   0.0530   0.0366   0.0776  -0.0157  -0.0137   0.0304   0.00    1.5
2018/03/13 15:21:56.000   78.255292281   16.193781402   487.8538   2   8   0.0529   0.0366   0.0774  -0.0157  -0.0138   0.0303   0.00    1.4
2018/03/13 15:21:57.000   78.255292310   16.193781478   487.8636   2   8   0.0528   0.0365   0.0773  -0.0158  -0.0139   0.0302   0.00    1.2
2018/03/13 15:21:58.000   78.255292376   16.193781562   487.8730   2   8   0.0527   0.0364   0.0771  -0.0158  -0.0139   0.0301   0.00    1.1
2018/03/13 15:21:59.000   78.255292442   16.193781506   487.8811   2   8   0.0526   0.0363   0.0770  -0.0158  -0.0140   0.0300   0.00    1.0
2018/03/13 15:22:00.000   78.255292494   16.193781463   487.8864   2   9   0.0525   0.0362   0.0768  -0.0159  -0.0140   0.0299   0.00    1.2
2018/03/13 15:22:01.000   78.255292558   16.193781411   487.8917   2   9   0.0524   0.0361   0.0767  -0.0159  -0.0141   0.0298   0.00    1.3
2018/03/13 15:22:02.000   78.255292625   16.193781397   487.8997   2   9   0.0523   0.0360   0.0765  -0.0159  -0.0141   0.0297   0.00    1.4
2018/03/13 15:22:03.000   78.255292667   16.193781563   487.9074   2   9   0.0522   0.0359   0.0764  -0.0159  -0.0142   0.0296   0.00    1.4
2018/03/13 15:22:04.000   78.255292693   16.193781661   487.9157   2   9   0.0521   0.0359   0.0762  -0.0160  -0.0142   0.0295   0.00    1.4
2018/03/13 15:22:05.000   78.255292713   16.193781703   487.9236   2   9   0.0521   0.0358   0.0761  -0.0160  -0.0142   0.0294   0.00    1.3
2018/03/13 15:22:06.000   78.255292737   16.193781766   487.9265   2   9   0.0520   0.0357   0.0759  -0.0160  -0.0143   0.0293   0.00    1.3
2018/03/13 15:22:07.000   78.255292738   16.193781873   487.9283   2   9   0.0519   0.0356   0.0758  -0.0160  -0.0143   0.0292   0.00    1.3
2018/03/13 15:22:08.000   78.255292757   16.193781946   487.9292   2   9   0.0518   0.0355   0.0756  -0.0160  -0.0144   0.0291   0.00    1.2
2018/03/13 15:22:09.000   78.255292802   16.193781943   487.9317   2   9   0.0517   0.0354   0.0755  -0.0161  -0.0144   0.0290   0.00    1.2
2018/03/13 15:22:10.000   78.255292831   16.193781980   487.9348   2   9   0.0516   0.0353   0.0753  -0.0161  -0.0144   0.0289   0.00    1.2
2018/03/13 15:22:11.000   78.255292884   16.193781987   487.9384   2   9   0.0515   0.0352   0.0752  -0.0161  -0.0145   0.0287   0.00    1.1
2018/03/13 15:22:12.000   78.255292905   16.193782007   487.9414   2   9   0.0514   0.0351   0.0750  -0.0161  -0.0145   0.0286   0.00    1.1
2018/03/13 15:22:13.000   78.255292930   16.193781996   487.9433   2   9   0.0513   0.0351   0.0749  -0.0161  -0.0145   0.0285   0.00    1.1
2018/03/13 15:22:14.000   78.255292945   16.193782020   487.9456   2   9   0.0512   0.0350   0.0747  -0.0161  -0.0146   0.0284   0.00    1.1
2018/03/13 15:22:15.000   78.255292982   16.193782064   487.9492   2   9   0.0511   0.0349   0.0746  -0.0162  -0.0146   0.0283   0.00    1.1
2018/03/13 15:22:16.000   78.255293033   16.193782090   487.9522   2   9   0.0510   0.0348   0.0744  -0.0162  -0.0146   0.0282   0.00    1.1
2018/03/13 15:22:17.000   78.255293056   16.193782083   487.9552   2   9   0.0509   0.0347   0.0743  -0.0162  -0.0147   0.0281   0.00    1.0
2018/03/13 15:22:18.000   78.255293061   16.193782123   487.9561   2   9   0.0508   0.0346   0.0741  -0.0162  -0.0147   0.0280   0.00    1.0
2018/03/13 15:22:19.000   78.255293089   16.193782146   487.9610   2   9   0.0507   0.0346   0.0740  -0.0162  -0.0147   0.0279   0.00    1.0
2018/03/13 15:22:20.000   78.255293127   16.193782203   487.9631   2   9   0.0506   0.0345   0.0738  -0.0162  -0.0148   0.0278   0.00    1.0
2018/03/13 15:22:21.000   78.255293160   16.193782289   487.9628   2   9   0.0505   0.0344   0.0737  -0.0162  -0.0148   0.0277   0.00    1.0
2018/03/13 15:22:22.000   78.255293220   16.193782358   487.9651   2   9   0.0504   0.0343   0.0735  -0.0162  -0.0148   0.0276   0.00    1.0
2018/03/13 15:22:23.000   78.255293283   16.193782425   487.9695   2   9   0.0503   0.0342   0.0734  -0.0163  -0.0148   0.0275   0.00    1.1
2018/03/13 15:22:24.000   78.255293324   16.193782416   487.9721   2   9   0.0502   0.0342   0.0732  -0.0163  -0.0149   0.0274   0.00    1.1
2018/03/13 15:22:25.000   78.255293348   16.193782402   487.9749   2   9   0.0501   0.0341   0.0731  -0.0163  -0.0149   0.0273   0.00    1.1
2018/03/13 15:22:26.000   78.255293374   16.193782361   487.9769   2   9   0.0500   0.0340   0.0729  -0.0163  -0.0149   0.0272   0.00    1.2
2018/03/13 15:22:27.000   78.255293391   16.193782402   487.9770   2   9   0.0499   0.0339   0.0728  -0.0163  -0.0149   0.0271   0.00    1.2
2018/03/13 15:22:28.000   78.255293426   16.193782393   487.9793   2   9   0.0498   0.0338   0.0726  -0.0163  -0.0150   0.0270   0.00    1.2
2018/03/13 15:22:29.000   78.255293463   16.193782440   487.9828   2   9   0.0497   0.0338   0.0725  -0.0163  -0.0150   0.0269   0.00    1.2
2018/03/13 15:22:30.000   78.255293515   16.193782567   487.9860   2   9   0.0496   0.0337   0.0723  -0.0163  -0.0150   0.0268   0.00    1.2
2018/03/13 15:22:31.000   78.255293556   16.193782643   487.9891   2   9   0.0495   0.0336   0.0722  -0.0163  -0.0150   0.0267   0.00    1.2
2018/03/13 15:22:32.000   78.255293588   16.193782721   487.9935   2   9   0.0494   0.0335   0.0720  -0.0163  -0.0150   0.0265   0.00    1.1
2018/03/13 15:22:33.000   78.255293640   16.193782745   487.9955   2   9   0.0494   0.0334   0.0719  -0.0163  -0.0151   0.0264   0.00    1.1
2018/03/13 15:22:34.000   78.255293668   16.193782769   487.9978   2   9   0.0493   0.0334   0.0717  -0.0163  -0.0151   0.0263   0.00    1.1
2018/03/13 15:22:35.000   78.255293705   16.193782877   488.0002   2   9   0.0492   0.0333   0.0716  -0.0163  -0.0151   0.0262   0.00    1.1
2018/03/13 15:22:36.000   78.255293738   16.193782961   488.0013   2   9   0.0491   0.0332   0.0714  -0.0163  -0.0151   0.0261   0.00    1.1
2018/03/13 15:22:37.000   78.255293755   16.193783070   488.0044   2   9   0.0490   0.0331   0.0713  -0.0163  -0.0151   0.0260   0.00    1.0
2018/03/13 15:22:38.000   78.255293800   16.193783079   488.0079   2   9   0.0489   0.0331   0.0711  -0.0164  -0.0151   0.0259   0.00    1.0
2018/03/13 15:22:39.000   78.255293860   16.193783086   488.0100   2   9   0.0488   0.0330   0.0710  -0.0164  -0.0152   0.0258   0.00    1.0
2018/03/13 15:22:40.000   78.255293894   16.193783188   488.0115   2   9   0.0487   0.0329   0.0708  -0.0164  -0.0152   0.0257   0.00    1.0
2018/03/13 15:22:41.000   78.255293961   16.193783260   488.0164   2   9   0.0486   0.0328   0.0707  -0.0164  -0.0152   0.0256   0.00    1.0
2018/03/13 15:22:42.000   78.255293955   16.193783218   488.0167   2   9   0.0485   0.0328   0.0705  -0.0164  -0.0152   0.0255   0.00    1.0
2018/03/13 15:22:43.000   78.255293964   16.193783222   488.0187   2   9   0.0484   0.0327   0.0704  -0.0164  -0.0152   0.0254   0.00    1.0
2018/03/13 15:22:44.000   78.255293932   16.193783302   488.0201   2   9   0.0483   0.0326   0.0702  -0.0164  -0.0152   0.0253   0.00    1.0
2018/03/13 15:22:45.000   78.255293934   16.193783371   488.0205   2   8   0.0482   0.0326   0.0701  -0.0164  -0.0152   0.0252   0.00    1.0
2018/03/13 15:22:46.000   78.255293935   16.193783482   488.0201   2   8   0.0482   0.0325   0.0699  -0.0164  -0.0152   0.0251   0.00    1.0
2018/03/13 15:22:47.000   78.255293910   16.193783531   488.0230   2   8   0.0481   0.0324   0.0698  -0.0164  -0.0153   0.0250   0.00    1.0
2018/03/13 15:22:48.000   78.255293889   16.193783577   488.0265   2   8   0.0480   0.0324   0.0697  -0.0164  -0.0153   0.0249   0.00    1.0
2018/03/13 15:22:49.000   78.255293869   16.193783674   488.0290   2   8   0.0479   0.0323   0.0695  -0.0164  -0.0153   0.0247   0.00    1.0
2018/03/13 15:22:50.000   78.255293853   16.193783734   488.0317   2   8   0.0478   0.0322   0.0694  -0.0164  -0.0153   0.0246   0.00    1.4
2018/03/13 15:22:51.000   78.255293848   16.193783859   488.0333   2   8   0.0478   0.0321   0.0692  -0.0164  -0.0153   0.0245   0.00    1.4
2018/03/13 15:22:52.000   78.255293822   16.193783956   488.0354   2   8   0.0477   0.0321   0.0691  -0.0164  -0.0153   0.0244   0.00    1.4
2018/03/13 15:22:53.000   78.255293813   16.193784001   488.0349   2   8   0.0476   0.0320   0.0689  -0.0164  -0.0153   0.0243   0.00    1.4
2018/03/13 15:22:54.000   78.255293819   16.193784098   488.0361   2   8   0.0475   0.0319   0.0688  -0.0164  -0.0153   0.0242   0.00    1.4
2018/03/13 15:22:55.000   78.255293833   16.193784206   488.0384   2   8   0.0474   0.0319   0.0686  -0.0164  -0.0153   0.0241   0.00    1.4
2018/03/13 15:22:56.000   78.255293833   16.193784290   488.0394   2   8   0.0474   0.0318   0.0685  -0.0164  -0.0153   0.0240   0.00    1.4
2018/03/13 15:22:57.000   78.255293826   16.193784371   488.0414   2   8   0.0473   0.0317   0.0683  -0.0164  -0.0153   0.0239   0.00    1.4
2018/03/13 15:22:58.000   78.255293817   16.193784432   488.0439   2   8   0.0472   0.0317   0.0682  -0.0164  -0.0153   0.0238   0.00    1.4
2018/03/13 15:22:59.000   78.255293816   16.193784465   488.0481   2   8   0.0471   0.0316   0.0680  -0.0164  -0.0153   0.0237   0.00    1.4
2018/03/13 15:23:00.000   78.255293824   16.193784563   488.0501   2   8   0.0470   0.0315   0.0679  -0.0164  -0.0153   0.0236   0.00    1.4
2018/03/13 15:23:01.000   78.255293847   16.193784644   488.0513   2   8   0.0470   0.0315   0.0677  -0.0165  -0.0153   0.0235   0.00    1.4
2018/03/13 15:23:02.000   78.255293864   16.193784672   488.0537   2   8   0.0469   0.0314   0.0676  -0.0165  -0.0153   0.0233   0.00    1.4
2018/03/13 15:23:03.000   78.255293876   16.193784735   488.0564   2   8   0.0468   0.0313   0.0675  -0.0165  -0.0153   0.0232   0.00    1.4
2018/03/13 15:23:04.000   78.255293900   16.193784760   488.0595   2   8   0.0467   0.0313   0.0673  -0.0165  -0.0153   0.0231   0.00    1.4
2018/03/13 15:23:05.000   78.255293902   16.193784817   488.0627   2   8   0.0466   0.0312   0.0672  -0.0165  -0.0153   0.0230   0.00    1.4
2018/03/13 15:23:06.000   78.255293902   16.193784911   488.0663   2   8   0.0466   0.0312   0.0670  -0.0165  -0.0153   0.0229   0.00    1.4
2018/03/13 15:23:07.000   78.255293888   16.193784940   488.0705   2   8   0.0465   0.0311   0.0669  -0.0165  -0.0153   0.0228   0.00    1.4
2018/03/13 15:23:08.000   78.255293873   16.193785032   488.0728   2   8   0.0464   0.0310   0.0667  -0.0165  -0.0153   0.0227   0.00    1.4
2018/03/13 15:23:09.000   78.255293872   16.193785077   488.0741   2   8   0.0463   0.0310   0.0666  -0.0165  -0.0153   0.0226   0.00    1.4
2018/03/13 15:23:10.000   78.255293852   16.193785204   488.0757   2   8   0.0462   0.0309   0.0664  -0.0164  -0.0153   0.0225   0.00    1.4
2018/03/13 15:23:11.000   78.255293838   16.193785243   488.0795   2   8   0.0462   0.0308   0.0663  -0.0164  -0.0153   0.0224   0.00    1.4
2018/03/13 15:23:12.000   78.255293835   16.193785288   488.0822   2   8   0.0461   0.0308   0.0661  -0.0164  -0.0153   0.0223   0.00    1.4
2018/03/13 15:23:13.000   78.255293832   16.193785364   488.0842   2   8   0.0460   0.0307   0.0660  -0.0164  -0.0153   0.0222   0.00    1.4
2018/03/13 15:23:14.000   78.255293830   16.193785426   488.0877   2   8   0.0459   0.0307   0.0659  -0.0164  -0.0153   0.0221   0.00    1.4
2018/03/13 15:23:15.000   78.255293839   16.193785480   488.0880   2   8   0.0458   0.0306   0.0657  -0.0164  -0.0153   0.0220   0.00    1.3
2018/03/13 15:23:16.000   78.255293845   16.193785543   488.0918   2   8   0.0457   0.0305   0.0656  -0.0164  -0.0153   0.0219   0.00    1.3
2018/03/13 15:23:17.000   78.255293830   16.193785595   488.0955   2   8   0.0457   0.0305   0.0654  -0.0164  -0.0153   0.0217   0.00    1.3
2018/03/13 15:23:18.000   78.255293831   16.193785613   488.0968   2   8   0.0456   0.0304   0.0653  -0.0164  -0.0153   0.0216   0.00    1.3
2018/03/13 15:23:19.000   78.255293803   16.193785727   488.0979   2   8   0.0455   0.0303   0.0651  -0.0164  -0.0153   0.0215   0.00    1.3
2018/03/13 15:23:20.000   78.255293806   16.193785815   488.1011   2   8   0.0454   0.0303   0.0650  -0.0164  -0.0153   0.0214   0.00    1.3
2018/03/13 15:23:21.000   78.255293789   16.193785954   488.1051   2   8   0.0454   0.0302   0.0649  -0.0164  -0.0152   0.0213   0.00    1.3
2018/03/13 15:23:22.000   78.255293785   16.193786062   488.1086   2   8   0.0453   0.0302   0.0647  -0.0164  -0.0152   0.0212   0.00    1.3
2018/03/13 15:23:23.000   78.255293775   16.193786152   488.1120   2   8   0.0452   0.0301   0.0646  -0.0164  -0.0152   0.0211   0.00    1.3
2018/03/13 15:23:24.000   78.255293764   16.193786237   488.1149   2   8   0.0451   0.0300   0.0644  -0.0164  -0.0152   0.0210   0.00    1.3
2018/03/13 15:23:25.000   78.255293758   16.193786265   488.1155   2   8   0.0450   0.0300   0.0643  -0.0164  -0.0152   0.0209   0.00    1.3
2018/03/13 15:23:26.000   78.255293740   16.193786345   488.1166   2   8   0.0450   0.0299   0.0641  -0.0164  -0.0152   0.0208   0.00    1.3
2018/03/13 15:23:27.000   78.255293735   16.193786395   488.1191   2   8   0.0449   0.0299   0.0640  -0.0164  -0.0152   0.0207   0.00    1.3
2018/03/13 15:23:28.000   78.255293740   16.193786480   488.1200   2   8   0.0448   0.0298   0.0639  -0.0164  -0.0152   0.0206   0.00    1.3
2018/03/13 15:23:29.000   78.255293745   16.193786601   488.1229   2   8   0.0447   0.0298   0.0637  -0.0163  -0.0152   0.0205   0.00    1.3
2018/03/13 15:23:30.000   78.255293744   16.193786693   488.1252   2   8   0.0446   0.0297   0.0636  -0.0163  -0.0152   0.0204   0.00    1.3
2018/03/13 15:23:31.000   78.255293726   16.193786788   488.1273   2   8   0.0446   0.0296   0.0634  -0.0163  -0.0152   0.0203   0.00    1.3
2018/03/13 15:23:32.000   78.255293700   16.193786843   488.1304   2   8   0.0445   0.0296   0.0633  -0.0163  -0.0151   0.0202   0.00    1.3
2018/03/13 15:23:33.000   78.255293715   16.193786888   488.1328   2   8   0.0444   0.0295   0.0631  -0.0163  -0.0151   0.0201   0.00    1.3
2018/03/13 15:23:34.000   78.255293718   16.193786934   488.1347   2   8   0.0443   0.0295   0.0630  -0.0163  -0.0151   0.0200   0.00    1.3
2018/03/13 15:23:35.000   78.255293727   16.193786985   488.1371   2   8   0.0442   0.0294   0.0629  -0.0163  -0.0151   0.0199   0.00    1.3
2018/03/13 15:23:36.000   78.255293740   16.193787104   488.1409   2   8   0.0442   0.0294   0.0627  -0.0163  -0.0151   0.0198   0.00    1.2
2018/03/13 15:23:37.000   78.255293745   16.193787152   488.1442   2   8   0.0441   0.0293   0.0626  -0.0163  -0.0151   0.0197   0.00    1.2
2018/03/13 15:23:38.000   78.255293733   16.193787202   488.1429   2   8   0.0440   0.0293   0.0624  -0.0163  -0.0151   0.0196   0.00    1.2
2018/03/13 15:23:39.000   78.255293714   16.193787297   488.1415   2   8   0.0439   0.0292   0.0623  -0.0163  -0.0151   0.0195   0.00    1.2
2018/03/13 15:23:40.000   78.255293711   16.193787295   488.1417   2   8   0.0438   0.0291   0.0622  -0.0162  -0.0150   0.0194   0.00    1.2
2018/03/13 15:23:41.000   78.255293702   16.193787328   488.1431   2   8   0.0438   0.0291   0.0620  -0.0162  -0.0150   0.0193   0.00    1.2
2018/03/13 15:23:42.000   78.255293691   16.193787406   488.1438   2   8   0.0437   0.0290   0.0619  -0.0162  -0.0150   0.0192   0.00    1.2
2018/03/13 15:23:43.000   78.255293688   16.193787580   488.1452   2   8   0.0436   0.0290   0.0617  -0.0162  -0.0150   0.0191   0.00    1.2
2018/03/13 15:23:44.000   78.255293686   16.193787646   488.1471   2   8   0.0435   0.0289   0.0616  -0.0162  -0.0150   0.0190   0.00    1.2
2018/03/13 15:23:45.000   78.255293677   16.193787695   488.1504   2   8   0.0435   0.0289   0.0615  -0.0162  -0.0150   0.0189   0.00    1.2
2018/03/13 15:23:46.000   78.255293659   16.193787736   488.1524   2   8   0.0434   0.0288   0.0613  -0.0162  -0.0150   0.0188   0.00    1.2
2018/03/13 15:23:47.000   78.255293650   16.193787798   488.1536   2   9   0.0433   0.0288   0.0612  -0.0162  -0.0149   0.0187   0.00    1.0
2018/03/13 15:23:48.000   78.255293639   16.193787843   488.1552   2   9   0.0432   0.0287   0.0611  -0.0161  -0.0149   0.0186   0.00    1.1
2018/03/13 15:23:49.000   78.255293633   16.193787878   488.1575   2   9   0.0431   0.0287   0.0609  -0.0161  -0.0149   0.0185   0.00    1.1
2018/03/13 15:23:50.000   78.255293640   16.193787931   488.1607   2   9   0.0430   0.0286   0.0608  -0.0161  -0.0149   0.0184   0.00    1.1
2018/03/13 15:23:51.000   78.255293649   16.193787943   488.1633   2   9   0.0429   0.0285   0.0606  -0.0161  -0.0149   0.0183   0.00    1.0
2018/03/13 15:23:52.000   78.255293668   16.193787969   488.1664   2   9   0.0429   0.0285   0.0605  -0.0161  -0.0149   0.0182   0.00    1.0
2018/03/13 15:23:53.000   78.255293675   16.193788034   488.1679   2   9   0.0428   0.0284   0.0604  -0.0160  -0.0149   0.0181   0.00    1.0
2018/03/13 15:23:54.000   78.255293674   16.193788050   488.1708   2   9   0.0427   0.0284   0.0602  -0.0160  -0.0148   0.0180   0.00    1.0
2018/03/13 15:23:55.000   78.255293680   16.193788113   488.1718   2   9   0.0426   0.0283   0.0601  -0.0160  -0.0148   0.0179   0.00    1.1
2018/03/13 15:23:56.000   78.255293696   16.193788145   488.1740   2   9   0.0425   0.0283   0.0600  -0.0160  -0.0148   0.0178   0.00    1.1
