% program   : RTKPOST ver.2.4.2
% inp file  : Z:\home\linda\Documents\Spring18\GitHub_Unis\data\processed_data\46250709.obs
% inp file  : Z:\home\linda\Documents\Spring18\GitHub_Unis\data\processed_data\46250709.nav
% obs start : 2018/03/11 13:43:13.0 GPST (week1992  49393.0s)
% obs end   : 2018/03/11 13:58:41.0 GPST (week1992  50321.0s)
% pos mode  : single
% elev mask : 15.0 deg
% ionos opt : broadcast
% tropo opt : saastamoinen
% ephemeris : broadcast
% navi sys  : gps glonass galileo qzss sbas
%
% (lat/lon/height=WGS84/ellipsoidal,Q=1:fix,2:float,3:sbas,4:dgps,5:single,6:ppp,ns=# of satellites)
%  GPST                  latitude(deg) longitude(deg)  height(m)   Q  ns   sdn(m)   sde(m)   sdu(m)  sdne(m)  sdeu(m)  sdun(m) age(s)  ratio
2018/03/11 13:43:13.000   78.251311611   16.154926912   566.1505   5  10   2.0454   1.8917   7.1791  -1.0996  -2.4690   3.1566   0.00    0.0
2018/03/11 13:43:14.000   78.251311110   16.154906845   565.8088   5  10   2.0457   1.8919   7.1804  -1.1000  -2.4698   3.1574   0.00    0.0
2018/03/11 13:43:15.000   78.251315739   16.154894401   567.0579   5  10   2.0460   1.8921   7.1817  -1.1004  -2.4706   3.1581   0.00    0.0
2018/03/11 13:43:16.000   78.251313611   16.154910705   566.4732   5  10   2.0463   1.8923   7.1830  -1.1008  -2.4713   3.1589   0.00    0.0
2018/03/11 13:43:17.000   78.251305363   16.154912307   565.2952   5  10   2.0466   1.8924   7.1843  -1.1012  -2.4721   3.1597   0.00    0.0
2018/03/11 13:43:18.000   78.251308854   16.154905021   565.8522   5  10   2.0469   1.8926   7.1856  -1.1015  -2.4729   3.1604   0.00    0.0
2018/03/11 13:43:19.000   78.251315128   16.154885868   568.3227   5  10   2.0471   1.8928   7.1869  -1.1019  -2.4736   3.1612   0.00    0.0
2018/03/11 13:43:20.000   78.251317994   16.154879982   569.4640   5  10   2.0474   1.8930   7.1883  -1.1023  -2.4744   3.1619   0.00    0.0
2018/03/11 13:43:21.000   78.251311701   16.154893537   566.2832   5  10   2.0477   1.8932   7.1896  -1.1027  -2.4751   3.1627   0.00    0.0
2018/03/11 13:43:22.000   78.251310219   16.154913159   564.1788   5  10   2.0480   1.8934   7.1909  -1.1031  -2.4759   3.1635   0.00    0.0
2018/03/11 13:43:23.000   78.251308778   16.154918033   564.2776   5  10   2.0483   1.8936   7.1922  -1.1035  -2.4767   3.1642   0.00    0.0
2018/03/11 13:43:24.000   78.251310183   16.154910481   563.8717   5  10   2.0486   1.8938   7.1935  -1.1039  -2.4774   3.1650   0.00    0.0
2018/03/11 13:43:25.000   78.251316004   16.154868755   567.2559   5  10   2.0488   1.8940   7.1948  -1.1043  -2.4782   3.1657   0.00    0.0
2018/03/11 13:43:26.000   78.251317185   16.154841840   566.4841   5  10   2.0491   1.8942   7.1961  -1.1047  -2.4790   3.1665   0.00    0.0
2018/03/11 13:43:27.000   78.251314030   16.154875006   565.8247   5  10   2.0494   1.8944   7.1974  -1.1051  -2.4797   3.1673   0.00    0.0
2018/03/11 13:43:28.000   78.251310164   16.154910889   564.0086   5  10   2.0497   1.8945   7.1987  -1.1055  -2.4805   3.1680   0.00    0.0
2018/03/11 13:43:29.000   78.251310005   16.154910678   564.9894   5  10   2.0500   1.8947   7.2000  -1.1059  -2.4812   3.1688   0.00    0.0
2018/03/11 13:43:30.000   78.251309306   16.154886560   566.5099   5  10   2.0503   1.8949   7.2013  -1.1063  -2.4820   3.1695   0.00    0.0
2018/03/11 13:43:31.000   78.251311630   16.154887268   566.7020   5  10   2.0505   1.8951   7.2026  -1.1067  -2.4828   3.1703   0.00    0.0
2018/03/11 13:43:32.000   78.251309321   16.154897024   565.6292   5  10   2.0508   1.8953   7.2039  -1.1071  -2.4835   3.1710   0.00    0.0
2018/03/11 13:43:33.000   78.251310446   16.154931200   565.6801   5  10   2.0511   1.8955   7.2052  -1.1075  -2.4843   3.1718   0.00    0.0
2018/03/11 13:43:34.000   78.251309379   16.154938790   565.1462   5  10   2.0514   1.8957   7.2065  -1.1079  -2.4850   3.1725   0.00    0.0
2018/03/11 13:43:35.000   78.251305441   16.154917669   564.3091   5  10   2.0517   1.8959   7.2078  -1.1083  -2.4858   3.1733   0.00    0.0
2018/03/11 13:43:36.000   78.251304984   16.154893933   565.1668   5  10   2.0520   1.8961   7.2091  -1.1087  -2.4866   3.1741   0.00    0.0
2018/03/11 13:43:37.000   78.251311759   16.154881359   567.9688   5  10   2.0522   1.8963   7.2104  -1.1091  -2.4873   3.1748   0.00    0.0
2018/03/11 13:43:38.000   78.251312335   16.154903410   567.7650   5  10   2.0525   1.8965   7.2117  -1.1094  -2.4881   3.1756   0.00    0.0
2018/03/11 13:43:39.000   78.251311058   16.154918833   566.4038   5  10   2.0528   1.8967   7.2130  -1.1098  -2.4888   3.1763   0.00    0.0
2018/03/11 13:43:40.000   78.251309550   16.154892022   565.6409   5  10   2.0531   1.8968   7.2143  -1.1102  -2.4896   3.1771   0.00    0.0
2018/03/11 13:43:41.000   78.251308946   16.154896762   564.8587   5  10   2.0534   1.8970   7.2156  -1.1106  -2.4904   3.1778   0.00    0.0
2018/03/11 13:43:42.000   78.251310267   16.154893951   564.8602   5  10   2.0537   1.8972   7.2169  -1.1110  -2.4911   3.1786   0.00    0.0
2018/03/11 13:43:43.000   78.251309587   16.154897265   564.4100   5  10   2.0539   1.8974   7.2182  -1.1114  -2.4919   3.1793   0.00    0.0
2018/03/11 13:43:44.000   78.251309109   16.154885272   564.5667   5  10   2.0542   1.8976   7.2195  -1.1118  -2.4926   3.1801   0.00    0.0
2018/03/11 13:43:45.000   78.251306960   16.154884337   562.7916   5  10   2.0545   1.8978   7.2208  -1.1122  -2.4934   3.1808   0.00    0.0
2018/03/11 13:43:46.000   78.251310617   16.154882218   563.5605   5  10   2.0548   1.8980   7.2221  -1.1126  -2.4941   3.1816   0.00    0.0
2018/03/11 13:43:47.000   78.251316660   16.154875960   566.3006   5  10   2.0551   1.8982   7.2234  -1.1130  -2.4949   3.1823   0.00    0.0
2018/03/11 13:43:48.000   78.251316179   16.154880261   567.2601   5  10   2.0554   1.8984   7.2247  -1.1134  -2.4956   3.1831   0.00    0.0
2018/03/11 13:43:49.000   78.251308031   16.154894715   564.7288   5  10   2.0556   1.8986   7.2260  -1.1138  -2.4964   3.1838   0.00    0.0
2018/03/11 13:43:50.000   78.251306561   16.154892746   564.8198   5  10   2.0559   1.8988   7.2272  -1.1142  -2.4972   3.1846   0.00    0.0
2018/03/11 13:43:51.000   78.251313331   16.154885741   565.4793   5  10   2.0562   1.8990   7.2285  -1.1146  -2.4979   3.1853   0.00    0.0
2018/03/11 13:43:52.000   78.251309017   16.154903958   565.1031   5  10   2.0565   1.8991   7.2298  -1.1150  -2.4987   3.1861   0.00    0.0
2018/03/11 13:43:53.000   78.251310743   16.154925706   565.9489   5  10   2.0568   1.8993   7.2311  -1.1153  -2.4994   3.1868   0.00    0.0
2018/03/11 13:43:54.000   78.251314251   16.154894207   567.8306   5  10   2.0570   1.8995   7.2324  -1.1157  -2.5002   3.1876   0.00    0.0
2018/03/11 13:43:55.000   78.251316423   16.154876365   567.4570   5  10   2.0573   1.8997   7.2337  -1.1161  -2.5009   3.1883   0.00    0.0
2018/03/11 13:43:56.000   78.251310960   16.154890743   566.3521   5  10   2.0576   1.8999   7.2350  -1.1165  -2.5017   3.1891   0.00    0.0
2018/03/11 13:43:57.000   78.251309314   16.154908680   565.8031   5  10   2.0579   1.9001   7.2363  -1.1169  -2.5024   3.1898   0.00    0.0
2018/03/11 13:43:58.000   78.251311694   16.154915502   567.7100   5  10   2.0582   1.9003   7.2375  -1.1173  -2.5032   3.1906   0.00    0.0
2018/03/11 13:43:59.000   78.251310368   16.154911587   565.9264   5  10   2.0585   1.9005   7.2388  -1.1177  -2.5039   3.1913   0.00    0.0
2018/03/11 13:44:00.000   78.251306972   16.154922195   563.7837   5  10   2.0587   1.9007   7.2401  -1.1181  -2.5047   3.1921   0.00    0.0
2018/03/11 13:44:01.000   78.251306590   16.154907978   563.3437   5  10   2.0590   1.9009   7.2414  -1.1185  -2.5054   3.1928   0.00    0.0
2018/03/11 13:44:02.000   78.251313847   16.154898258   565.4727   5  10   2.0593   1.9011   7.2427  -1.1189  -2.5062   3.1935   0.00    0.0
2018/03/11 13:44:03.000   78.251315693   16.154899153   566.0760   5  10   2.0596   1.9013   7.2439  -1.1193  -2.5069   3.1943   0.00    0.0
2018/03/11 13:44:04.000   78.251314209   16.154879314   565.4843   5  10   2.0599   1.9014   7.2452  -1.1196  -2.5077   3.1950   0.00    0.0
2018/03/11 13:44:05.000   78.251308096   16.154876500   564.2388   5  10   2.0601   1.9016   7.2465  -1.1200  -2.5084   3.1958   0.00    0.0
2018/03/11 13:44:06.000   78.251299882   16.154906084   561.7473   5  10   2.0604   1.9018   7.2478  -1.1204  -2.5092   3.1965   0.00    0.0
2018/03/11 13:44:07.000   78.251305333   16.154900934   564.0112   5  10   2.0607   1.9020   7.2491  -1.1208  -2.5099   3.1973   0.00    0.0
2018/03/11 13:44:08.000   78.251316493   16.154882866   567.0069   5  10   2.0610   1.9022   7.2503  -1.1212  -2.5107   3.1980   0.00    0.0
2018/03/11 13:44:09.000   78.251317251   16.154884599   566.0188   5  10   2.0613   1.9024   7.2516  -1.1216  -2.5114   3.1987   0.00    0.0
2018/03/11 13:44:10.000   78.251310473   16.154908047   563.2385   5  10   2.0616   1.9026   7.2529  -1.1220  -2.5122   3.1995   0.00    0.0
2018/03/11 13:44:11.000   78.251307515   16.154920859   563.8182   5  10   2.0618   1.9028   7.2542  -1.1224  -2.5129   3.2002   0.00    0.0
2018/03/11 13:44:12.000   78.251313805   16.154878935   566.6999   5  10   2.0621   1.9030   7.2554  -1.1228  -2.5137   3.2010   0.00    0.0
2018/03/11 13:44:13.000   78.251310493   16.154880585   566.1057   5  10   2.0624   1.9032   7.2567  -1.1232  -2.5144   3.2017   0.00    0.0
2018/03/11 13:44:14.000   78.251307853   16.154886462   564.7044   5  10   2.0627   1.9034   7.2580  -1.1235  -2.5152   3.2024   0.00    0.0
2018/03/11 13:44:15.000   78.251310904   16.154872676   565.4995   5  10   2.0630   1.9036   7.2592  -1.1239  -2.5159   3.2032   0.00    0.0
2018/03/11 13:44:16.000   78.251311637   16.154906294   564.4652   5  10   2.0632   1.9038   7.2605  -1.1243  -2.5167   3.2039   0.00    0.0
2018/03/11 13:44:17.000   78.251312843   16.154941191   564.7131   5  10   2.0635   1.9039   7.2618  -1.1247  -2.5174   3.2047   0.00    0.0
2018/03/11 13:44:18.000   78.251315802   16.154937128   565.5239   5  10   2.0638   1.9041   7.2630  -1.1251  -2.5182   3.2054   0.00    0.0
2018/03/11 13:44:19.000   78.251315726   16.154895997   566.7227   5  10   2.0641   1.9043   7.2643  -1.1255  -2.5189   3.2061   0.00    0.0
2018/03/11 13:44:20.000   78.251309983   16.154897917   565.2709   5  10   2.0644   1.9045   7.2656  -1.1259  -2.5197   3.2069   0.00    0.0
2018/03/11 13:44:21.000   78.251305142   16.154902871   564.3381   5  10   2.0646   1.9047   7.2668  -1.1263  -2.5204   3.2076   0.00    0.0
2018/03/11 13:44:22.000   78.251310241   16.154888812   565.8641   5  10   2.0649   1.9049   7.2681  -1.1266  -2.5212   3.2084   0.00    0.0
2018/03/11 13:44:23.000   78.251313502   16.154903656   566.9847   5  10   2.0652   1.9051   7.2694  -1.1270  -2.5219   3.2091   0.00    0.0
2018/03/11 13:44:24.000   78.251311548   16.154906459   566.1514   5  10   2.0655   1.9053   7.2706  -1.1274  -2.5226   3.2098   0.00    0.0
2018/03/11 13:44:25.000   78.251311974   16.154905348   566.0579   5  10   2.0658   1.9055   7.2719  -1.1278  -2.5234   3.2106   0.00    0.0
2018/03/11 13:44:26.000   78.251310615   16.154894307   565.0549   5  10   2.0660   1.9057   7.2732  -1.1282  -2.5241   3.2113   0.00    0.0
2018/03/11 13:44:27.000   78.251309341   16.154907570   563.8780   5  10   2.0663   1.9059   7.2744  -1.1286  -2.5249   3.2120   0.00    0.0
2018/03/11 13:44:28.000   78.251314084   16.154899967   566.1523   5  10   2.0666   1.9061   7.2757  -1.1290  -2.5256   3.2128   0.00    0.0
2018/03/11 13:44:29.000   78.251316615   16.154876097   567.6972   5  10   2.0669   1.9063   7.2769  -1.1294  -2.5264   3.2135   0.00    0.0
2018/03/11 13:44:30.000   78.251311139   16.154907200   565.4795   5  10   2.0672   1.9064   7.2782  -1.1297  -2.5271   3.2142   0.00    0.0
2018/03/11 13:44:31.000   78.251306500   16.154905760   564.0754   5  10   2.0674   1.9066   7.2795  -1.1301  -2.5278   3.2150   0.00    0.0
2018/03/11 13:44:32.000   78.251315256   16.154870149   566.8279   5  10   2.0677   1.9068   7.2807  -1.1305  -2.5286   3.2157   0.00    0.0
2018/03/11 13:44:33.000   78.251315205   16.154854370   567.1280   5  10   2.0680   1.9070   7.2820  -1.1309  -2.5293   3.2164   0.00    0.0
2018/03/11 13:44:34.000   78.251309091   16.154906038   563.4220   5  10   2.0683   1.9072   7.2832  -1.1313  -2.5301   3.2172   0.00    0.0
2018/03/11 13:44:35.000   78.251309597   16.154903830   563.3341   5  10   2.0686   1.9074   7.2845  -1.1317  -2.5308   3.2179   0.00    0.0
2018/03/11 13:44:36.000   78.251312587   16.154898282   564.3115   5  10   2.0688   1.9076   7.2857  -1.1321  -2.5315   3.2186   0.00    0.0
2018/03/11 13:44:37.000   78.251311038   16.154907571   564.2123   5  10   2.0691   1.9078   7.2870  -1.1324  -2.5323   3.2194   0.00    0.0
2018/03/11 13:44:38.000   78.251307716   16.154925136   564.3355   5  10   2.0694   1.9080   7.2882  -1.1328  -2.5330   3.2201   0.00    0.0
2018/03/11 13:44:39.000   78.251309686   16.154893279   565.8975   5  10   2.0697   1.9082   7.2895  -1.1332  -2.5338   3.2208   0.00    0.0
2018/03/11 13:44:40.000   78.251313926   16.154876608   567.2131   5  10   2.0700   1.9084   7.2907  -1.1336  -2.5345   3.2216   0.00    0.0
2018/03/11 13:44:41.000   78.251312081   16.154887117   566.0704   5  10   2.0702   1.9086   7.2920  -1.1340  -2.5352   3.2223   0.00    0.0
2018/03/11 13:44:42.000   78.251312709   16.154909649   566.6731   5  10   2.0705   1.9088   7.2932  -1.1344  -2.5360   3.2230   0.00    0.0
2018/03/11 13:44:43.000   78.251316304   16.154903801   567.4365   5  10   2.0708   1.9089   7.2945  -1.1348  -2.5367   3.2237   0.00    0.0
2018/03/11 13:44:44.000   78.251311956   16.154905625   564.4607   5  10   2.0711   1.9091   7.2957  -1.1351  -2.5375   3.2245   0.00    0.0
2018/03/11 13:44:45.000   78.251310564   16.154929539   563.6851   5  10   2.0714   1.9093   7.2970  -1.1355  -2.5382   3.2252   0.00    0.0
2018/03/11 13:44:46.000   78.251313970   16.154907326   564.4677   5  10   2.0716   1.9095   7.2982  -1.1359  -2.5389   3.2259   0.00    0.0
2018/03/11 13:44:47.000   78.251312754   16.154902262   566.4343   5  10   2.0719   1.9097   7.2995  -1.1363  -2.5397   3.2267   0.00    0.0
2018/03/11 13:44:48.000   78.251308556   16.154910594   564.2854   5  10   2.0722   1.9099   7.3007  -1.1367  -2.5404   3.2274   0.00    0.0
2018/03/11 13:44:49.000   78.251311015   16.154878261   565.6331   5  10   2.0725   1.9101   7.3019  -1.1371  -2.5411   3.2281   0.00    0.0
2018/03/11 13:44:50.000   78.251316333   16.154876683   567.3306   5  10   2.0727   1.9103   7.3032  -1.1374  -2.5419   3.2288   0.00    0.0
2018/03/11 13:44:51.000   78.251314672   16.154903149   565.9648   5  10   2.0730   1.9105   7.3044  -1.1378  -2.5426   3.2296   0.00    0.0
2018/03/11 13:44:52.000   78.251307725   16.154912545   564.1481   5  10   2.0733   1.9107   7.3057  -1.1382  -2.5433   3.2303   0.00    0.0
2018/03/11 13:44:53.000   78.251307288   16.154883428   563.9227   5  10   2.0736   1.9109   7.3069  -1.1386  -2.5441   3.2310   0.00    0.0
2018/03/11 13:44:54.000   78.251308630   16.154886715   564.4783   5  10   2.0739   1.9111   7.3081  -1.1390  -2.5448   3.2317   0.00    0.0
2018/03/11 13:44:55.000   78.251313328   16.154906298   565.4231   5  10   2.0741   1.9113   7.3094  -1.1394  -2.5455   3.2325   0.00    0.0
2018/03/11 13:44:56.000   78.251315908   16.154912719   566.0518   5  10   2.0744   1.9115   7.3106  -1.1397  -2.5463   3.2332   0.00    0.0
2018/03/11 13:44:57.000   78.251309642   16.154908020   564.4119   5  10   2.0747   1.9116   7.3118  -1.1401  -2.5470   3.2339   0.00    0.0
2018/03/11 13:44:58.000   78.251303239   16.154896243   562.7986   5  10   2.0750   1.9118   7.3131  -1.1405  -2.5477   3.2346   0.00    0.0
2018/03/11 13:44:59.000   78.251304083   16.154898504   562.8997   5  10   2.0753   1.9120   7.3143  -1.1409  -2.5485   3.2353   0.00    0.0
2018/03/11 13:45:00.000   78.251316766   16.154853963   567.1341   5  10   2.0755   1.9122   7.3155  -1.1413  -2.5492   3.2361   0.00    0.0
2018/03/11 13:45:01.000   78.251313991   16.154883700   565.5725   5  10   2.0758   1.9124   7.3168  -1.1416  -2.5499   3.2368   0.00    0.0
2018/03/11 13:45:02.000   78.251308132   16.154941524   564.3834   5  10   2.0761   1.9126   7.3180  -1.1420  -2.5507   3.2375   0.00    0.0
2018/03/11 13:45:03.000   78.251310903   16.154896019   564.2771   5  10   2.0764   1.9128   7.3192  -1.1424  -2.5514   3.2382   0.00    0.0
2018/03/11 13:45:04.000   78.251313709   16.154856054   564.2851   5  10   2.0766   1.9130   7.3205  -1.1428  -2.5521   3.2389   0.00    0.0
2018/03/11 13:45:05.000   78.251312791   16.154901248   563.4718   5  10   2.0769   1.9132   7.3217  -1.1432  -2.5529   3.2397   0.00    0.0
2018/03/11 13:45:06.000   78.251314668   16.154909614   565.4547   5  10   2.0772   1.9134   7.3229  -1.1435  -2.5536   3.2404   0.00    0.0
2018/03/11 13:45:07.000   78.251317075   16.154899000   566.9117   5  10   2.0775   1.9136   7.3241  -1.1439  -2.5543   3.2411   0.00    0.0
2018/03/11 13:45:08.000   78.251314659   16.154909819   565.8723   5  10   2.0777   1.9138   7.3254  -1.1443  -2.5550   3.2418   0.00    0.0
2018/03/11 13:45:09.000   78.251313697   16.154907328   565.9169   5  10   2.0780   1.9140   7.3266  -1.1447  -2.5558   3.2425   0.00    0.0
2018/03/11 13:45:10.000   78.251314750   16.154897454   567.2845   5  10   2.0783   1.9141   7.3278  -1.1451  -2.5565   3.2433   0.00    0.0
2018/03/11 13:45:11.000   78.251309222   16.154912775   564.9267   5  10   2.0786   1.9143   7.3290  -1.1454  -2.5572   3.2440   0.00    0.0
2018/03/11 13:45:12.000   78.251303406   16.154925313   564.4167   5  10   2.0789   1.9145   7.3303  -1.1458  -2.5580   3.2447   0.00    0.0
2018/03/11 13:45:13.000   78.251313074   16.154895135   567.2433   5  10   2.0791   1.9147   7.3315  -1.1462  -2.5587   3.2454   0.00    0.0
2018/03/11 13:45:14.000   78.251320634   16.154873385   569.1823   5  10   2.0794   1.9149   7.3327  -1.1466  -2.5594   3.2461   0.00    0.0
2018/03/11 13:45:15.000   78.251315166   16.154948447   565.3561   5  10   2.0797   1.9151   7.3339  -1.1470  -2.5601   3.2468   0.00    0.0
2018/03/11 13:45:16.000   78.251306101   16.154947511   563.6926   5  10   2.0800   1.9153   7.3351  -1.1473  -2.5609   3.2475   0.00    0.0
2018/03/11 13:45:17.000   78.251307136   16.154904117   565.2753   5  10   2.0802   1.9155   7.3363  -1.1477  -2.5616   3.2483   0.00    0.0
2018/03/11 13:45:18.000   78.251306957   16.154899668   564.6688   5  10   2.0805   1.9157   7.3376  -1.1481  -2.5623   3.2490   0.00    0.0
2018/03/11 13:45:19.000   78.251305457   16.154910430   563.9728   5  10   2.0808   1.9159   7.3388  -1.1485  -2.5630   3.2497   0.00    0.0
2018/03/11 13:45:20.000   78.251311081   16.154891882   566.5188   5  10   2.0811   1.9161   7.3400  -1.1489  -2.5638   3.2504   0.00    0.0
2018/03/11 13:45:21.000   78.251315328   16.154870466   567.0522   5  10   2.0813   1.9163   7.3412  -1.1492  -2.5645   3.2511   0.00    0.0
2018/03/11 13:45:22.000   78.251307136   16.154895697   563.6156   5  10   2.0816   1.9165   7.3424  -1.1496  -2.5652   3.2518   0.00    0.0
2018/03/11 13:45:23.000   78.251310320   16.154886501   564.6353   5  10   2.0819   1.9166   7.3436  -1.1500  -2.5659   3.2525   0.00    0.0
2018/03/11 13:45:24.000   78.251318735   16.154852522   565.3863   5  10   2.0822   1.9168   7.3448  -1.1504  -2.5667   3.2532   0.00    0.0
2018/03/11 13:45:25.000   78.251313171   16.154874692   563.7986   5  10   2.0824   1.9170   7.3460  -1.1507  -2.5674   3.2540   0.00    0.0
2018/03/11 13:45:26.000   78.251306918   16.154907404   562.8153   5  10   2.0827   1.9172   7.3473  -1.1511  -2.5681   3.2547   0.00    0.0
2018/03/11 13:45:27.000   78.251309748   16.154892187   563.7310   5  10   2.0830   1.9174   7.3485  -1.1515  -2.5688   3.2554   0.00    0.0
2018/03/11 13:45:28.000   78.251314721   16.154888790   567.0659   5  10   2.0833   1.9176   7.3497  -1.1519  -2.5695   3.2561   0.00    0.0
2018/03/11 13:45:29.000   78.251311043   16.154919036   565.2856   5  10   2.0835   1.9178   7.3509  -1.1523  -2.5703   3.2568   0.00    0.0
2018/03/11 13:45:30.000   78.251306009   16.154925980   564.5951   5  10   2.0838   1.9180   7.3521  -1.1526  -2.5710   3.2575   0.00    0.0
2018/03/11 13:45:31.000   78.251307391   16.154908273   565.7930   5  10   2.0841   1.9182   7.3533  -1.1530  -2.5717   3.2582   0.00    0.0
2018/03/11 13:45:32.000   78.251312727   16.154895773   568.1538   5  10   2.0844   1.9184   7.3545  -1.1534  -2.5724   3.2589   0.00    0.0
2018/03/11 13:45:33.000   78.251310053   16.154931608   565.8350   5  10   2.0846   1.9186   7.3557  -1.1538  -2.5731   3.2596   0.00    0.0
2018/03/11 13:45:34.000   78.251320095   16.154905170   569.4423   5  10   2.0849   1.9188   7.3569  -1.1541  -2.5739   3.2603   0.00    0.0
2018/03/11 13:45:35.000   78.251316284   16.154925327   567.4586   5  10   2.0852   1.9190   7.3581  -1.1545  -2.5746   3.2610   0.00    0.0
2018/03/11 13:45:36.000   78.251306425   16.154939729   565.4429   5  10   2.0855   1.9191   7.3593  -1.1549  -2.5753   3.2617   0.00    0.0
2018/03/11 13:45:37.000   78.251302701   16.154938376   564.6806   5  10   2.0857   1.9193   7.3605  -1.1553  -2.5760   3.2624   0.00    0.0
2018/03/11 13:45:38.000   78.251309374   16.154906184   567.6202   5  10   2.0860   1.9195   7.3617  -1.1556  -2.5767   3.2631   0.00    0.0
2018/03/11 13:45:39.000   78.251309986   16.154915103   566.3963   5  10   2.0863   1.9197   7.3629  -1.1560  -2.5774   3.2638   0.00    0.0
2018/03/11 13:45:40.000   78.251309904   16.154909492   566.0978   5  10   2.0866   1.9199   7.3641  -1.1564  -2.5782   3.2646   0.00    0.0
2018/03/11 13:45:41.000   78.251322257   16.154864687   568.3141   5  10   2.0868   1.9201   7.3653  -1.1568  -2.5789   3.2653   0.00    0.0
2018/03/11 13:45:42.000   78.251319875   16.154896157   565.9697   5  10   2.0871   1.9203   7.3664  -1.1571  -2.5796   3.2660   0.00    0.0
2018/03/11 13:45:43.000   78.251304982   16.154945035   562.2683   5   9   2.1143   1.9587   7.4352  -1.2121  -2.5046   3.2148   0.00    0.0
2018/03/11 13:45:44.000   78.251312527   16.154876904   566.1788   5   9   2.1146   1.9589   7.4362  -1.2126  -2.5054   3.2155   0.00    0.0
2018/03/11 13:45:45.000   78.251312481   16.154869651   565.2685   5   9   2.1149   1.9592   7.4371  -1.2130  -2.5062   3.2163   0.00    0.0
2018/03/11 13:45:46.000   78.251306701   16.154917382   563.5685   5   9   2.1152   1.9594   7.4381  -1.2134  -2.5070   3.2171   0.00    0.0
2018/03/11 13:45:47.000   78.251307157   16.154910849   565.7483   5  10   2.0885   1.9213   7.3724  -1.1590  -2.5832   3.2695   0.00    0.0
2018/03/11 13:45:48.000   78.251314506   16.154861694   568.3556   5  10   2.0887   1.9215   7.3736  -1.1594  -2.5839   3.2702   0.00    0.0
2018/03/11 13:45:49.000   78.251308813   16.154905946   565.1850   5  10   2.0890   1.9216   7.3748  -1.1597  -2.5846   3.2709   0.00    0.0
2018/03/11 13:45:50.000   78.251297456   16.154918523   561.9933   5  10   2.0893   1.9218   7.3760  -1.1601  -2.5853   3.2716   0.00    0.0
2018/03/11 13:45:51.000   78.251302008   16.154918214   563.4112   5  10   2.0896   1.9220   7.3771  -1.1605  -2.5860   3.2723   0.00    0.0
2018/03/11 13:45:52.000   78.251305905   16.154914264   565.8164   5  10   2.0898   1.9222   7.3783  -1.1609  -2.5867   3.2729   0.00    0.0
2018/03/11 13:45:53.000   78.251309688   16.154917131   565.2355   5  10   2.0901   1.9224   7.3795  -1.1612  -2.5874   3.2736   0.00    0.0
2018/03/11 13:45:54.000   78.251316199   16.154883553   569.3187   5  10   2.0904   1.9226   7.3807  -1.1616  -2.5881   3.2743   0.00    0.0
2018/03/11 13:45:55.000   78.251319205   16.154885993   570.1651   5  10   2.0907   1.9228   7.3819  -1.1620  -2.5889   3.2750   0.00    0.0
2018/03/11 13:45:56.000   78.251303544   16.154959607   565.4298   5  10   2.0909   1.9230   7.3830  -1.1623  -2.5896   3.2757   0.00    0.0
2018/03/11 13:45:57.000   78.251301206   16.154954331   564.5859   5  10   2.0912   1.9232   7.3842  -1.1627  -2.5903   3.2764   0.00    0.0
2018/03/11 13:45:58.000   78.251309256   16.154916525   567.3889   5  10   2.0915   1.9234   7.3854  -1.1631  -2.5910   3.2771   0.00    0.0
2018/03/11 13:45:59.000   78.251308143   16.154916268   565.1337   5  10   2.0917   1.9236   7.3866  -1.1635  -2.5917   3.2778   0.00    0.0
2018/03/11 13:46:00.000   78.251305160   16.154936155   564.3438   5   9   2.1196   1.9626   7.4515  -1.2194  -2.5184   3.2276   0.00    0.0
2018/03/11 13:46:01.000   78.251318630   16.154898290   569.5215   5   9   2.1199   1.9629   7.4524  -1.2198  -2.5192   3.2283   0.00    0.0
2018/03/11 13:46:02.000   78.251327818   16.154849340   568.3011   5  10   2.0926   1.9241   7.3901  -1.1646  -2.5938   3.2799   0.00    0.0
2018/03/11 13:46:03.000   78.251320562   16.154904254   566.0035   5  10   2.0928   1.9243   7.3913  -1.1649  -2.5945   3.2806   0.00    0.0
2018/03/11 13:46:04.000   78.251316696   16.154923732   565.9702   5  10   2.0931   1.9245   7.3924  -1.1653  -2.5952   3.2813   0.00    0.0
2018/03/11 13:46:05.000   78.251310410   16.154912535   565.7479   5  10   2.0934   1.9247   7.3936  -1.1657  -2.5959   3.2820   0.00    0.0
2018/03/11 13:46:06.000   78.251301411   16.154916881   563.8187   5  10   2.0936   1.9249   7.3948  -1.1661  -2.5966   3.2827   0.00    0.0
2018/03/11 13:46:07.000   78.251307659   16.154904486   566.2920   5  10   2.0939   1.9251   7.3959  -1.1664  -2.5973   3.2833   0.00    0.0
2018/03/11 13:46:08.000   78.251319073   16.154892120   568.6700   5  10   2.0942   1.9253   7.3971  -1.1668  -2.5980   3.2840   0.00    0.0
2018/03/11 13:46:09.000   78.251318051   16.154912048   567.9363   5  10   2.0945   1.9255   7.3983  -1.1672  -2.5987   3.2847   0.00    0.0
2018/03/11 13:46:10.000   78.251302183   16.154956534   563.4227   5  10   2.0947   1.9257   7.3994  -1.1675  -2.5995   3.2854   0.00    0.0
2018/03/11 13:46:11.000   78.251299790   16.154899604   563.3161   5  10   2.0950   1.9259   7.4006  -1.1679  -2.6002   3.2861   0.00    0.0
2018/03/11 13:46:12.000   78.251311868   16.154866235   566.1326   5  10   2.0953   1.9261   7.4017  -1.1683  -2.6009   3.2868   0.00    0.0
2018/03/11 13:46:13.000   78.251308134   16.154903841   564.6678   5  10   2.0955   1.9263   7.4029  -1.1686  -2.6016   3.2875   0.00    0.0
2018/03/11 13:46:14.000   78.251309657   16.154890834   565.7643   5  10   2.0958   1.9264   7.4041  -1.1690  -2.6023   3.2882   0.00    0.0
2018/03/11 13:46:15.000   78.251315177   16.154842704   569.0025   5  10   2.0961   1.9266   7.4052  -1.1694  -2.6030   3.2888   0.00    0.0
2018/03/11 13:46:16.000   78.251306921   16.154873939   565.2485   5  10   2.0963   1.9268   7.4064  -1.1697  -2.6037   3.2895   0.00    0.0
2018/03/11 13:46:17.000   78.251306057   16.154904442   563.7589   5  10   2.0966   1.9270   7.4075  -1.1701  -2.6044   3.2902   0.00    0.0
2018/03/11 13:46:18.000   78.251313268   16.154898667   563.7317   5  10   2.0969   1.9272   7.4087  -1.1705  -2.6051   3.2909   0.00    0.0
2018/03/11 13:46:19.000   78.251305659   16.154899565   561.9161   5  10   2.0972   1.9274   7.4098  -1.1708  -2.6058   3.2916   0.00    0.0
2018/03/11 13:46:20.000   78.251306419   16.154897229   563.0423   5  10   2.0974   1.9276   7.4110  -1.1712  -2.6065   3.2923   0.00    0.0
2018/03/11 13:46:21.000   78.251314369   16.154880732   566.4949   5  10   2.0977   1.9278   7.4121  -1.1716  -2.6072   3.2929   0.00    0.0
2018/03/11 13:46:22.000   78.251326143   16.154875596   569.5448   5  10   2.0980   1.9280   7.4133  -1.1719  -2.6079   3.2936   0.00    0.0
2018/03/11 13:46:23.000   78.251318787   16.154916124   567.9104   5  10   2.0982   1.9282   7.4144  -1.1723  -2.6086   3.2943   0.00    0.0
2018/03/11 13:46:24.000   78.251307928   16.154911236   564.8944   5  10   2.0985   1.9284   7.4156  -1.1727  -2.6093   3.2950   0.00    0.0
2018/03/11 13:46:25.000   78.251310065   16.154882819   566.7737   5  10   2.0988   1.9286   7.4167  -1.1730  -2.6100   3.2957   0.00    0.0
2018/03/11 13:46:26.000   78.251309309   16.154905808   565.5274   5  10   2.0990   1.9287   7.4179  -1.1734  -2.6106   3.2963   0.00    0.0
2018/03/11 13:46:27.000   78.251309866   16.154948443   564.8502   5  10   2.0993   1.9289   7.4190  -1.1738  -2.6113   3.2970   0.00    0.0
2018/03/11 13:46:28.000   78.251317399   16.154926125   567.5345   5  10   2.0996   1.9291   7.4202  -1.1741  -2.6120   3.2977   0.00    0.0
2018/03/11 13:46:29.000   78.251316246   16.154909650   567.9013   5  10   2.0998   1.9293   7.4213  -1.1745  -2.6127   3.2984   0.00    0.0
2018/03/11 13:46:30.000   78.251312950   16.154930857   566.2404   5  10   2.1001   1.9295   7.4225  -1.1749  -2.6134   3.2991   0.00    0.0
2018/03/11 13:46:31.000   78.251312765   16.154913261   566.5668   5  10   2.1004   1.9297   7.4236  -1.1752  -2.6141   3.2997   0.00    0.0
2018/03/11 13:46:32.000   78.251316993   16.154886931   569.6679   5  10   2.1006   1.9299   7.4247  -1.1756  -2.6148   3.3004   0.00    0.0
2018/03/11 13:46:33.000   78.251309751   16.154902365   566.5526   5  10   2.1009   1.9301   7.4259  -1.1759  -2.6155   3.3011   0.00    0.0
2018/03/11 13:46:34.000   78.251308180   16.154906772   565.9309   5  10   2.1012   1.9303   7.4270  -1.1763  -2.6162   3.3018   0.00    0.0
2018/03/11 13:46:35.000   78.251313965   16.154888432   567.2843   5  10   2.1014   1.9305   7.4282  -1.1767  -2.6169   3.3024   0.00    0.0
2018/03/11 13:46:36.000   78.251314470   16.154910492   565.9089   5  10   2.1017   1.9307   7.4293  -1.1770  -2.6176   3.3031   0.00    0.0
2018/03/11 13:46:37.000   78.251312095   16.154907920   563.7260   5  10   2.1020   1.9308   7.4304  -1.1774  -2.6183   3.3038   0.00    0.0
2018/03/11 13:46:38.000   78.251310710   16.154869171   562.7360   5  10   2.1022   1.9310   7.4316  -1.1778  -2.6190   3.3045   0.00    0.0
2018/03/11 13:46:39.000   78.251309567   16.154850486   564.5498   5  10   2.1025   1.9312   7.4327  -1.1781  -2.6197   3.3051   0.00    0.0
2018/03/11 13:46:40.000   78.251304743   16.154896146   562.5589   5  10   2.1028   1.9314   7.4338  -1.1785  -2.6203   3.3058   0.00    0.0
2018/03/11 13:46:41.000   78.251305477   16.154902101   561.4669   5  10   2.1030   1.9316   7.4350  -1.1788  -2.6210   3.3065   0.00    0.0
2018/03/11 13:46:42.000   78.251317396   16.154853572   566.9158   5  10   2.1033   1.9318   7.4361  -1.1792  -2.6217   3.3071   0.00    0.0
2018/03/11 13:46:43.000   78.251311466   16.154872352   565.7093   5  10   2.1036   1.9320   7.4372  -1.1796  -2.6224   3.3078   0.00    0.0
2018/03/11 13:46:44.000   78.251312305   16.154877848   566.5483   5  10   2.1038   1.9322   7.4383  -1.1799  -2.6231   3.3085   0.00    0.0
2018/03/11 13:46:45.000   78.251317075   16.154851582   568.4080   5  10   2.1041   1.9324   7.4395  -1.1803  -2.6238   3.3092   0.00    0.0
2018/03/11 13:46:46.000   78.251308632   16.154889824   564.7402   5  10   2.1044   1.9326   7.4406  -1.1807  -2.6245   3.3098   0.00    0.0
2018/03/11 13:46:47.000   78.251299878   16.154939153   561.7284   5  10   2.1046   1.9328   7.4417  -1.1810  -2.6252   3.3105   0.00    0.0
2018/03/11 13:46:48.000   78.251306759   16.154927130   563.4344   5  10   2.1049   1.9329   7.4428  -1.1814  -2.6258   3.3112   0.00    0.0
2018/03/11 13:46:49.000   78.251316826   16.154904122   566.9844   5  10   2.1052   1.9331   7.4439  -1.1817  -2.6265   3.3118   0.00    0.0
2018/03/11 13:46:50.000   78.251317865   16.154946660   567.4182   5  10   2.1054   1.9333   7.4451  -1.1821  -2.6272   3.3125   0.00    0.0
2018/03/11 13:46:51.000   78.251314912   16.154940093   567.4211   5  10   2.1057   1.9335   7.4462  -1.1825  -2.6279   3.3132   0.00    0.0
2018/03/11 13:46:52.000   78.251312855   16.154876773   568.5301   5  10   2.1060   1.9337   7.4473  -1.1828  -2.6286   3.3138   0.00    0.0
2018/03/11 13:46:53.000   78.251309684   16.154885577   567.4045   5  10   2.1062   1.9339   7.4484  -1.1832  -2.6293   3.3145   0.00    0.0
2018/03/11 13:46:54.000   78.251309836   16.154912538   566.9416   5  10   2.1065   1.9341   7.4495  -1.1835  -2.6300   3.3152   0.00    0.0
2018/03/11 13:46:55.000   78.251319463   16.154902567   568.5093   5  10   2.1068   1.9343   7.4506  -1.1839  -2.6306   3.3158   0.00    0.0
2018/03/11 13:46:56.000   78.251320817   16.154936284   565.8525   5  10   2.1070   1.9345   7.4518  -1.1842  -2.6313   3.3165   0.00    0.0
2018/03/11 13:46:57.000   78.251309053   16.154931131   561.9259   5  10   2.1073   1.9347   7.4529  -1.1846  -2.6320   3.3171   0.00    0.0
2018/03/11 13:46:58.000   78.251309810   16.154909967   564.1847   5  10   2.1076   1.9349   7.4540  -1.1850  -2.6327   3.3178   0.00    0.0
2018/03/11 13:46:59.000   78.251320335   16.154891028   568.5406   5  10   2.1078   1.9350   7.4551  -1.1853  -2.6334   3.3185   0.00    0.0
2018/03/11 13:47:00.000   78.251317940   16.154914443   567.5515   5  10   2.1081   1.9352   7.4562  -1.1857  -2.6340   3.3191   0.00    0.0
2018/03/11 13:47:01.000   78.251318764   16.154908139   569.3971   5  10   2.1084   1.9354   7.4573  -1.1860  -2.6347   3.3198   0.00    0.0
2018/03/11 13:47:02.000   78.251320562   16.154866452   570.7428   5  10   2.1086   1.9356   7.4584  -1.1864  -2.6354   3.3204   0.00    0.0
2018/03/11 13:47:03.000   78.251308795   16.154909358   567.2256   5  10   2.1089   1.9358   7.4595  -1.1868  -2.6361   3.3211   0.00    0.0
2018/03/11 13:47:04.000   78.251310749   16.154933765   565.2367   5  10   2.1091   1.9360   7.4606  -1.1871  -2.6368   3.3218   0.00    0.0
2018/03/11 13:47:05.000   78.251315742   16.154891974   566.7142   5  10   2.1094   1.9362   7.4617  -1.1875  -2.6374   3.3224   0.00    0.0
2018/03/11 13:47:06.000   78.251298018   16.154893377   561.2245   5  10   2.1097   1.9364   7.4628  -1.1878  -2.6381   3.3231   0.00    0.0
2018/03/11 13:47:07.000   78.251294939   16.154897295   560.0740   5  10   2.1099   1.9366   7.4639  -1.1882  -2.6388   3.3237   0.00    0.0
2018/03/11 13:47:08.000   78.251301290   16.154841972   562.3225   5  10   2.1102   1.9368   7.4650  -1.1885  -2.6395   3.3244   0.00    0.0
2018/03/11 13:47:09.000   78.251318683   16.154828078   566.9584   5  10   2.1105   1.9369   7.4661  -1.1889  -2.6401   3.3250   0.00    0.0
2018/03/11 13:47:10.000   78.251312126   16.154887595   563.4166   5  10   2.1107   1.9371   7.4672  -1.1892  -2.6408   3.3257   0.00    0.0
2018/03/11 13:47:11.000   78.251300768   16.154893666   562.2454   5  10   2.1110   1.9373   7.4683  -1.1896  -2.6415   3.3264   0.00    0.0
2018/03/11 13:47:12.000   78.251310604   16.154855567   567.3009   5  10   2.1112   1.9375   7.4694  -1.1900  -2.6422   3.3270   0.00    0.0
2018/03/11 13:47:13.000   78.251306915   16.154896484   565.1734   5  10   2.1115   1.9377   7.4705  -1.1903  -2.6428   3.3277   0.00    0.0
2018/03/11 13:47:14.000   78.251312241   16.154923777   566.0215   5  10   2.1118   1.9379   7.4716  -1.1907  -2.6435   3.3283   0.00    0.0
2018/03/11 13:47:15.000   78.251328103   16.154876882   569.7577   5  10   2.1120   1.9381   7.4727  -1.1910  -2.6442   3.3290   0.00    0.0
2018/03/11 13:47:16.000   78.251322812   16.154893421   566.9580   5  10   2.1123   1.9383   7.4737  -1.1914  -2.6449   3.3296   0.00    0.0
2018/03/11 13:47:17.000   78.251308395   16.154939754   563.6870   5  10   2.1126   1.9385   7.4748  -1.1917  -2.6455   3.3303   0.00    0.0
2018/03/11 13:47:18.000   78.251309582   16.154937516   565.2965   5  10   2.1128   1.9387   7.4759  -1.1921  -2.6462   3.3309   0.00    0.0
2018/03/11 13:47:19.000   78.251319434   16.154893625   569.8281   5  10   2.1131   1.9388   7.4770  -1.1924  -2.6469   3.3316   0.00    0.0
2018/03/11 13:47:20.000   78.251316161   16.154931496   567.6314   5  10   2.1133   1.9390   7.4781  -1.1928  -2.6475   3.3322   0.00    0.0
2018/03/11 13:47:21.000   78.251310411   16.154911705   566.9377   5  10   2.1136   1.9392   7.4792  -1.1931  -2.6482   3.3329   0.00    0.0
2018/03/11 13:47:22.000   78.251320423   16.154867957   570.6756   5  10   2.1139   1.9394   7.4803  -1.1935  -2.6489   3.3335   0.00    0.0
2018/03/11 13:47:23.000   78.251317357   16.154902673   568.9531   5  10   2.1141   1.9396   7.4813  -1.1938  -2.6495   3.3342   0.00    0.0
2018/03/11 13:47:24.000   78.251313291   16.154914796   566.8027   5  10   2.1144   1.9398   7.4824  -1.1942  -2.6502   3.3348   0.00    0.0
2018/03/11 13:47:25.000   78.251311706   16.154882538   567.0775   5  10   2.1146   1.9400   7.4835  -1.1945  -2.6509   3.3355   0.00    0.0
2018/03/11 13:47:26.000   78.251307196   16.154914902   565.5991   5  10   2.1149   1.9402   7.4846  -1.1949  -2.6515   3.3361   0.00    0.0
2018/03/11 13:47:27.000   78.251306372   16.154927168   564.9381   5  10   2.1152   1.9404   7.4856  -1.1952  -2.6522   3.3367   0.00    0.0
2018/03/11 13:47:28.000   78.251316260   16.154907508   566.4598   5  10   2.1154   1.9405   7.4867  -1.1956  -2.6529   3.3374   0.00    0.0
2018/03/11 13:47:29.000   78.251320647   16.154884369   567.7327   5  10   2.1157   1.9407   7.4878  -1.1959  -2.6535   3.3380   0.00    0.0
2018/03/11 13:47:30.000   78.251306722   16.154907828   564.2556   5  10   2.1159   1.9409   7.4889  -1.1963  -2.6542   3.3387   0.00    0.0
2018/03/11 13:47:31.000   78.251305601   16.154897661   564.3908   5  10   2.1162   1.9411   7.4899  -1.1967  -2.6549   3.3393   0.00    0.0
2018/03/11 13:47:32.000   78.251320490   16.154820910   568.7850   5  10   2.1165   1.9413   7.4910  -1.1970  -2.6555   3.3400   0.00    0.0
2018/03/11 13:47:33.000   78.251322048   16.154842211   566.1430   5  10   2.1167   1.9415   7.4921  -1.1973  -2.6562   3.3406   0.00    0.0
2018/03/11 13:47:34.000   78.251311469   16.154865786   562.6163   5  10   2.1170   1.9417   7.4931  -1.1977  -2.6569   3.3412   0.00    0.0
2018/03/11 13:47:35.000   78.251302874   16.154858742   561.1513   5  10   2.1172   1.9419   7.4942  -1.1980  -2.6575   3.3419   0.00    0.0
2018/03/11 13:47:36.000   78.251297522   16.154886935   560.1902   5  10   2.1175   1.9421   7.4953  -1.1984  -2.6582   3.3425   0.00    0.0
2018/03/11 13:47:37.000   78.251303899   16.154906802   562.3927   5  10   2.1177   1.9422   7.4963  -1.1987  -2.6588   3.3432   0.00    0.0
2018/03/11 13:47:38.000   78.251313169   16.154907990   566.4918   5  10   2.1180   1.9424   7.4974  -1.1991  -2.6595   3.3438   0.00    0.0
2018/03/11 13:47:39.000   78.251320697   16.154874649   570.2773   5  10   2.1183   1.9426   7.4984  -1.1994  -2.6602   3.3444   0.00    0.0
2018/03/11 13:47:40.000   78.251308461   16.154909478   566.1293   5  10   2.1185   1.9428   7.4995  -1.1998  -2.6608   3.3451   0.00    0.0
2018/03/11 13:47:41.000   78.251310705   16.154916065   567.0847   5  10   2.1188   1.9430   7.5006  -1.2001  -2.6615   3.3457   0.00    0.0
2018/03/11 13:47:42.000   78.251329210   16.154869527   572.2916   5  10   2.1190   1.9432   7.5016  -1.2005  -2.6621   3.3463   0.00    0.0
2018/03/11 13:47:43.000   78.251321021   16.154924478   568.5510   5  10   2.1193   1.9434   7.5027  -1.2008  -2.6628   3.3470   0.00    0.0
2018/03/11 13:47:44.000   78.251307032   16.154926989   565.0029   5  10   2.1196   1.9436   7.5037  -1.2012  -2.6635   3.3476   0.00    0.0
2018/03/11 13:47:45.000   78.251303386   16.154930353   564.8040   5  10   2.1198   1.9438   7.5048  -1.2015  -2.6641   3.3483   0.00    0.0
2018/03/11 13:47:46.000   78.251314263   16.154883040   567.7290   5  10   2.1201   1.9439   7.5058  -1.2019  -2.6648   3.3489   0.00    0.0
2018/03/11 13:47:47.000   78.251318542   16.154919747   567.0477   5  10   2.1203   1.9441   7.5069  -1.2022  -2.6654   3.3495   0.00    0.0
2018/03/11 13:47:48.000   78.251321184   16.154925764   568.0746   5  10   2.1206   1.9443   7.5079  -1.2026  -2.6661   3.3501   0.00    0.0
2018/03/11 13:47:49.000   78.251313165   16.154925078   566.4581   5  10   2.1208   1.9445   7.5090  -1.2029  -2.6667   3.3508   0.00    0.0
2018/03/11 13:47:50.000   78.251305887   16.154917570   563.7722   5  10   2.1211   1.9447   7.5100  -1.2033  -2.6674   3.3514   0.00    0.0
2018/03/11 13:47:51.000   78.251316267   16.154899375   565.9836   5  10   2.1213   1.9449   7.5111  -1.2036  -2.6680   3.3520   0.00    0.0
2018/03/11 13:47:52.000   78.251329506   16.154840743   568.4548   5  10   2.1216   1.9451   7.5121  -1.2039  -2.6687   3.3527   0.00    0.0
2018/03/11 13:47:53.000   78.251317841   16.154868885   566.7429   5  10   2.1219   1.9453   7.5131  -1.2043  -2.6694   3.3533   0.00    0.0
2018/03/11 13:47:54.000   78.251309837   16.154884508   565.6902   5  10   2.1221   1.9454   7.5142  -1.2046  -2.6700   3.3539   0.00    0.0
2018/03/11 13:47:55.000   78.251314516   16.154847729   568.3480   5  10   2.1224   1.9456   7.5152  -1.2050  -2.6707   3.3545   0.00    0.0
2018/03/11 13:47:56.000   78.251307032   16.154900501   564.5230   5  10   2.1226   1.9458   7.5163  -1.2053  -2.6713   3.3552   0.00    0.0
2018/03/11 13:47:57.000   78.251300517   16.154947166   560.1562   5  10   2.1229   1.9460   7.5173  -1.2057  -2.6720   3.3558   0.00    0.0
2018/03/11 13:47:58.000   78.251300396   16.154896691   560.4330   5  10   2.1231   1.9462   7.5183  -1.2060  -2.6726   3.3564   0.00    0.0
2018/03/11 13:47:59.000   78.251308549   16.154835976   563.9567   5  10   2.1234   1.9464   7.5194  -1.2064  -2.6733   3.3571   0.00    0.0
2018/03/11 13:48:00.000   78.251305855   16.154872085   563.1786   5  10   2.1236   1.9466   7.5204  -1.2067  -2.6739   3.3577   0.00    0.0
2018/03/11 13:48:01.000   78.251311385   16.154880565   565.9617   5  10   2.1239   1.9468   7.5214  -1.2070  -2.6745   3.3583   0.00    0.0
2018/03/11 13:48:02.000   78.251325319   16.154831299   570.0363   5  10   2.1241   1.9469   7.5224  -1.2074  -2.6752   3.3589   0.00    0.0
2018/03/11 13:48:03.000   78.251312577   16.154873206   565.9139   5  10   2.1244   1.9471   7.5235  -1.2077  -2.6758   3.3595   0.00    0.0
2018/03/11 13:48:04.000   78.251303733   16.154920568   563.5910   5  10   2.1247   1.9473   7.5245  -1.2081  -2.6765   3.3602   0.00    0.0
2018/03/11 13:48:05.000   78.251311522   16.154897172   567.4676   5  10   2.1249   1.9475   7.5255  -1.2084  -2.6771   3.3608   0.00    0.0
2018/03/11 13:48:06.000   78.251310405   16.154920571   566.3977   5  10   2.1252   1.9477   7.5266  -1.2087  -2.6778   3.3614   0.00    0.0
2018/03/11 13:48:07.000   78.251309814   16.154942587   565.7267   5  10   2.1254   1.9479   7.5276  -1.2091  -2.6784   3.3620   0.00    0.0
2018/03/11 13:48:08.000   78.251315185   16.154904940   566.4470   5  10   2.1257   1.9481   7.5286  -1.2094  -2.6791   3.3626   0.00    0.0
2018/03/11 13:48:09.000   78.251319821   16.154864656   567.8419   5  10   2.1259   1.9483   7.5296  -1.2098  -2.6797   3.3633   0.00    0.0
2018/03/11 13:48:10.000   78.251315822   16.154882148   564.9911   5  10   2.1262   1.9484   7.5306  -1.2101  -2.6804   3.3639   0.00    0.0
2018/03/11 13:48:11.000   78.251318462   16.154866661   567.4480   5  10   2.1264   1.9486   7.5317  -1.2105  -2.6810   3.3645   0.00    0.0
2018/03/11 13:48:12.000   78.251318658   16.154855639   569.4868   5  10   2.1267   1.9488   7.5327  -1.2108  -2.6816   3.3651   0.00    0.0
2018/03/11 13:48:13.000   78.251311400   16.154905563   565.8473   5  10   2.1269   1.9490   7.5337  -1.2111  -2.6823   3.3657   0.00    0.0
2018/03/11 13:48:14.000   78.251318314   16.154894864   567.9021   5  10   2.1272   1.9492   7.5347  -1.2115  -2.6829   3.3663   0.00    0.0
2018/03/11 13:48:15.000   78.251319223   16.154895255   569.4168   5  10   2.1274   1.9494   7.5357  -1.2118  -2.6836   3.3670   0.00    0.0
2018/03/11 13:48:16.000   78.251298748   16.154962268   562.9382   5  10   2.1277   1.9496   7.5367  -1.2121  -2.6842   3.3676   0.00    0.0
2018/03/11 13:48:17.000   78.251300012   16.154948666   561.4524   5  10   2.1279   1.9498   7.5377  -1.2125  -2.6848   3.3682   0.00    0.0
2018/03/11 13:48:18.000   78.251316827   16.154872887   566.9899   5  10   2.1282   1.9499   7.5387  -1.2128  -2.6855   3.3688   0.00    0.0
2018/03/11 13:48:19.000   78.251322112   16.154852233   569.0932   5  10   2.1284   1.9501   7.5397  -1.2132  -2.6861   3.3694   0.00    0.0
2018/03/11 13:48:20.000   78.251314313   16.154869443   567.5012   5  10   2.1287   1.9503   7.5408  -1.2135  -2.6868   3.3700   0.00    0.0
2018/03/11 13:48:21.000   78.251311149   16.154895914   566.1477   5  10   2.1289   1.9505   7.5418  -1.2138  -2.6874   3.3706   0.00    0.0
2018/03/11 13:48:22.000   78.251313630   16.154869009   566.7267   5  10   2.1292   1.9507   7.5428  -1.2142  -2.6880   3.3712   0.00    0.0
2018/03/11 13:48:23.000   78.251301365   16.154937438   560.7788   5  10   2.1294   1.9509   7.5438  -1.2145  -2.6887   3.3719   0.00    0.0
2018/03/11 13:48:24.000   78.251304030   16.154893301   562.3902   5  10   2.1297   1.9511   7.5448  -1.2148  -2.6893   3.3725   0.00    0.0
2018/03/11 13:48:25.000   78.251311266   16.154844655   566.3680   5  10   2.1299   1.9512   7.5458  -1.2152  -2.6899   3.3731   0.00    0.0
2018/03/11 13:48:26.000   78.251303876   16.154900810   564.1600   5  10   2.1302   1.9514   7.5468  -1.2155  -2.6906   3.3737   0.00    0.0
2018/03/11 13:48:27.000   78.251304861   16.154909054   562.8796   5  10   2.1304   1.9516   7.5478  -1.2159  -2.6912   3.3743   0.00    0.0
2018/03/11 13:48:28.000   78.251320790   16.154848955   566.1563   5  10   2.1307   1.9518   7.5487  -1.2162  -2.6918   3.3749   0.00    0.0
2018/03/11 13:48:29.000   78.251325020   16.154863088   567.6981   5  10   2.1309   1.9520   7.5497  -1.2165  -2.6925   3.3755   0.00    0.0
2018/03/11 13:48:30.000   78.251311227   16.154937176   564.8163   5  10   2.1312   1.9522   7.5507  -1.2169  -2.6931   3.3761   0.00    0.0
2018/03/11 13:48:31.000   78.251303508   16.154931909   564.6114   5  10   2.1314   1.9524   7.5517  -1.2172  -2.6937   3.3767   0.00    0.0
2018/03/11 13:48:32.000   78.251310867   16.154886626   567.5638   5  10   2.1317   1.9525   7.5527  -1.2175  -2.6944   3.3773   0.00    0.0
2018/03/11 13:48:33.000   78.251315445   16.154879109   567.0241   5  10   2.1319   1.9527   7.5537  -1.2179  -2.6950   3.3779   0.00    0.0
2018/03/11 13:48:34.000   78.251316794   16.154914724   567.7667   5  10   2.1322   1.9529   7.5547  -1.2182  -2.6956   3.3785   0.00    0.0
2018/03/11 13:48:35.000   78.251319156   16.154914756   568.1983   5  10   2.1324   1.9531   7.5557  -1.2185  -2.6962   3.3791   0.00    0.0
2018/03/11 13:48:36.000   78.251305123   16.154932747   563.9572   5  10   2.1327   1.9533   7.5567  -1.2189  -2.6969   3.3797   0.00    0.0
2018/03/11 13:48:37.000   78.251308744   16.154919461   564.7652   5  10   2.1329   1.9535   7.5576  -1.2192  -2.6975   3.3803   0.00    0.0
2018/03/11 13:48:38.000   78.251315661   16.154900682   566.3371   5  10   2.1332   1.9537   7.5586  -1.2195  -2.6981   3.3809   0.00    0.0
2018/03/11 13:48:39.000   78.251318866   16.154899251   568.6523   5  10   2.1334   1.9538   7.5596  -1.2199  -2.6987   3.3815   0.00    0.0
2018/03/11 13:48:40.000   78.251314298   16.154903103   567.9001   5  10   2.1337   1.9540   7.5606  -1.2202  -2.6994   3.3821   0.00    0.0
2018/03/11 13:48:41.000   78.251315318   16.154864743   567.6015   5  10   2.1339   1.9542   7.5615  -1.2205  -2.7000   3.3827   0.00    0.0
2018/03/11 13:48:42.000   78.251313854   16.154861714   567.6902   5  10   2.1342   1.9544   7.5625  -1.2209  -2.7006   3.3833   0.00    0.0
2018/03/11 13:48:43.000   78.251310504   16.154906412   565.1272   5  10   2.1344   1.9546   7.5635  -1.2212  -2.7012   3.3839   0.00    0.0
2018/03/11 13:48:44.000   78.251316320   16.154899077   566.2479   5  10   2.1347   1.9548   7.5645  -1.2215  -2.7019   3.3845   0.00    0.0
2018/03/11 13:48:45.000   78.251312709   16.154864278   564.3887   5  10   2.1349   1.9549   7.5654  -1.2218  -2.7025   3.3851   0.00    0.0
2018/03/11 13:48:46.000   78.251301875   16.154894870   561.1761   5  10   2.1352   1.9551   7.5664  -1.2222  -2.7031   3.3857   0.00    0.0
2018/03/11 13:48:47.000   78.251303333   16.154907142   561.4512   5  10   2.1354   1.9553   7.5674  -1.2225  -2.7037   3.3863   0.00    0.0
2018/03/11 13:48:48.000   78.251316989   16.154860238   567.0028   5  10   2.1356   1.9555   7.5683  -1.2228  -2.7044   3.3869   0.00    0.0
2018/03/11 13:48:49.000   78.251321622   16.154848680   568.4953   5  10   2.1359   1.9557   7.5693  -1.2232  -2.7050   3.3874   0.00    0.0
2018/03/11 13:48:50.000   78.251308801   16.154876433   565.1838   5  10   2.1361   1.9559   7.5703  -1.2235  -2.7056   3.3880   0.00    0.0
2018/03/11 13:48:51.000   78.251310547   16.154871033   564.9158   5  10   2.1364   1.9561   7.5712  -1.2238  -2.7062   3.3886   0.00    0.0
2018/03/11 13:48:52.000   78.251312033   16.154878086   565.9728   5  10   2.1366   1.9562   7.5722  -1.2242  -2.7068   3.3892   0.00    0.0
2018/03/11 13:48:53.000   78.251314979   16.154908792   565.9900   5  10   2.1369   1.9564   7.5731  -1.2245  -2.7074   3.3898   0.00    0.0
2018/03/11 13:48:54.000   78.251316573   16.154907193   566.8741   5  10   2.1371   1.9566   7.5741  -1.2248  -2.7081   3.3904   0.00    0.0
2018/03/11 13:48:55.000   78.251310614   16.154900732   565.5972   5  10   2.1374   1.9568   7.5751  -1.2251  -2.7087   3.3910   0.00    0.0
2018/03/11 13:48:56.000   78.251307646   16.154925065   565.0328   5  10   2.1376   1.9570   7.5760  -1.2255  -2.7093   3.3916   0.00    0.0
2018/03/11 13:48:57.000   78.251305838   16.154948429   564.0765   5  10   2.1378   1.9572   7.5770  -1.2258  -2.7099   3.3922   0.00    0.0
2018/03/11 13:48:58.000   78.251312179   16.154927885   567.0593   5  10   2.1381   1.9573   7.5779  -1.2261  -2.7105   3.3927   0.00    0.0
2018/03/11 13:48:59.000   78.251314441   16.154897141   567.4793   5  10   2.1383   1.9575   7.5789  -1.2264  -2.7111   3.3933   0.00    0.0
2018/03/11 13:49:00.000   78.251311642   16.154885814   566.4390   5  10   2.1386   1.9577   7.5798  -1.2268  -2.7118   3.3939   0.00    0.0
2018/03/11 13:49:01.000   78.251313518   16.154879517   566.9845   5  10   2.1388   1.9579   7.5808  -1.2271  -2.7124   3.3945   0.00    0.0
2018/03/11 13:49:02.000   78.251322157   16.154885342   568.6206   5  10   2.1391   1.9581   7.5817  -1.2274  -2.7130   3.3951   0.00    0.0
2018/03/11 13:49:03.000   78.251320526   16.154895771   568.1189   5  10   2.1393   1.9583   7.5827  -1.2277  -2.7136   3.3956   0.00    0.0
2018/03/11 13:49:04.000   78.251311856   16.154884311   564.9960   5  10   2.1395   1.9584   7.5836  -1.2281  -2.7142   3.3962   0.00    0.0
2018/03/11 13:49:05.000   78.251307201   16.154885325   565.1220   5  10   2.1398   1.9586   7.5845  -1.2284  -2.7148   3.3968   0.00    0.0
2018/03/11 13:49:06.000   78.251302832   16.154941204   562.9185   5  10   2.1400   1.9588   7.5855  -1.2287  -2.7154   3.3974   0.00    0.0
2018/03/11 13:49:07.000   78.251310733   16.154918327   565.1928   5  10   2.1403   1.9590   7.5864  -1.2290  -2.7160   3.3980   0.00    0.0
2018/03/11 13:49:08.000   78.251325301   16.154875767   569.3629   5  10   2.1405   1.9592   7.5874  -1.2294  -2.7166   3.3985   0.00    0.0
2018/03/11 13:49:09.000   78.251317132   16.154870914   567.0189   5  10   2.1408   1.9594   7.5883  -1.2297  -2.7172   3.3991   0.00    0.0
2018/03/11 13:49:10.000   78.251309897   16.154896130   564.8893   5  10   2.1410   1.9595   7.5892  -1.2300  -2.7178   3.3997   0.00    0.0
2018/03/11 13:49:11.000   78.251311071   16.154905855   564.9039   5  10   2.1412   1.9597   7.5902  -1.2303  -2.7185   3.4003   0.00    0.0
2018/03/11 13:49:12.000   78.251311417   16.154904589   565.7053   5  10   2.1415   1.9599   7.5911  -1.2307  -2.7191   3.4008   0.00    0.0
2018/03/11 13:49:13.000   78.251306402   16.154907314   563.6106   5  10   2.1417   1.9601   7.5920  -1.2310  -2.7197   3.4014   0.00    0.0
2018/03/11 13:49:14.000   78.251307633   16.154894505   563.6641   5  10   2.1420   1.9603   7.5929  -1.2313  -2.7203   3.4020   0.00    0.0
2018/03/11 13:49:15.000   78.251311186   16.154867268   566.1902   5  10   2.1422   1.9605   7.5939  -1.2316  -2.7209   3.4026   0.00    0.0
2018/03/11 13:49:16.000   78.251309865   16.154902068   565.6057   5  10   2.1424   1.9606   7.5948  -1.2319  -2.7215   3.4031   0.00    0.0
2018/03/11 13:49:17.000   78.251311756   16.154895296   566.0272   5  10   2.1427   1.9608   7.5957  -1.2323  -2.7221   3.4037   0.00    0.0
2018/03/11 13:49:18.000   78.251317873   16.154848033   567.4933   5  10   2.1429   1.9610   7.5966  -1.2326  -2.7227   3.4043   0.00    0.0
2018/03/11 13:49:19.000   78.251310939   16.154865483   564.2778   5  10   2.1432   1.9612   7.5976  -1.2329  -2.7233   3.4048   0.00    0.0
2018/03/11 13:49:20.000   78.251307746   16.154893285   563.4672   5  10   2.1434   1.9614   7.5985  -1.2332  -2.7239   3.4054   0.00    0.0
2018/03/11 13:49:21.000   78.251311721   16.154879559   565.5076   5  10   2.1436   1.9615   7.5994  -1.2335  -2.7245   3.4060   0.00    0.0
2018/03/11 13:49:22.000   78.251316485   16.154895686   566.6520   5  10   2.1439   1.9617   7.6003  -1.2339  -2.7251   3.4066   0.00    0.0
2018/03/11 13:49:23.000   78.251313348   16.154918882   564.9683   5  10   2.1441   1.9619   7.6012  -1.2342  -2.7257   3.4071   0.00    0.0
2018/03/11 13:49:24.000   78.251307324   16.154911794   564.3713   5  10   2.1443   1.9621   7.6021  -1.2345  -2.7263   3.4077   0.00    0.0
2018/03/11 13:49:25.000   78.251318486   16.154876064   567.5707   5  10   2.1446   1.9623   7.6031  -1.2348  -2.7269   3.4083   0.00    0.0
2018/03/11 13:49:26.000   78.251316887   16.154886664   567.3057   5  10   2.1448   1.9625   7.6040  -1.2351  -2.7275   3.4088   0.00    0.0
2018/03/11 13:49:27.000   78.251318010   16.154904193   567.0267   5  10   2.1451   1.9626   7.6049  -1.2355  -2.7281   3.4094   0.00    0.0
2018/03/11 13:49:28.000   78.251318158   16.154900152   568.5469   5  10   2.1453   1.9628   7.6058  -1.2358  -2.7287   3.4099   0.00    0.0
2018/03/11 13:49:29.000   78.251311253   16.154923630   566.5070   5  10   2.1455   1.9630   7.6067  -1.2361  -2.7293   3.4105   0.00    0.0
2018/03/11 13:49:30.000   78.251312473   16.154930416   565.4167   5  10   2.1458   1.9632   7.6076  -1.2364  -2.7298   3.4111   0.00    0.0
2018/03/11 13:49:31.000   78.251315919   16.154906320   567.5890   5  10   2.1460   1.9634   7.6085  -1.2367  -2.7304   3.4116   0.00    0.0
2018/03/11 13:49:32.000   78.251311182   16.154916554   566.8188   5  10   2.1462   1.9635   7.6094  -1.2370  -2.7310   3.4122   0.00    0.0
2018/03/11 13:49:33.000   78.251306933   16.154934280   565.2222   5  10   2.1465   1.9637   7.6103  -1.2374  -2.7316   3.4127   0.00    0.0
2018/03/11 13:49:34.000   78.251313410   16.154896439   566.2847   5  10   2.1467   1.9639   7.6112  -1.2377  -2.7322   3.4133   0.00    0.0
2018/03/11 13:49:35.000   78.251321927   16.154869920   568.8337   5  10   2.1470   1.9641   7.6121  -1.2380  -2.7328   3.4139   0.00    0.0
2018/03/11 13:49:36.000   78.251318343   16.154910390   566.4339   5  10   2.1472   1.9643   7.6130  -1.2383  -2.7334   3.4144   0.00    0.0
2018/03/11 13:49:37.000   78.251315005   16.154902979   566.7264   5  10   2.1474   1.9644   7.6139  -1.2386  -2.7340   3.4150   0.00    0.0
2018/03/11 13:49:38.000   78.251311522   16.154891890   566.3142   5  10   2.1477   1.9646   7.6148  -1.2389  -2.7346   3.4155   0.00    0.0
2018/03/11 13:49:39.000   78.251312989   16.154889613   565.5941   5  10   2.1479   1.9648   7.6157  -1.2393  -2.7352   3.4161   0.00    0.0
2018/03/11 13:49:40.000   78.251312182   16.154895879   564.5947   5  10   2.1481   1.9650   7.6166  -1.2396  -2.7358   3.4166   0.00    0.0
2018/03/11 13:49:41.000   78.251309421   16.154883286   564.2682   5  10   2.1484   1.9652   7.6174  -1.2399  -2.7363   3.4172   0.00    0.0
2018/03/11 13:49:42.000   78.251307168   16.154896994   562.8649   5  10   2.1486   1.9653   7.6183  -1.2402  -2.7369   3.4177   0.00    0.0
2018/03/11 13:49:43.000   78.251301780   16.154914296   560.8100   5  10   2.1488   1.9655   7.6192  -1.2405  -2.7375   3.4183   0.00    0.0
2018/03/11 13:49:44.000   78.251312001   16.154883222   563.1724   5  10   2.1491   1.9657   7.6201  -1.2408  -2.7381   3.4188   0.00    0.0
2018/03/11 13:49:45.000   78.251318939   16.154851204   566.5151   5  10   2.1493   1.9659   7.6210  -1.2411  -2.7387   3.4194   0.00    0.0
2018/03/11 13:49:46.000   78.251313182   16.154893381   564.8774   5  10   2.1495   1.9661   7.6219  -1.2414  -2.7393   3.4199   0.00    0.0
2018/03/11 13:49:47.000   78.251303177   16.154925962   562.9105   5  10   2.1498   1.9662   7.6227  -1.2418  -2.7398   3.4205   0.00    0.0
2018/03/11 13:49:48.000   78.251312718   16.154879238   566.9848   5  10   2.1500   1.9664   7.6236  -1.2421  -2.7404   3.4210   0.00    0.0
2018/03/11 13:49:49.000   78.251317621   16.154865731   567.5884   5  10   2.1502   1.9666   7.6245  -1.2424  -2.7410   3.4216   0.00    0.0
2018/03/11 13:49:50.000   78.251312931   16.154913818   566.0567   5  10   2.1505   1.9668   7.6254  -1.2427  -2.7416   3.4221   0.00    0.0
2018/03/11 13:49:51.000   78.251309199   16.154930038   565.9171   5  10   2.1507   1.9670   7.6262  -1.2430  -2.7422   3.4227   0.00    0.0
2018/03/11 13:49:52.000   78.251309639   16.154909482   566.6033   5  10   2.1509   1.9671   7.6271  -1.2433  -2.7427   3.4232   0.00    0.0
2018/03/11 13:49:53.000   78.251309586   16.154918443   565.0341   5  10   2.1512   1.9673   7.6280  -1.2436  -2.7433   3.4238   0.00    0.0
2018/03/11 13:49:54.000   78.251313748   16.154908949   566.6706   5  10   2.1514   1.9675   7.6288  -1.2439  -2.7439   3.4243   0.00    0.0
2018/03/11 13:49:55.000   78.251318993   16.154893292   568.2983   5  10   2.1516   1.9677   7.6297  -1.2442  -2.7445   3.4249   0.00    0.0
2018/03/11 13:49:56.000   78.251316589   16.154896535   568.3779   5  10   2.1519   1.9679   7.6306  -1.2445  -2.7451   3.4254   0.00    0.0
2018/03/11 13:49:57.000   78.251313027   16.154924034   566.4311   5  10   2.1521   1.9680   7.6314  -1.2449  -2.7456   3.4259   0.00    0.0
2018/03/11 13:49:58.000   78.251316020   16.154897549   566.9896   5  10   2.1523   1.9682   7.6323  -1.2452  -2.7462   3.4265   0.00    0.0
2018/03/11 13:49:59.000   78.251316914   16.154905750   565.8142   5  10   2.1525   1.9684   7.6331  -1.2455  -2.7468   3.4270   0.00    0.0
2018/03/11 13:50:00.000   78.251316064   16.154898354   566.7178   5  10   2.1528   1.9686   7.6340  -1.2458  -2.7474   3.4276   0.00    0.0
2018/03/11 13:50:01.000   78.251310555   16.154919769   565.8405   5  10   2.1530   1.9688   7.6349  -1.2461  -2.7479   3.4281   0.00    0.0
2018/03/11 13:50:02.000   78.251308108   16.154921298   565.8679   5  10   2.1532   1.9689   7.6357  -1.2464  -2.7485   3.4286   0.00    0.0
2018/03/11 13:50:03.000   78.251309736   16.154904632   564.1805   5  10   2.1535   1.9691   7.6366  -1.2467  -2.7491   3.4292   0.00    0.0
2018/03/11 13:50:04.000   78.251320091   16.154875331   567.6835   5  10   2.1537   1.9693   7.6374  -1.2470  -2.7496   3.4297   0.00    0.0
2018/03/11 13:50:05.000   78.251320065   16.154873858   567.7329   5  10   2.1539   1.9695   7.6383  -1.2473  -2.7502   3.4302   0.00    0.0
2018/03/11 13:50:06.000   78.251311485   16.154901188   565.6682   5  10   2.1541   1.9696   7.6391  -1.2476  -2.7508   3.4308   0.00    0.0
2018/03/11 13:50:07.000   78.251310309   16.154898450   565.4030   5  10   2.1544   1.9698   7.6400  -1.2479  -2.7514   3.4313   0.00    0.0
2018/03/11 13:50:08.000   78.251314112   16.154894095   566.3178   5  10   2.1546   1.9700   7.6408  -1.2482  -2.7519   3.4318   0.00    0.0
2018/03/11 13:50:09.000   78.251313672   16.154893418   565.8384   5  10   2.1548   1.9702   7.6416  -1.2485  -2.7525   3.4324   0.00    0.0
