% program   : RTKPOST ver.2.4.2
% inp file  : Z:\home\linda\Documents\Spring18\GitHub_Unis\data\processed_data\4625074D.obs
% inp file  : Z:\home\linda\Documents\Spring18\GitHub_Unis\data\base_station_data\lyrs0740.18o
% inp file  : Z:\home\linda\Documents\Spring18\GitHub_Unis\data\processed_data\4625074D.nav
% obs start : 2018/03/15 11:50:00.0 GPST (week1992 388200.0s)
% obs end   : 2018/03/15 12:34:24.0 GPST (week1992 390864.0s)
% pos mode  : static
% freqs     : L1+L2
% solution  : forward
% elev mask : 15.0 deg
% dynamics  : on
% tidecorr  : off
% ionos opt : estimation
% tropo opt : saastamoinen
% ephemeris : broadcast
% navi sys  : gps glonass galileo qzss sbas
% amb res   : fix and hold
% amb glo   : on
% val thres : 3.0
% antenna1  :                       ( 0.0000  0.0000  0.0000)
% antenna2  :                       ( 0.0000  0.0000  0.0000)
% ref pos   : 78.228825638   15.397310064   495.6816
%
% (lat/lon/height=WGS84/ellipsoidal,Q=1:fix,2:float,3:sbas,4:dgps,5:single,6:ppp,ns=# of satellites)
%  GPST                  latitude(deg) longitude(deg)  height(m)   Q  ns   sdn(m)   sde(m)   sdu(m)  sdne(m)  sdeu(m)  sdun(m) age(s)  ratio
2018/03/15 11:50:00.000   78.246496336   16.063358597   575.4646   2   9   0.4179   0.3965   1.5638  -0.1598   0.2401   0.3543   0.00    1.1
2018/03/15 11:50:01.000   78.246495736   16.063362063   575.4285   2   9   0.3009   0.2851   1.1250  -0.1153   0.1702   0.2553   0.00    1.1
2018/03/15 11:50:02.000   78.246494639   16.063364305   574.8018   2   9   0.2490   0.2358   0.9298  -0.0954   0.1406   0.2111   0.00    1.0
2018/03/15 11:50:03.000   78.246496173   16.063366801   574.8448   2   9   0.2182   0.2067   0.8139  -0.0836   0.1235   0.1848   0.00    1.1
2018/03/15 11:50:04.000   78.246498231   16.063362889   574.9844   2   9   0.1973   0.1870   0.7352  -0.0756   0.1121   0.1669   0.00    1.0
2018/03/15 11:50:05.000   78.246498972   16.063358027   575.1296   2   9   0.1821   0.1725   0.6775  -0.0698   0.1038   0.1537   0.00    1.0
2018/03/15 11:50:06.000   78.246497834   16.063355505   575.0519   2   9   0.1703   0.1614   0.6330  -0.0653   0.0975   0.1435   0.00    1.0
2018/03/15 11:50:07.000   78.246496954   16.063356053   575.2396   2   9   0.1609   0.1525   0.5974  -0.0616   0.0925   0.1354   0.00    1.0
2018/03/15 11:50:08.000   78.246496665   16.063355491   575.2800   2   9   0.1531   0.1453   0.5682  -0.0587   0.0884   0.1287   0.00    1.1
2018/03/15 11:50:09.000   78.246496711   16.063354767   575.2440   2   9   0.1467   0.1391   0.5436  -0.0562   0.0850   0.1230   0.00    1.1
2018/03/15 11:50:10.000   78.246496845   16.063353043   575.2231   2   9   0.1411   0.1339   0.5226  -0.0541   0.0821   0.1182   0.00    1.0
2018/03/15 11:50:11.000   78.246496953   16.063351539   575.2543   2   9   0.1363   0.1294   0.5044  -0.0522   0.0796   0.1140   0.00    1.0
2018/03/15 11:50:12.000   78.246497139   16.063350985   575.3086   2   9   0.1321   0.1255   0.4885  -0.0506   0.0775   0.1104   0.00    1.0
2018/03/15 11:50:13.000   78.246497258   16.063350848   575.2986   2   9   0.1284   0.1220   0.4744  -0.0492   0.0756   0.1071   0.00    1.1
2018/03/15 11:50:14.000   78.246497465   16.063350851   575.3183   2   9   0.1251   0.1189   0.4618  -0.0479   0.0739   0.1042   0.00    1.2
2018/03/15 11:50:15.000   78.246497600   16.063351249   575.3299   2   9   0.1221   0.1161   0.4505  -0.0468   0.0724   0.1016   0.00    1.2
2018/03/15 11:50:16.000   78.246497412   16.063351344   575.3457   2   9   0.1194   0.1136   0.4402  -0.0457   0.0710   0.0992   0.00    1.1
2018/03/15 11:50:17.000   78.246497472   16.063351190   575.3591   2   9   0.1170   0.1113   0.4308  -0.0448   0.0698   0.0970   0.00    1.1
2018/03/15 11:50:18.000   78.246497713   16.063349870   575.3183   2   9   0.1147   0.1092   0.4223  -0.0439   0.0686   0.0950   0.00    1.1
2018/03/15 11:50:19.000   78.246497854   16.063349175   575.3489   2   9   0.1127   0.1072   0.4144  -0.0431   0.0676   0.0932   0.00    1.1
2018/03/15 11:50:20.000   78.246497826   16.063349667   575.3670   2   9   0.1108   0.1055   0.4071  -0.0424   0.0666   0.0915   0.00    1.2
2018/03/15 11:50:21.000   78.246497619   16.063350541   575.3424   2   9   0.1090   0.1038   0.4004  -0.0417   0.0658   0.0899   0.00    1.2
2018/03/15 11:50:22.000   78.246497494   16.063351017   575.3490   2   9   0.1074   0.1023   0.3941  -0.0411   0.0649   0.0884   0.00    1.2
2018/03/15 11:50:23.000   78.246497345   16.063350748   575.3328   2   9   0.1059   0.1009   0.3882  -0.0405   0.0642   0.0870   0.00    1.2
2018/03/15 11:50:24.000   78.246497320   16.063350344   575.3346   2   9   0.1044   0.0995   0.3827  -0.0400   0.0635   0.0857   0.00    1.2
2018/03/15 11:50:25.000   78.246497396   16.063350581   575.3549   2   9   0.1031   0.0983   0.3775  -0.0395   0.0628   0.0845   0.00    1.1
2018/03/15 11:50:26.000   78.246497563   16.063350431   575.3658   2   9   0.1019   0.0971   0.3726  -0.0390   0.0622   0.0833   0.00    1.1
2018/03/15 11:50:27.000   78.246497717   16.063350481   575.3563   2   9   0.1007   0.0960   0.3679  -0.0386   0.0616   0.0822   0.00    1.0
2018/03/15 11:50:28.000   78.246497709   16.063350552   575.3305   2   9   0.0996   0.0950   0.3636  -0.0381   0.0610   0.0812   0.00    1.1
2018/03/15 11:50:29.000   78.246497591   16.063351128   575.3030   2   9   0.0985   0.0940   0.3594  -0.0377   0.0605   0.0802   0.00    1.1
2018/03/15 11:50:30.000   78.246497576   16.063351339   575.2861   2   9   0.0975   0.0931   0.3554  -0.0374   0.0600   0.0792   0.00    1.0
2018/03/15 11:50:31.000   78.246497769   16.063351202   575.2737   2   9   0.0966   0.0922   0.3517  -0.0370   0.0595   0.0783   0.00    1.0
2018/03/15 11:50:32.000   78.246497936   16.063350791   575.2416   2   9   0.0957   0.0914   0.3481  -0.0367   0.0590   0.0775   0.00    1.0
2018/03/15 11:50:33.000   78.246497861   16.063351643   575.2301   2   9   0.0948   0.0906   0.3446  -0.0363   0.0586   0.0766   0.00    1.1
2018/03/15 11:50:34.000   78.246497706   16.063352480   575.1836   2   9   0.0940   0.0898   0.3413  -0.0360   0.0582   0.0758   0.00    1.1
2018/03/15 11:50:35.000   78.246497580   16.063352670   575.1677   2   9   0.0932   0.0891   0.3381  -0.0357   0.0578   0.0750   0.00    1.1
2018/03/15 11:50:36.000   78.246497507   16.063352508   575.1572   2   9   0.0924   0.0884   0.3350  -0.0354   0.0574   0.0743   0.00    1.1
2018/03/15 11:50:37.000   78.246497570   16.063352620   575.1535   2   9   0.0917   0.0877   0.3321  -0.0352   0.0570   0.0736   0.00    1.1
2018/03/15 11:50:38.000   78.246497597   16.063353231   575.1491   2   9   0.0910   0.0871   0.3293  -0.0349   0.0567   0.0729   0.00    1.1
2018/03/15 11:50:39.000   78.246497587   16.063353278   575.1089   2   9   0.0904   0.0865   0.3265  -0.0347   0.0563   0.0722   0.00    1.2
2018/03/15 11:50:40.000   78.246497527   16.063352804   575.0819   2   9   0.0897   0.0859   0.3238  -0.0344   0.0560   0.0715   0.00    1.2
2018/03/15 11:50:41.000   78.246497488   16.063352715   575.0791   2   9   0.0891   0.0853   0.3213  -0.0342   0.0557   0.0709   0.00    1.2
2018/03/15 11:50:42.000   78.246497508   16.063353385   575.0773   2   9   0.0885   0.0848   0.3188  -0.0340   0.0554   0.0703   0.00    1.2
2018/03/15 11:50:43.000   78.246497487   16.063353560   575.0397   2   9   0.0880   0.0843   0.3163  -0.0338   0.0551   0.0697   0.00    1.2
2018/03/15 11:50:44.000   78.246497402   16.063353693   575.0194   2   9   0.0874   0.0838   0.3140  -0.0336   0.0548   0.0691   0.00    1.1
2018/03/15 11:50:45.000   78.246497345   16.063353592   575.0175   2   9   0.0869   0.0833   0.3117  -0.0334   0.0545   0.0685   0.00    1.1
2018/03/15 11:50:46.000   78.246497357   16.063353308   575.0271   2   9   0.0864   0.0828   0.3094  -0.0332   0.0542   0.0679   0.00    1.1
2018/03/15 11:50:47.000   78.246497480   16.063352728   575.0392   2   9   0.0859   0.0824   0.3072  -0.0330   0.0540   0.0674   0.00    1.1
2018/03/15 11:50:48.000   78.246497512   16.063352278   575.0291   2   9   0.0854   0.0819   0.3051  -0.0328   0.0537   0.0668   0.00    1.1
2018/03/15 11:50:49.000   78.246497424   16.063352566   574.9872   2   9   0.0849   0.0815   0.3030  -0.0326   0.0534   0.0663   0.00    1.1
2018/03/15 11:50:50.000   78.246497315   16.063352929   574.9659   2   9   0.0845   0.0811   0.3010  -0.0325   0.0532   0.0658   0.00    1.1
2018/03/15 11:50:51.000   78.246497253   16.063353414   574.9694   2   9   0.0840   0.0807   0.2990  -0.0323   0.0530   0.0653   0.00    1.1
2018/03/15 11:50:52.000   78.246497228   16.063353119   574.9502   2   9   0.0836   0.0803   0.2970  -0.0322   0.0527   0.0648   0.00    1.1
2018/03/15 11:50:53.000   78.246497302   16.063352697   574.9486   2   9   0.0832   0.0799   0.2951  -0.0320   0.0525   0.0643   0.00    1.1
2018/03/15 11:50:54.000   78.246497322   16.063352660   574.9501   2   9   0.0828   0.0795   0.2932  -0.0319   0.0522   0.0638   0.00    1.1
2018/03/15 11:50:55.000   78.246497294   16.063352974   574.9352   2   9   0.0824   0.0792   0.2913  -0.0317   0.0520   0.0633   0.00    1.0
2018/03/15 11:50:56.000   78.246497242   16.063353141   574.9503   2   9   0.0820   0.0788   0.2895  -0.0316   0.0518   0.0628   0.00    1.0
2018/03/15 11:50:57.000   78.246497198   16.063352890   574.9532   2   9   0.0816   0.0785   0.2877  -0.0314   0.0516   0.0623   0.00    1.0
2018/03/15 11:50:58.000   78.246497164   16.063352687   574.9769   2   9   0.0813   0.0782   0.2860  -0.0313   0.0514   0.0619   0.00    1.0
2018/03/15 11:50:59.000   78.246497172   16.063352829   574.9917   2   9   0.0809   0.0779   0.2842  -0.0312   0.0512   0.0614   0.00    1.0
2018/03/15 11:51:00.000   78.246497232   16.063353052   575.0020   2   9   0.0806   0.0776   0.2825  -0.0311   0.0509   0.0610   0.00    1.0
2018/03/15 11:51:01.000   78.246497195   16.063353008   574.9889   2   9   0.0802   0.0772   0.2808  -0.0309   0.0507   0.0605   0.00    1.0
2018/03/15 11:51:02.000   78.246497173   16.063352808   574.9700   2   9   0.0799   0.0770   0.2792  -0.0308   0.0505   0.0601   0.00    1.0
2018/03/15 11:51:03.000   78.246497140   16.063352866   574.9572   2   9   0.0796   0.0767   0.2775  -0.0307   0.0503   0.0596   0.00    1.0
2018/03/15 11:51:04.000   78.246497097   16.063353335   574.9642   2   9   0.0792   0.0764   0.2759  -0.0306   0.0501   0.0592   0.00    1.0
2018/03/15 11:51:05.000   78.246497079   16.063353410   574.9460   2   9   0.0789   0.0761   0.2743  -0.0305   0.0499   0.0588   0.00    1.0
2018/03/15 11:51:06.000   78.246497068   16.063353056   574.9372   2   9   0.0786   0.0758   0.2727  -0.0304   0.0498   0.0583   0.00    1.0
2018/03/15 11:51:07.000   78.246497097   16.063352876   574.9303   2   9   0.0783   0.0756   0.2711  -0.0303   0.0496   0.0579   0.00    1.0
2018/03/15 11:51:08.000   78.246497127   16.063352702   574.9109   2   9   0.0780   0.0753   0.2696  -0.0302   0.0494   0.0575   0.00    1.0
2018/03/15 11:51:09.000   78.246497140   16.063352684   574.9107   2   9   0.0777   0.0751   0.2680  -0.0301   0.0492   0.0571   0.00    1.0
2018/03/15 11:51:10.000   78.246497064   16.063352958   574.9077   2   9   0.0775   0.0748   0.2665  -0.0300   0.0490   0.0567   0.00    1.0
2018/03/15 11:51:11.000   78.246496995   16.063353427   574.9032   2   9   0.0772   0.0746   0.2650  -0.0299   0.0488   0.0563   0.00    1.0
2018/03/15 11:51:12.000   78.246496994   16.063353455   574.8871   2   9   0.0769   0.0743   0.2635  -0.0298   0.0486   0.0558   0.00    1.0
2018/03/15 11:51:13.000   78.246497057   16.063353033   574.8782   2   9   0.0767   0.0741   0.2620  -0.0297   0.0485   0.0554   0.00    1.0
2018/03/15 11:51:14.000   78.246497094   16.063353001   574.8854   2   9   0.0764   0.0739   0.2605  -0.0296   0.0483   0.0550   0.00    1.0
2018/03/15 11:51:15.000   78.246497081   16.063352877   574.8811   2   9   0.0761   0.0736   0.2591  -0.0295   0.0481   0.0546   0.00    1.0
2018/03/15 11:51:16.000   78.246497010   16.063352851   574.8828   2   9   0.0759   0.0734   0.2576  -0.0294   0.0479   0.0542   0.00    1.1
2018/03/15 11:51:17.000   78.246496939   16.063352950   574.8667   2   9   0.0756   0.0732   0.2562  -0.0293   0.0478   0.0538   0.00    1.0
2018/03/15 11:51:18.000   78.246496933   16.063353042   574.8647   2   9   0.0754   0.0730   0.2547  -0.0292   0.0476   0.0534   0.00    1.0
2018/03/15 11:51:19.000   78.246496932   16.063353079   574.8637   2   9   0.0751   0.0728   0.2533  -0.0292   0.0474   0.0530   0.00    1.1
2018/03/15 11:51:20.000   78.246496992   16.063352867   574.8604   2   9   0.0749   0.0726   0.2519  -0.0291   0.0473   0.0526   0.00    1.1
2018/03/15 11:51:21.000   78.246497003   16.063352744   574.8685   2   9   0.0747   0.0724   0.2505  -0.0290   0.0471   0.0523   0.00    1.1
2018/03/15 11:51:22.000   78.246496979   16.063352707   574.8559   2   9   0.0744   0.0722   0.2491  -0.0289   0.0469   0.0519   0.00    1.0
2018/03/15 11:51:23.000   78.246496943   16.063352840   574.8533   2   9   0.0742   0.0720   0.2477  -0.0288   0.0467   0.0515   0.00    1.0
2018/03/15 11:51:24.000   78.246496881   16.063353179   574.8373   2   9   0.0740   0.0718   0.2464  -0.0288   0.0466   0.0511   0.00    1.0
2018/03/15 11:51:25.000   78.246496852   16.063353359   574.8280   2   9   0.0738   0.0716   0.2450  -0.0287   0.0464   0.0507   0.00    1.0
2018/03/15 11:51:26.000   78.246496842   16.063353400   574.8226   2   9   0.0736   0.0714   0.2436  -0.0286   0.0463   0.0503   0.00    1.0
2018/03/15 11:51:27.000   78.246496834   16.063353223   574.8240   2   9   0.0733   0.0712   0.2423  -0.0285   0.0461   0.0499   0.00    1.0
2018/03/15 11:51:28.000   78.246496848   16.063353246   574.8192   2   9   0.0731   0.0710   0.2409  -0.0285   0.0459   0.0496   0.00    1.1
2018/03/15 11:51:29.000   78.246496869   16.063353300   574.8123   2   9   0.0729   0.0709   0.2396  -0.0284   0.0458   0.0492   0.00    1.1
2018/03/15 11:51:30.000   78.246496902   16.063353348   574.8183   2   9   0.0727   0.0707   0.2383  -0.0283   0.0456   0.0488   0.00    1.1
2018/03/15 11:51:31.000   78.246496906   16.063353295   574.8200   2   9   0.0725   0.0705   0.2370  -0.0283   0.0455   0.0484   0.00    1.1
2018/03/15 11:51:32.000   78.246496904   16.063353240   574.8118   2   9   0.0723   0.0703   0.2356  -0.0282   0.0453   0.0480   0.00    1.1
2018/03/15 11:51:33.000   78.246496911   16.063353266   574.8081   2   9   0.0721   0.0702   0.2343  -0.0281   0.0451   0.0477   0.00    1.2
2018/03/15 11:51:34.000   78.246496897   16.063353269   574.8134   2   9   0.0719   0.0700   0.2330  -0.0281   0.0450   0.0473   0.00    1.2
2018/03/15 11:51:35.000   78.246496898   16.063353315   574.8182   2   9   0.0717   0.0698   0.2317  -0.0280   0.0448   0.0469   0.00    1.2
2018/03/15 11:51:36.000   78.246496892   16.063353349   574.8135   2   9   0.0715   0.0697   0.2304  -0.0279   0.0447   0.0466   0.00    1.2
2018/03/15 11:51:37.000   78.246496876   16.063353300   574.8128   2   9   0.0713   0.0695   0.2292  -0.0279   0.0445   0.0462   0.00    1.2
2018/03/15 11:51:38.000   78.246496864   16.063353321   574.8032   2   9   0.0711   0.0693   0.2279  -0.0278   0.0444   0.0458   0.00    1.2
2018/03/15 11:51:39.000   78.246496837   16.063353387   574.8109   2   9   0.0710   0.0692   0.2266  -0.0277   0.0442   0.0454   0.00    1.2
2018/03/15 11:51:40.000   78.246496837   16.063353494   574.8081   2   9   0.0708   0.0690   0.2254  -0.0277   0.0441   0.0451   0.00    1.2
2018/03/15 11:51:41.000   78.246496812   16.063353691   574.8118   2   9   0.0706   0.0689   0.2241  -0.0276   0.0439   0.0447   0.00    1.2
2018/03/15 11:51:42.000   78.246496794   16.063353779   574.8228   2   9   0.0704   0.0687   0.2228  -0.0276   0.0438   0.0443   0.00    1.2
2018/03/15 11:51:43.000   78.246496782   16.063353975   574.8305   2   9   0.0702   0.0686   0.2216  -0.0275   0.0436   0.0440   0.00    1.2
2018/03/15 11:51:44.000   78.246496780   16.063354053   574.8243   2   9   0.0701   0.0684   0.2204  -0.0274   0.0435   0.0436   0.00    1.2
2018/03/15 11:51:45.000   78.246496795   16.063353990   574.8202   2   9   0.0699   0.0683   0.2191  -0.0274   0.0433   0.0433   0.00    1.2
2018/03/15 11:51:46.000   78.246496784   16.063353864   574.8147   2   9   0.0697   0.0681   0.2179  -0.0273   0.0432   0.0429   0.00    1.2
2018/03/15 11:51:47.000   78.246496770   16.063353827   574.8096   2   9   0.0695   0.0680   0.2167  -0.0273   0.0430   0.0425   0.00    1.2
2018/03/15 11:51:48.000   78.246496747   16.063353904   574.8080   2   9   0.0694   0.0678   0.2154  -0.0272   0.0429   0.0422   0.00    1.2
2018/03/15 11:51:49.000   78.246496749   16.063353722   574.7985   2   9   0.0692   0.0677   0.2142  -0.0272   0.0427   0.0418   0.00    1.2
2018/03/15 11:51:50.000   78.246496756   16.063353580   574.7896   2   9   0.0690   0.0676   0.2130  -0.0271   0.0426   0.0415   0.00    1.2
2018/03/15 11:51:51.000   78.246496752   16.063353495   574.7889   2   9   0.0689   0.0674   0.2118  -0.0271   0.0424   0.0411   0.00    1.2
2018/03/15 11:51:52.000   78.246496731   16.063353616   574.7851   2   9   0.0687   0.0673   0.2106  -0.0270   0.0423   0.0407   0.00    1.2
2018/03/15 11:51:53.000   78.246496705   16.063353749   574.7791   2   9   0.0685   0.0672   0.2094  -0.0269   0.0421   0.0404   0.00    1.2
2018/03/15 11:51:54.000   78.246496695   16.063353765   574.7723   2   9   0.0684   0.0670   0.2083  -0.0269   0.0420   0.0400   0.00    1.2
2018/03/15 11:51:55.000   78.246496670   16.063353778   574.7748   2   9   0.0682   0.0669   0.2071  -0.0268   0.0419   0.0397   0.00    1.2
2018/03/15 11:51:56.000   78.246496642   16.063353919   574.7758   2   9   0.0681   0.0668   0.2059  -0.0268   0.0417   0.0393   0.00    1.2
2018/03/15 11:51:57.000   78.246496604   16.063354110   574.7831   2   9   0.0679   0.0666   0.2047  -0.0267   0.0416   0.0390   0.00    1.1
2018/03/15 11:51:58.000   78.246496578   16.063354232   574.7800   2   9   0.0677   0.0665   0.2036  -0.0267   0.0414   0.0386   0.00    1.1
2018/03/15 11:51:59.000   78.246496592   16.063354030   574.7810   2   9   0.0676   0.0664   0.2024  -0.0266   0.0413   0.0383   0.00    1.1
2018/03/15 11:52:00.000   78.246496583   16.063354035   574.7788   2   9   0.0674   0.0662   0.2013  -0.0266   0.0412   0.0379   0.00    1.1
2018/03/15 11:52:01.000   78.246496577   16.063354053   574.7846   2   9   0.0673   0.0661   0.2001  -0.0265   0.0410   0.0376   0.00    1.1
2018/03/15 11:52:02.000   78.246496573   16.063353900   574.7856   2   9   0.0671   0.0660   0.1990  -0.0265   0.0409   0.0372   0.00    1.1
2018/03/15 11:52:03.000   78.246496559   16.063353842   574.7852   2   9   0.0670   0.0659   0.1979  -0.0264   0.0407   0.0369   0.00    1.1
2018/03/15 11:52:04.000   78.246496583   16.063353687   574.7769   2   9   0.0668   0.0657   0.1967  -0.0264   0.0406   0.0366   0.00    1.1
2018/03/15 11:52:05.000   78.246496587   16.063353509   574.7736   2   9   0.0667   0.0656   0.1956  -0.0263   0.0405   0.0362   0.00    1.1
2018/03/15 11:52:06.000   78.246496555   16.063353428   574.7785   2   9   0.0665   0.0655   0.1945  -0.0263   0.0403   0.0359   0.00    1.1
2018/03/15 11:52:07.000   78.246496498   16.063353564   574.7783   2   9   0.0664   0.0654   0.1934  -0.0262   0.0402   0.0355   0.00    1.1
2018/03/15 11:52:08.000   78.246496485   16.063353832   574.7805   2   9   0.0662   0.0652   0.1923  -0.0262   0.0401   0.0352   0.00    1.1
2018/03/15 11:52:09.000   78.246496462   16.063353874   574.7845   2   9   0.0661   0.0651   0.1912  -0.0261   0.0399   0.0348   0.00    1.1
2018/03/15 11:52:10.000   78.246496444   16.063353694   574.7810   2   9   0.0659   0.0650   0.1901  -0.0261   0.0398   0.0345   0.00    1.1
2018/03/15 11:52:11.000   78.246496394   16.063353620   574.7764   2   9   0.0658   0.0649   0.1890  -0.0260   0.0397   0.0342   0.00    1.1
2018/03/15 11:52:12.000   78.246496370   16.063353664   574.7742   2   9   0.0656   0.0648   0.1879  -0.0260   0.0395   0.0338   0.00    1.1
2018/03/15 11:52:13.000   78.246496370   16.063353684   574.7748   2   9   0.0655   0.0647   0.1869  -0.0259   0.0394   0.0335   0.00    1.1
2018/03/15 11:52:14.000   78.246496374   16.063353637   574.7664   2   9   0.0654   0.0645   0.1858  -0.0259   0.0393   0.0332   0.00    1.1
2018/03/15 11:52:15.000   78.246496387   16.063353593   574.7502   2   9   0.0652   0.0644   0.1847  -0.0258   0.0392   0.0328   0.00    1.1
2018/03/15 11:52:16.000   78.246496370   16.063353445   574.7394   2   9   0.0651   0.0643   0.1837  -0.0258   0.0390   0.0325   0.00    1.1
2018/03/15 11:52:17.000   78.246496357   16.063353372   574.7298   2   9   0.0649   0.0642   0.1826  -0.0257   0.0389   0.0322   0.00    1.1
2018/03/15 11:52:18.000   78.246496342   16.063353430   574.7143   2   9   0.0648   0.0641   0.1816  -0.0257   0.0388   0.0318   0.00    1.1
2018/03/15 11:52:19.000   78.246496336   16.063353430   574.7079   2   9   0.0647   0.0640   0.1806  -0.0256   0.0386   0.0315   0.00    1.1
2018/03/15 11:52:20.000   78.246496321   16.063353440   574.7025   2   9   0.0645   0.0639   0.1795  -0.0256   0.0385   0.0312   0.00    1.1
2018/03/15 11:52:21.000   78.246496292   16.063353529   574.7024   2   9   0.0644   0.0638   0.1785  -0.0255   0.0384   0.0309   0.00    1.1
2018/03/15 11:52:22.000   78.246496254   16.063353671   574.6977   2   9   0.0643   0.0636   0.1775  -0.0255   0.0383   0.0305   0.00    1.0
2018/03/15 11:52:23.000   78.246496245   16.063353708   574.6965   2   9   0.0641   0.0635   0.1765  -0.0254   0.0381   0.0302   0.00    1.0
2018/03/15 11:52:24.000   78.246496238   16.063353586   574.6931   2   9   0.0640   0.0634   0.1755  -0.0254   0.0380   0.0299   0.00    1.0
2018/03/15 11:52:25.000   78.246496210   16.063353547   574.6862   2   9   0.0638   0.0633   0.1745  -0.0254   0.0379   0.0296   0.00    1.0
2018/03/15 11:52:26.000   78.246496168   16.063353767   574.6823   2   9   0.0637   0.0632   0.1735  -0.0253   0.0378   0.0293   0.00    1.0
2018/03/15 11:52:27.000   78.246496142   16.063353939   574.6723   2   9   0.0636   0.0631   0.1725  -0.0253   0.0377   0.0289   0.00    1.0
2018/03/15 11:52:28.000   78.246496123   16.063353810   574.6600   2   9   0.0635   0.0630   0.1715  -0.0252   0.0375   0.0286   0.00    1.0
2018/03/15 11:52:29.000   78.246496116   16.063353499   574.6502   2   9   0.0633   0.0629   0.1705  -0.0252   0.0374   0.0283   0.00    1.0
2018/03/15 11:52:30.000   78.246496100   16.063353517   574.6459   2   9   0.0632   0.0628   0.1695  -0.0251   0.0373   0.0280   0.00    1.0
2018/03/15 11:52:31.000   78.246496053   16.063353669   574.6422   2   9   0.0631   0.0627   0.1686  -0.0251   0.0372   0.0277   0.00    1.0
2018/03/15 11:52:32.000   78.246496000   16.063353842   574.6374   2   9   0.0629   0.0626   0.1676  -0.0250   0.0371   0.0273   0.00    1.0
2018/03/15 11:52:33.000   78.246495967   16.063353779   574.6283   2   9   0.0628   0.0625   0.1667  -0.0250   0.0369   0.0270   0.00    1.0
2018/03/15 11:52:34.000   78.246495957   16.063353738   574.6182   2   9   0.0627   0.0624   0.1657  -0.0249   0.0368   0.0267   0.00    1.0
2018/03/15 11:52:35.000   78.246495958   16.063353834   574.6094   2   9   0.0625   0.0623   0.1648  -0.0249   0.0367   0.0264   0.00    1.0
2018/03/15 11:52:36.000   78.246495935   16.063353850   574.5948   2   9   0.0624   0.0622   0.1638  -0.0248   0.0366   0.0261   0.00    1.0
2018/03/15 11:52:37.000   78.246495912   16.063353786   574.5769   2   9   0.0623   0.0620   0.1629  -0.0248   0.0365   0.0258   0.00    1.0
2018/03/15 11:52:38.000   78.246495907   16.063353658   574.5646   2   9   0.0622   0.0619   0.1620  -0.0247   0.0364   0.0255   0.00    1.0
2018/03/15 11:52:39.000   78.246495901   16.063353670   574.5559   2   9   0.0620   0.0618   0.1611  -0.0247   0.0363   0.0252   0.00    1.0
2018/03/15 11:52:40.000   78.246495896   16.063353827   574.5529   2   9   0.0619   0.0617   0.1601  -0.0247   0.0361   0.0249   0.00    1.0
2018/03/15 11:52:41.000   78.246495871   16.063353998   574.5460   2   9   0.0618   0.0616   0.1592  -0.0246   0.0360   0.0245   0.00    1.0
2018/03/15 11:52:42.000   78.246495868   16.063354046   574.5367   2   9   0.0617   0.0615   0.1583  -0.0246   0.0359   0.0242   0.00    1.0
2018/03/15 11:52:43.000   78.246495868   16.063354047   574.5261   2   9   0.0615   0.0614   0.1574  -0.0245   0.0358   0.0239   0.00    1.0
2018/03/15 11:52:44.000   78.246495894   16.063353978   574.5187   2   9   0.0614   0.0613   0.1565  -0.0245   0.0357   0.0236   0.00    1.0
2018/03/15 11:52:45.000   78.246495908   16.063353866   574.5120   2   9   0.0613   0.0612   0.1557  -0.0244   0.0356   0.0233   0.00    1.0
2018/03/15 11:52:46.000   78.246495910   16.063353942   574.5091   2   9   0.0612   0.0611   0.1548  -0.0244   0.0355   0.0230   0.00    1.0
2018/03/15 11:52:47.000   78.246495916   16.063353912   574.5040   2   9   0.0610   0.0610   0.1539  -0.0243   0.0354   0.0227   0.00    1.1
2018/03/15 11:52:48.000   78.246495919   16.063353897   574.5033   2   9   0.0609   0.0609   0.1531  -0.0243   0.0353   0.0224   0.00    1.1
2018/03/15 11:52:49.000   78.246495928   16.063353766   574.5005   2   9   0.0608   0.0608   0.1522  -0.0242   0.0351   0.0221   0.00    1.1
2018/03/15 11:52:50.000   78.246495940   16.063353661   574.4941   2   9   0.0607   0.0607   0.1513  -0.0242   0.0350   0.0218   0.00    1.1
2018/03/15 11:52:51.000   78.246495943   16.063353614   574.4867   2   9   0.0605   0.0606   0.1505  -0.0242   0.0349   0.0215   0.00    1.1
2018/03/15 11:52:52.000   78.246495946   16.063353498   574.4795   2   9   0.0604   0.0606   0.1497  -0.0241   0.0348   0.0212   0.00    1.1
2018/03/15 11:52:53.000   78.246495983   16.063353449   574.4770   2   9   0.0603   0.0605   0.1488  -0.0241   0.0347   0.0209   0.00    1.1
2018/03/15 11:52:54.000   78.246496011   16.063353470   574.4779   2   9   0.0602   0.0604   0.1480  -0.0240   0.0346   0.0206   0.00    1.1
2018/03/15 11:52:55.000   78.246496011   16.063353567   574.4738   2   9   0.0601   0.0603   0.1472  -0.0240   0.0345   0.0203   0.00    1.1
2018/03/15 11:52:56.000   78.246496005   16.063353575   574.4730   2   9   0.0599   0.0602   0.1463  -0.0239   0.0344   0.0200   0.00    1.1
2018/03/15 11:52:57.000   78.246496007   16.063353599   574.4720   2   9   0.0598   0.0601   0.1455  -0.0239   0.0343   0.0197   0.00    1.1
2018/03/15 11:52:58.000   78.246496017   16.063353660   574.4760   2   9   0.0597   0.0600   0.1448  -0.0238   0.0342   0.0194   0.00    1.1
2018/03/15 11:52:59.000   78.246496048   16.063353724   574.4807   2   9   0.0596   0.0599   0.1440  -0.0238   0.0342   0.0191   0.00    1.1
2018/03/15 11:53:00.000   78.246496069   16.063353755   574.4798   2   9   0.0595   0.0598   0.1432  -0.0238   0.0341   0.0187   0.00    1.1
2018/03/15 11:53:01.000   78.246496066   16.063353730   574.4858   2   9   0.0594   0.0597   0.1425  -0.0237   0.0340   0.0184   0.00    1.1
2018/03/15 11:53:02.000   78.246496075   16.063353736   574.4877   2   9   0.0592   0.0596   0.1418  -0.0237   0.0340   0.0181   0.00    1.0
2018/03/15 11:53:03.000   78.246496086   16.063353760   574.4903   2   9   0.0591   0.0595   0.1410  -0.0236   0.0339   0.0177   0.00    1.0
2018/03/15 11:53:04.000   78.246496105   16.063353789   574.4938   2   9   0.0590   0.0594   0.1403  -0.0236   0.0338   0.0174   0.00    1.0
2018/03/15 11:53:05.000   78.246496085   16.063353762   574.4943   2   9   0.0589   0.0593   0.1396  -0.0235   0.0338   0.0171   0.00    1.0
2018/03/15 11:53:06.000   78.246496068   16.063353758   574.4944   2   9   0.0588   0.0592   0.1389  -0.0235   0.0337   0.0167   0.00    1.0
2018/03/15 11:53:07.000   78.246496069   16.063353843   574.4911   2   9   0.0587   0.0592   0.1382  -0.0235   0.0337   0.0164   0.00    1.0
2018/03/15 11:53:08.000   78.246496092   16.063353826   574.4902   2   9   0.0586   0.0591   0.1375  -0.0234   0.0336   0.0160   0.00    1.0
2018/03/15 11:53:09.000   78.246496081   16.063353747   574.4849   2   9   0.0584   0.0590   0.1368  -0.0234   0.0336   0.0157   0.00    1.0
2018/03/15 11:53:10.000   78.246496052   16.063353633   574.4799   2   9   0.0583   0.0589   0.1361  -0.0234   0.0335   0.0153   0.00    1.0
2018/03/15 11:53:11.000   78.246496012   16.063353751   574.4784   2   9   0.0582   0.0588   0.1354  -0.0233   0.0334   0.0149   0.00    1.0
2018/03/15 11:53:12.000   78.246495984   16.063353889   574.4761   2   9   0.0581   0.0587   0.1347  -0.0233   0.0334   0.0146   0.00    1.0
2018/03/15 11:53:13.000   78.246495993   16.063354024   574.4714   2   9   0.0580   0.0586   0.1340  -0.0232   0.0333   0.0142   0.00    1.0
2018/03/15 11:53:14.000   78.246496038   16.063353984   574.4673   2   9   0.0579   0.0585   0.1334  -0.0232   0.0333   0.0138   0.00    1.0
2018/03/15 11:53:15.000   78.246496058   16.063353948   574.4635   2   9   0.0578   0.0585   0.1327  -0.0232   0.0332   0.0135   0.00    1.0
2018/03/15 11:53:16.000   78.246496081   16.063354066   574.4602   2   9   0.0576   0.0584   0.1320  -0.0231   0.0332   0.0131   0.00    1.0
2018/03/15 11:53:17.000   78.246496105   16.063354207   574.4595   2   9   0.0575   0.0583   0.1314  -0.0231   0.0331   0.0127   0.00    1.0
2018/03/15 11:53:18.000   78.246496112   16.063354287   574.4599   2   9   0.0574   0.0582   0.1307  -0.0230   0.0331   0.0123   0.00    1.0
2018/03/15 11:53:19.000   78.246496131   16.063354184   574.4623   2   9   0.0573   0.0581   0.1301  -0.0230   0.0330   0.0119   0.00    1.0
2018/03/15 11:53:20.000   78.246496159   16.063354145   574.4682   2   9   0.0572   0.0580   0.1294  -0.0230   0.0330   0.0115   0.00    1.0
2018/03/15 11:53:21.000   78.246496153   16.063354278   574.4732   2   9   0.0571   0.0579   0.1288  -0.0229   0.0329   0.0111   0.00    1.0
2018/03/15 11:53:22.000   78.246496139   16.063354428   574.4745   2   9   0.0570   0.0578   0.1281  -0.0229   0.0328   0.0107   0.00    1.0
2018/03/15 11:53:23.000   78.246496146   16.063354562   574.4790   2   9   0.0569   0.0578   0.1275  -0.0228   0.0328   0.0103   0.00    1.0
2018/03/15 11:53:24.000   78.246496133   16.063354711   574.4810   2   9   0.0568   0.0577   0.1269  -0.0228   0.0327   0.0098   0.00    1.0
2018/03/15 11:53:25.000   78.246496126   16.063354651   574.4826   2   9   0.0566   0.0576   0.1262  -0.0228   0.0327   0.0094   0.00    1.0
2018/03/15 11:53:26.000   78.246496146   16.063354527   574.4834   2   9   0.0565   0.0575   0.1256  -0.0227   0.0326   0.0089   0.00    1.0
2018/03/15 11:53:27.000   78.246496176   16.063354518   574.4876   2   9   0.0564   0.0574   0.1250  -0.0227   0.0326   0.0084   0.00    1.1
2018/03/15 11:53:28.000   78.246496190   16.063354637   574.4906   2   9   0.0563   0.0573   0.1244  -0.0227   0.0325   0.0080   0.00    1.1
2018/03/15 11:53:29.000   78.246496180   16.063354743   574.4875   2   9   0.0562   0.0572   0.1238  -0.0226   0.0325   0.0074   0.00    1.1
2018/03/15 11:53:30.000   78.246496179   16.063354745   574.4837   2   9   0.0561   0.0572   0.1232  -0.0226   0.0324   0.0069   0.00    1.1
2018/03/15 11:53:31.000   78.246496180   16.063354744   574.4779   2   9   0.0560   0.0571   0.1226  -0.0225   0.0323   0.0063   0.00    1.0
2018/03/15 11:53:32.000   78.246496196   16.063354731   574.4750   2   9   0.0559   0.0570   0.1220  -0.0225   0.0323   0.0057   0.00    1.1
2018/03/15 11:53:33.000   78.246496195   16.063354752   574.4711   2   9   0.0558   0.0569   0.1214  -0.0225   0.0322   0.0050   0.00    1.0
2018/03/15 11:53:34.000   78.246496170   16.063354766   574.4626   2   9   0.0557   0.0568   0.1208  -0.0224   0.0322   0.0042   0.00    1.0
2018/03/15 11:53:35.000   78.246496144   16.063354753   574.4586   2   9   0.0555   0.0567   0.1202  -0.0224   0.0321   0.0032   0.00    1.0
2018/03/15 11:53:36.000   78.246496125   16.063354777   574.4587   2   9   0.0554   0.0567   0.1196  -0.0223   0.0321   0.0017   0.00    1.0
2018/03/15 11:53:37.000   78.246496152   16.063354777   574.4594   2   9   0.0553   0.0566   0.1190  -0.0223   0.0320  -0.0021   0.00    1.0
2018/03/15 11:53:38.000   78.246496167   16.063354759   574.4589   2   9   0.0552   0.0565   0.1184  -0.0223   0.0320  -0.0033   0.00    1.0
2018/03/15 11:53:39.000   78.246496148   16.063354800   574.4580   2   9   0.0551   0.0564   0.1179  -0.0222   0.0319  -0.0042   0.00    1.0
2018/03/15 11:53:40.000   78.246496114   16.063354809   574.4626   2   9   0.0550   0.0563   0.1173  -0.0222   0.0319  -0.0050   0.00    1.0
2018/03/15 11:53:41.000   78.246496084   16.063354896   574.4653   2   9   0.0549   0.0562   0.1167  -0.0221   0.0318  -0.0056   0.00    1.1
2018/03/15 11:53:42.000   78.246496095   16.063354930   574.4679   2   9   0.0548   0.0562   0.1162  -0.0221   0.0318  -0.0061   0.00    1.1
2018/03/15 11:53:43.000   78.246496088   16.063354874   574.4697   2   9   0.0547   0.0561   0.1156  -0.0221   0.0317  -0.0067   0.00    1.0
2018/03/15 11:53:44.000   78.246496078   16.063354827   574.4714   2   9   0.0546   0.0560   0.1151  -0.0220   0.0316  -0.0071   0.00    1.1
2018/03/15 11:53:45.000   78.246496074   16.063354908   574.4691   2   9   0.0545   0.0559   0.1145  -0.0220   0.0316  -0.0075   0.00    1.1
2018/03/15 11:53:46.000   78.246496076   16.063354964   574.4670   2   9   0.0544   0.0558   0.1140  -0.0220   0.0315  -0.0079   0.00    1.1
2018/03/15 11:53:47.000   78.246496070   16.063354923   574.4667   2   9   0.0543   0.0557   0.1134  -0.0219   0.0315  -0.0083   0.00    1.1
2018/03/15 11:53:48.000   78.246496064   16.063354947   574.4659   2   9   0.0542   0.0557   0.1129  -0.0219   0.0314  -0.0086   0.00    1.1
2018/03/15 11:53:49.000   78.246496044   16.063355028   574.4637   2   9   0.0541   0.0556   0.1124  -0.0218   0.0314  -0.0090   0.00    1.0
2018/03/15 11:53:50.000   78.246496036   16.063355148   574.4621   2   9   0.0540   0.0555   0.1118  -0.0218   0.0313  -0.0093   0.00    1.1
2018/03/15 11:53:51.000   78.246496064   16.063355112   574.4596   2   9   0.0538   0.0554   0.1113  -0.0218   0.0313  -0.0096   0.00    1.1
2018/03/15 11:53:52.000   78.246496100   16.063354981   574.4546   2   9   0.0537   0.0553   0.1108  -0.0217   0.0312  -0.0098   0.00    1.0
2018/03/15 11:53:53.000   78.246496085   16.063355063   574.4523   2   9   0.0536   0.0552   0.1103  -0.0217   0.0312  -0.0101   0.00    1.1
2018/03/15 11:53:54.000   78.246496058   16.063355177   574.4458   2   9   0.0535   0.0552   0.1097  -0.0217   0.0311  -0.0104   0.00    1.1
2018/03/15 11:53:55.000   78.246496034   16.063355219   574.4399   2   9   0.0534   0.0551   0.1092  -0.0216   0.0311  -0.0106   0.00    1.1
2018/03/15 11:53:56.000   78.246496038   16.063355218   574.4360   2   9   0.0533   0.0550   0.1087  -0.0216   0.0310  -0.0108   0.00    1.0
2018/03/15 11:53:57.000   78.246496041   16.063355231   574.4346   2   9   0.0532   0.0549   0.1082  -0.0215   0.0309  -0.0111   0.00    1.1
2018/03/15 11:53:58.000   78.246496020   16.063355284   574.4377   2   9   0.0531   0.0548   0.1077  -0.0215   0.0309  -0.0113   0.00    1.1
2018/03/15 11:53:59.000   78.246496006   16.063355391   574.4409   2   9   0.0530   0.0548   0.1072  -0.0215   0.0308  -0.0115   0.00    1.1
2018/03/15 11:54:00.000   78.246495985   16.063355396   574.4433   2   9   0.0529   0.0547   0.1067  -0.0214   0.0308  -0.0117   0.00    1.0
2018/03/15 11:54:01.000   78.246495955   16.063355402   574.4430   2   9   0.0528   0.0546   0.1062  -0.0214   0.0307  -0.0119   0.00    1.1
2018/03/15 11:54:02.000   78.246495934   16.063355468   574.4392   2   9   0.0527   0.0545   0.1057  -0.0214   0.0307  -0.0121   0.00    1.0
2018/03/15 11:54:03.000   78.246495896   16.063355470   574.4334   2   8   0.0526   0.0544   0.1052  -0.0213   0.0306  -0.0123   0.00    1.0
2018/03/15 11:54:04.000   78.246495867   16.063355425   574.4319   2   8   0.0525   0.0543   0.1048  -0.0213   0.0306  -0.0125   0.00    1.0
2018/03/15 11:54:05.000   78.246495825   16.063355477   574.4301   2   8   0.0524   0.0543   0.1043  -0.0212   0.0305  -0.0127   0.00    1.0
2018/03/15 11:54:06.000   78.246495778   16.063355590   574.4291   2   8   0.0523   0.0542   0.1038  -0.0212   0.0305  -0.0129   0.00    1.0
2018/03/15 11:54:07.000   78.246495719   16.063355690   574.4293   2   8   0.0522   0.0541   0.1033  -0.0212   0.0304  -0.0131   0.00    1.0
2018/03/15 11:54:08.000   78.246495664   16.063355783   574.4275   2   8   0.0521   0.0540   0.1029  -0.0211   0.0304  -0.0133   0.00    1.1
2018/03/15 11:54:09.000   78.246495622   16.063355866   574.4289   2   8   0.0520   0.0539   0.1024  -0.0211   0.0303  -0.0134   0.00    1.1
2018/03/15 11:54:10.000   78.246495595   16.063355874   574.4280   2   8   0.0520   0.0539   0.1020  -0.0211   0.0303  -0.0136   0.00    1.1
2018/03/15 11:54:11.000   78.246495561   16.063355881   574.4248   2   8   0.0519   0.0538   0.1015  -0.0210   0.0302  -0.0138   0.00    1.1
2018/03/15 11:54:12.000   78.246495528   16.063355890   574.4212   2   8   0.0518   0.0537   0.1010  -0.0210   0.0302  -0.0139   0.00    1.1
2018/03/15 11:54:13.000   78.246495473   16.063355943   574.4160   2   8   0.0517   0.0536   0.1006  -0.0210   0.0301  -0.0141   0.00    1.1
2018/03/15 11:54:14.000   78.246495393   16.063356100   574.4084   2   8   0.0516   0.0535   0.1001  -0.0209   0.0301  -0.0142   0.00    1.1
2018/03/15 11:54:15.000   78.246495332   16.063356198   574.4025   2   8   0.0515   0.0535   0.0997  -0.0209   0.0300  -0.0144   0.00    1.0
2018/03/15 11:54:16.000   78.246495301   16.063356240   574.3994   2   8   0.0514   0.0534   0.0993  -0.0208   0.0300  -0.0145   0.00    1.0
2018/03/15 11:54:17.000   78.246495279   16.063356279   574.3947   2   8   0.0513   0.0533   0.0988  -0.0208   0.0299  -0.0146   0.00    1.0
2018/03/15 11:54:18.000   78.246495258   16.063356361   574.3923   2   8   0.0512   0.0532   0.0984  -0.0208   0.0299  -0.0148   0.00    1.0
2018/03/15 11:54:19.000   78.246495229   16.063356442   574.3921   2   8   0.0511   0.0531   0.0979  -0.0207   0.0298  -0.0149   0.00    1.0
2018/03/15 11:54:20.000   78.246495176   16.063356545   574.3909   2   8   0.0510   0.0531   0.0975  -0.0207   0.0298  -0.0150   0.00    1.0
2018/03/15 11:54:21.000   78.246495111   16.063356541   574.3900   2   8   0.0509   0.0530   0.0971  -0.0207   0.0297  -0.0151   0.00    1.0
2018/03/15 11:54:22.000   78.246495058   16.063356606   574.3891   2   8   0.0508   0.0529   0.0967  -0.0206   0.0297  -0.0152   0.00    1.0
2018/03/15 11:54:23.000   78.246495008   16.063356680   574.3881   2   8   0.0507   0.0528   0.0962  -0.0206   0.0296  -0.0154   0.00    1.0
2018/03/15 11:54:24.000   78.246494956   16.063356828   574.3855   2   8   0.0506   0.0527   0.0958  -0.0206   0.0296  -0.0155   0.00    1.0
2018/03/15 11:54:25.000   78.246494904   16.063356899   574.3820   2   8   0.0505   0.0527   0.0954  -0.0205   0.0295  -0.0156   0.00    1.1
2018/03/15 11:54:26.000   78.246494862   16.063356906   574.3800   2   8   0.0505   0.0526   0.0950  -0.0205   0.0295  -0.0157   0.00    1.1
2018/03/15 11:54:27.000   78.246494837   16.063356876   574.3804   2   8   0.0504   0.0525   0.0946  -0.0204   0.0294  -0.0158   0.00    1.1
2018/03/15 11:54:28.000   78.246494810   16.063356996   574.3812   2   8   0.0503   0.0524   0.0942  -0.0204   0.0294  -0.0159   0.00    1.1
2018/03/15 11:54:29.000   78.246494776   16.063357099   574.3799   2   8   0.0502   0.0523   0.0938  -0.0204   0.0293  -0.0160   0.00    1.1
2018/03/15 11:54:30.000   78.246494725   16.063357172   574.3764   2   8   0.0501   0.0523   0.0933  -0.0203   0.0292  -0.0160   0.00    1.1
2018/03/15 11:54:31.000   78.246494683   16.063357132   574.3755   2   8   0.0500   0.0522   0.0929  -0.0203   0.0292  -0.0161   0.00    1.1
2018/03/15 11:54:32.000   78.246494643   16.063357215   574.3740   2   8   0.0499   0.0521   0.0925  -0.0203   0.0291  -0.0162   0.00    1.1
2018/03/15 11:54:33.000   78.246494613   16.063357322   574.3713   2   8   0.0498   0.0520   0.0922  -0.0202   0.0291  -0.0163   0.00    1.1
2018/03/15 11:54:34.000   78.246494594   16.063357451   574.3695   2   8   0.0497   0.0519   0.0918  -0.0202   0.0290  -0.0164   0.00    1.1
2018/03/15 11:54:35.000   78.246494566   16.063357461   574.3660   2   8   0.0496   0.0519   0.0914  -0.0202   0.0290  -0.0165   0.00    1.1
2018/03/15 11:54:36.000   78.246494539   16.063357430   574.3635   2   8   0.0495   0.0518   0.0910  -0.0201   0.0289  -0.0165   0.00    1.1
2018/03/15 11:54:37.000   78.246494487   16.063357508   574.3627   2   8   0.0494   0.0517   0.0906  -0.0201   0.0289  -0.0166   0.00    1.1
2018/03/15 11:54:38.000   78.246494427   16.063357721   574.3639   2   8   0.0493   0.0516   0.0902  -0.0201   0.0288  -0.0167   0.00    1.1
2018/03/15 11:54:39.000   78.246494383   16.063357981   574.3662   2   8   0.0493   0.0516   0.0898  -0.0200   0.0288  -0.0168   0.00    1.1
2018/03/15 11:54:40.000   78.246494358   16.063358167   574.3668   2   8   0.0492   0.0515   0.0895  -0.0200   0.0287  -0.0168   0.00    1.1
2018/03/15 11:54:41.000   78.246494354   16.063358268   574.3666   2   8   0.0491   0.0514   0.0891  -0.0199   0.0287  -0.0169   0.00    1.1
2018/03/15 11:54:42.000   78.246494370   16.063358297   574.3659   2   8   0.0490   0.0513   0.0887  -0.0199   0.0286  -0.0169   0.00    1.1
2018/03/15 11:54:43.000   78.246494401   16.063358328   574.3655   2   8   0.0489   0.0512   0.0883  -0.0199   0.0286  -0.0170   0.00    1.2
2018/03/15 11:54:44.000   78.246494390   16.063358371   574.3652   2   8   0.0488   0.0512   0.0880  -0.0198   0.0285  -0.0171   0.00    1.2
2018/03/15 11:54:45.000   78.246494361   16.063358439   574.3649   2   8   0.0487   0.0511   0.0876  -0.0198   0.0285  -0.0171   0.00    1.2
2018/03/15 11:54:46.000   78.246494328   16.063358509   574.3681   2   8   0.0486   0.0510   0.0872  -0.0198   0.0284  -0.0172   0.00    1.2
2018/03/15 11:54:47.000   78.246494306   16.063358595   574.3699   2   8   0.0485   0.0509   0.0869  -0.0197   0.0284  -0.0172   0.00    1.2
2018/03/15 11:54:48.000   78.246494295   16.063358612   574.3720   2   8   0.0484   0.0508   0.0865  -0.0197   0.0283  -0.0173   0.00    1.2
2018/03/15 11:54:49.000   78.246494293   16.063358625   574.3707   2   8   0.0483   0.0508   0.0862  -0.0197   0.0283  -0.0173   0.00    1.2
2018/03/15 11:54:50.000   78.246494287   16.063358640   574.3706   2   8   0.0483   0.0507   0.0858  -0.0196   0.0282  -0.0174   0.00    1.2
2018/03/15 11:54:51.000   78.246494273   16.063358669   574.3734   2   8   0.0482   0.0506   0.0854  -0.0196   0.0282  -0.0174   0.00    1.2
2018/03/15 11:54:52.000   78.246494254   16.063358673   574.3749   2   8   0.0481   0.0505   0.0851  -0.0195   0.0281  -0.0175   0.00    1.2
2018/03/15 11:54:53.000   78.246494233   16.063358681   574.3769   2   8   0.0480   0.0505   0.0847  -0.0195   0.0281  -0.0175   0.00    1.2
2018/03/15 11:54:54.000   78.246494212   16.063358681   574.3821   2   8   0.0479   0.0504   0.0844  -0.0195   0.0280  -0.0176   0.00    1.2
2018/03/15 11:54:55.000   78.246494193   16.063358792   574.3842   2   8   0.0478   0.0503   0.0841  -0.0194   0.0280  -0.0176   0.00    1.2
2018/03/15 11:54:56.000   78.246494173   16.063358994   574.3870   2   8   0.0477   0.0502   0.0837  -0.0194   0.0279  -0.0177   0.00    1.2
2018/03/15 11:54:57.000   78.246494154   16.063359146   574.3878   2   8   0.0476   0.0501   0.0834  -0.0194   0.0279  -0.0177   0.00    1.2
2018/03/15 11:54:58.000   78.246494160   16.063359145   574.3877   2   8   0.0475   0.0501   0.0830  -0.0193   0.0278  -0.0177   0.00    1.2
2018/03/15 11:54:59.000   78.246494179   16.063359051   574.3876   2   8   0.0475   0.0500   0.0827  -0.0193   0.0278  -0.0178   0.00    1.2
2018/03/15 11:55:00.000   78.246494177   16.063358967   574.3900   2   8   0.0474   0.0499   0.0824  -0.0193   0.0277  -0.0178   0.00    1.2
2018/03/15 11:55:01.000   78.246494150   16.063358953   574.3932   2   8   0.0473   0.0498   0.0820  -0.0192   0.0277  -0.0179   0.00    1.2
2018/03/15 11:55:02.000   78.246494130   16.063358897   574.3950   2   8   0.0472   0.0498   0.0817  -0.0192   0.0276  -0.0179   0.00    1.2
2018/03/15 11:55:03.000   78.246494125   16.063358786   574.3990   2   8   0.0471   0.0497   0.0814  -0.0191   0.0276  -0.0179   0.00    1.2
2018/03/15 11:55:04.000   78.246494123   16.063358670   574.4019   2   8   0.0470   0.0496   0.0811  -0.0191   0.0275  -0.0179   0.00    1.2
2018/03/15 11:55:05.000   78.246494117   16.063358610   574.4067   2   8   0.0469   0.0495   0.0807  -0.0191   0.0275  -0.0180   0.00    1.2
2018/03/15 11:55:06.000   78.246494109   16.063358544   574.4110   2   8   0.0468   0.0495   0.0804  -0.0190   0.0274  -0.0180   0.00    1.1
2018/03/15 11:55:07.000   78.246494110   16.063358495   574.4141   2   8   0.0467   0.0494   0.0801  -0.0190   0.0274  -0.0180   0.00    1.1
2018/03/15 11:55:08.000   78.246494116   16.063358388   574.4165   2   8   0.0467   0.0493   0.0798  -0.0190   0.0273  -0.0181   0.00    1.1
2018/03/15 11:55:09.000   78.246494121   16.063358348   574.4169   2   8   0.0466   0.0492   0.0795  -0.0189   0.0273  -0.0181   0.00    1.1
2018/03/15 11:55:10.000   78.246494108   16.063358254   574.4146   2   8   0.0465   0.0492   0.0792  -0.0189   0.0273  -0.0181   0.00    1.1
2018/03/15 11:55:11.000   78.246494074   16.063358185   574.4132   2   8   0.0464   0.0491   0.0788  -0.0189   0.0272  -0.0181   0.00    1.1
2018/03/15 11:55:12.000   78.246494052   16.063358122   574.4124   2   8   0.0463   0.0490   0.0785  -0.0188   0.0272  -0.0182   0.00    1.1
2018/03/15 11:55:13.000   78.246494041   16.063358102   574.4128   2   8   0.0462   0.0489   0.0782  -0.0188   0.0271  -0.0182   0.00    1.1
2018/03/15 11:55:14.000   78.246494049   16.063358119   574.4151   2   8   0.0461   0.0488   0.0779  -0.0188   0.0271  -0.0182   0.00    1.1
2018/03/15 11:55:15.000   78.246494048   16.063358129   574.4162   2   8   0.0460   0.0488   0.0776  -0.0187   0.0270  -0.0182   0.00    1.1
2018/03/15 11:55:16.000   78.246494056   16.063358105   574.4180   2   8   0.0460   0.0487   0.0773  -0.0187   0.0270  -0.0182   0.00    1.1
2018/03/15 11:55:17.000   78.246494070   16.063358101   574.4190   2   8   0.0459   0.0486   0.0770  -0.0186   0.0269  -0.0183   0.00    1.1
2018/03/15 11:55:18.000   78.246494091   16.063358107   574.4207   2   8   0.0458   0.0485   0.0767  -0.0186   0.0269  -0.0183   0.00    1.1
2018/03/15 11:55:19.000   78.246494100   16.063358179   574.4214   2   8   0.0457   0.0485   0.0764  -0.0186   0.0268  -0.0183   0.00    1.1
2018/03/15 11:55:20.000   78.246494107   16.063358180   574.4236   2   8   0.0456   0.0484   0.0761  -0.0185   0.0268  -0.0183   0.00    1.1
2018/03/15 11:55:21.000   78.246494117   16.063358110   574.4256   2   8   0.0455   0.0483   0.0758  -0.0185   0.0267  -0.0183   0.00    1.1
2018/03/15 11:55:22.000   78.246494138   16.063358101   574.4299   2   8   0.0454   0.0482   0.0756  -0.0185   0.0267  -0.0183   0.00    1.1
2018/03/15 11:55:23.000   78.246494156   16.063358065   574.4355   2   8   0.0454   0.0482   0.0753  -0.0184   0.0266  -0.0184   0.00    1.1
2018/03/15 11:55:24.000   78.246494160   16.063358059   574.4391   2   8   0.0453   0.0481   0.0750  -0.0184   0.0266  -0.0184   0.00    1.1
2018/03/15 11:55:25.000   78.246494166   16.063357982   574.4418   2   8   0.0452   0.0480   0.0747  -0.0184   0.0265  -0.0184   0.00    1.1
2018/03/15 11:55:26.000   78.246494183   16.063357822   574.4458   2   8   0.0451   0.0479   0.0744  -0.0183   0.0265  -0.0184   0.00    1.1
2018/03/15 11:55:27.000   78.246494195   16.063357724   574.4521   2   8   0.0450   0.0479   0.0741  -0.0183   0.0264  -0.0184   0.00    1.1
2018/03/15 11:55:28.000   78.246494191   16.063357705   574.4571   2   8   0.0449   0.0478   0.0739  -0.0183   0.0264  -0.0184   0.00    1.1
2018/03/15 11:55:29.000   78.246494179   16.063357696   574.4607   2   8   0.0448   0.0477   0.0736  -0.0182   0.0263  -0.0184   0.00    1.1
2018/03/15 11:55:30.000   78.246494178   16.063357655   574.4629   2   8   0.0448   0.0476   0.0733  -0.0182   0.0263  -0.0184   0.00    1.1
2018/03/15 11:55:31.000   78.246494193   16.063357560   574.4639   2   8   0.0447   0.0476   0.0730  -0.0181   0.0262  -0.0184   0.00    1.0
2018/03/15 11:55:32.000   78.246494209   16.063357469   574.4637   2   8   0.0446   0.0475   0.0728  -0.0181   0.0262  -0.0184   0.00    1.0
2018/03/15 11:55:33.000   78.246494200   16.063357461   574.4649   2   8   0.0445   0.0474   0.0725  -0.0181   0.0261  -0.0185   0.00    1.0
2018/03/15 11:55:34.000   78.246494188   16.063357456   574.4655   2   8   0.0444   0.0473   0.0722  -0.0180   0.0261  -0.0185   0.00    1.0
2018/03/15 11:55:35.000   78.246494176   16.063357397   574.4664   2   8   0.0443   0.0473   0.0719  -0.0180   0.0260  -0.0185   0.00    1.0
2018/03/15 11:55:36.000   78.246494189   16.063357353   574.4676   2   8   0.0442   0.0472   0.0717  -0.0180   0.0260  -0.0185   0.00    1.0
2018/03/15 11:55:37.000   78.246494216   16.063357284   574.4703   2   8   0.0442   0.0471   0.0714  -0.0179   0.0260  -0.0185   0.00    1.0
2018/03/15 11:55:38.000   78.246494256   16.063357197   574.4723   2   8   0.0441   0.0470   0.0711  -0.0179   0.0259  -0.0185   0.00    1.0
2018/03/15 11:55:39.000   78.246494279   16.063357147   574.4736   2   8   0.0440   0.0470   0.0709  -0.0179   0.0259  -0.0185   0.00    1.0
2018/03/15 11:55:40.000   78.246494279   16.063357084   574.4760   2   8   0.0439   0.0469   0.0706  -0.0178   0.0258  -0.0185   0.00    1.0
2018/03/15 11:55:41.000   78.246494274   16.063356999   574.4760   2   8   0.0438   0.0468   0.0704  -0.0178   0.0258  -0.0185   0.00    1.0
2018/03/15 11:55:42.000   78.246494279   16.063356802   574.4782   2   8   0.0437   0.0467   0.0701  -0.0178   0.0257  -0.0185   0.00    1.0
2018/03/15 11:55:43.000   78.246494301   16.063356661   574.4819   2   8   0.0437   0.0467   0.0699  -0.0177   0.0257  -0.0185   0.00    1.0
2018/03/15 11:55:44.000   78.246494310   16.063356579   574.4853   2   8   0.0436   0.0466   0.0696  -0.0177   0.0256  -0.0185   0.00    1.0
2018/03/15 11:55:45.000   78.246494297   16.063356542   574.4874   2   8   0.0435   0.0465   0.0694  -0.0177   0.0256  -0.0185   0.00    1.0
2018/03/15 11:55:46.000   78.246494278   16.063356483   574.4905   2   8   0.0434   0.0464   0.0691  -0.0176   0.0255  -0.0185   0.00    1.0
2018/03/15 11:55:47.000   78.246494285   16.063356443   574.4918   2   8   0.0433   0.0464   0.0689  -0.0176   0.0255  -0.0185   0.00    1.0
2018/03/15 11:55:48.000   78.246494320   16.063356356   574.4939   2   8   0.0432   0.0463   0.0686  -0.0175   0.0254  -0.0185   0.00    1.0
2018/03/15 11:55:49.000   78.246494354   16.063356180   574.4959   2   8   0.0432   0.0462   0.0684  -0.0175   0.0254  -0.0185   0.00    1.0
2018/03/15 11:55:50.000   78.246494352   16.063356132   574.4971   2   8   0.0431   0.0462   0.0681  -0.0175   0.0253  -0.0185   0.00    1.0
2018/03/15 11:55:51.000   78.246494328   16.063356108   574.4986   2   8   0.0430   0.0461   0.0679  -0.0174   0.0253  -0.0185   0.00    1.0
2018/03/15 11:55:52.000   78.246494323   16.063356088   574.4986   2   8   0.0429   0.0460   0.0676  -0.0174   0.0253  -0.0185   0.00    1.0
2018/03/15 11:55:53.000   78.246494324   16.063356079   574.4983   2   8   0.0428   0.0459   0.0674  -0.0174   0.0252  -0.0185   0.00    1.0
2018/03/15 11:55:54.000   78.246494345   16.063356005   574.4970   2   8   0.0428   0.0459   0.0671  -0.0173   0.0252  -0.0185   0.00    1.0
2018/03/15 11:55:55.000   78.246494355   16.063355882   574.4960   2   8   0.0427   0.0458   0.0669  -0.0173   0.0251  -0.0185   0.00    1.1
2018/03/15 11:55:56.000   78.246494357   16.063355842   574.4988   2   8   0.0426   0.0457   0.0667  -0.0173   0.0251  -0.0185   0.00    1.1
2018/03/15 11:55:57.000   78.246494364   16.063355816   574.5028   2   8   0.0425   0.0456   0.0664  -0.0172   0.0250  -0.0184   0.00    1.0
2018/03/15 11:55:58.000   78.246494386   16.063355861   574.5080   2   8   0.0424   0.0456   0.0662  -0.0172   0.0250  -0.0184   0.00    1.0
2018/03/15 11:55:59.000   78.246494403   16.063355839   574.5113   2   8   0.0424   0.0455   0.0660  -0.0172   0.0249  -0.0184   0.00    1.0
2018/03/15 11:56:00.000   78.246494414   16.063355759   574.5130   2   8   0.0423   0.0454   0.0657  -0.0171   0.0249  -0.0184   0.00    1.0
2018/03/15 11:56:01.000   78.246494414   16.063355677   574.5144   2   8   0.0422   0.0454   0.0655  -0.0171   0.0248  -0.0184   0.00    1.0
2018/03/15 11:56:02.000   78.246494427   16.063355686   574.5158   2   8   0.0421   0.0453   0.0653  -0.0171   0.0248  -0.0184   0.00    1.0
2018/03/15 11:56:03.000   78.246494434   16.063355658   574.5163   2   8   0.0420   0.0452   0.0651  -0.0170   0.0247  -0.0184   0.00    1.0
2018/03/15 11:56:04.000   78.246494436   16.063355599   574.5167   2   8   0.0419   0.0451   0.0648  -0.0170   0.0247  -0.0184   0.00    1.0
2018/03/15 11:56:05.000   78.246494455   16.063355556   574.5178   2   8   0.0419   0.0451   0.0646  -0.0170   0.0247  -0.0184   0.00    1.0
2018/03/15 11:56:06.000   78.246494465   16.063355430   574.5189   2   8   0.0418   0.0450   0.0644  -0.0169   0.0246  -0.0184   0.00    1.0
2018/03/15 11:56:07.000   78.246494455   16.063355407   574.5216   2   8   0.0417   0.0449   0.0642  -0.0169   0.0246  -0.0184   0.00    1.1
2018/03/15 11:56:08.000   78.246494449   16.063355419   574.5228   2   8   0.0416   0.0448   0.0639  -0.0169   0.0245  -0.0184   0.00    1.1
2018/03/15 11:56:09.000   78.246494445   16.063355459   574.5228   2   8   0.0416   0.0448   0.0637  -0.0168   0.0245  -0.0184   0.00    1.1
2018/03/15 11:56:10.000   78.246494468   16.063355481   574.5206   2   8   0.0415   0.0447   0.0635  -0.0168   0.0244  -0.0183   0.00    1.1
2018/03/15 11:56:11.000   78.246494511   16.063355410   574.5185   2   8   0.0414   0.0446   0.0633  -0.0168   0.0244  -0.0183   0.00    1.1
2018/03/15 11:56:12.000   78.246494535   16.063355308   574.5171   2   8   0.0413   0.0446   0.0631  -0.0167   0.0243  -0.0183   0.00    1.1
2018/03/15 11:56:13.000   78.246494524   16.063355326   574.5173   2   8   0.0412   0.0445   0.0629  -0.0167   0.0243  -0.0183   0.00    1.1
2018/03/15 11:56:14.000   78.246494516   16.063355391   574.5177   2   8   0.0412   0.0444   0.0626  -0.0166   0.0243  -0.0183   0.00    1.1
2018/03/15 11:56:15.000   78.246494512   16.063355448   574.5176   2   8   0.0411   0.0443   0.0624  -0.0166   0.0242  -0.0183   0.00    1.1
2018/03/15 11:56:16.000   78.246494536   16.063355431   574.5156   2   8   0.0410   0.0443   0.0622  -0.0166   0.0242  -0.0183   0.00    1.1
2018/03/15 11:56:17.000   78.246494583   16.063355375   574.5137   2   8   0.0409   0.0442   0.0620  -0.0165   0.0241  -0.0183   0.00    1.1
2018/03/15 11:56:18.000   78.246494599   16.063355327   574.5140   2   8   0.0408   0.0441   0.0618  -0.0165   0.0241  -0.0183   0.00    1.1
2018/03/15 11:56:19.000   78.246494601   16.063355277   574.5149   2   8   0.0408   0.0441   0.0616  -0.0165   0.0240  -0.0182   0.00    1.1
2018/03/15 11:56:20.000   78.246494596   16.063355206   574.5173   2   8   0.0407   0.0440   0.0614  -0.0164   0.0240  -0.0182   0.00    1.1
2018/03/15 11:56:21.000   78.246494603   16.063355172   574.5205   2   8   0.0406   0.0439   0.0612  -0.0164   0.0239  -0.0182   0.00    1.1
2018/03/15 11:56:22.000   78.246494614   16.063355168   574.5235   2   8   0.0405   0.0439   0.0610  -0.0164   0.0239  -0.0182   0.00    1.1
2018/03/15 11:56:23.000   78.246494629   16.063355149   574.5229   2   8   0.0405   0.0438   0.0608  -0.0163   0.0239  -0.0182   0.00    1.1
2018/03/15 11:56:24.000   78.246494639   16.063355022   574.5205   2   8   0.0404   0.0437   0.0606  -0.0163   0.0238  -0.0182   0.00    1.1
2018/03/15 11:56:25.000   78.246494662   16.063354885   574.5205   2   8   0.0403   0.0436   0.0604  -0.0163   0.0238  -0.0182   0.00    1.1
2018/03/15 11:56:26.000   78.246494677   16.063354822   574.5222   2   8   0.0402   0.0436   0.0602  -0.0162   0.0237  -0.0182   0.00    1.1
2018/03/15 11:56:27.000   78.246494683   16.063354790   574.5244   2   8   0.0402   0.0435   0.0600  -0.0162   0.0237  -0.0181   0.00    1.1
2018/03/15 11:56:28.000   78.246494684   16.063354776   574.5258   2   8   0.0401   0.0434   0.0598  -0.0162   0.0236  -0.0181   0.00    1.1
2018/03/15 11:56:29.000   78.246494681   16.063354703   574.5256   2   8   0.0400   0.0434   0.0596  -0.0161   0.0236  -0.0181   0.00    1.1
2018/03/15 11:56:30.000   78.246494678   16.063354603   574.5248   2   8   0.0399   0.0433   0.0594  -0.0161   0.0235  -0.0181   0.00    1.1
2018/03/15 11:56:31.000   78.246494687   16.063354525   574.5238   2   8   0.0399   0.0432   0.0592  -0.0161   0.0235  -0.0181   0.00    1.1
2018/03/15 11:56:32.000   78.246494700   16.063354509   574.5235   2   8   0.0398   0.0431   0.0590  -0.0160   0.0235  -0.0181   0.00    1.1
2018/03/15 11:56:33.000   78.246494706   16.063354501   574.5243   2   8   0.0397   0.0431   0.0588  -0.0160   0.0234  -0.0180   0.00    1.1
2018/03/15 11:56:34.000   78.246494705   16.063354524   574.5254   2   8   0.0396   0.0430   0.0586  -0.0160   0.0234  -0.0180   0.00    1.1
2018/03/15 11:56:35.000   78.246494708   16.063354531   574.5256   2   8   0.0395   0.0429   0.0584  -0.0159   0.0233  -0.0180   0.00    1.1
2018/03/15 11:56:36.000   78.246494727   16.063354458   574.5258   2   8   0.0395   0.0429   0.0582  -0.0159   0.0233  -0.0180   0.00    1.1
2018/03/15 11:56:37.000   78.246494733   16.063354440   574.5249   2   8   0.0394   0.0428   0.0581  -0.0159   0.0232  -0.0180   0.00    1.1
2018/03/15 11:56:38.000   78.246494732   16.063354475   574.5246   2   8   0.0393   0.0427   0.0579  -0.0158   0.0232  -0.0180   0.00    1.1
2018/03/15 11:56:39.000   78.246494737   16.063354506   574.5232   2   8   0.0393   0.0427   0.0577  -0.0158   0.0232  -0.0180   0.00    1.1
2018/03/15 11:56:40.000   78.246494749   16.063354482   574.5242   2   8   0.0392   0.0426   0.0575  -0.0158   0.0231  -0.0179   0.00    1.1
2018/03/15 11:56:41.000   78.246494782   16.063354403   574.5260   2   8   0.0391   0.0425   0.0573  -0.0157   0.0231  -0.0179   0.00    1.1
2018/03/15 11:56:42.000   78.246494801   16.063354386   574.5308   2   8   0.0390   0.0425   0.0571  -0.0157   0.0230  -0.0179   0.00    1.1
2018/03/15 11:56:43.000   78.246494793   16.063354443   574.5335   2   8   0.0390   0.0424   0.0570  -0.0157   0.0230  -0.0179   0.00    1.1
2018/03/15 11:56:44.000   78.246494777   16.063354448   574.5359   2   8   0.0389   0.0423   0.0568  -0.0157   0.0229  -0.0179   0.00    1.1
2018/03/15 11:56:45.000   78.246494768   16.063354410   574.5372   2   8   0.0388   0.0423   0.0566  -0.0156   0.0229  -0.0178   0.00    1.1
2018/03/15 11:56:46.000   78.246494783   16.063354366   574.5367   2   8   0.0387   0.0422   0.0564  -0.0156   0.0229  -0.0178   0.00    1.1
2018/03/15 11:56:47.000   78.246494801   16.063354293   574.5369   2   8   0.0387   0.0421   0.0562  -0.0156   0.0228  -0.0178   0.00    1.1
2018/03/15 11:56:48.000   78.246494805   16.063354275   574.5370   2   8   0.0386   0.0420   0.0561  -0.0155   0.0228  -0.0178   0.00    1.1
2018/03/15 11:56:49.000   78.246494803   16.063354226   574.5375   2   8   0.0385   0.0420   0.0559  -0.0155   0.0227  -0.0178   0.00    1.1
2018/03/15 11:56:50.000   78.246494802   16.063354220   574.5377   2   8   0.0384   0.0419   0.0557  -0.0155   0.0227  -0.0178   0.00    1.1
2018/03/15 11:56:51.000   78.246494811   16.063354179   574.5383   2   8   0.0384   0.0418   0.0555  -0.0154   0.0226  -0.0177   0.00    1.1
2018/03/15 11:56:52.000   78.246494827   16.063354158   574.5376   2   8   0.0383   0.0418   0.0554  -0.0154   0.0226  -0.0177   0.00    1.1
2018/03/15 11:56:53.000   78.246494835   16.063354098   574.5380   2   8   0.0382   0.0417   0.0552  -0.0154   0.0226  -0.0177   0.00    1.1
