% program   : RTKPOST ver.2.4.2
% inp file  : Z:\home\linda\Documents\Spring18\GitHub_Unis\data\processed_data\46250748.obs
% inp file  : Z:\home\linda\Documents\Spring18\GitHub_Unis\data\base_station_data\lyrs0740.18o
% inp file  : Z:\home\linda\Documents\Spring18\GitHub_Unis\data\processed_data\46250748.nav
% obs start : 2018/03/15 09:50:11.0 GPST (week1992 381011.0s)
% obs end   : 2018/03/15 10:05:16.0 GPST (week1992 381916.0s)
% pos mode  : static
% freqs     : L1+L2
% solution  : forward
% elev mask : 15.0 deg
% dynamics  : on
% tidecorr  : off
% ionos opt : iono-free
% tropo opt : saastamoinen
% ephemeris : broadcast
% navi sys  : gps glonass galileo qzss sbas
% amb res   : fix and hold
% amb glo   : on
% val thres : 3.0
% antenna1  :                       ( 0.0000  0.0000  0.0000)
% antenna2  :                       ( 0.0000  0.0000  0.0000)
% ref pos   : 78.228825638   15.397310064   495.6816
%
% (lat/lon/height=WGS84/ellipsoidal,Q=1:fix,2:float,3:sbas,4:dgps,5:single,6:ppp,ns=# of satellites)
%  GPST                  latitude(deg) longitude(deg)  height(m)   Q  ns   sdn(m)   sde(m)   sdu(m)  sdne(m)  sdeu(m)  sdun(m) age(s)  ratio
2018/03/15 09:50:11.000   78.247145923   16.013722332   439.3991   2   9   1.2920   0.7720   4.3442   0.4325   0.7739   1.6902   0.00    1.3
2018/03/15 09:50:12.000   78.247142464   16.013704231   436.7195   2   9   0.9158   0.5464   3.0891   0.3069   0.5505   1.2025   0.00    1.5
2018/03/15 09:50:13.000   78.247145908   16.013701761   437.1563   2   9   0.7482   0.4462   2.5257   0.2508   0.4502   0.9834   0.00    1.3
2018/03/15 09:50:14.000   78.247146801   16.013714249   438.4888   2   9   0.6481   0.3865   2.1875   0.2172   0.3899   0.8518   0.00    1.4
2018/03/15 09:50:15.000   78.247144666   16.013723435   438.1973   2   9   0.5796   0.3457   1.9554   0.1942   0.3486   0.7615   0.00    1.5
2018/03/15 09:50:16.000   78.247142633   16.013717859   438.3959   2   9   0.5289   0.3155   1.7831   0.1772   0.3179   0.6944   0.00    1.6
2018/03/15 09:50:17.000   78.247143855   16.013712764   439.1939   2   9   0.4894   0.2921   1.6485   0.1639   0.2939   0.6420   0.00    1.5
2018/03/15 09:50:18.000   78.247144905   16.013711399   439.0521   2   9   0.4576   0.2732   1.5392   0.1532   0.2744   0.5994   0.00    1.5
2018/03/15 09:50:19.000   78.247144903   16.013706451   438.8921   2   9   0.4311   0.2575   1.4481   0.1442   0.2581   0.5639   0.00    1.4
2018/03/15 09:50:20.000   78.247144799   16.013706300   438.6568   2   9   0.4086   0.2443   1.3705   0.1366   0.2442   0.5337   0.00    1.4
2018/03/15 09:50:21.000   78.247145926   16.013709857   438.7297   2   9   0.3893   0.2328   1.3032   0.1301   0.2322   0.5074   0.00    1.4
2018/03/15 09:50:22.000   78.247146215   16.013710902   438.9667   2   9   0.3723   0.2229   1.2440   0.1243   0.2216   0.4844   0.00    1.3
2018/03/15 09:50:23.000   78.247146147   16.013712557   438.9049   2   9   0.3573   0.2141   1.1914   0.1192   0.2122   0.4638   0.00    1.3
2018/03/15 09:50:24.000   78.247145792   16.013711172   438.8986   2   9   0.3439   0.2062   1.1440   0.1146   0.2037   0.4453   0.00    1.3
2018/03/15 09:50:25.000   78.247145247   16.013710311   438.9138   2   9   0.3318   0.1992   1.1011   0.1105   0.1961   0.4286   0.00    1.3
2018/03/15 09:50:26.000   78.247144136   16.013710884   438.7501   2   9   0.3209   0.1928   1.0619   0.1067   0.1890   0.4133   0.00    1.3
2018/03/15 09:50:27.000   78.247143726   16.013709581   438.5168   2   9   0.3108   0.1870   1.0259   0.1033   0.1826   0.3992   0.00    1.3
2018/03/15 09:50:28.000   78.247143695   16.013709556   438.4491   2   9   0.3016   0.1816   0.9926   0.1001   0.1766   0.3862   0.00    1.2
2018/03/15 09:50:29.000   78.247142264   16.013708209   438.1188   2   9   0.2931   0.1767   0.9616   0.0972   0.1710   0.3740   0.00    1.2
2018/03/15 09:50:30.000   78.247141767   16.013707149   437.8088   2   9   0.2852   0.1722   0.9327   0.0945   0.1658   0.3627   0.00    1.2
2018/03/15 09:50:31.000   78.247141788   16.013706573   437.8073   2   9   0.2779   0.1679   0.9056   0.0919   0.1609   0.3521   0.00    1.2
2018/03/15 09:50:32.000   78.247141747   16.013705437   437.9410   2   9   0.2710   0.1640   0.8801   0.0895   0.1563   0.3422   0.00    1.2
2018/03/15 09:50:33.000   78.247141133   16.013704858   437.9368   2   9   0.2646   0.1603   0.8561   0.0873   0.1520   0.3327   0.00    1.2
2018/03/15 09:50:34.000   78.247141059   16.013704479   438.1125   2   9   0.2585   0.1569   0.8333   0.0852   0.1479   0.3238   0.00    1.2
2018/03/15 09:50:35.000   78.247140938   16.013704498   438.3718   2   9   0.2528   0.1536   0.8118   0.0832   0.1440   0.3154   0.00    1.1
2018/03/15 09:50:36.000   78.247140767   16.013703930   438.4410   2   9   0.2474   0.1506   0.7912   0.0813   0.1403   0.3073   0.00    1.1
2018/03/15 09:50:37.000   78.247140517   16.013701983   438.4410   2   9   0.2423   0.1477   0.7717   0.0795   0.1367   0.2996   0.00    1.1
2018/03/15 09:50:38.000   78.247139775   16.013699591   438.4179   2   9   0.2374   0.1449   0.7530   0.0778   0.1334   0.2923   0.00    1.1
2018/03/15 09:50:39.000   78.247139564   16.013699609   438.3730   2   9   0.2328   0.1423   0.7351   0.0761   0.1301   0.2853   0.00    1.1
2018/03/15 09:50:40.000   78.247138917   16.013699619   438.2938   2   9   0.2284   0.1399   0.7180   0.0746   0.1270   0.2786   0.00    1.1
2018/03/15 09:50:41.000   78.247138648   16.013698551   438.2696   2   9   0.2242   0.1375   0.7016   0.0731   0.1240   0.2721   0.00    1.0
2018/03/15 09:50:42.000   78.247138351   16.013699391   438.2792   2   9   0.2201   0.1353   0.6858   0.0717   0.1212   0.2659   0.00    1.0
2018/03/15 09:50:43.000   78.247137886   16.013700230   438.2033   2   9   0.2163   0.1331   0.6707   0.0703   0.1184   0.2600   0.00    1.0
2018/03/15 09:50:44.000   78.247137111   16.013699272   438.1114   2   9   0.2126   0.1310   0.6561   0.0690   0.1158   0.2542   0.00    1.0
2018/03/15 09:50:45.000   78.247136238   16.013699823   438.0505   2   9   0.2090   0.1291   0.6420   0.0677   0.1132   0.2487   0.00    1.0
2018/03/15 09:50:46.000   78.247135799   16.013699038   438.0558   2   9   0.2056   0.1272   0.6284   0.0665   0.1107   0.2433   0.00    1.0
2018/03/15 09:50:47.000   78.247135445   16.013698582   438.0128   2   9   0.2024   0.1254   0.6153   0.0653   0.1083   0.2381   0.00    1.1
2018/03/15 09:50:48.000   78.247135178   16.013697897   437.8751   2   9   0.1992   0.1236   0.6026   0.0642   0.1060   0.2332   0.00    1.1
2018/03/15 09:50:49.000   78.247135444   16.013697457   437.8726   2   9   0.1961   0.1219   0.5904   0.0631   0.1038   0.2283   0.00    1.1
2018/03/15 09:50:50.000   78.247135605   16.013697872   437.8883   2   9   0.1932   0.1203   0.5785   0.0620   0.1016   0.2236   0.00    1.1
2018/03/15 09:50:51.000   78.247135800   16.013697134   437.8596   2   9   0.1904   0.1188   0.5670   0.0610   0.0995   0.2191   0.00    1.1
2018/03/15 09:50:52.000   78.247136045   16.013695509   437.9616   2   9   0.1876   0.1173   0.5559   0.0600   0.0975   0.2147   0.00    1.1
2018/03/15 09:50:53.000   78.247136304   16.013694508   437.9885   2   9   0.1850   0.1158   0.5451   0.0591   0.0955   0.2105   0.00    1.1
2018/03/15 09:50:54.000   78.247136415   16.013696298   437.9039   2   9   0.1824   0.1144   0.5346   0.0582   0.0936   0.2063   0.00    1.1
2018/03/15 09:50:55.000   78.247136324   16.013697029   437.8637   2   9   0.1799   0.1130   0.5245   0.0573   0.0917   0.2023   0.00    1.1
2018/03/15 09:50:56.000   78.247136336   16.013698587   437.8053   2   9   0.1775   0.1117   0.5146   0.0564   0.0899   0.1984   0.00    1.1
2018/03/15 09:50:57.000   78.247136477   16.013698879   437.7121   2   9   0.1751   0.1104   0.5051   0.0556   0.0881   0.1946   0.00    1.1
2018/03/15 09:50:58.000   78.247136320   16.013699101   437.5837   2   9   0.1729   0.1092   0.4957   0.0548   0.0864   0.1909   0.00    1.1
2018/03/15 09:50:59.000   78.247136217   16.013698920   437.5434   2   9   0.1707   0.1080   0.4867   0.0540   0.0847   0.1874   0.00    1.1
2018/03/15 09:51:00.000   78.247136063   16.013699998   437.4802   2   9   0.1685   0.1068   0.4779   0.0532   0.0831   0.1839   0.00    1.1
2018/03/15 09:51:01.000   78.247136097   16.013699682   437.4802   2   9   0.1664   0.1057   0.4694   0.0525   0.0816   0.1805   0.00    1.1
2018/03/15 09:51:02.000   78.247136091   16.013698806   437.5437   2   9   0.1644   0.1046   0.4611   0.0517   0.0800   0.1772   0.00    1.1
2018/03/15 09:51:03.000   78.247136212   16.013698283   437.6062   2   9   0.1624   0.1035   0.4530   0.0510   0.0785   0.1740   0.00    1.1
2018/03/15 09:51:04.000   78.247136685   16.013698768   437.7725   2   9   0.1605   0.1024   0.4451   0.0503   0.0771   0.1709   0.00    1.1
2018/03/15 09:51:05.000   78.247136980   16.013698273   437.9210   2   9   0.1586   0.1014   0.4374   0.0497   0.0757   0.1678   0.00    1.1
2018/03/15 09:51:06.000   78.247137277   16.013698670   438.0532   2   9   0.1568   0.1004   0.4299   0.0490   0.0743   0.1649   0.00    1.1
2018/03/15 09:51:07.000   78.247137564   16.013698568   438.2264   2   9   0.1550   0.0995   0.4227   0.0484   0.0729   0.1620   0.00    1.1
2018/03/15 09:51:08.000   78.247137880   16.013698062   438.3709   2   9   0.1533   0.0985   0.4156   0.0478   0.0716   0.1592   0.00    1.1
2018/03/15 09:51:09.000   78.247137980   16.013697602   438.5099   2   9   0.1516   0.0976   0.4087   0.0472   0.0703   0.1564   0.00    1.1
2018/03/15 09:51:10.000   78.247138214   16.013697667   438.6253   2   9   0.1499   0.0967   0.4019   0.0466   0.0691   0.1538   0.00    1.1
2018/03/15 09:51:11.000   78.247138368   16.013697333   438.7603   2   9   0.1483   0.0958   0.3954   0.0460   0.0679   0.1512   0.00    1.1
2018/03/15 09:51:12.000   78.247138427   16.013697192   438.8008   2   9   0.1467   0.0949   0.3889   0.0454   0.0667   0.1486   0.00    1.1
2018/03/15 09:51:13.000   78.247138393   16.013697172   438.8390   2   9   0.1452   0.0941   0.3827   0.0449   0.0655   0.1461   0.00    1.1
2018/03/15 09:51:14.000   78.247138405   16.013696796   438.8801   2   9   0.1437   0.0933   0.3766   0.0444   0.0644   0.1437   0.00    1.1
2018/03/15 09:51:15.000   78.247138366   16.013697626   438.9670   2   9   0.1422   0.0925   0.3706   0.0438   0.0633   0.1413   0.00    1.1
2018/03/15 09:51:16.000   78.247138215   16.013698371   439.0366   2   9   0.1408   0.0917   0.3648   0.0433   0.0622   0.1390   0.00    1.1
2018/03/15 09:51:17.000   78.247138140   16.013698955   439.1274   2   9   0.1394   0.0909   0.3592   0.0428   0.0611   0.1368   0.00    1.1
2018/03/15 09:51:18.000   78.247138177   16.013698601   439.2446   2   9   0.1380   0.0902   0.3536   0.0423   0.0601   0.1346   0.00    1.1
2018/03/15 09:51:19.000   78.247138260   16.013698680   439.3308   2   9   0.1366   0.0894   0.3482   0.0419   0.0591   0.1324   0.00    1.1
2018/03/15 09:51:20.000   78.247138454   16.013699331   439.4579   2   9   0.1353   0.0887   0.3430   0.0414   0.0581   0.1303   0.00    1.1
2018/03/15 09:51:21.000   78.247138569   16.013700079   439.5541   2   9   0.1340   0.0880   0.3378   0.0410   0.0572   0.1283   0.00    1.1
2018/03/15 09:51:22.000   78.247138640   16.013700813   439.6400   2   9   0.1327   0.0873   0.3328   0.0405   0.0562   0.1263   0.00    1.1
2018/03/15 09:51:23.000   78.247138626   16.013701673   439.6690   2   9   0.1315   0.0866   0.3279   0.0401   0.0553   0.1243   0.00    1.1
2018/03/15 09:51:24.000   78.247138651   16.013701767   439.7315   2   9   0.1303   0.0859   0.3230   0.0397   0.0544   0.1224   0.00    1.0
2018/03/15 09:51:25.000   78.247138499   16.013701637   439.7422   2   9   0.1291   0.0853   0.3183   0.0392   0.0535   0.1205   0.00    1.0
2018/03/15 09:51:26.000   78.247138237   16.013701231   439.7048   2   9   0.1279   0.0846   0.3138   0.0388   0.0527   0.1187   0.00    1.0
2018/03/15 09:51:27.000   78.247137888   16.013701582   439.6514   2   9   0.1267   0.0840   0.3093   0.0384   0.0518   0.1169   0.00    1.0
2018/03/15 09:51:28.000   78.247137444   16.013701553   439.5729   2   9   0.1256   0.0834   0.3049   0.0380   0.0510   0.1152   0.00    1.0
2018/03/15 09:51:29.000   78.247137081   16.013702262   439.5110   2   9   0.1245   0.0827   0.3006   0.0377   0.0502   0.1135   0.00    1.0
2018/03/15 09:51:30.000   78.247136866   16.013702784   439.4863   2   9   0.1234   0.0821   0.2964   0.0373   0.0494   0.1118   0.00    1.0
2018/03/15 09:51:31.000   78.247136865   16.013703245   439.5329   2   9   0.1223   0.0816   0.2923   0.0369   0.0487   0.1101   0.00    1.0
2018/03/15 09:51:32.000   78.247136959   16.013703118   439.5784   2   9   0.1213   0.0810   0.2882   0.0366   0.0479   0.1085   0.00    1.0
2018/03/15 09:51:33.000   78.247137176   16.013703293   439.6537   2   9   0.1202   0.0804   0.2843   0.0362   0.0472   0.1070   0.00    1.0
2018/03/15 09:51:34.000   78.247137448   16.013703019   439.7361   2   9   0.1192   0.0798   0.2805   0.0359   0.0464   0.1054   0.00    1.0
2018/03/15 09:51:35.000   78.247137594   16.013703064   439.8081   2   9   0.1182   0.0793   0.2767   0.0355   0.0457   0.1039   0.00    1.0
2018/03/15 09:51:36.000   78.247137751   16.013703101   439.8765   2   9   0.1172   0.0787   0.2730   0.0352   0.0450   0.1025   0.00    1.0
2018/03/15 09:51:37.000   78.247137874   16.013702991   439.8809   2   9   0.1163   0.0782   0.2694   0.0349   0.0444   0.1010   0.00    1.0
2018/03/15 09:51:38.000   78.247137956   16.013702859   439.8759   2   9   0.1153   0.0777   0.2659   0.0345   0.0437   0.0996   0.00    1.1
2018/03/15 09:51:39.000   78.247138076   16.013702410   439.8787   2   9   0.1144   0.0771   0.2624   0.0342   0.0430   0.0982   0.00    1.1
2018/03/15 09:51:40.000   78.247138037   16.013702156   439.8658   2   9   0.1135   0.0766   0.2590   0.0339   0.0424   0.0969   0.00    1.1
2018/03/15 09:51:41.000   78.247138034   16.013702700   439.8539   2   9   0.1126   0.0761   0.2557   0.0336   0.0418   0.0956   0.00    1.1
2018/03/15 09:51:42.000   78.247137978   16.013702810   439.8218   2   9   0.1117   0.0756   0.2524   0.0333   0.0412   0.0943   0.00    1.1
2018/03/15 09:51:43.000   78.247138008   16.013703111   439.8307   2   9   0.1108   0.0751   0.2492   0.0330   0.0406   0.0930   0.00    1.1
2018/03/15 09:51:44.000   78.247138180   16.013703536   439.8484   2   9   0.1099   0.0747   0.2461   0.0327   0.0400   0.0917   0.00    1.1
2018/03/15 09:51:45.000   78.247138435   16.013703352   439.8831   2   9   0.1091   0.0742   0.2431   0.0325   0.0394   0.0905   0.00    1.1
2018/03/15 09:51:46.000   78.247138781   16.013703561   439.9171   2   9   0.1083   0.0737   0.2401   0.0322   0.0388   0.0893   0.00    1.1
2018/03/15 09:51:47.000   78.247139174   16.013703993   439.9806   2   9   0.1074   0.0733   0.2371   0.0319   0.0383   0.0881   0.00    1.1
2018/03/15 09:51:48.000   78.247139560   16.013704102   440.0391   2   9   0.1066   0.0728   0.2342   0.0317   0.0377   0.0870   0.00    1.1
2018/03/15 09:51:49.000   78.247139896   16.013704244   440.0801   2   9   0.1058   0.0724   0.2314   0.0314   0.0372   0.0859   0.00    1.1
2018/03/15 09:51:50.000   78.247140219   16.013704422   440.1090   2   9   0.1050   0.0719   0.2286   0.0311   0.0367   0.0847   0.00    1.2
2018/03/15 09:51:51.000   78.247140371   16.013704342   440.1375   2   9   0.1043   0.0715   0.2259   0.0309   0.0362   0.0837   0.00    1.2
2018/03/15 09:51:52.000   78.247140553   16.013704759   440.1470   2   9   0.1035   0.0710   0.2232   0.0306   0.0356   0.0826   0.00    1.2
2018/03/15 09:51:53.000   78.247140656   16.013704842   440.1560   2   9   0.1027   0.0706   0.2206   0.0304   0.0352   0.0815   0.00    1.2
2018/03/15 09:51:54.000   78.247140611   16.013705048   440.1427   2   9   0.1020   0.0702   0.2181   0.0301   0.0347   0.0805   0.00    1.2
2018/03/15 09:51:55.000   78.247140561   16.013705291   440.1271   2   9   0.1013   0.0698   0.2155   0.0299   0.0342   0.0795   0.00    1.2
2018/03/15 09:51:56.000   78.247140520   16.013705424   440.1058   2   9   0.1005   0.0694   0.2131   0.0297   0.0337   0.0785   0.00    1.2
2018/03/15 09:51:57.000   78.247140481   16.013705586   440.0972   2   9   0.0998   0.0690   0.2106   0.0294   0.0333   0.0776   0.00    1.2
2018/03/15 09:51:58.000   78.247140525   16.013705893   440.1273   2   9   0.0991   0.0686   0.2083   0.0292   0.0328   0.0766   0.00    1.2
2018/03/15 09:51:59.000   78.247140700   16.013706366   440.1794   2   9   0.0984   0.0682   0.2059   0.0290   0.0324   0.0757   0.00    1.2
2018/03/15 09:52:00.000   78.247140873   16.013706747   440.2402   2   9   0.0977   0.0678   0.2036   0.0288   0.0319   0.0748   0.00    1.2
2018/03/15 09:52:01.000   78.247141032   16.013706915   440.3185   2   9   0.0971   0.0674   0.2014   0.0286   0.0315   0.0739   0.00    1.2
2018/03/15 09:52:02.000   78.247141125   16.013707104   440.3748   2   9   0.0964   0.0670   0.1992   0.0283   0.0311   0.0730   0.00    1.2
2018/03/15 09:52:03.000   78.247141249   16.013707126   440.4032   2   9   0.0957   0.0666   0.1970   0.0281   0.0307   0.0721   0.00    1.2
2018/03/15 09:52:04.000   78.247141301   16.013706977   440.4229   2   9   0.0951   0.0663   0.1949   0.0279   0.0303   0.0712   0.00    1.2
2018/03/15 09:52:05.000   78.247141353   16.013706760   440.4144   2   9   0.0945   0.0659   0.1928   0.0277   0.0299   0.0704   0.00    1.2
2018/03/15 09:52:06.000   78.247141354   16.013707229   440.4022   2   9   0.0938   0.0655   0.1907   0.0275   0.0295   0.0696   0.00    1.2
2018/03/15 09:52:07.000   78.247141299   16.013707497   440.3828   2   9   0.0932   0.0652   0.1887   0.0273   0.0291   0.0688   0.00    1.2
2018/03/15 09:52:08.000   78.247141251   16.013707808   440.3575   2   9   0.0926   0.0648   0.1867   0.0271   0.0287   0.0680   0.00    1.2
2018/03/15 09:52:09.000   78.247141128   16.013708093   440.3334   2   9   0.0920   0.0645   0.1848   0.0269   0.0283   0.0672   0.00    1.2
2018/03/15 09:52:10.000   78.247141026   16.013708131   440.3172   2   9   0.0914   0.0641   0.1828   0.0268   0.0280   0.0664   0.00    1.2
2018/03/15 09:52:11.000   78.247140851   16.013708040   440.3052   2   9   0.0908   0.0638   0.1810   0.0266   0.0276   0.0657   0.00    1.2
2018/03/15 09:52:12.000   78.247140767   16.013707968   440.3011   2   9   0.0902   0.0634   0.1791   0.0264   0.0272   0.0649   0.00    1.2
2018/03/15 09:52:13.000   78.247140795   16.013707665   440.3063   2   9   0.0896   0.0631   0.1773   0.0262   0.0269   0.0642   0.00    1.2
2018/03/15 09:52:14.000   78.247140773   16.013707454   440.3198   2   9   0.0890   0.0628   0.1755   0.0260   0.0266   0.0635   0.00    1.2
2018/03/15 09:52:15.000   78.247140708   16.013707439   440.3434   2   9   0.0885   0.0624   0.1737   0.0259   0.0262   0.0628   0.00    1.2
2018/03/15 09:52:16.000   78.247140726   16.013707235   440.3570   2   9   0.0879   0.0621   0.1720   0.0257   0.0259   0.0621   0.00    1.2
2018/03/15 09:52:17.000   78.247140768   16.013707049   440.3756   2   9   0.0874   0.0618   0.1703   0.0255   0.0256   0.0614   0.00    1.2
2018/03/15 09:52:18.000   78.247140887   16.013706916   440.3957   2   9   0.0868   0.0615   0.1686   0.0253   0.0252   0.0608   0.00    1.2
2018/03/15 09:52:19.000   78.247140996   16.013706948   440.4031   2   9   0.0863   0.0612   0.1670   0.0252   0.0249   0.0601   0.00    1.2
2018/03/15 09:52:20.000   78.247141075   16.013706799   440.4132   2   9   0.0857   0.0609   0.1654   0.0250   0.0246   0.0595   0.00    1.2
2018/03/15 09:52:21.000   78.247141072   16.013706609   440.4125   2   9   0.0852   0.0606   0.1638   0.0249   0.0243   0.0588   0.00    1.2
2018/03/15 09:52:22.000   78.247141073   16.013706497   440.4095   2   9   0.0847   0.0602   0.1622   0.0247   0.0240   0.0582   0.00    1.2
2018/03/15 09:52:23.000   78.247140990   16.013706553   440.3990   2   9   0.0842   0.0599   0.1607   0.0245   0.0237   0.0576   0.00    1.2
2018/03/15 09:52:24.000   78.247140927   16.013706758   440.3890   2   9   0.0837   0.0597   0.1592   0.0244   0.0234   0.0570   0.00    1.2
2018/03/15 09:52:25.000   78.247140849   16.013706645   440.3787   2   9   0.0832   0.0594   0.1577   0.0242   0.0231   0.0564   0.00    1.2
2018/03/15 09:52:26.000   78.247140820   16.013707020   440.3736   2   9   0.0827   0.0591   0.1562   0.0241   0.0229   0.0558   0.00    1.2
2018/03/15 09:52:27.000   78.247140795   16.013707008   440.3678   2   9   0.0822   0.0588   0.1548   0.0239   0.0226   0.0552   0.00    1.2
2018/03/15 09:52:28.000   78.247140813   16.013707145   440.3695   2   9   0.0817   0.0585   0.1533   0.0238   0.0223   0.0546   0.00    1.2
2018/03/15 09:52:29.000   78.247140895   16.013707198   440.3820   2   9   0.0812   0.0582   0.1519   0.0236   0.0220   0.0541   0.00    1.2
2018/03/15 09:52:30.000   78.247140984   16.013707115   440.4025   2   9   0.0807   0.0579   0.1506   0.0235   0.0218   0.0535   0.00    1.2
2018/03/15 09:52:31.000   78.247141190   16.013707107   440.4309   2   9   0.0802   0.0576   0.1492   0.0234   0.0215   0.0530   0.00    1.2
2018/03/15 09:52:32.000   78.247141410   16.013707220   440.4643   2   9   0.0798   0.0574   0.1479   0.0232   0.0212   0.0525   0.00    1.2
2018/03/15 09:52:33.000   78.247141589   16.013707388   440.4771   2   9   0.0793   0.0571   0.1465   0.0231   0.0210   0.0519   0.00    1.3
2018/03/15 09:52:34.000   78.247141668   16.013707328   440.4860   2   9   0.0789   0.0568   0.1453   0.0229   0.0207   0.0514   0.00    1.3
2018/03/15 09:52:35.000   78.247141747   16.013707207   440.4816   2   9   0.0784   0.0566   0.1440   0.0228   0.0205   0.0509   0.00    1.3
2018/03/15 09:52:36.000   78.247141747   16.013707056   440.4720   2   9   0.0780   0.0563   0.1427   0.0227   0.0203   0.0504   0.00    1.3
2018/03/15 09:52:37.000   78.247141730   16.013707125   440.4566   2   9   0.0775   0.0560   0.1415   0.0225   0.0200   0.0499   0.00    1.3
2018/03/15 09:52:38.000   78.247141670   16.013707028   440.4401   2   9   0.0771   0.0558   0.1403   0.0224   0.0198   0.0494   0.00    1.3
2018/03/15 09:52:39.000   78.247141620   16.013706881   440.4313   2   9   0.0767   0.0555   0.1391   0.0223   0.0195   0.0489   0.00    1.3
2018/03/15 09:52:40.000   78.247141579   16.013706772   440.4192   2   9   0.0762   0.0553   0.1379   0.0222   0.0193   0.0485   0.00    1.3
2018/03/15 09:52:41.000   78.247141557   16.013706924   440.4182   2   9   0.0758   0.0550   0.1367   0.0220   0.0191   0.0480   0.00    1.3
2018/03/15 09:52:42.000   78.247141532   16.013706813   440.4194   2   9   0.0754   0.0548   0.1356   0.0219   0.0189   0.0475   0.00    1.3
2018/03/15 09:52:43.000   78.247141596   16.013706799   440.4134   2   9   0.0750   0.0545   0.1344   0.0218   0.0186   0.0471   0.00    1.3
2018/03/15 09:52:44.000   78.247141721   16.013706861   440.4137   2   9   0.0746   0.0543   0.1333   0.0217   0.0184   0.0466   0.00    1.3
2018/03/15 09:52:45.000   78.247141881   16.013707072   440.4123   2   9   0.0741   0.0540   0.1322   0.0215   0.0182   0.0462   0.00    1.3
2018/03/15 09:52:46.000   78.247141987   16.013706988   440.4234   2   9   0.0737   0.0538   0.1311   0.0214   0.0180   0.0458   0.00    1.3
2018/03/15 09:52:47.000   78.247142106   16.013707223   440.4435   2   9   0.0733   0.0535   0.1301   0.0213   0.0178   0.0453   0.00    1.3
2018/03/15 09:52:48.000   78.247142124   16.013707276   440.4655   2   9   0.0729   0.0533   0.1290   0.0212   0.0176   0.0449   0.00    1.3
2018/03/15 09:52:49.000   78.247142126   16.013707365   440.4761   2   9   0.0726   0.0531   0.1280   0.0211   0.0174   0.0445   0.00    1.3
2018/03/15 09:52:50.000   78.247142161   16.013707340   440.4741   2   9   0.0722   0.0528   0.1270   0.0210   0.0172   0.0441   0.00    1.3
2018/03/15 09:52:51.000   78.247142206   16.013707177   440.4644   2   9   0.0718   0.0526   0.1260   0.0209   0.0170   0.0437   0.00    1.3
2018/03/15 09:52:52.000   78.247142251   16.013706975   440.4450   2   9   0.0714   0.0524   0.1250   0.0207   0.0168   0.0433   0.00    1.3
2018/03/15 09:52:53.000   78.247142213   16.013706944   440.4210   2   9   0.0710   0.0521   0.1240   0.0206   0.0166   0.0429   0.00    1.3
2018/03/15 09:52:54.000   78.247142127   16.013706741   440.3850   2   9   0.0707   0.0519   0.1230   0.0205   0.0164   0.0425   0.00    1.3
2018/03/15 09:52:55.000   78.247142014   16.013706772   440.3482   2   9   0.0703   0.0517   0.1221   0.0204   0.0162   0.0421   0.00    1.3
2018/03/15 09:52:56.000   78.247141898   16.013706897   440.3056   2   9   0.0699   0.0515   0.1211   0.0203   0.0160   0.0418   0.00    1.3
2018/03/15 09:52:57.000   78.247141780   16.013707111   440.2687   2   9   0.0696   0.0512   0.1202   0.0202   0.0159   0.0414   0.00    1.2
2018/03/15 09:52:58.000   78.247141733   16.013707403   440.2449   2   9   0.0692   0.0510   0.1193   0.0201   0.0157   0.0410   0.00    1.2
2018/03/15 09:52:59.000   78.247141680   16.013707864   440.2314   2   9   0.0688   0.0508   0.1184   0.0200   0.0155   0.0407   0.00    1.2
2018/03/15 09:53:00.000   78.247141708   16.013708127   440.2369   2   9   0.0685   0.0506   0.1175   0.0199   0.0153   0.0403   0.00    1.2
2018/03/15 09:53:01.000   78.247141761   16.013708052   440.2473   2   9   0.0681   0.0504   0.1166   0.0198   0.0152   0.0400   0.00    1.2
2018/03/15 09:53:02.000   78.247141870   16.013708328   440.2650   2   9   0.0678   0.0502   0.1157   0.0197   0.0150   0.0396   0.00    1.2
2018/03/15 09:53:03.000   78.247141969   16.013708271   440.2795   2   9   0.0675   0.0500   0.1149   0.0196   0.0148   0.0393   0.00    1.2
2018/03/15 09:53:04.000   78.247142098   16.013707825   440.2920   2   9   0.0671   0.0498   0.1140   0.0195   0.0146   0.0389   0.00    1.2
2018/03/15 09:53:05.000   78.247142212   16.013707655   440.3027   2   9   0.0668   0.0496   0.1132   0.0194   0.0145   0.0386   0.00    1.2
2018/03/15 09:53:06.000   78.247142255   16.013707490   440.3087   2   9   0.0664   0.0493   0.1124   0.0193   0.0143   0.0383   0.00    1.2
2018/03/15 09:53:07.000   78.247142268   16.013707147   440.3050   2   9   0.0661   0.0491   0.1116   0.0192   0.0142   0.0380   0.00    1.3
2018/03/15 09:53:08.000   78.247142278   16.013706769   440.2904   2   9   0.0658   0.0489   0.1108   0.0191   0.0140   0.0376   0.00    1.3
2018/03/15 09:53:09.000   78.247142234   16.013706388   440.2685   2   9   0.0655   0.0487   0.1100   0.0191   0.0138   0.0373   0.00    1.2
2018/03/15 09:53:10.000   78.247142160   16.013706106   440.2443   2   9   0.0651   0.0485   0.1092   0.0190   0.0137   0.0370   0.00    1.2
2018/03/15 09:53:11.000   78.247142063   16.013705809   440.2272   2   9   0.0648   0.0484   0.1084   0.0189   0.0135   0.0367   0.00    1.2
2018/03/15 09:53:12.000   78.247142070   16.013705473   440.2286   2   9   0.0645   0.0482   0.1077   0.0188   0.0134   0.0364   0.00    1.2
2018/03/15 09:53:13.000   78.247142147   16.013705145   440.2424   2   9   0.0642   0.0480   0.1069   0.0187   0.0132   0.0361   0.00    1.2
2018/03/15 09:53:14.000   78.247142304   16.013705021   440.2640   2   9   0.0639   0.0478   0.1062   0.0186   0.0131   0.0358   0.00    1.3
2018/03/15 09:53:15.000   78.247142479   16.013704758   440.2880   2   9   0.0636   0.0476   0.1054   0.0185   0.0129   0.0355   0.00    1.3
2018/03/15 09:53:16.000   78.247142682   16.013704566   440.3076   2   9   0.0633   0.0474   0.1047   0.0184   0.0128   0.0352   0.00    1.3
2018/03/15 09:53:17.000   78.247142808   16.013704477   440.3235   2   9   0.0630   0.0472   0.1040   0.0184   0.0126   0.0349   0.00    1.3
2018/03/15 09:53:18.000   78.247142929   16.013704443   440.3312   2   9   0.0627   0.0470   0.1033   0.0183   0.0125   0.0347   0.00    1.3
2018/03/15 09:53:19.000   78.247142954   16.013704312   440.3279   2   9   0.0624   0.0468   0.1026   0.0182   0.0124   0.0344   0.00    1.3
2018/03/15 09:53:20.000   78.247142941   16.013704192   440.3093   2   9   0.0621   0.0467   0.1019   0.0181   0.0122   0.0341   0.00    1.3
2018/03/15 09:53:21.000   78.247142936   16.013704113   440.2879   2   9   0.0618   0.0465   0.1012   0.0180   0.0121   0.0338   0.00    1.3
2018/03/15 09:53:22.000   78.247142892   16.013704217   440.2653   2   9   0.0615   0.0463   0.1005   0.0179   0.0120   0.0336   0.00    1.3
2018/03/15 09:53:23.000   78.247142900   16.013704276   440.2477   2   9   0.0612   0.0461   0.0999   0.0179   0.0118   0.0333   0.00    1.3
2018/03/15 09:53:24.000   78.247142907   16.013704547   440.2325   2   9   0.0610   0.0459   0.0992   0.0178   0.0117   0.0331   0.00    1.3
2018/03/15 09:53:25.000   78.247142980   16.013704759   440.2276   2   9   0.0607   0.0458   0.0986   0.0177   0.0116   0.0328   0.00    1.3
2018/03/15 09:53:26.000   78.247143039   16.013704768   440.2322   2   9   0.0604   0.0456   0.0979   0.0176   0.0114   0.0325   0.00    1.3
2018/03/15 09:53:27.000   78.247143108   16.013704874   440.2458   2   9   0.0601   0.0454   0.0973   0.0176   0.0113   0.0323   0.00    1.3
2018/03/15 09:53:28.000   78.247143203   16.013705036   440.2580   2   9   0.0598   0.0452   0.0967   0.0175   0.0112   0.0320   0.00    1.3
2018/03/15 09:53:29.000   78.247143264   16.013705133   440.2648   2   9   0.0596   0.0451   0.0961   0.0174   0.0111   0.0318   0.00    1.3
2018/03/15 09:53:30.000   78.247143300   16.013705353   440.2646   2   9   0.0593   0.0449   0.0955   0.0173   0.0109   0.0316   0.00    1.3
2018/03/15 09:53:31.000   78.247143315   16.013705614   440.2581   2   9   0.0590   0.0447   0.0949   0.0173   0.0108   0.0313   0.00    1.3
2018/03/15 09:53:32.000   78.247143293   16.013705835   440.2460   2   9   0.0588   0.0446   0.0943   0.0172   0.0107   0.0311   0.00    1.3
2018/03/15 09:53:33.000   78.247143258   16.013705915   440.2332   2   9   0.0585   0.0444   0.0937   0.0171   0.0106   0.0308   0.00    1.3
2018/03/15 09:53:34.000   78.247143246   16.013705883   440.2193   2   9   0.0583   0.0442   0.0931   0.0170   0.0104   0.0306   0.00    1.3
2018/03/15 09:53:35.000   78.247143240   16.013705973   440.2156   2   9   0.0580   0.0441   0.0925   0.0170   0.0103   0.0304   0.00    1.3
2018/03/15 09:53:36.000   78.247143219   16.013705969   440.2161   2   9   0.0577   0.0439   0.0919   0.0169   0.0102   0.0302   0.00    1.3
2018/03/15 09:53:37.000   78.247143185   16.013705948   440.2201   2   9   0.0575   0.0438   0.0914   0.0168   0.0101   0.0299   0.00    1.3
2018/03/15 09:53:38.000   78.247143191   16.013706088   440.2245   2   9   0.0572   0.0436   0.0908   0.0168   0.0100   0.0297   0.00    1.3
2018/03/15 09:53:39.000   78.247143179   16.013706079   440.2259   2   9   0.0570   0.0434   0.0903   0.0167   0.0099   0.0295   0.00    1.2
2018/03/15 09:53:40.000   78.247143193   16.013706125   440.2227   2   9   0.0567   0.0433   0.0897   0.0166   0.0098   0.0293   0.00    1.2
2018/03/15 09:53:41.000   78.247143191   16.013706138   440.2243   2   9   0.0565   0.0431   0.0892   0.0166   0.0096   0.0291   0.00    1.2
2018/03/15 09:53:42.000   78.247143166   16.013706006   440.2248   2   9   0.0563   0.0430   0.0887   0.0165   0.0095   0.0289   0.00    1.2
2018/03/15 09:53:43.000   78.247143177   16.013705992   440.2291   2   9   0.0560   0.0428   0.0881   0.0164   0.0094   0.0286   0.00    1.2
2018/03/15 09:53:44.000   78.247143200   16.013705911   440.2307   2   9   0.0558   0.0427   0.0876   0.0164   0.0093   0.0284   0.00    1.2
2018/03/15 09:53:45.000   78.247143223   16.013705762   440.2235   2   9   0.0555   0.0425   0.0871   0.0163   0.0092   0.0282   0.00    1.2
2018/03/15 09:53:46.000   78.247143258   16.013705706   440.2225   2   9   0.0553   0.0424   0.0866   0.0162   0.0091   0.0280   0.00    1.2
2018/03/15 09:53:47.000   78.247143286   16.013705629   440.2248   2   9   0.0551   0.0422   0.0861   0.0162   0.0090   0.0278   0.00    1.2
2018/03/15 09:53:48.000   78.247143289   16.013705471   440.2252   2   9   0.0548   0.0421   0.0856   0.0161   0.0089   0.0276   0.00    1.2
2018/03/15 09:53:49.000   78.247143252   16.013705449   440.2128   2   9   0.0546   0.0419   0.0851   0.0160   0.0088   0.0274   0.00    1.2
2018/03/15 09:53:50.000   78.247143210   16.013705527   440.1962   2   9   0.0544   0.0418   0.0846   0.0160   0.0087   0.0273   0.00    1.2
2018/03/15 09:53:51.000   78.247143135   16.013705500   440.1773   2   9   0.0542   0.0416   0.0841   0.0159   0.0086   0.0271   0.00    1.2
2018/03/15 09:53:52.000   78.247143058   16.013705536   440.1643   2   9   0.0539   0.0415   0.0837   0.0159   0.0085   0.0269   0.00    1.2
2018/03/15 09:53:53.000   78.247142986   16.013705789   440.1489   2   9   0.0537   0.0413   0.0832   0.0158   0.0084   0.0267   0.00    1.2
2018/03/15 09:53:54.000   78.247142949   16.013705903   440.1419   2   9   0.0535   0.0412   0.0827   0.0157   0.0083   0.0265   0.00    1.2
2018/03/15 09:53:55.000   78.247142948   16.013706191   440.1459   2   9   0.0533   0.0411   0.0823   0.0157   0.0082   0.0263   0.00    1.2
2018/03/15 09:53:56.000   78.247142949   16.013706212   440.1476   2   9   0.0530   0.0409   0.0818   0.0156   0.0081   0.0261   0.00    1.2
2018/03/15 09:53:57.000   78.247142982   16.013706232   440.1444   2   9   0.0528   0.0408   0.0813   0.0156   0.0080   0.0260   0.00    1.2
2018/03/15 09:53:58.000   78.247143018   16.013706116   440.1374   2   9   0.0526   0.0406   0.0809   0.0155   0.0079   0.0258   0.00    1.2
2018/03/15 09:53:59.000   78.247143031   16.013705978   440.1267   2   9   0.0524   0.0405   0.0805   0.0154   0.0078   0.0256   0.00    1.2
2018/03/15 09:54:00.000   78.247142985   16.013706034   440.1094   2   9   0.0522   0.0404   0.0800   0.0154   0.0077   0.0254   0.00    1.2
2018/03/15 09:54:01.000   78.247142912   16.013706126   440.0912   2   9   0.0520   0.0402   0.0796   0.0153   0.0076   0.0253   0.00    1.2
2018/03/15 09:54:02.000   78.247142808   16.013706332   440.0679   2   9   0.0518   0.0401   0.0792   0.0153   0.0075   0.0251   0.00    1.2
2018/03/15 09:54:03.000   78.247142726   16.013706410   440.0488   2   9   0.0516   0.0400   0.0787   0.0152   0.0074   0.0249   0.00    1.2
2018/03/15 09:54:04.000   78.247142618   16.013706422   440.0301   2   9   0.0514   0.0398   0.0783   0.0152   0.0073   0.0248   0.00    1.2
2018/03/15 09:54:05.000   78.247142564   16.013706418   440.0221   2   9   0.0512   0.0397   0.0779   0.0151   0.0072   0.0246   0.00    1.1
2018/03/15 09:54:06.000   78.247142568   16.013706365   440.0230   2   9   0.0510   0.0396   0.0775   0.0151   0.0071   0.0244   0.00    1.1
2018/03/15 09:54:07.000   78.247142597   16.013706161   440.0284   2   9   0.0508   0.0394   0.0771   0.0150   0.0071   0.0243   0.00    1.1
2018/03/15 09:54:08.000   78.247142656   16.013705911   440.0377   2   9   0.0506   0.0393   0.0767   0.0150   0.0070   0.0241   0.00    1.1
2018/03/15 09:54:09.000   78.247142696   16.013705450   440.0452   2   9   0.0504   0.0392   0.0763   0.0149   0.0069   0.0240   0.00    1.1
2018/03/15 09:54:10.000   78.247142747   16.013705015   440.0513   2   9   0.0502   0.0390   0.0759   0.0149   0.0068   0.0238   0.00    1.1
2018/03/15 09:54:11.000   78.247142801   16.013704589   440.0554   2   9   0.0500   0.0389   0.0755   0.0148   0.0067   0.0236   0.00    1.1
2018/03/15 09:54:12.000   78.247142823   16.013704271   440.0538   2   9   0.0498   0.0388   0.0751   0.0147   0.0066   0.0235   0.00    1.1
2018/03/15 09:54:13.000   78.247142828   16.013704054   440.0486   2   9   0.0496   0.0387   0.0747   0.0147   0.0065   0.0233   0.00    1.1
2018/03/15 09:54:14.000   78.247142796   16.013703904   440.0398   2   9   0.0494   0.0385   0.0743   0.0146   0.0064   0.0232   0.00    1.1
2018/03/15 09:54:15.000   78.247142786   16.013703753   440.0338   2   9   0.0492   0.0384   0.0740   0.0146   0.0064   0.0230   0.00    1.1
2018/03/15 09:54:16.000   78.247142770   16.013703602   440.0305   2   9   0.0490   0.0383   0.0736   0.0145   0.0063   0.0229   0.00    1.1
2018/03/15 09:54:17.000   78.247142784   16.013703454   440.0321   2   9   0.0489   0.0382   0.0732   0.0145   0.0062   0.0228   0.00    1.1
2018/03/15 09:54:18.000   78.247142804   16.013703297   440.0346   2   9   0.0487   0.0381   0.0729   0.0144   0.0061   0.0226   0.00    1.1
2018/03/15 09:54:19.000   78.247142855   16.013703173   440.0366   2   9   0.0485   0.0379   0.0725   0.0144   0.0060   0.0225   0.00    1.1
2018/03/15 09:54:20.000   78.247142900   16.013703101   440.0399   2   9   0.0483   0.0378   0.0722   0.0144   0.0059   0.0223   0.00    1.1
2018/03/15 09:54:21.000   78.247142954   16.013703045   440.0405   2   9   0.0481   0.0377   0.0718   0.0143   0.0058   0.0222   0.00    1.1
2018/03/15 09:54:22.000   78.247142964   16.013703014   440.0419   2   9   0.0480   0.0376   0.0714   0.0143   0.0058   0.0220   0.00    1.1
2018/03/15 09:54:23.000   78.247142979   16.013703019   440.0342   2   9   0.0478   0.0375   0.0711   0.0142   0.0057   0.0219   0.00    1.1
2018/03/15 09:54:24.000   78.247142978   16.013702932   440.0271   2   9   0.0476   0.0373   0.0708   0.0142   0.0056   0.0218   0.00    1.1
2018/03/15 09:54:25.000   78.247142970   16.013702980   440.0194   2   9   0.0474   0.0372   0.0704   0.0141   0.0055   0.0216   0.00    1.1
2018/03/15 09:54:26.000   78.247142988   16.013703000   440.0134   2   9   0.0473   0.0371   0.0701   0.0141   0.0054   0.0215   0.00    1.1
2018/03/15 09:54:27.000   78.247143000   16.013702948   440.0081   2   9   0.0471   0.0370   0.0697   0.0140   0.0054   0.0214   0.00    1.1
2018/03/15 09:54:28.000   78.247143052   16.013702992   440.0017   2   9   0.0469   0.0369   0.0694   0.0140   0.0053   0.0212   0.00    1.1
2018/03/15 09:54:29.000   78.247143094   16.013702924   439.9973   2   9   0.0468   0.0368   0.0691   0.0139   0.0052   0.0211   0.00    1.1
2018/03/15 09:54:30.000   78.247143113   16.013703026   439.9874   2   9   0.0466   0.0367   0.0688   0.0139   0.0051   0.0210   0.00    1.1
2018/03/15 09:54:31.000   78.247143108   16.013703143   439.9754   2   9   0.0464   0.0366   0.0684   0.0138   0.0050   0.0209   0.00    1.1
2018/03/15 09:54:32.000   78.247143061   16.013703229   439.9631   2   9   0.0463   0.0364   0.0681   0.0138   0.0050   0.0207   0.00    1.1
2018/03/15 09:54:33.000   78.247143010   16.013703304   439.9508   2   9   0.0461   0.0363   0.0678   0.0138   0.0049   0.0206   0.00    1.1
2018/03/15 09:54:34.000   78.247142964   16.013703357   439.9408   2   9   0.0459   0.0362   0.0675   0.0137   0.0048   0.0205   0.00    1.1
2018/03/15 09:54:35.000   78.247142865   16.013703379   439.9275   2   9   0.0458   0.0361   0.0672   0.0137   0.0047   0.0204   0.00    1.1
2018/03/15 09:54:36.000   78.247142764   16.013703450   439.9133   2   9   0.0456   0.0360   0.0669   0.0136   0.0046   0.0202   0.00    1.1
2018/03/15 09:54:37.000   78.247142676   16.013703556   439.9065   2   9   0.0454   0.0359   0.0666   0.0136   0.0046   0.0201   0.00    1.1
2018/03/15 09:54:38.000   78.247142658   16.013703632   439.9092   2   9   0.0453   0.0358   0.0663   0.0135   0.0045   0.0200   0.00    1.1
2018/03/15 09:54:39.000   78.247142702   16.013703665   439.9209   2   9   0.0451   0.0357   0.0660   0.0135   0.0044   0.0199   0.00    1.1
2018/03/15 09:54:40.000   78.247142764   16.013703701   439.9322   2   9   0.0450   0.0356   0.0657   0.0135   0.0043   0.0198   0.00    1.1
2018/03/15 09:54:41.000   78.247142814   16.013703601   439.9422   2   9   0.0448   0.0355   0.0654   0.0134   0.0042   0.0197   0.00    1.1
2018/03/15 09:54:42.000   78.247142826   16.013703612   439.9442   2   9   0.0447   0.0354   0.0651   0.0134   0.0042   0.0195   0.00    1.1
2018/03/15 09:54:43.000   78.247142823   16.013703548   439.9393   2   9   0.0445   0.0353   0.0648   0.0133   0.0041   0.0194   0.00    1.1
2018/03/15 09:54:44.000   78.247142762   16.013703395   439.9301   2   9   0.0444   0.0352   0.0645   0.0133   0.0040   0.0193   0.00    1.1
2018/03/15 09:54:45.000   78.247142695   16.013703285   439.9196   2   9   0.0442   0.0351   0.0642   0.0133   0.0039   0.0192   0.00    1.1
2018/03/15 09:54:46.000   78.247142635   16.013703018   439.9084   2   9   0.0441   0.0350   0.0639   0.0132   0.0038   0.0191   0.00    1.0
2018/03/15 09:54:47.000   78.247142595   16.013702930   439.8959   2   9   0.0439   0.0349   0.0637   0.0132   0.0038   0.0190   0.00    1.0
2018/03/15 09:54:48.000   78.247142555   16.013702861   439.8863   2   9   0.0438   0.0348   0.0634   0.0131   0.0037   0.0189   0.00    1.0
2018/03/15 09:54:49.000   78.247142514   16.013702760   439.8808   2   9   0.0436   0.0347   0.0631   0.0131   0.0036   0.0188   0.00    1.0
2018/03/15 09:54:50.000   78.247142510   16.013702812   439.8785   2   9   0.0435   0.0346   0.0628   0.0131   0.0035   0.0187   0.00    1.0
2018/03/15 09:54:51.000   78.247142532   16.013702736   439.8802   2   9   0.0433   0.0345   0.0626   0.0130   0.0034   0.0186   0.00    1.0
2018/03/15 09:54:52.000   78.247142553   16.013702655   439.8836   2   9   0.0432   0.0344   0.0623   0.0130   0.0034   0.0185   0.00    1.0
2018/03/15 09:54:53.000   78.247142578   16.013702657   439.8883   2   9   0.0430   0.0343   0.0620   0.0130   0.0033   0.0184   0.00    1.0
2018/03/15 09:54:54.000   78.247142599   16.013702690   439.8911   2   9   0.0429   0.0342   0.0618   0.0129   0.0032   0.0183   0.00    1.0
2018/03/15 09:54:55.000   78.247142606   16.013702681   439.8912   2   9   0.0428   0.0341   0.0615   0.0129   0.0031   0.0181   0.00    1.0
2018/03/15 09:54:56.000   78.247142615   16.013702743   439.8912   2   9   0.0426   0.0340   0.0613   0.0128   0.0030   0.0180   0.00    1.0
2018/03/15 09:54:57.000   78.247142628   16.013702782   439.8903   2   9   0.0425   0.0339   0.0610   0.0128   0.0029   0.0179   0.00    1.0
2018/03/15 09:54:58.000   78.247142642   16.013702846   439.8899   2   9   0.0423   0.0338   0.0608   0.0128   0.0028   0.0178   0.00    1.0
2018/03/15 09:54:59.000   78.247142679   16.013702967   439.8913   2   9   0.0422   0.0337   0.0605   0.0127   0.0028   0.0178   0.00    1.0
2018/03/15 09:55:00.000   78.247142698   16.013703094   439.8928   2   9   0.0421   0.0336   0.0603   0.0127   0.0027   0.0177   0.00    1.0
2018/03/15 09:55:01.000   78.247142737   16.013703143   439.8951   2   9   0.0419   0.0335   0.0600   0.0127   0.0026   0.0176   0.00    1.0
2018/03/15 09:55:02.000   78.247142757   16.013703138   439.8944   2   9   0.0418   0.0334   0.0598   0.0126   0.0025   0.0175   0.00    1.0
2018/03/15 09:55:03.000   78.247142769   16.013703165   439.8901   2   9   0.0417   0.0333   0.0595   0.0126   0.0024   0.0174   0.00    1.0
2018/03/15 09:55:04.000   78.247142756   16.013703200   439.8830   2   9   0.0415   0.0333   0.0593   0.0126   0.0023   0.0173   0.00    1.0
2018/03/15 09:55:05.000   78.247142724   16.013703182   439.8766   2   9   0.0414   0.0332   0.0591   0.0125   0.0022   0.0172   0.00    1.0
2018/03/15 09:55:06.000   78.247142730   16.013703125   439.8763   2   9   0.0413   0.0331   0.0588   0.0125   0.0021   0.0171   0.00    1.0
2018/03/15 09:55:07.000   78.247142757   16.013703114   439.8819   2   9   0.0411   0.0330   0.0586   0.0125   0.0020   0.0170   0.00    1.0
2018/03/15 09:55:08.000   78.247142823   16.013703102   439.8910   2   9   0.0410   0.0329   0.0583   0.0124   0.0019   0.0169   0.00    1.0
2018/03/15 09:55:09.000   78.247142890   16.013703021   439.8991   2   9   0.0409   0.0328   0.0581   0.0124   0.0018   0.0168   0.00    1.0
2018/03/15 09:55:10.000   78.247142943   16.013702883   439.9066   2   9   0.0408   0.0327   0.0579   0.0124   0.0016   0.0167   0.00    1.0
2018/03/15 09:55:11.000   78.247142993   16.013702751   439.9132   2   9   0.0406   0.0326   0.0577   0.0123   0.0015   0.0166   0.00    1.0
2018/03/15 09:55:12.000   78.247143003   16.013702689   439.9151   2   9   0.0405   0.0325   0.0574   0.0123   0.0014   0.0165   0.00    1.0
2018/03/15 09:55:13.000   78.247143001   16.013702692   439.9136   2   9   0.0404   0.0325   0.0572   0.0123   0.0012   0.0165   0.00    1.0
2018/03/15 09:55:14.000   78.247143001   16.013702672   439.9102   2   9   0.0403   0.0324   0.0570   0.0122   0.0011   0.0164   0.00    1.0
2018/03/15 09:55:15.000   78.247142976   16.013702745   439.9063   2   9   0.0401   0.0323   0.0568   0.0122   0.0009   0.0163   0.00    1.0
2018/03/15 09:55:16.000   78.247142929   16.013702755   439.9049   2   9   0.0400   0.0322   0.0566   0.0122   0.0006   0.0162   0.00    1.0
2018/03/15 09:55:17.000   78.247142922   16.013702808   439.9086   2   9   0.0399   0.0321   0.0563   0.0121   0.0001   0.0161   0.00    1.0
2018/03/15 09:55:18.000   78.247142955   16.013702867   439.9149   2   9   0.0398   0.0320   0.0561   0.0121  -0.0006   0.0160   0.00    1.0
2018/03/15 09:55:19.000   78.247143012   16.013702896   439.9235   2   9   0.0397   0.0320   0.0559   0.0121  -0.0008   0.0159   0.00    1.0
2018/03/15 09:55:20.000   78.247143075   16.013702914   439.9313   2   9   0.0395   0.0319   0.0557   0.0120  -0.0010   0.0159   0.00    1.0
2018/03/15 09:55:21.000   78.247143123   16.013702961   439.9363   2   9   0.0394   0.0318   0.0555   0.0120  -0.0012   0.0158   0.00    1.0
2018/03/15 09:55:22.000   78.247143137   16.013702973   439.9353   2   9   0.0393   0.0317   0.0553   0.0120  -0.0013   0.0157   0.00    1.0
2018/03/15 09:55:23.000   78.247143138   16.013702940   439.9305   2   9   0.0392   0.0316   0.0551   0.0119  -0.0014   0.0156   0.00    1.0
2018/03/15 09:55:24.000   78.247143117   16.013702884   439.9239   2   9   0.0391   0.0315   0.0549   0.0119  -0.0015   0.0155   0.00    1.0
2018/03/15 09:55:25.000   78.247143102   16.013702925   439.9157   2   9   0.0389   0.0315   0.0547   0.0119  -0.0016   0.0155   0.00    1.0
2018/03/15 09:55:26.000   78.247143052   16.013702933   439.9081   2   9   0.0388   0.0314   0.0545   0.0119  -0.0017   0.0154   0.00    1.0
2018/03/15 09:55:27.000   78.247143009   16.013702955   439.9037   2   9   0.0387   0.0313   0.0543   0.0118  -0.0018   0.0153   0.00    1.0
2018/03/15 09:55:28.000   78.247142989   16.013702933   439.9062   2   9   0.0386   0.0312   0.0541   0.0118  -0.0019   0.0152   0.00    1.0
2018/03/15 09:55:29.000   78.247142997   16.013702934   439.9131   2   9   0.0385   0.0311   0.0539   0.0118  -0.0020   0.0152   0.00    1.0
2018/03/15 09:55:30.000   78.247143013   16.013702907   439.9208   2   9   0.0384   0.0311   0.0537   0.0117  -0.0020   0.0151   0.00    1.0
2018/03/15 09:55:31.000   78.247143051   16.013702887   439.9248   2   9   0.0383   0.0310   0.0535   0.0117  -0.0021   0.0150   0.00    1.0
2018/03/15 09:55:32.000   78.247143084   16.013702891   439.9275   2   9   0.0382   0.0309   0.0533   0.0117  -0.0022   0.0149   0.00    1.0
2018/03/15 09:55:33.000   78.247143108   16.013702941   439.9273   2   9   0.0381   0.0308   0.0531   0.0116  -0.0022   0.0149   0.00    1.0
2018/03/15 09:55:34.000   78.247143088   16.013702844   439.9230   2   9   0.0379   0.0308   0.0529   0.0116  -0.0023   0.0148   0.00    1.0
2018/03/15 09:55:35.000   78.247143048   16.013702837   439.9166   2   9   0.0378   0.0307   0.0527   0.0116  -0.0024   0.0147   0.00    1.0
2018/03/15 09:55:36.000   78.247143001   16.013702886   439.9113   2   9   0.0377   0.0306   0.0525   0.0116  -0.0024   0.0146   0.00    1.1
2018/03/15 09:55:37.000   78.247142965   16.013702935   439.9058   2   9   0.0376   0.0305   0.0524   0.0115  -0.0025   0.0146   0.00    1.1
2018/03/15 09:55:38.000   78.247142945   16.013702965   439.9028   2   9   0.0375   0.0305   0.0522   0.0115  -0.0025   0.0145   0.00    1.1
2018/03/15 09:55:39.000   78.247142940   16.013702926   439.9022   2   9   0.0374   0.0304   0.0520   0.0115  -0.0026   0.0144   0.00    1.1
2018/03/15 09:55:40.000   78.247142949   16.013702916   439.9032   2   9   0.0373   0.0303   0.0518   0.0115  -0.0026   0.0143   0.00    1.1
2018/03/15 09:55:41.000   78.247142944   16.013702867   439.9055   2   9   0.0372   0.0302   0.0516   0.0114  -0.0027   0.0143   0.00    1.1
2018/03/15 09:55:42.000   78.247142955   16.013702878   439.9081   2   9   0.0371   0.0302   0.0514   0.0114  -0.0027   0.0142   0.00    1.1
2018/03/15 09:55:43.000   78.247142967   16.013702896   439.9094   2   9   0.0370   0.0301   0.0513   0.0114  -0.0027   0.0141   0.00    1.1
2018/03/15 09:55:44.000   78.247142969   16.013702894   439.9125   2   9   0.0369   0.0300   0.0511   0.0113  -0.0028   0.0141   0.00    1.1
2018/03/15 09:55:45.000   78.247142984   16.013702914   439.9145   2   9   0.0368   0.0299   0.0509   0.0113  -0.0028   0.0140   0.00    1.1
2018/03/15 09:55:46.000   78.247142989   16.013702917   439.9167   2   9   0.0367   0.0299   0.0507   0.0113  -0.0029   0.0139   0.00    1.1
2018/03/15 09:55:47.000   78.247142992   16.013702837   439.9165   2   9   0.0366   0.0298   0.0506   0.0113  -0.0029   0.0139   0.00    1.1
2018/03/15 09:55:48.000   78.247142992   16.013702806   439.9168   2   9   0.0365   0.0297   0.0504   0.0112  -0.0029   0.0138   0.00    1.1
2018/03/15 09:55:49.000   78.247142994   16.013702900   439.9185   2   9   0.0364   0.0297   0.0502   0.0112  -0.0030   0.0137   0.00    1.1
2018/03/15 09:55:50.000   78.247142996   16.013702905   439.9235   2   9   0.0363   0.0296   0.0501   0.0112  -0.0030   0.0137   0.00    1.1
2018/03/15 09:55:51.000   78.247143005   16.013702873   439.9302   2   9   0.0362   0.0295   0.0499   0.0112  -0.0030   0.0136   0.00    1.1
2018/03/15 09:55:52.000   78.247143026   16.013702884   439.9368   2   9   0.0361   0.0295   0.0497   0.0111  -0.0031   0.0135   0.00    1.1
2018/03/15 09:55:53.000   78.247143038   16.013702925   439.9410   2   9   0.0360   0.0294   0.0496   0.0111  -0.0031   0.0135   0.00    1.1
2018/03/15 09:55:54.000   78.247143051   16.013702883   439.9456   2   9   0.0359   0.0293   0.0494   0.0111  -0.0031   0.0134   0.00    1.1
2018/03/15 09:55:55.000   78.247143051   16.013702966   439.9488   2   9   0.0358   0.0292   0.0492   0.0111  -0.0032   0.0133   0.00    1.1
2018/03/15 09:55:56.000   78.247143029   16.013703004   439.9524   2   9   0.0357   0.0292   0.0491   0.0110  -0.0032   0.0133   0.00    1.1
2018/03/15 09:55:57.000   78.247143030   16.013703042   439.9568   2   9   0.0356   0.0291   0.0489   0.0110  -0.0032   0.0132   0.00    1.1
2018/03/15 09:55:58.000   78.247143034   16.013703020   439.9597   2   9   0.0355   0.0290   0.0488   0.0110  -0.0033   0.0132   0.00    1.1
2018/03/15 09:55:59.000   78.247143042   16.013703037   439.9613   2   9   0.0354   0.0290   0.0486   0.0110  -0.0033   0.0131   0.00    1.1
2018/03/15 09:56:00.000   78.247143055   16.013703043   439.9630   2   9   0.0353   0.0289   0.0485   0.0109  -0.0033   0.0130   0.00    1.1
2018/03/15 09:56:01.000   78.247143058   16.013703065   439.9642   2   9   0.0352   0.0288   0.0483   0.0109  -0.0033   0.0130   0.00    1.1
2018/03/15 09:56:02.000   78.247143049   16.013703022   439.9646   2   9   0.0352   0.0288   0.0481   0.0109  -0.0034   0.0129   0.00    1.1
2018/03/15 09:56:03.000   78.247143041   16.013703037   439.9660   2   9   0.0351   0.0287   0.0480   0.0109  -0.0034   0.0129   0.00    1.1
2018/03/15 09:56:04.000   78.247143020   16.013703097   439.9672   2   9   0.0350   0.0287   0.0478   0.0108  -0.0034   0.0128   0.00    1.1
2018/03/15 09:56:05.000   78.247143003   16.013703177   439.9676   2   9   0.0349   0.0286   0.0477   0.0108  -0.0034   0.0127   0.00    1.1
2018/03/15 09:56:06.000   78.247142991   16.013703217   439.9719   2   9   0.0348   0.0285   0.0475   0.0108  -0.0035   0.0127   0.00    1.1
2018/03/15 09:56:07.000   78.247142993   16.013703236   439.9761   2   9   0.0347   0.0285   0.0474   0.0108  -0.0035   0.0126   0.00    1.1
2018/03/15 09:56:08.000   78.247143011   16.013703306   439.9820   2   9   0.0346   0.0284   0.0472   0.0107  -0.0035   0.0126   0.00    1.1
2018/03/15 09:56:09.000   78.247143016   16.013703254   439.9872   2   9   0.0345   0.0283   0.0471   0.0107  -0.0035   0.0125   0.00    1.1
2018/03/15 09:56:10.000   78.247143018   16.013703283   439.9931   2   9   0.0344   0.0283   0.0470   0.0107  -0.0036   0.0125   0.00    1.1
2018/03/15 09:56:11.000   78.247143025   16.013703290   439.9939   2   9   0.0343   0.0282   0.0468   0.0107  -0.0036   0.0124   0.00    1.1
2018/03/15 09:56:12.000   78.247143027   16.013703278   439.9940   2   9   0.0343   0.0281   0.0467   0.0107  -0.0036   0.0123   0.00    1.1
2018/03/15 09:56:13.000   78.247143020   16.013703231   439.9907   2   9   0.0342   0.0281   0.0465   0.0106  -0.0036   0.0123   0.00    1.1
2018/03/15 09:56:14.000   78.247143009   16.013703168   439.9873   2   9   0.0341   0.0280   0.0464   0.0106  -0.0036   0.0122   0.00    1.1
2018/03/15 09:56:15.000   78.247142994   16.013703148   439.9856   2   9   0.0340   0.0280   0.0462   0.0106  -0.0037   0.0122   0.00    1.1
2018/03/15 09:56:16.000   78.247142991   16.013703141   439.9859   2   9   0.0339   0.0279   0.0461   0.0106  -0.0037   0.0121   0.00    1.1
2018/03/15 09:56:17.000   78.247142979   16.013703086   439.9857   2   9   0.0338   0.0278   0.0460   0.0105  -0.0037   0.0121   0.00    1.1
2018/03/15 09:56:18.000   78.247142980   16.013703006   439.9884   2   9   0.0338   0.0278   0.0458   0.0105  -0.0037   0.0120   0.00    1.1
2018/03/15 09:56:19.000   78.247142980   16.013702931   439.9874   2   9   0.0337   0.0277   0.0457   0.0105  -0.0037   0.0120   0.00    1.1
2018/03/15 09:56:20.000   78.247142970   16.013702860   439.9864   2   9   0.0336   0.0277   0.0455   0.0105  -0.0037   0.0119   0.00    1.1
2018/03/15 09:56:21.000   78.247142969   16.013702749   439.9851   2   9   0.0335   0.0276   0.0454   0.0105  -0.0038   0.0119   0.00    1.1
2018/03/15 09:56:22.000   78.247142964   16.013702707   439.9844   2   9   0.0334   0.0275   0.0453   0.0104  -0.0038   0.0118   0.00    1.1
2018/03/15 09:56:23.000   78.247142966   16.013702625   439.9869   2   9   0.0333   0.0275   0.0451   0.0104  -0.0038   0.0118   0.00    1.1
2018/03/15 09:56:24.000   78.247142974   16.013702638   439.9909   2   9   0.0333   0.0274   0.0450   0.0104  -0.0038   0.0117   0.00    1.1
2018/03/15 09:56:25.000   78.247143001   16.013702651   439.9957   2   9   0.0332   0.0274   0.0449   0.0104  -0.0038   0.0116   0.00    1.1
2018/03/15 09:56:26.000   78.247143031   16.013702580   440.0016   2   9   0.0331   0.0273   0.0447   0.0104  -0.0038   0.0116   0.00    1.1
2018/03/15 09:56:27.000   78.247143057   16.013702484   440.0082   2   9   0.0330   0.0273   0.0446   0.0103  -0.0039   0.0115   0.00    1.2
2018/03/15 09:56:28.000   78.247143091   16.013702399   440.0133   2   9   0.0329   0.0272   0.0445   0.0103  -0.0039   0.0115   0.00    1.2
2018/03/15 09:56:29.000   78.247143106   16.013702352   440.0177   2   9   0.0329   0.0271   0.0444   0.0103  -0.0039   0.0114   0.00    1.2
2018/03/15 09:56:30.000   78.247143110   16.013702363   440.0170   2   9   0.0328   0.0271   0.0442   0.0103  -0.0039   0.0114   0.00    1.2
2018/03/15 09:56:31.000   78.247143103   16.013702310   440.0165   2   9   0.0327   0.0270   0.0441   0.0102  -0.0039   0.0113   0.00    1.2
2018/03/15 09:56:32.000   78.247143076   16.013702317   440.0128   2   9   0.0326   0.0270   0.0440   0.0102  -0.0039   0.0113   0.00    1.2
2018/03/15 09:56:33.000   78.247143049   16.013702303   440.0093   2   9   0.0326   0.0269   0.0439   0.0102  -0.0039   0.0113   0.00    1.2
2018/03/15 09:56:34.000   78.247143019   16.013702283   440.0062   2   9   0.0325   0.0269   0.0437   0.0102  -0.0040   0.0112   0.00    1.2
2018/03/15 09:56:35.000   78.247142997   16.013702241   440.0049   2   9   0.0324   0.0268   0.0436   0.0102  -0.0040   0.0112   0.00    1.2
2018/03/15 09:56:36.000   78.247142981   16.013702166   440.0064   2   9   0.0323   0.0267   0.0435   0.0101  -0.0040   0.0111   0.00    1.2
2018/03/15 09:56:37.000   78.247142980   16.013702180   440.0107   2   9   0.0322   0.0267   0.0434   0.0101  -0.0040   0.0111   0.00    1.2
2018/03/15 09:56:38.000   78.247142997   16.013702231   440.0177   2   9   0.0322   0.0266   0.0432   0.0101  -0.0040   0.0110   0.00    1.2
2018/03/15 09:56:39.000   78.247143017   16.013702282   440.0246   2   9   0.0321   0.0266   0.0431   0.0101  -0.0040   0.0110   0.00    1.2
2018/03/15 09:56:40.000   78.247143026   16.013702317   440.0307   2   9   0.0320   0.0265   0.0430   0.0101  -0.0040   0.0109   0.00    1.2
2018/03/15 09:56:41.000   78.247143038   16.013702338   440.0359   2   9   0.0319   0.0265   0.0429   0.0101  -0.0040   0.0109   0.00    1.2
2018/03/15 09:56:42.000   78.247143034   16.013702339   440.0381   2   9   0.0319   0.0264   0.0428   0.0100  -0.0040   0.0108   0.00    1.2
2018/03/15 09:56:43.000   78.247143021   16.013702308   440.0398   2   9   0.0318   0.0264   0.0426   0.0100  -0.0041   0.0108   0.00    1.2
2018/03/15 09:56:44.000   78.247143001   16.013702275   440.0390   2   9   0.0317   0.0263   0.0425   0.0100  -0.0041   0.0107   0.00    1.2
2018/03/15 09:56:45.000   78.247142980   16.013702256   440.0377   2   9   0.0317   0.0263   0.0424   0.0100  -0.0041   0.0107   0.00    1.2
2018/03/15 09:56:46.000   78.247142957   16.013702273   440.0342   2   9   0.0316   0.0262   0.0423   0.0100  -0.0041   0.0106   0.00    1.2
2018/03/15 09:56:47.000   78.247142919   16.013702166   440.0309   2   9   0.0315   0.0262   0.0422   0.0099  -0.0041   0.0106   0.00    1.2
2018/03/15 09:56:48.000   78.247142882   16.013702168   440.0281   2   9   0.0314   0.0261   0.0421   0.0099  -0.0041   0.0106   0.00    1.2
2018/03/15 09:56:49.000   78.247142860   16.013702197   440.0274   2   9   0.0314   0.0261   0.0420   0.0099  -0.0041   0.0105   0.00    1.2
2018/03/15 09:56:50.000   78.247142857   16.013702181   440.0283   2   9   0.0313   0.0260   0.0418   0.0099  -0.0041   0.0105   0.00    1.2
2018/03/15 09:56:51.000   78.247142871   16.013702192   440.0326   2   9   0.0312   0.0259   0.0417   0.0099  -0.0041   0.0104   0.00    1.2
2018/03/15 09:56:52.000   78.247142892   16.013702152   440.0381   2   9   0.0312   0.0259   0.0416   0.0098  -0.0041   0.0104   0.00    1.2
2018/03/15 09:56:53.000   78.247142910   16.013702144   440.0445   2   9   0.0311   0.0258   0.0415   0.0098  -0.0042   0.0103   0.00    1.2
2018/03/15 09:56:54.000   78.247142936   16.013702095   440.0497   2   9   0.0310   0.0258   0.0414   0.0098  -0.0042   0.0103   0.00    1.2
2018/03/15 09:56:55.000   78.247142940   16.013702103   440.0529   2   9   0.0310   0.0257   0.0413   0.0098  -0.0042   0.0103   0.00    1.2
2018/03/15 09:56:56.000   78.247142933   16.013702073   440.0534   2   9   0.0309   0.0257   0.0412   0.0098  -0.0042   0.0102   0.00    1.2
2018/03/15 09:56:57.000   78.247142928   16.013702133   440.0516   2   9   0.0308   0.0256   0.0411   0.0098  -0.0042   0.0102   0.00    1.2
2018/03/15 09:56:58.000   78.247142911   16.013702205   440.0476   2   9   0.0308   0.0256   0.0410   0.0097  -0.0042   0.0101   0.00    1.2
2018/03/15 09:56:59.000   78.247142881   16.013702224   440.0415   2   9   0.0307   0.0255   0.0409   0.0097  -0.0042   0.0101   0.00    1.2
2018/03/15 09:57:00.000   78.247142823   16.013702203   440.0337   2   9   0.0306   0.0255   0.0408   0.0097  -0.0042   0.0100   0.00    1.2
2018/03/15 09:57:01.000   78.247142766   16.013702191   440.0286   2   9   0.0306   0.0255   0.0407   0.0097  -0.0042   0.0100   0.00    1.2
2018/03/15 09:57:02.000   78.247142747   16.013702149   440.0322   2   9   0.0305   0.0254   0.0406   0.0097  -0.0042   0.0100   0.00    1.2
2018/03/15 09:57:03.000   78.247142771   16.013702160   440.0396   2   9   0.0304   0.0254   0.0405   0.0096  -0.0042   0.0099   0.00    1.2
2018/03/15 09:57:04.000   78.247142808   16.013702127   440.0475   2   9   0.0304   0.0253   0.0403   0.0096  -0.0042   0.0099   0.00    1.2
