% program   : RTKPOST ver.2.4.2
% inp file  : Z:\home\linda\Documents\Spring18\GitHub_Unis\data\processed_data\4625070A.obs
% inp file  : Z:\home\linda\Documents\Spring18\GitHub_Unis\data\base_station_data\lyrs0700.18o
% inp file  : Z:\home\linda\Documents\Spring18\GitHub_Unis\data\processed_data\4625070A.nav
% obs start : 2018/03/11 14:22:12.0 GPST (week1992  51732.0s)
% obs end   : 2018/03/11 14:37:48.0 GPST (week1992  52668.0s)
% pos mode  : static
% freqs     : L1+L2
% solution  : forward
% elev mask : 15.0 deg
% dynamics  : on
% tidecorr  : off
% ionos opt : broadcast
% tropo opt : saastamoinen
% ephemeris : broadcast
% navi sys  : gps glonass galileo qzss sbas
% amb res   : fix and hold
% amb glo   : on
% val thres : 3.0
% antenna1  :                       ( 0.0000  0.0000  0.0000)
% antenna2  :                       ( 0.0000  0.0000  0.0000)
% ref pos   : 78.228825638   15.397310064   495.6816
%
% (lat/lon/height=WGS84/ellipsoidal,Q=1:fix,2:float,3:sbas,4:dgps,5:single,6:ppp,ns=# of satellites)
%  GPST                  latitude(deg) longitude(deg)  height(m)   Q  ns   sdn(m)   sde(m)   sdu(m)  sdne(m)  sdeu(m)  sdun(m) age(s)  ratio
2018/03/11 14:22:12.000   78.249610859   16.122788288   652.9514   2   9   0.6160   0.4035   2.7348  -0.2251  -0.5432   1.1759   0.00    1.0
2018/03/11 14:22:13.000   78.249610818   16.122793772   652.9931   2   9   0.4378   0.2867   1.9480  -0.1607  -0.3883   0.8367   0.00    1.0
2018/03/11 14:22:14.000   78.249611017   16.122793338   653.0016   2   9   0.3577   0.2344   1.5926  -0.1314  -0.3178   0.6837   0.00    1.0
2018/03/11 14:22:15.000   78.249610936   16.122794116   652.9726   2   9   0.3096   0.2031   1.3782  -0.1137  -0.2751   0.5916   0.00    1.0
2018/03/11 14:22:16.000   78.249610628   16.122793826   652.9610   2   9   0.2765   0.1817   1.2304  -0.1015  -0.2456   0.5280   0.00    1.0
2018/03/11 14:22:17.000   78.249610697   16.122793898   653.0084   2   9   0.2519   0.1659   1.1201  -0.0924  -0.2236   0.4806   0.00    1.0
2018/03/11 14:22:18.000   78.249610605   16.122792721   653.0004   2   9   0.2327   0.1535   1.0334  -0.0852  -0.2063   0.4433   0.00    1.0
2018/03/11 14:22:19.000   78.249610407   16.122791696   652.8289   2   9   0.2170   0.1436   0.9627  -0.0793  -0.1922   0.4129   0.00    1.0
2018/03/11 14:22:20.000   78.249610579   16.122792060   652.8657   2   9   0.2039   0.1353   0.9033  -0.0743  -0.1803   0.3874   0.00    1.0
2018/03/11 14:22:21.000   78.249610548   16.122791908   652.8335   2   9   0.1927   0.1283   0.8524  -0.0701  -0.1701   0.3654   0.00    1.0
2018/03/11 14:22:22.000   78.249610459   16.122791199   652.7745   2   9   0.1829   0.1223   0.8080  -0.0664  -0.1612   0.3463   0.00    1.0
2018/03/11 14:22:23.000   78.249610597   16.122790447   652.8648   2   9   0.1743   0.1170   0.7687  -0.0631  -0.1533   0.3294   0.00    1.0
2018/03/11 14:22:24.000   78.249610449   16.122789083   652.7509   2   9   0.1667   0.1123   0.7335  -0.0601  -0.1462   0.3142   0.00    1.0
2018/03/11 14:22:25.000   78.249610438   16.122787474   652.7884   2   9   0.1598   0.1082   0.7016  -0.0574  -0.1398   0.3005   0.00    1.0
2018/03/11 14:22:26.000   78.249610456   16.122786820   652.7561   2   9   0.1535   0.1044   0.6726  -0.0550  -0.1340   0.2880   0.00    1.0
2018/03/11 14:22:27.000   78.249610576   16.122786667   652.7901   2   9   0.1478   0.1010   0.6459  -0.0527  -0.1286   0.2765   0.00    1.1
2018/03/11 14:22:28.000   78.249610725   16.122785299   652.7666   2   9   0.1425   0.0979   0.6213  -0.0507  -0.1236   0.2658   0.00    1.1
2018/03/11 14:22:29.000   78.249610614   16.122785785   652.6692   2   9   0.1376   0.0951   0.5984  -0.0487  -0.1190   0.2559   0.00    1.1
2018/03/11 14:22:30.000   78.249610435   16.122785585   652.5596   2   9   0.1331   0.0925   0.5771  -0.0469  -0.1147   0.2467   0.00    1.1
2018/03/11 14:22:31.000   78.249610343   16.122785755   652.5017   2   9   0.1288   0.0901   0.5571  -0.0452  -0.1107   0.2381   0.00    1.1
2018/03/11 14:22:32.000   78.249610634   16.122785211   652.6629   2   9   0.1249   0.0878   0.5383  -0.0436  -0.1069   0.2299   0.00    1.1
2018/03/11 14:22:33.000   78.249610716   16.122785095   652.7055   2   9   0.1212   0.0857   0.5206  -0.0421  -0.1033   0.2223   0.00    1.1
2018/03/11 14:22:34.000   78.249610882   16.122784721   652.8322   2   9   0.1177   0.0838   0.5038  -0.0407  -0.1000   0.2150   0.00    1.1
2018/03/11 14:22:35.000   78.249611016   16.122784425   652.9336   2   9   0.1143   0.0819   0.4880  -0.0393  -0.0968   0.2082   0.00    1.1
2018/03/11 14:22:36.000   78.249611175   16.122784264   653.0485   2   9   0.1112   0.0802   0.4729  -0.0380  -0.0937   0.2017   0.00    1.1
2018/03/11 14:22:37.000   78.249611435   16.122784181   653.1677   2   9   0.1082   0.0786   0.4586  -0.0368  -0.0908   0.1955   0.00    1.1
2018/03/11 14:22:38.000   78.249611811   16.122784277   653.3633   2   9   0.1054   0.0770   0.4450  -0.0356  -0.0881   0.1896   0.00    1.1
2018/03/11 14:22:39.000   78.249612263   16.122784039   653.5378   2   9   0.1028   0.0755   0.4320  -0.0345  -0.0855   0.1839   0.00    1.1
2018/03/11 14:22:40.000   78.249612532   16.122783909   653.6746   2   9   0.1002   0.0742   0.4196  -0.0334  -0.0829   0.1785   0.00    1.1
2018/03/11 14:22:41.000   78.249612780   16.122783632   653.8036   2   9   0.0978   0.0728   0.4077  -0.0324  -0.0806   0.1734   0.00    1.1
2018/03/11 14:22:42.000   78.249613063   16.122783208   653.9405   2   9   0.0954   0.0716   0.3964  -0.0314  -0.0783   0.1685   0.00    1.1
2018/03/11 14:22:43.000   78.249613363   16.122783084   654.0447   2   9   0.0932   0.0704   0.3855  -0.0305  -0.0761   0.1637   0.00    1.1
2018/03/11 14:22:44.000   78.249613651   16.122782224   654.1351   2   9   0.0911   0.0692   0.3751  -0.0296  -0.0739   0.1592   0.00    1.1
2018/03/11 14:22:45.000   78.249613932   16.122781510   654.2477   2   9   0.0891   0.0681   0.3651  -0.0287  -0.0719   0.1549   0.00    1.1
2018/03/11 14:22:46.000   78.249614339   16.122781104   654.3711   2   9   0.0871   0.0671   0.3555  -0.0279  -0.0700   0.1507   0.00    1.0
2018/03/11 14:22:47.000   78.249614768   16.122780685   654.4801   2   9   0.0852   0.0661   0.3463  -0.0271  -0.0681   0.1467   0.00    1.0
2018/03/11 14:22:48.000   78.249615221   16.122780274   654.6093   2   9   0.0835   0.0651   0.3374  -0.0263  -0.0663   0.1428   0.00    1.0
2018/03/11 14:22:49.000   78.249615670   16.122779799   654.7102   2   9   0.0817   0.0642   0.3289  -0.0256  -0.0646   0.1391   0.00    1.0
2018/03/11 14:22:50.000   78.249616113   16.122779475   654.8364   2   9   0.0801   0.0633   0.3207  -0.0249  -0.0629   0.1356   0.00    1.0
2018/03/11 14:22:51.000   78.249616372   16.122779639   654.8621   2   9   0.0785   0.0624   0.3128  -0.0242  -0.0613   0.1321   0.00    1.0
2018/03/11 14:22:52.000   78.249616578   16.122779663   654.8546   2   9   0.0769   0.0616   0.3052  -0.0235  -0.0598   0.1288   0.00    1.0
2018/03/11 14:22:53.000   78.249616846   16.122779691   654.8717   2   9   0.0755   0.0608   0.2978  -0.0229  -0.0583   0.1256   0.00    1.0
2018/03/11 14:22:54.000   78.249617042   16.122779945   654.8530   2   9   0.0740   0.0600   0.2907  -0.0223  -0.0568   0.1225   0.00    1.0
2018/03/11 14:22:55.000   78.249617142   16.122780304   654.8038   2   9   0.0727   0.0593   0.2839  -0.0217  -0.0555   0.1196   0.00    1.0
2018/03/11 14:22:56.000   78.249617349   16.122780734   654.8104   2   9   0.0714   0.0586   0.2773  -0.0211  -0.0541   0.1167   0.00    1.0
2018/03/11 14:22:57.000   78.249617569   16.122780802   654.8340   2   9   0.0701   0.0579   0.2710  -0.0206  -0.0528   0.1139   0.00    1.0
2018/03/11 14:22:58.000   78.249617715   16.122781254   654.8088   2   9   0.0688   0.0572   0.2648  -0.0200  -0.0516   0.1112   0.00    1.1
2018/03/11 14:22:59.000   78.249617962   16.122781540   654.8287   2   9   0.0677   0.0565   0.2589  -0.0195  -0.0504   0.1086   0.00    1.1
2018/03/11 14:23:00.000   78.249618236   16.122781731   654.8640   2   9   0.0665   0.0559   0.2532  -0.0190  -0.0492   0.1061   0.00    1.1
2018/03/11 14:23:01.000   78.249618537   16.122782099   654.9106   2   9   0.0654   0.0553   0.2476  -0.0186  -0.0481   0.1037   0.00    1.0
2018/03/11 14:23:02.000   78.249618829   16.122782408   654.9573   2   9   0.0643   0.0547   0.2423  -0.0181  -0.0470   0.1014   0.00    1.0
2018/03/11 14:23:03.000   78.249619204   16.122782740   655.0342   2   9   0.0633   0.0541   0.2371  -0.0176  -0.0459   0.0991   0.00    1.0
2018/03/11 14:23:04.000   78.249619513   16.122783002   655.1125   2   9   0.0623   0.0535   0.2321  -0.0172  -0.0449   0.0969   0.00    1.0
2018/03/11 14:23:05.000   78.249619827   16.122782996   655.1860   2   9   0.0613   0.0530   0.2272  -0.0168  -0.0439   0.0948   0.00    1.0
2018/03/11 14:23:06.000   78.249620124   16.122783098   655.2393   2   9   0.0604   0.0524   0.2225  -0.0164  -0.0430   0.0928   0.00    1.0
2018/03/11 14:23:07.000   78.249620361   16.122783304   655.2481   2   9   0.0594   0.0519   0.2180  -0.0160  -0.0420   0.0908   0.00    1.0
2018/03/11 14:23:08.000   78.249620597   16.122783407   655.2819   2   9   0.0586   0.0514   0.2136  -0.0156  -0.0411   0.0888   0.00    1.0
2018/03/11 14:23:09.000   78.249620797   16.122783637   655.3017   2   9   0.0577   0.0509   0.2093  -0.0152  -0.0403   0.0870   0.00    1.0
2018/03/11 14:23:10.000   78.249620954   16.122783818   655.3209   2   9   0.0569   0.0504   0.2051  -0.0149  -0.0394   0.0852   0.00    1.0
2018/03/11 14:23:11.000   78.249621125   16.122783672   655.3340   2   9   0.0561   0.0499   0.2011  -0.0145  -0.0386   0.0834   0.00    1.0
2018/03/11 14:23:12.000   78.249621263   16.122783632   655.3385   2   9   0.0553   0.0495   0.1972  -0.0142  -0.0378   0.0817   0.00    1.0
2018/03/11 14:23:13.000   78.249621451   16.122783661   655.3469   2   9   0.0545   0.0490   0.1934  -0.0139  -0.0370   0.0800   0.00    1.0
2018/03/11 14:23:14.000   78.249621600   16.122783828   655.3539   2   9   0.0538   0.0486   0.1898  -0.0136  -0.0363   0.0784   0.00    1.0
2018/03/11 14:23:15.000   78.249621809   16.122783732   655.3697   2   9   0.0530   0.0481   0.1862  -0.0133  -0.0355   0.0769   0.00    1.0
2018/03/11 14:23:16.000   78.249621959   16.122783882   655.3907   2   9   0.0523   0.0477   0.1827  -0.0130  -0.0348   0.0754   0.00    1.0
2018/03/11 14:23:17.000   78.249622102   16.122783854   655.4029   2   9   0.0517   0.0473   0.1794  -0.0127  -0.0342   0.0739   0.00    1.0
2018/03/11 14:23:18.000   78.249622168   16.122783830   655.3857   2   9   0.0510   0.0469   0.1761  -0.0124  -0.0335   0.0725   0.00    1.0
2018/03/11 14:23:19.000   78.249622294   16.122783690   655.3909   2   9   0.0503   0.0465   0.1729  -0.0122  -0.0328   0.0711   0.00    1.0
2018/03/11 14:23:20.000   78.249622393   16.122783579   655.4031   2   9   0.0497   0.0461   0.1698  -0.0119  -0.0322   0.0697   0.00    1.0
2018/03/11 14:23:21.000   78.249622460   16.122783474   655.4015   2   9   0.0491   0.0457   0.1668  -0.0116  -0.0316   0.0684   0.00    1.0
2018/03/11 14:23:22.000   78.249622515   16.122783325   655.3909   2   9   0.0485   0.0454   0.1639  -0.0114  -0.0310   0.0671   0.00    1.0
2018/03/11 14:23:23.000   78.249622563   16.122783278   655.3886   2   9   0.0479   0.0450   0.1611  -0.0112  -0.0304   0.0659   0.00    1.0
2018/03/11 14:23:24.000   78.249622593   16.122783283   655.3776   2   9   0.0473   0.0446   0.1583  -0.0109  -0.0298   0.0647   0.00    1.0
2018/03/11 14:23:25.000   78.249622554   16.122783148   655.3492   2   9   0.0468   0.0443   0.1556  -0.0107  -0.0293   0.0635   0.00    1.0
2018/03/11 14:23:26.000   78.249622539   16.122783082   655.3280   2   9   0.0463   0.0439   0.1530  -0.0105  -0.0288   0.0624   0.00    1.0
2018/03/11 14:23:27.000   78.249622431   16.122783214   655.2700   2   9   0.0457   0.0436   0.1505  -0.0103  -0.0282   0.0612   0.00    1.0
2018/03/11 14:23:28.000   78.249622306   16.122783599   655.2028   2   9   0.0452   0.0433   0.1480  -0.0101  -0.0277   0.0601   0.00    1.0
2018/03/11 14:23:29.000   78.249622108   16.122783964   655.1097   2   9   0.0447   0.0429   0.1456  -0.0099  -0.0272   0.0591   0.00    1.0
2018/03/11 14:23:30.000   78.249621882   16.122784296   655.0042   2   9   0.0442   0.0426   0.1432  -0.0097  -0.0267   0.0581   0.00    1.1
2018/03/11 14:23:31.000   78.249621629   16.122784787   654.8838   2   9   0.0437   0.0423   0.1409  -0.0095  -0.0263   0.0571   0.00    1.1
2018/03/11 14:23:32.000   78.249621359   16.122785351   654.7594   2   9   0.0433   0.0420   0.1387  -0.0093  -0.0258   0.0561   0.00    1.1
2018/03/11 14:23:33.000   78.249621074   16.122785798   654.6331   2   9   0.0428   0.0417   0.1365  -0.0092  -0.0254   0.0551   0.00    1.1
2018/03/11 14:23:34.000   78.249620822   16.122786461   654.5148   2   9   0.0424   0.0414   0.1344  -0.0090  -0.0249   0.0542   0.00    1.1
2018/03/11 14:23:35.000   78.249620580   16.122787049   654.3887   2   9   0.0419   0.0411   0.1323  -0.0088  -0.0245   0.0533   0.00    1.1
2018/03/11 14:23:36.000   78.249620331   16.122787604   654.2795   2   9   0.0415   0.0408   0.1303  -0.0087  -0.0241   0.0524   0.00    1.1
2018/03/11 14:23:37.000   78.249620192   16.122787993   654.1997   2   9   0.0411   0.0405   0.1283  -0.0085  -0.0237   0.0515   0.00    1.1
2018/03/11 14:23:38.000   78.249620088   16.122788400   654.1401   2   9   0.0407   0.0402   0.1264  -0.0084  -0.0233   0.0507   0.00    1.1
2018/03/11 14:23:39.000   78.249619989   16.122788752   654.0958   2   9   0.0403   0.0400   0.1245  -0.0082  -0.0229   0.0499   0.00    1.1
2018/03/11 14:23:40.000   78.249619955   16.122788986   654.0624   2   9   0.0399   0.0397   0.1227  -0.0081  -0.0225   0.0491   0.00    1.1
2018/03/11 14:23:41.000   78.249619961   16.122789260   654.0450   2   9   0.0395   0.0394   0.1209  -0.0080  -0.0221   0.0483   0.00    1.1
2018/03/11 14:23:42.000   78.249619991   16.122789343   654.0430   2   9   0.0391   0.0392   0.1191  -0.0078  -0.0218   0.0475   0.00    1.1
2018/03/11 14:23:43.000   78.249620030   16.122789503   654.0562   2   9   0.0387   0.0389   0.1174  -0.0077  -0.0214   0.0468   0.00    1.1
2018/03/11 14:23:44.000   78.249620104   16.122789526   654.0804   2   9   0.0384   0.0386   0.1158  -0.0076  -0.0211   0.0460   0.00    1.1
2018/03/11 14:23:45.000   78.249620182   16.122789411   654.1197   2   9   0.0380   0.0384   0.1141  -0.0075  -0.0207   0.0453   0.00    1.0
2018/03/11 14:23:46.000   78.249620285   16.122789445   654.1660   2   9   0.0377   0.0381   0.1125  -0.0073  -0.0204   0.0446   0.00    1.0
2018/03/11 14:23:47.000   78.249620364   16.122789402   654.2111   2   9   0.0373   0.0379   0.1110  -0.0072  -0.0201   0.0439   0.00    1.0
2018/03/11 14:23:48.000   78.249620443   16.122789372   654.2521   2   9   0.0370   0.0376   0.1095  -0.0071  -0.0198   0.0433   0.00    1.0
2018/03/11 14:23:49.000   78.249620544   16.122789451   654.3084   2   9   0.0366   0.0374   0.1080  -0.0070  -0.0195   0.0426   0.00    1.0
2018/03/11 14:23:50.000   78.249620643   16.122789512   654.3611   2   9   0.0363   0.0372   0.1065  -0.0069  -0.0192   0.0420   0.00    1.0
2018/03/11 14:23:51.000   78.249620743   16.122789652   654.4139   2   9   0.0360   0.0369   0.1051  -0.0068  -0.0189   0.0413   0.00    1.1
2018/03/11 14:23:52.000   78.249620863   16.122789641   654.4780   2   9   0.0357   0.0367   0.1037  -0.0067  -0.0186   0.0407   0.00    1.1
2018/03/11 14:23:53.000   78.249620948   16.122789707   654.5293   2   9   0.0354   0.0365   0.1023  -0.0066  -0.0183   0.0401   0.00    1.1
2018/03/11 14:23:54.000   78.249621047   16.122789820   654.5809   2   9   0.0351   0.0363   0.1010  -0.0065  -0.0180   0.0395   0.00    1.1
2018/03/11 14:23:55.000   78.249621135   16.122789750   654.6295   2   9   0.0348   0.0360   0.0997  -0.0065  -0.0177   0.0390   0.00    1.1
2018/03/11 14:23:56.000   78.249621227   16.122789795   654.6780   2   9   0.0345   0.0358   0.0984  -0.0064  -0.0175   0.0384   0.00    1.1
2018/03/11 14:23:57.000   78.249621342   16.122789866   654.7263   2   9   0.0342   0.0356   0.0971  -0.0063  -0.0172   0.0379   0.00    1.2
2018/03/11 14:23:58.000   78.249621435   16.122789962   654.7707   2   9   0.0339   0.0354   0.0959  -0.0062  -0.0170   0.0373   0.00    1.2
2018/03/11 14:23:59.000   78.249621490   16.122789867   654.7983   2   9   0.0336   0.0352   0.0947  -0.0061  -0.0167   0.0368   0.00    1.2
2018/03/11 14:24:00.000   78.249621561   16.122789733   654.8351   2   9   0.0334   0.0350   0.0935  -0.0061  -0.0165   0.0363   0.00    1.2
2018/03/11 14:24:01.000   78.249621603   16.122789622   654.8623   2   9   0.0331   0.0348   0.0924  -0.0060  -0.0162   0.0358   0.00    1.2
2018/03/11 14:24:02.000   78.249621627   16.122789390   654.8920   2   9   0.0328   0.0346   0.0912  -0.0059  -0.0160   0.0353   0.00    1.3
2018/03/11 14:24:03.000   78.249621636   16.122789285   654.9100   2   9   0.0326   0.0344   0.0901  -0.0059  -0.0157   0.0348   0.00    1.3
2018/03/11 14:24:04.000   78.249621646   16.122789131   654.9306   2   9   0.0323   0.0342   0.0890  -0.0058  -0.0155   0.0343   0.00    1.3
2018/03/11 14:24:05.000   78.249621645   16.122789098   654.9462   2   9   0.0321   0.0340   0.0880  -0.0057  -0.0153   0.0339   0.00    1.3
2018/03/11 14:24:06.000   78.249621628   16.122788907   654.9537   2   9   0.0318   0.0338   0.0869  -0.0057  -0.0151   0.0334   0.00    1.3
2018/03/11 14:24:07.000   78.249621599   16.122788816   654.9567   2   9   0.0316   0.0336   0.0859  -0.0056  -0.0149   0.0330   0.00    1.4
2018/03/11 14:24:08.000   78.249621548   16.122788744   654.9549   2   9   0.0313   0.0334   0.0849  -0.0056  -0.0146   0.0325   0.00    1.4
2018/03/11 14:24:09.000   78.249621512   16.122788637   654.9630   2   9   0.0311   0.0332   0.0839  -0.0055  -0.0144   0.0321   0.00    1.4
2018/03/11 14:24:10.000   78.249621462   16.122788569   654.9646   2   9   0.0309   0.0330   0.0829  -0.0055  -0.0142   0.0317   0.00    1.4
2018/03/11 14:24:11.000   78.249621418   16.122788414   654.9640   2   9   0.0306   0.0328   0.0820  -0.0054  -0.0140   0.0312   0.00    1.4
2018/03/11 14:24:12.000   78.249621380   16.122788290   654.9700   2   9   0.0304   0.0327   0.0811  -0.0054  -0.0138   0.0308   0.00    1.4
2018/03/11 14:24:13.000   78.249621344   16.122788020   654.9841   2   9   0.0302   0.0325   0.0802  -0.0053  -0.0137   0.0304   0.00    1.4
2018/03/11 14:24:14.000   78.249621335   16.122787767   655.0003   2   9   0.0300   0.0323   0.0793  -0.0053  -0.0135   0.0301   0.00    1.5
2018/03/11 14:24:15.000   78.249621339   16.122787492   655.0214   2   9   0.0297   0.0321   0.0784  -0.0052  -0.0133   0.0297   0.00    1.5
2018/03/11 14:24:16.000   78.249621352   16.122787367   655.0397   2   9   0.0295   0.0320   0.0775  -0.0052  -0.0131   0.0293   0.00    1.5
2018/03/11 14:24:17.000   78.249621377   16.122787176   655.0556   2   9   0.0293   0.0318   0.0767  -0.0051  -0.0129   0.0289   0.00    1.5
2018/03/11 14:24:18.000   78.249621401   16.122786973   655.0666   2   9   0.0291   0.0316   0.0758  -0.0051  -0.0127   0.0286   0.00    1.5
2018/03/11 14:24:19.000   78.249621380   16.122786833   655.0646   2   9   0.0289   0.0314   0.0750  -0.0051  -0.0126   0.0282   0.00    1.5
2018/03/11 14:24:20.000   78.249621344   16.122786700   655.0596   2   9   0.0287   0.0313   0.0742  -0.0050  -0.0124   0.0279   0.00    1.5
2018/03/11 14:24:21.000   78.249621275   16.122786624   655.0462   2   9   0.0285   0.0311   0.0734  -0.0050  -0.0122   0.0275   0.00    1.5
2018/03/11 14:24:22.000   78.249621224   16.122786674   655.0318   2   9   0.0283   0.0309   0.0726  -0.0050  -0.0121   0.0272   0.00    1.6
2018/03/11 14:24:23.000   78.249621158   16.122786616   655.0226   2   9   0.0281   0.0308   0.0719  -0.0049  -0.0119   0.0268   0.00    1.6
2018/03/11 14:24:24.000   78.249621116   16.122786504   655.0249   2   9   0.0279   0.0306   0.0711  -0.0049  -0.0117   0.0265   0.00    1.6
2018/03/11 14:24:25.000   78.249621069   16.122786379   655.0304   2   9   0.0277   0.0305   0.0704  -0.0049  -0.0116   0.0262   0.00    1.6
2018/03/11 14:24:26.000   78.249621040   16.122786212   655.0476   2   9   0.0275   0.0303   0.0697  -0.0048  -0.0114   0.0259   0.00    1.6
2018/03/11 14:24:27.000   78.249621030   16.122786030   655.0687   2   9   0.0274   0.0302   0.0690  -0.0048  -0.0113   0.0256   0.00    1.6
2018/03/11 14:24:28.000   78.249621045   16.122785873   655.0979   2   9   0.0272   0.0300   0.0683  -0.0048  -0.0111   0.0253   0.00    1.6
2018/03/11 14:24:29.000   78.249621065   16.122785647   655.1264   2   9   0.0270   0.0298   0.0676  -0.0047  -0.0110   0.0250   0.00    1.6
2018/03/11 14:24:30.000   78.249621078   16.122785483   655.1629   2   9   0.0268   0.0297   0.0669  -0.0047  -0.0108   0.0247   0.00    1.6
2018/03/11 14:24:31.000   78.249621112   16.122785268   655.2031   2   9   0.0266   0.0295   0.0662  -0.0047  -0.0107   0.0244   0.00    1.6
2018/03/11 14:24:32.000   78.249621129   16.122785095   655.2469   2   9   0.0265   0.0294   0.0656  -0.0047  -0.0106   0.0241   0.00    1.6
2018/03/11 14:24:33.000   78.249621139   16.122784881   655.2878   2   9   0.0263   0.0292   0.0649  -0.0047  -0.0104   0.0238   0.00    1.6
2018/03/11 14:24:34.000   78.249621150   16.122784746   655.3262   2   9   0.0261   0.0291   0.0643  -0.0046  -0.0103   0.0236   0.00    1.6
2018/03/11 14:24:35.000   78.249621160   16.122784556   655.3643   2   9   0.0260   0.0290   0.0637  -0.0046  -0.0102   0.0233   0.00    1.6
2018/03/11 14:24:36.000   78.249621157   16.122784370   655.4040   2   9   0.0258   0.0288   0.0631  -0.0046  -0.0100   0.0230   0.00    1.6
2018/03/11 14:24:37.000   78.249621145   16.122784215   655.4448   2   9   0.0256   0.0287   0.0624  -0.0046  -0.0099   0.0228   0.00    1.6
2018/03/11 14:24:38.000   78.249621161   16.122784122   655.4942   2   9   0.0255   0.0285   0.0619  -0.0046  -0.0098   0.0225   0.00    1.6
2018/03/11 14:24:39.000   78.249621162   16.122783982   655.5402   2   9   0.0253   0.0284   0.0613  -0.0045  -0.0097   0.0223   0.00    1.6
2018/03/11 14:24:40.000   78.249621169   16.122783915   655.5844   2   9   0.0251   0.0283   0.0607  -0.0045  -0.0095   0.0220   0.00    1.6
2018/03/11 14:24:41.000   78.249621164   16.122783797   655.6243   2   9   0.0250   0.0281   0.0601  -0.0045  -0.0094   0.0218   0.00    1.5
2018/03/11 14:24:42.000   78.249621153   16.122783674   655.6536   2   9   0.0248   0.0280   0.0596  -0.0045  -0.0093   0.0215   0.00    1.5
2018/03/11 14:24:43.000   78.249621151   16.122783530   655.6921   2   9   0.0247   0.0278   0.0590  -0.0045  -0.0092   0.0213   0.00    1.5
2018/03/11 14:24:44.000   78.249621127   16.122783420   655.7235   2   9   0.0245   0.0277   0.0585  -0.0045  -0.0091   0.0211   0.00    1.5
2018/03/11 14:24:45.000   78.249621112   16.122783372   655.7534   2   9   0.0244   0.0276   0.0579  -0.0044  -0.0089   0.0208   0.00    1.5
2018/03/11 14:24:46.000   78.249621073   16.122783299   655.7796   2   9   0.0242   0.0274   0.0574  -0.0044  -0.0088   0.0206   0.00    1.5
2018/03/11 14:24:47.000   78.249621066   16.122783151   655.8052   2   9   0.0241   0.0273   0.0569  -0.0044  -0.0087   0.0204   0.00    1.5
2018/03/11 14:24:48.000   78.249621051   16.122783060   655.8299   2   9   0.0239   0.0272   0.0564  -0.0044  -0.0086   0.0202   0.00    1.4
2018/03/11 14:24:49.000   78.249621040   16.122782950   655.8556   2   9   0.0238   0.0271   0.0559  -0.0044  -0.0085   0.0200   0.00    1.4
2018/03/11 14:24:50.000   78.249621016   16.122782946   655.8737   2   9   0.0237   0.0269   0.0554  -0.0044  -0.0084   0.0197   0.00    1.4
2018/03/11 14:24:51.000   78.249620988   16.122783011   655.8862   2   9   0.0235   0.0268   0.0549  -0.0044  -0.0083   0.0195   0.00    1.4
2018/03/11 14:24:52.000   78.249620950   16.122783106   655.8922   2   9   0.0234   0.0267   0.0544  -0.0043  -0.0082   0.0193   0.00    1.4
2018/03/11 14:24:53.000   78.249620901   16.122783081   655.8912   2   9   0.0232   0.0266   0.0540  -0.0043  -0.0081   0.0191   0.00    1.4
2018/03/11 14:24:54.000   78.249620861   16.122783164   655.8901   2   9   0.0231   0.0264   0.0535  -0.0043  -0.0080   0.0189   0.00    1.4
2018/03/11 14:24:55.000   78.249620804   16.122783260   655.8857   2   9   0.0230   0.0263   0.0530  -0.0043  -0.0079   0.0187   0.00    1.4
2018/03/11 14:24:56.000   78.249620744   16.122783370   655.8780   2   9   0.0228   0.0262   0.0526  -0.0043  -0.0078   0.0185   0.00    1.4
2018/03/11 14:24:57.000   78.249620665   16.122783540   655.8679   2   9   0.0227   0.0261   0.0521  -0.0043  -0.0077   0.0184   0.00    1.4
2018/03/11 14:24:58.000   78.249620571   16.122783789   655.8470   2   9   0.0226   0.0259   0.0517  -0.0043  -0.0076   0.0182   0.00    1.4
2018/03/11 14:24:59.000   78.249620473   16.122783989   655.8236   2   9   0.0224   0.0258   0.0513  -0.0043  -0.0075   0.0180   0.00    1.4
2018/03/11 14:25:00.000   78.249620357   16.122784264   655.7978   2   9   0.0223   0.0257   0.0508  -0.0043  -0.0074   0.0178   0.00    1.4
2018/03/11 14:25:01.000   78.249620244   16.122784633   655.7715   2   9   0.0222   0.0256   0.0504  -0.0043  -0.0073   0.0176   0.00    1.4
2018/03/11 14:25:02.000   78.249620123   16.122785068   655.7415   2   9   0.0221   0.0255   0.0500  -0.0042  -0.0072   0.0175   0.00    1.4
2018/03/11 14:25:03.000   78.249620007   16.122785352   655.7054   2   9   0.0219   0.0254   0.0496  -0.0042  -0.0071   0.0173   0.00    1.5
2018/03/11 14:25:04.000   78.249619885   16.122785686   655.6647   2   9   0.0218   0.0253   0.0492  -0.0042  -0.0070   0.0171   0.00    1.5
2018/03/11 14:25:05.000   78.249619762   16.122786112   655.6226   2   9   0.0217   0.0251   0.0488  -0.0042  -0.0070   0.0169   0.00    1.5
2018/03/11 14:25:06.000   78.249619627   16.122786512   655.5725   2   9   0.0216   0.0250   0.0484  -0.0042  -0.0069   0.0168   0.00    1.5
2018/03/11 14:25:07.000   78.249619468   16.122787016   655.5168   2   9   0.0215   0.0249   0.0480  -0.0042  -0.0068   0.0166   0.00    1.5
2018/03/11 14:25:08.000   78.249619308   16.122787529   655.4590   2   9   0.0213   0.0248   0.0476  -0.0042  -0.0067   0.0164   0.00    1.5
2018/03/11 14:25:09.000   78.249619161   16.122788008   655.4007   2   9   0.0212   0.0247   0.0473  -0.0042  -0.0066   0.0163   0.00    1.5
2018/03/11 14:25:10.000   78.249619022   16.122788364   655.3418   2   9   0.0211   0.0246   0.0469  -0.0042  -0.0065   0.0161   0.00    1.5
2018/03/11 14:25:11.000   78.249618898   16.122788674   655.2865   2   9   0.0210   0.0245   0.0465  -0.0042  -0.0065   0.0160   0.00    1.5
2018/03/11 14:25:12.000   78.249618778   16.122788939   655.2339   2   9   0.0209   0.0244   0.0461  -0.0042  -0.0064   0.0158   0.00    1.5
2018/03/11 14:25:13.000   78.249618657   16.122789215   655.1821   2   9   0.0208   0.0243   0.0458  -0.0042  -0.0063   0.0157   0.00    1.6
2018/03/11 14:25:14.000   78.249618537   16.122789461   655.1313   2   9   0.0207   0.0242   0.0454  -0.0042  -0.0062   0.0155   0.00    1.6
2018/03/11 14:25:15.000   78.249618431   16.122789743   655.0822   2   9   0.0205   0.0240   0.0451  -0.0042  -0.0061   0.0154   0.00    1.6
2018/03/11 14:25:16.000   78.249618322   16.122789995   655.0312   2   9   0.0204   0.0239   0.0447  -0.0042  -0.0061   0.0152   0.00    1.6
2018/03/11 14:25:17.000   78.249618215   16.122790230   654.9821   2   9   0.0203   0.0238   0.0444  -0.0041  -0.0060   0.0151   0.00    1.6
2018/03/11 14:25:18.000   78.249618119   16.122790451   654.9345   2   9   0.0202   0.0237   0.0441  -0.0041  -0.0059   0.0150   0.00    1.6
2018/03/11 14:25:19.000   78.249618027   16.122790643   654.8886   2   9   0.0201   0.0236   0.0437  -0.0041  -0.0059   0.0148   0.00    1.7
2018/03/11 14:25:20.000   78.249617947   16.122790834   654.8501   2   9   0.0200   0.0235   0.0434  -0.0041  -0.0058   0.0147   0.00    1.7
2018/03/11 14:25:21.000   78.249617857   16.122790984   654.8088   2   9   0.0199   0.0234   0.0431  -0.0041  -0.0057   0.0145   0.00    1.7
2018/03/11 14:25:22.000   78.249617768   16.122791036   654.7687   2   9   0.0198   0.0233   0.0428  -0.0041  -0.0056   0.0144   0.00    1.7
2018/03/11 14:25:23.000   78.249617669   16.122791113   654.7312   2   9   0.0197   0.0232   0.0425  -0.0041  -0.0056   0.0143   0.00    1.7
2018/03/11 14:25:24.000   78.249617573   16.122791182   654.6951   2   9   0.0196   0.0231   0.0421  -0.0041  -0.0055   0.0142   0.00    1.8
2018/03/11 14:25:25.000   78.249617490   16.122791260   654.6571   2   9   0.0195   0.0230   0.0418  -0.0041  -0.0054   0.0140   0.00    1.8
2018/03/11 14:25:26.000   78.249617397   16.122791296   654.6164   2   9   0.0194   0.0229   0.0415  -0.0041  -0.0054   0.0139   0.00    1.8
2018/03/11 14:25:27.000   78.249617320   16.122791354   654.5825   2   9   0.0193   0.0228   0.0412  -0.0041  -0.0053   0.0138   0.00    1.8
2018/03/11 14:25:28.000   78.249617237   16.122791386   654.5472   2   9   0.0192   0.0227   0.0409  -0.0041  -0.0052   0.0137   0.00    1.9
2018/03/11 14:25:29.000   78.249617165   16.122791405   654.5117   2   9   0.0191   0.0227   0.0406  -0.0041  -0.0052   0.0135   0.00    1.9
2018/03/11 14:25:30.000   78.249617095   16.122791372   654.4828   2   9   0.0190   0.0226   0.0404  -0.0041  -0.0051   0.0134   0.00    1.9
2018/03/11 14:25:31.000   78.249617041   16.122791272   654.4564   2   9   0.0189   0.0225   0.0401  -0.0041  -0.0050   0.0133   0.00    1.9
2018/03/11 14:25:32.000   78.249616987   16.122791134   654.4337   2   9   0.0188   0.0224   0.0398  -0.0041  -0.0050   0.0132   0.00    1.9
2018/03/11 14:25:33.000   78.249616948   16.122790998   654.4120   2   9   0.0187   0.0223   0.0395  -0.0041  -0.0049   0.0131   0.00    2.0
2018/03/11 14:25:34.000   78.249616912   16.122790804   654.3947   2   9   0.0186   0.0222   0.0392  -0.0041  -0.0049   0.0130   0.00    2.0
2018/03/11 14:25:35.000   78.249616883   16.122790690   654.3773   2   9   0.0185   0.0221   0.0390  -0.0041  -0.0048   0.0128   0.00    2.0
2018/03/11 14:25:36.000   78.249616841   16.122790555   654.3573   2   9   0.0184   0.0220   0.0387  -0.0040  -0.0047   0.0127   0.00    2.0
2018/03/11 14:25:37.000   78.249616788   16.122790466   654.3325   2   9   0.0184   0.0219   0.0384  -0.0040  -0.0047   0.0126   0.00    2.1
2018/03/11 14:25:38.000   78.249616721   16.122790503   654.3031   2   9   0.0183   0.0218   0.0382  -0.0040  -0.0046   0.0125   0.00    2.1
2018/03/11 14:25:39.000   78.249616655   16.122790579   654.2726   2   9   0.0182   0.0217   0.0379  -0.0040  -0.0046   0.0124   0.00    2.1
2018/03/11 14:25:40.000   78.249616579   16.122790699   654.2395   2   9   0.0181   0.0216   0.0376  -0.0040  -0.0045   0.0123   0.00    2.2
2018/03/11 14:25:41.000   78.249616498   16.122790777   654.2073   2   9   0.0180   0.0216   0.0374  -0.0040  -0.0044   0.0122   0.00    2.2
2018/03/11 14:25:42.000   78.249616431   16.122790870   654.1743   2   9   0.0179   0.0215   0.0371  -0.0040  -0.0044   0.0121   0.00    2.2
2018/03/11 14:25:43.000   78.249616359   16.122790940   654.1412   2   9   0.0178   0.0214   0.0369  -0.0040  -0.0043   0.0120   0.00    2.3
2018/03/11 14:25:44.000   78.249616296   16.122790923   654.1120   2   9   0.0177   0.0213   0.0366  -0.0040  -0.0043   0.0119   0.00    2.3
2018/03/11 14:25:45.000   78.249616246   16.122790902   654.0839   2   9   0.0176   0.0212   0.0364  -0.0040  -0.0042   0.0118   0.00    2.3
2018/03/11 14:25:46.000   78.249616209   16.122790810   654.0597   2   9   0.0176   0.0211   0.0362  -0.0040  -0.0042   0.0117   0.00    2.3
2018/03/11 14:25:47.000   78.249616178   16.122790659   654.0409   2   9   0.0175   0.0210   0.0359  -0.0040  -0.0041   0.0116   0.00    2.4
2018/03/11 14:25:48.000   78.249616162   16.122790508   654.0280   2   9   0.0174   0.0210   0.0357  -0.0040  -0.0041   0.0115   0.00    2.4
2018/03/11 14:25:49.000   78.249616169   16.122790194   654.0172   2   9   0.0173   0.0209   0.0355  -0.0040  -0.0040   0.0114   0.00    2.4
2018/03/11 14:25:50.000   78.249616184   16.122789939   654.0090   2   9   0.0172   0.0208   0.0352  -0.0040  -0.0039   0.0113   0.00    2.4
2018/03/11 14:25:51.000   78.249616200   16.122789631   654.0017   2   9   0.0172   0.0207   0.0350  -0.0040  -0.0039   0.0112   0.00    2.5
2018/03/11 14:25:52.000   78.249616240   16.122789376   653.9987   2   9   0.0171   0.0206   0.0348  -0.0040  -0.0038   0.0111   0.00    2.5
2018/03/11 14:25:53.000   78.249616292   16.122789036   654.0006   2   9   0.0170   0.0205   0.0346  -0.0040  -0.0038   0.0111   0.00    2.5
2018/03/11 14:25:54.000   78.249616352   16.122788653   654.0072   2   9   0.0169   0.0205   0.0343  -0.0040  -0.0037   0.0110   0.00    2.5
2018/03/11 14:25:55.000   78.249616425   16.122788227   654.0192   2   9   0.0168   0.0204   0.0341  -0.0040  -0.0037   0.0109   0.00    2.5
2018/03/11 14:25:56.000   78.249616510   16.122787732   654.0322   2   9   0.0168   0.0203   0.0339  -0.0040  -0.0036   0.0108   0.00    2.5
2018/03/11 14:25:57.000   78.249616602   16.122787222   654.0461   2   9   0.0167   0.0202   0.0337  -0.0039  -0.0036   0.0107   0.00    2.5
2018/03/11 14:25:58.000   78.249616699   16.122786722   654.0609   2   9   0.0166   0.0201   0.0335  -0.0039  -0.0035   0.0106   0.00    2.5
2018/03/11 14:25:59.000   78.249616801   16.122786273   654.0745   2   9   0.0165   0.0201   0.0333  -0.0039  -0.0035   0.0105   0.00    2.5
2018/03/11 14:26:00.000   78.249616892   16.122785809   654.0882   2   9   0.0164   0.0200   0.0331  -0.0039  -0.0034   0.0105   0.00    2.5
2018/03/11 14:26:01.000   78.249617001   16.122785333   654.1035   2   9   0.0164   0.0199   0.0329  -0.0039  -0.0034   0.0104   0.00    2.5
2018/03/11 14:26:02.000   78.249617117   16.122784848   654.1207   2   9   0.0163   0.0198   0.0327  -0.0039  -0.0034   0.0103   0.00    2.5
2018/03/11 14:26:03.000   78.249617235   16.122784313   654.1407   2   9   0.0162   0.0198   0.0325  -0.0039  -0.0033   0.0102   0.00    2.5
2018/03/11 14:26:04.000   78.249617355   16.122783837   654.1588   2   9   0.0162   0.0197   0.0323  -0.0039  -0.0033   0.0101   0.00    2.5
2018/03/11 14:26:05.000   78.249617477   16.122783303   654.1798   2   9   0.0161   0.0196   0.0321  -0.0039  -0.0032   0.0101   0.00    2.5
2018/03/11 14:26:06.000   78.249617593   16.122782813   654.1999   2   9   0.0160   0.0195   0.0319  -0.0039  -0.0032   0.0100   0.00    2.4
2018/03/11 14:26:07.000   78.249617694   16.122782272   654.2176   2   9   0.0159   0.0195   0.0317  -0.0039  -0.0031   0.0099   0.00    2.4
2018/03/11 14:26:08.000   78.249617802   16.122781792   654.2336   2   9   0.0159   0.0194   0.0315  -0.0039  -0.0031   0.0098   0.00    2.4
2018/03/11 14:26:09.000   78.249617895   16.122781292   654.2466   2   9   0.0158   0.0193   0.0313  -0.0039  -0.0030   0.0098   0.00    2.4
2018/03/11 14:26:10.000   78.249617974   16.122780810   654.2574   2   9   0.0157   0.0192   0.0311  -0.0039  -0.0030   0.0097   0.00    2.4
2018/03/11 14:26:11.000   78.249618047   16.122780310   654.2681   2   9   0.0157   0.0192   0.0309  -0.0039  -0.0029   0.0096   0.00    2.4
2018/03/11 14:26:12.000   78.249618121   16.122779853   654.2779   2   9   0.0156   0.0191   0.0308  -0.0039  -0.0029   0.0096   0.00    2.4
2018/03/11 14:26:13.000   78.249618191   16.122779341   654.2855   2   9   0.0155   0.0190   0.0306  -0.0039  -0.0029   0.0095   0.00    2.4
2018/03/11 14:26:14.000   78.249618252   16.122778865   654.2930   2   9   0.0154   0.0189   0.0304  -0.0039  -0.0028   0.0094   0.00    2.4
2018/03/11 14:26:15.000   78.249618307   16.122778417   654.2989   2   9   0.0154   0.0189   0.0302  -0.0039  -0.0028   0.0093   0.00    2.4
2018/03/11 14:26:16.000   78.249618350   16.122777997   654.3024   2   9   0.0153   0.0188   0.0301  -0.0039  -0.0027   0.0093   0.00    2.4
2018/03/11 14:26:17.000   78.249618397   16.122777621   654.3082   2   9   0.0152   0.0187   0.0299  -0.0038  -0.0027   0.0092   0.00    2.4
2018/03/11 14:26:18.000   78.249618428   16.122777264   654.3117   2   9   0.0152   0.0187   0.0297  -0.0038  -0.0026   0.0091   0.00    2.4
2018/03/11 14:26:19.000   78.249618466   16.122776887   654.3137   2   9   0.0151   0.0186   0.0295  -0.0038  -0.0026   0.0091   0.00    2.4
2018/03/11 14:26:20.000   78.249618508   16.122776508   654.3175   2   9   0.0150   0.0185   0.0294  -0.0038  -0.0026   0.0090   0.00    2.4
2018/03/11 14:26:21.000   78.249618550   16.122776184   654.3199   2   9   0.0150   0.0185   0.0292  -0.0038  -0.0025   0.0089   0.00    2.4
2018/03/11 14:26:22.000   78.249618600   16.122775858   654.3197   2   9   0.0149   0.0184   0.0290  -0.0038  -0.0025   0.0089   0.00    2.4
2018/03/11 14:26:23.000   78.249618638   16.122775527   654.3166   2   9   0.0149   0.0183   0.0289  -0.0038  -0.0024   0.0088   0.00    2.4
2018/03/11 14:26:24.000   78.249618673   16.122775215   654.3136   2   9   0.0148   0.0183   0.0287  -0.0038  -0.0024   0.0088   0.00    2.3
2018/03/11 14:26:25.000   78.249618707   16.122774939   654.3097   2   9   0.0147   0.0182   0.0286  -0.0038  -0.0023   0.0087   0.00    2.3
2018/03/11 14:26:26.000   78.249618736   16.122774718   654.3053   2   9   0.0147   0.0181   0.0284  -0.0038  -0.0023   0.0086   0.00    2.3
2018/03/11 14:26:27.000   78.249618770   16.122774543   654.3021   2   9   0.0146   0.0181   0.0282  -0.0038  -0.0023   0.0086   0.00    2.3
2018/03/11 14:26:28.000   78.249618800   16.122774356   654.2983   2   9   0.0145   0.0180   0.0281  -0.0038  -0.0022   0.0085   0.00    2.3
2018/03/11 14:26:29.000   78.249618829   16.122774170   654.2925   2   9   0.0145   0.0179   0.0279  -0.0038  -0.0022   0.0085   0.00    2.3
2018/03/11 14:26:30.000   78.249618855   16.122774055   654.2848   2   9   0.0144   0.0179   0.0278  -0.0038  -0.0021   0.0084   0.00    2.3
2018/03/11 14:26:31.000   78.249618887   16.122773979   654.2781   2   9   0.0144   0.0178   0.0276  -0.0038  -0.0021   0.0083   0.00    2.3
2018/03/11 14:26:32.000   78.249618920   16.122773852   654.2693   2   9   0.0143   0.0177   0.0275  -0.0038  -0.0021   0.0083   0.00    2.3
2018/03/11 14:26:33.000   78.249618953   16.122773721   654.2616   2   9   0.0142   0.0177   0.0273  -0.0038  -0.0020   0.0082   0.00    2.3
2018/03/11 14:26:34.000   78.249618985   16.122773654   654.2540   2   9   0.0142   0.0176   0.0272  -0.0038  -0.0020   0.0082   0.00    2.3
2018/03/11 14:26:35.000   78.249619010   16.122773567   654.2458   2   9   0.0141   0.0175   0.0270  -0.0038  -0.0019   0.0081   0.00    2.2
2018/03/11 14:26:36.000   78.249619037   16.122773529   654.2391   2   9   0.0141   0.0175   0.0269  -0.0038  -0.0019   0.0081   0.00    2.2
2018/03/11 14:26:37.000   78.249619059   16.122773468   654.2312   2   9   0.0140   0.0174   0.0268  -0.0037  -0.0019   0.0080   0.00    2.2
2018/03/11 14:26:38.000   78.249619089   16.122773394   654.2237   2   9   0.0140   0.0173   0.0266  -0.0037  -0.0018   0.0080   0.00    2.2
2018/03/11 14:26:39.000   78.249619120   16.122773339   654.2167   2   9   0.0139   0.0173   0.0265  -0.0037  -0.0018   0.0079   0.00    2.2
2018/03/11 14:26:40.000   78.249619161   16.122773261   654.2109   2   9   0.0138   0.0172   0.0263  -0.0037  -0.0018   0.0078   0.00    2.2
2018/03/11 14:26:41.000   78.249619195   16.122773188   654.2030   2   9   0.0138   0.0172   0.0262  -0.0037  -0.0017   0.0078   0.00    2.2
2018/03/11 14:26:42.000   78.249619236   16.122773132   654.1959   2   9   0.0137   0.0171   0.0261  -0.0037  -0.0017   0.0077   0.00    2.1
2018/03/11 14:26:43.000   78.249619278   16.122773086   654.1883   2   9   0.0137   0.0170   0.0259  -0.0037  -0.0016   0.0077   0.00    2.1
2018/03/11 14:26:44.000   78.249619326   16.122773038   654.1802   2   9   0.0136   0.0170   0.0258  -0.0037  -0.0016   0.0076   0.00    2.1
2018/03/11 14:26:45.000   78.249619358   16.122773024   654.1703   2   9   0.0136   0.0169   0.0257  -0.0037  -0.0016   0.0076   0.00    2.1
2018/03/11 14:26:46.000   78.249619393   16.122773044   654.1592   2   9   0.0135   0.0169   0.0255  -0.0037  -0.0015   0.0075   0.00    2.1
2018/03/11 14:26:47.000   78.249619425   16.122773066   654.1457   2   9   0.0135   0.0168   0.0254  -0.0037  -0.0015   0.0075   0.00    2.1
2018/03/11 14:26:48.000   78.249619448   16.122773069   654.1312   2   9   0.0134   0.0167   0.0253  -0.0037  -0.0014   0.0074   0.00    2.1
2018/03/11 14:26:49.000   78.249619466   16.122773129   654.1151   2   9   0.0133   0.0167   0.0251  -0.0037  -0.0014   0.0074   0.00    2.0
2018/03/11 14:26:50.000   78.249619481   16.122773162   654.0960   2   9   0.0133   0.0166   0.0250  -0.0037  -0.0014   0.0074   0.00    2.0
2018/03/11 14:26:51.000   78.249619501   16.122773177   654.0796   2   9   0.0132   0.0166   0.0249  -0.0037  -0.0013   0.0073   0.00    2.0
2018/03/11 14:26:51.999   78.249619515   16.122773170   654.0620   2   9   0.0132   0.0165   0.0248  -0.0037  -0.0013   0.0073   0.00    2.0
2018/03/11 14:26:53.000   78.249619528   16.122773199   654.0432   2   9   0.0131   0.0165   0.0246  -0.0037  -0.0012   0.0072   0.00    2.0
2018/03/11 14:26:54.000   78.249619530   16.122773254   654.0219   2   9   0.0131   0.0164   0.0245  -0.0037  -0.0012   0.0072   0.00    2.0
2018/03/11 14:26:55.000   78.249619532   16.122773349   654.0004   2   9   0.0130   0.0163   0.0244  -0.0037  -0.0011   0.0071   0.00    2.0
2018/03/11 14:26:56.000   78.249619524   16.122773467   653.9765   2   9   0.0130   0.0163   0.0243  -0.0036  -0.0011   0.0071   0.00    2.0
2018/03/11 14:26:57.000   78.249619505   16.122773587   653.9521   2   9   0.0129   0.0162   0.0242  -0.0036  -0.0010   0.0070   0.00    2.0
2018/03/11 14:26:58.000   78.249619485   16.122773706   653.9268   2   9   0.0129   0.0162   0.0240  -0.0036  -0.0010   0.0070   0.00    2.0
2018/03/11 14:26:59.000   78.249619463   16.122773805   653.9009   2   9   0.0128   0.0161   0.0239  -0.0036  -0.0010   0.0069   0.00    2.0
2018/03/11 14:27:00.000   78.249619438   16.122773881   653.8760   2   9   0.0128   0.0161   0.0238  -0.0036  -0.0009   0.0069   0.00    2.0
2018/03/11 14:27:01.000   78.249619412   16.122773933   653.8519   2   9   0.0127   0.0160   0.0237  -0.0036  -0.0009   0.0069   0.00    2.0
2018/03/11 14:27:02.000   78.249619391   16.122773977   653.8254   2   9   0.0127   0.0160   0.0236  -0.0036  -0.0008   0.0068   0.00    2.0
2018/03/11 14:27:03.000   78.249619360   16.122774010   653.7978   2   9   0.0126   0.0159   0.0235  -0.0036  -0.0007   0.0068   0.00    2.0
2018/03/11 14:27:04.000   78.249619328   16.122774078   653.7684   2   9   0.0126   0.0158   0.0233  -0.0036  -0.0007   0.0067   0.00    2.0
2018/03/11 14:27:05.000   78.249619289   16.122774119   653.7367   2   9   0.0125   0.0158   0.0232  -0.0036  -0.0006   0.0067   0.00    2.0
2018/03/11 14:27:06.000   78.249619258   16.122774173   653.7033   2   9   0.0125   0.0157   0.0231  -0.0036  -0.0006   0.0067   0.00    2.0
2018/03/11 14:27:07.000   78.249619222   16.122774225   653.6682   2   9   0.0124   0.0157   0.0230  -0.0036  -0.0005   0.0066   0.00    2.0
2018/03/11 14:27:08.000   78.249619189   16.122774253   653.6324   2   9   0.0124   0.0156   0.0229  -0.0036  -0.0004   0.0066   0.00    2.0
2018/03/11 14:27:09.000   78.249619160   16.122774213   653.5972   2   9   0.0124   0.0156   0.0228  -0.0036  -0.0003   0.0065   0.00    2.0
2018/03/11 14:27:10.000   78.249619124   16.122774158   653.5602   2   9   0.0123   0.0155   0.0227  -0.0036  -0.0001   0.0065   0.00    2.0
2018/03/11 14:27:11.000   78.249619096   16.122774120   653.5230   2   9   0.0123   0.0155   0.0226  -0.0036   0.0002   0.0065   0.00    2.0
2018/03/11 14:27:12.000   78.249619067   16.122774003   653.4871   2   9   0.0122   0.0154   0.0225  -0.0036   0.0004   0.0064   0.00    2.0
2018/03/11 14:27:13.000   78.249619038   16.122773937   653.4491   2   9   0.0122   0.0154   0.0224  -0.0036   0.0004   0.0064   0.00    2.0
2018/03/11 14:27:14.000   78.249619009   16.122773864   653.4128   2   9   0.0121   0.0153   0.0223  -0.0035   0.0005   0.0063   0.00    2.0
2018/03/11 14:27:15.000   78.249618985   16.122773774   653.3775   2   9   0.0121   0.0153   0.0222  -0.0035   0.0006   0.0063   0.00    2.0
2018/03/11 14:27:16.000   78.249618960   16.122773704   653.3445   2   9   0.0120   0.0152   0.0221  -0.0035   0.0006   0.0063   0.00    2.0
2018/03/11 14:27:17.000   78.249618933   16.122773580   653.3139   2   9   0.0120   0.0152   0.0220  -0.0035   0.0007   0.0062   0.00    2.0
2018/03/11 14:27:18.000   78.249618914   16.122773513   653.2846   2   9   0.0119   0.0151   0.0219  -0.0035   0.0007   0.0062   0.00    2.0
2018/03/11 14:27:19.000   78.249618904   16.122773409   653.2573   2   9   0.0119   0.0151   0.0218  -0.0035   0.0008   0.0062   0.00    2.0
2018/03/11 14:27:20.000   78.249618890   16.122773323   653.2303   2   9   0.0119   0.0150   0.0217  -0.0035   0.0008   0.0061   0.00    2.0
2018/03/11 14:27:21.000   78.249618878   16.122773273   653.2042   2   9   0.0118   0.0150   0.0216  -0.0035   0.0008   0.0061   0.00    2.0
2018/03/11 14:27:22.000   78.249618859   16.122773186   653.1792   2   9   0.0118   0.0149   0.0215  -0.0035   0.0009   0.0061   0.00    2.0
2018/03/11 14:27:23.000   78.249618834   16.122773067   653.1531   2   9   0.0117   0.0149   0.0214  -0.0035   0.0009   0.0060   0.00    2.0
2018/03/11 14:27:24.000   78.249618808   16.122772964   653.1280   2   9   0.0117   0.0148   0.0213  -0.0035   0.0009   0.0060   0.00    2.0
2018/03/11 14:27:25.000   78.249618784   16.122772838   653.1032   2   9   0.0116   0.0148   0.0212  -0.0035   0.0010   0.0060   0.00    2.0
2018/03/11 14:27:26.000   78.249618756   16.122772699   653.0790   2   9   0.0116   0.0147   0.0211  -0.0035   0.0010   0.0059   0.00    2.0
2018/03/11 14:27:27.000   78.249618733   16.122772602   653.0571   2   9   0.0116   0.0147   0.0210  -0.0035   0.0010   0.0059   0.00    2.0
2018/03/11 14:27:28.000   78.249618705   16.122772552   653.0351   2   9   0.0115   0.0146   0.0209  -0.0035   0.0010   0.0059   0.00    2.0
2018/03/11 14:27:29.000   78.249618677   16.122772550   653.0152   2   9   0.0115   0.0146   0.0208  -0.0035   0.0011   0.0058   0.00    2.0
2018/03/11 14:27:30.000   78.249618649   16.122772581   652.9972   2   9   0.0114   0.0145   0.0207  -0.0035   0.0011   0.0058   0.00    2.0
2018/03/11 14:27:31.000   78.249618623   16.122772636   652.9798   2   9   0.0114   0.0145   0.0206  -0.0034   0.0011   0.0058   0.00    2.0
2018/03/11 14:27:32.000   78.249618593   16.122772706   652.9637   2   9   0.0114   0.0144   0.0205  -0.0034   0.0011   0.0057   0.00    2.0
2018/03/11 14:27:33.000   78.249618564   16.122772804   652.9485   2   9   0.0113   0.0144   0.0204  -0.0034   0.0011   0.0057   0.00    2.0
2018/03/11 14:27:34.000   78.249618537   16.122772903   652.9345   2   9   0.0113   0.0144   0.0204  -0.0034   0.0012   0.0057   0.00    2.0
2018/03/11 14:27:35.000   78.249618508   16.122773009   652.9209   2   9   0.0112   0.0143   0.0203  -0.0034   0.0012   0.0056   0.00    2.0
2018/03/11 14:27:36.000   78.249618475   16.122773113   652.9072   2   9   0.0112   0.0143   0.0202  -0.0034   0.0012   0.0056   0.00    2.0
2018/03/11 14:27:37.000   78.249618436   16.122773212   652.8940   2   9   0.0112   0.0142   0.0201  -0.0034   0.0012   0.0056   0.00    2.0
2018/03/11 14:27:38.000   78.249618394   16.122773348   652.8804   2   9   0.0111   0.0142   0.0200  -0.0034   0.0012   0.0055   0.00    2.1
2018/03/11 14:27:39.000   78.249618348   16.122773425   652.8683   2   9   0.0111   0.0141   0.0199  -0.0034   0.0012   0.0055   0.00    2.1
2018/03/11 14:27:40.000   78.249618299   16.122773559   652.8560   2   9   0.0110   0.0141   0.0198  -0.0034   0.0013   0.0055   0.00    2.1
2018/03/11 14:27:41.000   78.249618255   16.122773645   652.8458   2   9   0.0110   0.0140   0.0198  -0.0034   0.0013   0.0055   0.00    2.1
2018/03/11 14:27:42.000   78.249618208   16.122773706   652.8354   2   9   0.0110   0.0140   0.0197  -0.0034   0.0013   0.0054   0.00    2.1
2018/03/11 14:27:43.000   78.249618158   16.122773775   652.8259   2   9   0.0109   0.0140   0.0196  -0.0034   0.0013   0.0054   0.00    2.1
2018/03/11 14:27:44.000   78.249618105   16.122773898   652.8156   2   9   0.0109   0.0139   0.0195  -0.0034   0.0013   0.0054   0.00    2.2
2018/03/11 14:27:45.000   78.249618047   16.122773996   652.8064   2   9   0.0109   0.0139   0.0194  -0.0034   0.0013   0.0053   0.00    2.2
2018/03/11 14:27:46.000   78.249617985   16.122774131   652.7972   2   9   0.0108   0.0138   0.0193  -0.0034   0.0013   0.0053   0.00    2.2
2018/03/11 14:27:47.000   78.249617920   16.122774285   652.7883   2   9   0.0108   0.0138   0.0193  -0.0034   0.0013   0.0053   0.00    2.2
2018/03/11 14:27:48.000   78.249617850   16.122774429   652.7809   2   9   0.0107   0.0137   0.0192  -0.0034   0.0014   0.0053   0.00    2.3
2018/03/11 14:27:49.000   78.249617779   16.122774552   652.7724   2   9   0.0107   0.0137   0.0191  -0.0033   0.0014   0.0052   0.00    2.3
2018/03/11 14:27:50.000   78.249617710   16.122774699   652.7661   2   9   0.0107   0.0137   0.0190  -0.0033   0.0014   0.0052   0.00    2.3
2018/03/11 14:27:51.000   78.249617645   16.122774830   652.7597   2   9   0.0106   0.0136   0.0189  -0.0033   0.0014   0.0052   0.00    2.3
2018/03/11 14:27:52.000   78.249617583   16.122774973   652.7525   2   9   0.0106   0.0136   0.0189  -0.0033   0.0014   0.0051   0.00    2.4
2018/03/11 14:27:53.000   78.249617523   16.122775110   652.7440   2   9   0.0106   0.0135   0.0188  -0.0033   0.0014   0.0051   0.00    2.4
2018/03/11 14:27:54.000   78.249617462   16.122775257   652.7353   2   9   0.0105   0.0135   0.0187  -0.0033   0.0014   0.0051   0.00    2.4
2018/03/11 14:27:55.000   78.249617398   16.122775387   652.7259   2   9   0.0105   0.0134   0.0186  -0.0033   0.0014   0.0051   0.00    2.5
2018/03/11 14:27:56.000   78.249617328   16.122775514   652.7167   2   9   0.0105   0.0134   0.0186  -0.0033   0.0014   0.0050   0.00    2.5
2018/03/11 14:27:57.000   78.249617253   16.122775649   652.7076   2   9   0.0104   0.0134   0.0185  -0.0033   0.0014   0.0050   0.00    2.6
2018/03/11 14:27:58.000   78.249617178   16.122775771   652.6987   2   9   0.0104   0.0133   0.0184  -0.0033   0.0014   0.0050   0.00    2.6
2018/03/11 14:27:59.000   78.249617096   16.122775864   652.6894   2   9   0.0103   0.0133   0.0183  -0.0033   0.0015   0.0050   0.00    2.7
2018/03/11 14:28:00.000   78.249617011   16.122775974   652.6795   2   9   0.0103   0.0132   0.0183  -0.0033   0.0015   0.0049   0.00    2.7
2018/03/11 14:28:01.000   78.249616920   16.122776065   652.6688   2   9   0.0103   0.0132   0.0182  -0.0033   0.0015   0.0049   0.00    2.8
2018/03/11 14:28:02.000   78.249616834   16.122776159   652.6587   2   9   0.0102   0.0132   0.0181  -0.0033   0.0015   0.0049   0.00    2.9
2018/03/11 14:28:03.000   78.249616739   16.122776243   652.6480   2   9   0.0102   0.0131   0.0180  -0.0033   0.0015   0.0049   0.00    2.9
2018/03/11 14:28:04.000   78.249610715   16.122780193   652.5507   1   9   0.0004   0.0002   0.0016  -0.0001  -0.0003   0.0007   0.00    3.0
2018/03/11 14:28:05.000   78.249610714   16.122780192   652.5501   1   9   0.0004   0.0002   0.0016  -0.0001  -0.0003   0.0007   0.00    3.1
2018/03/11 14:28:06.000   78.249610713   16.122780190   652.5495   1   9   0.0004   0.0002   0.0016  -0.0001  -0.0003   0.0007   0.00    3.2
2018/03/11 14:28:07.000   78.249610712   16.122780188   652.5489   1   9   0.0004   0.0002   0.0016  -0.0001  -0.0003   0.0007   0.00    3.3
2018/03/11 14:28:08.000   78.249610711   16.122780187   652.5483   1   9   0.0004   0.0002   0.0016  -0.0001  -0.0003   0.0007   0.00    3.3
2018/03/11 14:28:09.000   78.249610710   16.122780185   652.5477   1   9   0.0004   0.0002   0.0016  -0.0001  -0.0003   0.0007   0.00    3.4
2018/03/11 14:28:10.000   78.249610709   16.122780184   652.5470   1   9   0.0004   0.0002   0.0016  -0.0001  -0.0003   0.0007   0.00    3.5
2018/03/11 14:28:11.000   78.249610708   16.122780181   652.5464   1   9   0.0004   0.0002   0.0016  -0.0001  -0.0003   0.0007   0.00    3.6
2018/03/11 14:28:12.000   78.249610707   16.122780180   652.5458   1   9   0.0004   0.0002   0.0016  -0.0001  -0.0003   0.0007   0.00    3.7
2018/03/11 14:28:13.000   78.249610706   16.122780177   652.5452   1   9   0.0004   0.0002   0.0016  -0.0001  -0.0003   0.0007   0.00    3.8
2018/03/11 14:28:14.000   78.249610706   16.122780175   652.5447   1   9   0.0004   0.0002   0.0016  -0.0001  -0.0003   0.0007   0.00    6.8
2018/03/11 14:28:15.000   78.249610705   16.122780173   652.5442   1   9   0.0004   0.0002   0.0016  -0.0001  -0.0003   0.0007   0.00    7.8
2018/03/11 14:28:16.000   78.249610704   16.122780171   652.5438   1   9   0.0004   0.0002   0.0016  -0.0001  -0.0003   0.0007   0.00    8.7
2018/03/11 14:28:17.000   78.249610703   16.122780169   652.5432   1   9   0.0004   0.0002   0.0016  -0.0001  -0.0003   0.0007   0.00    9.4
2018/03/11 14:28:18.000   78.249610703   16.122780168   652.5427   1   9   0.0004   0.0002   0.0016  -0.0001  -0.0003   0.0007   0.00    9.9
2018/03/11 14:28:19.000   78.249610702   16.122780166   652.5422   1   9   0.0004   0.0002   0.0016  -0.0001  -0.0003   0.0007   0.00   10.3
2018/03/11 14:28:20.000   78.249610701   16.122780163   652.5417   1   9   0.0004   0.0002   0.0016  -0.0001  -0.0003   0.0007   0.00   10.8
2018/03/11 14:28:21.000   78.249610700   16.122780161   652.5413   1   9   0.0004   0.0002   0.0016  -0.0001  -0.0003   0.0007   0.00   11.2
2018/03/11 14:28:22.000   78.249610699   16.122780159   652.5409   1   9   0.0004   0.0002   0.0016  -0.0001  -0.0003   0.0007   0.00   11.7
2018/03/11 14:28:23.000   78.249610699   16.122780156   652.5405   1   9   0.0004   0.0002   0.0016  -0.0001  -0.0003   0.0007   0.00   12.2
2018/03/11 14:28:24.000   78.249610698   16.122780154   652.5401   1   9   0.0004   0.0002   0.0016  -0.0001  -0.0003   0.0007   0.00   12.8
2018/03/11 14:28:25.000   78.249610698   16.122780151   652.5397   1   9   0.0004   0.0002   0.0016  -0.0001  -0.0003   0.0007   0.00   13.3
2018/03/11 14:28:26.000   78.249610697   16.122780149   652.5392   1   9   0.0004   0.0002   0.0016  -0.0001  -0.0003   0.0007   0.00   14.0
2018/03/11 14:28:27.000   78.249610725   16.122780150   652.5588   2  10   0.0013   0.0009   0.0053  -0.0002  -0.0004   0.0025   0.00    1.0
2018/03/11 14:28:28.000   78.249610724   16.122780148   652.5583   2  10   0.0013   0.0009   0.0053  -0.0002  -0.0004   0.0025   0.00    1.1
2018/03/11 14:28:29.000   78.249610723   16.122780146   652.5577   2  10   0.0013   0.0009   0.0053  -0.0002  -0.0004   0.0025   0.00    1.1
2018/03/11 14:28:30.000   78.249610722   16.122780144   652.5572   2  10   0.0013   0.0009   0.0053  -0.0002  -0.0004   0.0025   0.00    1.1
2018/03/11 14:28:31.000   78.249610721   16.122780142   652.5566   2  10   0.0013   0.0009   0.0053  -0.0002  -0.0004   0.0025   0.00    1.1
2018/03/11 14:28:32.000   78.249610720   16.122780141   652.5561   2  10   0.0013   0.0009   0.0053  -0.0002  -0.0004   0.0025   0.00    1.2
2018/03/11 14:28:33.000   78.249610719   16.122780139   652.5555   2  10   0.0013   0.0009   0.0052  -0.0002  -0.0004   0.0025   0.00    1.2
2018/03/11 14:28:34.000   78.249610718   16.122780138   652.5551   2  10   0.0013   0.0009   0.0052  -0.0002  -0.0004   0.0025   0.00    1.3
2018/03/11 14:28:35.000   78.249610718   16.122780136   652.5547   2  10   0.0013   0.0009   0.0052  -0.0002  -0.0004   0.0025   0.00    1.3
2018/03/11 14:28:36.000   78.249610717   16.122780135   652.5544   2  10   0.0013   0.0009   0.0052  -0.0002  -0.0004   0.0025   0.00    1.3
2018/03/11 14:28:37.000   78.249610717   16.122780134   652.5540   2  10   0.0013   0.0009   0.0052  -0.0002  -0.0004   0.0025   0.00    1.4
2018/03/11 14:28:38.000   78.249610717   16.122780133   652.5536   2  10   0.0013   0.0009   0.0052  -0.0002  -0.0004   0.0025   0.00    1.4
2018/03/11 14:28:39.000   78.249610716   16.122780131   652.5532   2  10   0.0013   0.0009   0.0052  -0.0002  -0.0004   0.0025   0.00    1.5
2018/03/11 14:28:40.000   78.249610716   16.122780130   652.5527   2  10   0.0013   0.0009   0.0052  -0.0002  -0.0004   0.0025   0.00    1.5
2018/03/11 14:28:41.000   78.249610715   16.122780129   652.5520   2  10   0.0013   0.0009   0.0052  -0.0002  -0.0004   0.0025   0.00    1.6
2018/03/11 14:28:42.000   78.249610714   16.122780128   652.5515   2  10   0.0013   0.0009   0.0052  -0.0002  -0.0004   0.0025   0.00    1.6
2018/03/11 14:28:43.000   78.249610713   16.122780128   652.5508   2  10   0.0013   0.0009   0.0052  -0.0002  -0.0004   0.0025   0.00    1.6
2018/03/11 14:28:44.000   78.249610712   16.122780128   652.5500   2  10   0.0013   0.0009   0.0052  -0.0002  -0.0004   0.0025   0.00    1.7
2018/03/11 14:28:45.000   78.249610712   16.122780128   652.5494   2  10   0.0013   0.0009   0.0052  -0.0002  -0.0004   0.0025   0.00    1.7
2018/03/11 14:28:46.000   78.249610711   16.122780128   652.5489   2  10   0.0013   0.0009   0.0052  -0.0002  -0.0004   0.0025   0.00    1.8
2018/03/11 14:28:47.000   78.249610710   16.122780128   652.5483   2  10   0.0013   0.0009   0.0052  -0.0002  -0.0004   0.0025   0.00    1.8
2018/03/11 14:28:48.000   78.249610709   16.122780129   652.5476   2  10   0.0013   0.0009   0.0052  -0.0002  -0.0004   0.0025   0.00    1.9
2018/03/11 14:28:49.000   78.249610708   16.122780129   652.5469   2  10   0.0013   0.0009   0.0052  -0.0002  -0.0004   0.0025   0.00    1.9
2018/03/11 14:28:50.000   78.249610707   16.122780129   652.5463   2  10   0.0013   0.0009   0.0052  -0.0002  -0.0004   0.0025   0.00    2.0
2018/03/11 14:28:51.000   78.249610706   16.122780129   652.5457   2  10   0.0013   0.0009   0.0052  -0.0002  -0.0004   0.0025   0.00    2.1
2018/03/11 14:28:52.000   78.249610705   16.122780129   652.5451   2  10   0.0013   0.0009   0.0052  -0.0002  -0.0004   0.0025   0.00    2.1
2018/03/11 14:28:53.000   78.249610704   16.122780129   652.5445   2  10   0.0013   0.0009   0.0052  -0.0002  -0.0004   0.0025   0.00    2.2
2018/03/11 14:28:54.000   78.249610703   16.122780130   652.5438   2  10   0.0013   0.0009   0.0052  -0.0002  -0.0004   0.0025   0.00    2.3
2018/03/11 14:28:55.000   78.249610702   16.122780130   652.5431   2  10   0.0013   0.0009   0.0052  -0.0002  -0.0004   0.0025   0.00    2.3
2018/03/11 14:28:56.000   78.249610701   16.122780130   652.5422   2  10   0.0013   0.0009   0.0052  -0.0002  -0.0004   0.0025   0.00    2.4
2018/03/11 14:28:57.000   78.249610699   16.122780130   652.5414   2  10   0.0013   0.0009   0.0052  -0.0002  -0.0004   0.0025   0.00    2.5
2018/03/11 14:28:58.000   78.249610698   16.122780130   652.5406   2  10   0.0013   0.0009   0.0052  -0.0002  -0.0004   0.0025   0.00    2.5
2018/03/11 14:28:59.000   78.249610697   16.122780130   652.5400   2  10   0.0013   0.0009   0.0052  -0.0002  -0.0004   0.0025   0.00    2.6
2018/03/11 14:29:00.000   78.249610696   16.122780131   652.5394   2  10   0.0013   0.0009   0.0052  -0.0002  -0.0004   0.0025   0.00    2.7
2018/03/11 14:29:01.000   78.249610695   16.122780131   652.5389   2  10   0.0013   0.0009   0.0052  -0.0002  -0.0004   0.0025   0.00    2.8
2018/03/11 14:29:02.000   78.249610695   16.122780131   652.5385   2  10   0.0013   0.0009   0.0052  -0.0002  -0.0004   0.0025   0.00    2.8
2018/03/11 14:29:03.000   78.249610694   16.122780132   652.5380   2  10   0.0013   0.0009   0.0052  -0.0002  -0.0004   0.0025   0.00    2.9
2018/03/11 14:29:04.000   78.249610693   16.122780133   652.5374   2  10   0.0013   0.0009   0.0052  -0.0002  -0.0004   0.0025   0.00    3.0
2018/03/11 14:29:05.000   78.249610683   16.122780132   652.5231   1  10   0.0003   0.0002   0.0015  -0.0001  -0.0003   0.0006   0.00    3.0
