% program   : RTKPOST ver.2.4.2
% inp file  : Z:\home\linda\Documents\Spring18\GitHub_Unis\data\processed_data\46250729.obs
% inp file  : Z:\home\linda\Documents\Spring18\GitHub_Unis\data\base_station_data\lyrs0720.18o
% inp file  : Z:\home\linda\Documents\Spring18\GitHub_Unis\data\processed_data\46250729.nav
% obs start : 2018/03/13 15:17:03.0 GPST (week1992 227823.0s)
% obs end   : 2018/03/13 15:33:35.0 GPST (week1992 228815.0s)
% pos mode  : static
% freqs     : L1+L2
% solution  : forward
% elev mask : 15.0 deg
% dynamics  : on
% tidecorr  : off
% ionos opt : broadcast
% tropo opt : saastamoinen
% ephemeris : broadcast
% navi sys  : gps glonass galileo qzss sbas
% amb res   : fix and hold
% amb glo   : on
% val thres : 3.0
% antenna1  :                       ( 0.0000  0.0000  0.0000)
% antenna2  :                       ( 0.0000  0.0000  0.0000)
% ref pos   : 78.228825638   15.397310064   495.6816
%
% (lat/lon/height=WGS84/ellipsoidal,Q=1:fix,2:float,3:sbas,4:dgps,5:single,6:ppp,ns=# of satellites)
%  GPST                  latitude(deg) longitude(deg)  height(m)   Q  ns   sdn(m)   sde(m)   sdu(m)  sdne(m)  sdeu(m)  sdun(m) age(s)  ratio
2018/03/13 15:17:03.000   78.255291124   16.193791953   488.1482   2  11   0.4232   0.3182   1.3979  -0.0933   0.1272   0.5092   0.00    1.2
2018/03/13 15:17:04.000   78.255290933   16.193787059   487.4176   2  11   0.3014   0.2261   0.9944  -0.0668   0.0894   0.3636   0.00    1.2
2018/03/13 15:17:05.000   78.255290832   16.193787801   487.8587   2  11   0.2467   0.1849   0.8133  -0.0548   0.0728   0.2977   0.00    1.1
2018/03/13 15:17:06.000   78.255291072   16.193788608   487.9852   2  11   0.2139   0.1602   0.7046  -0.0476   0.0628   0.2581   0.00    1.0
2018/03/13 15:17:07.000   78.255291407   16.193788517   488.1846   2  11   0.1914   0.1434   0.6300  -0.0427   0.0560   0.2308   0.00    1.0
2018/03/13 15:17:08.000   78.255291770   16.193787073   488.1997   2  11   0.1747   0.1309   0.5747  -0.0390   0.0510   0.2106   0.00    1.1
2018/03/13 15:17:09.000   78.255291695   16.193787496   488.1274   2  11   0.1618   0.1212   0.5316  -0.0362   0.0470   0.1948   0.00    1.2
2018/03/13 15:17:10.000   78.255291683   16.193787084   488.0783   2  11   0.1513   0.1134   0.4966  -0.0339   0.0438   0.1820   0.00    1.3
2018/03/13 15:17:11.000   78.255291718   16.193787140   487.9794   2  11   0.1426   0.1069   0.4675  -0.0320   0.0411   0.1714   0.00    1.3
2018/03/13 15:17:12.000   78.255291586   16.193786598   487.9568   2  11   0.1353   0.1014   0.4427  -0.0304   0.0388   0.1623   0.00    1.4
2018/03/13 15:17:13.000   78.255291589   16.193786034   487.9826   2  11   0.1289   0.0967   0.4212  -0.0290   0.0368   0.1544   0.00    1.4
2018/03/13 15:17:14.000   78.255291542   16.193786498   488.0135   2  11   0.1233   0.0926   0.4024  -0.0278   0.0350   0.1475   0.00    1.4
2018/03/13 15:17:15.000   78.255291621   16.193786435   488.0328   2  11   0.1184   0.0889   0.3857  -0.0268   0.0334   0.1413   0.00    1.4
2018/03/13 15:17:16.000   78.255291523   16.193786102   488.0360   2  11   0.1141   0.0857   0.3707  -0.0259   0.0320   0.1358   0.00    1.4
2018/03/13 15:17:17.000   78.255291460   16.193785821   487.9927   2  11   0.1101   0.0828   0.3571  -0.0250   0.0306   0.1308   0.00    1.4
2018/03/13 15:17:18.000   78.255291607   16.193785592   488.0495   2  11   0.1068   0.0801   0.3448  -0.0246   0.0297   0.1261   0.00    1.0
2018/03/13 15:17:19.000   78.255291730   16.193785504   488.0670   2  10   0.1039   0.0778   0.3336  -0.0245   0.0290   0.1217   0.00    1.0
2018/03/13 15:17:20.000   78.255291800   16.193785298   488.0709   2  10   0.1013   0.0756   0.3232  -0.0243   0.0283   0.1176   0.00    1.0
2018/03/13 15:17:21.000   78.255291814   16.193784843   488.0635   2  10   0.0988   0.0736   0.3135  -0.0241   0.0276   0.1138   0.00    1.0
2018/03/13 15:17:22.000   78.255291890   16.193784392   488.0517   2  10   0.0965   0.0718   0.3046  -0.0239   0.0270   0.1103   0.00    1.1
2018/03/13 15:17:23.000   78.255291851   16.193784271   488.0194   2  11   0.0942   0.0701   0.2963  -0.0235   0.0263   0.1072   0.00    1.1
2018/03/13 15:17:24.000   78.255291966   16.193784382   488.0426   2  11   0.0920   0.0685   0.2884  -0.0231   0.0255   0.1042   0.00    1.1
2018/03/13 15:17:25.000   78.255291905   16.193784494   488.0665   2  11   0.0900   0.0669   0.2810  -0.0227   0.0248   0.1015   0.00    1.1
2018/03/13 15:17:26.000   78.255291896   16.193784938   488.0652   2  11   0.0881   0.0655   0.2741  -0.0224   0.0242   0.0988   0.00    1.1
2018/03/13 15:17:27.000   78.255292104   16.193785217   488.1431   2  11   0.0862   0.0642   0.2674  -0.0221   0.0235   0.0964   0.00    1.0
2018/03/13 15:17:28.000   78.255292310   16.193785758   488.1887   2  11   0.0848   0.0629   0.2620  -0.0219   0.0225   0.0948   0.00    1.0
2018/03/13 15:17:29.000   78.255292254   16.193786360   488.1329   2  11   0.0834   0.0617   0.2565  -0.0217   0.0207   0.0933   0.00    1.0
2018/03/13 15:17:30.000   78.255292363   16.193786502   488.1120   2  11   0.0821   0.0605   0.2513  -0.0215   0.0190   0.0918   0.00    1.0
2018/03/13 15:17:31.000   78.255292371   16.193786645   488.0932   2  11   0.0808   0.0594   0.2462  -0.0213   0.0173   0.0904   0.00    1.1
2018/03/13 15:17:32.000   78.255292330   16.193787117   488.0753   2  11   0.0795   0.0584   0.2413  -0.0210   0.0156   0.0890   0.00    1.1
2018/03/13 15:17:33.000   78.255292422   16.193787435   488.0389   2  11   0.0782   0.0574   0.2365  -0.0207   0.0139   0.0876   0.00    1.2
2018/03/13 15:17:34.000   78.255292439   16.193787674   488.0227   2  11   0.0770   0.0564   0.2319  -0.0204   0.0122   0.0863   0.00    1.3
2018/03/13 15:17:35.000   78.255292313   16.193788287   487.9744   2  11   0.0758   0.0555   0.2275  -0.0202   0.0105   0.0850   0.00    1.3
2018/03/13 15:17:36.000   78.255292155   16.193788518   487.9653   2  11   0.0747   0.0546   0.2232  -0.0199   0.0087   0.0836   0.00    1.4
2018/03/13 15:17:37.000   78.255292105   16.193788677   487.9799   2  11   0.0736   0.0538   0.2191  -0.0197   0.0067   0.0823   0.00    1.3
2018/03/13 15:17:38.000   78.255292021   16.193788823   488.0267   2  11   0.0726   0.0530   0.2150  -0.0195   0.0042   0.0811   0.00    1.3
2018/03/13 15:17:39.000   78.255291934   16.193789011   488.0791   2  11   0.0715   0.0522   0.2111  -0.0192  -0.0026   0.0798   0.00    1.3
2018/03/13 15:17:40.000   78.255291866   16.193789346   488.1326   2  11   0.0705   0.0515   0.2073  -0.0190  -0.0054   0.0786   0.00    1.3
2018/03/13 15:17:41.000   78.255291913   16.193789585   488.2056   2  11   0.0696   0.0508   0.2036  -0.0188  -0.0070   0.0773   0.00    1.2
2018/03/13 15:17:42.000   78.255291938   16.193789582   488.2692   2  11   0.0686   0.0501   0.2000  -0.0186  -0.0081   0.0761   0.00    1.2
2018/03/13 15:17:43.000   78.255292081   16.193790029   488.3387   2  11   0.0677   0.0494   0.1967  -0.0184  -0.0090   0.0750   0.00    1.0
2018/03/13 15:17:44.000   78.255291990   16.193789805   488.3562   2  11   0.0669   0.0488   0.1934  -0.0183  -0.0098   0.0739   0.00    1.1
2018/03/13 15:17:45.000   78.255291986   16.193789640   488.3975   2  11   0.0660   0.0482   0.1902  -0.0181  -0.0104   0.0728   0.00    1.1
2018/03/13 15:17:46.000   78.255291892   16.193789601   488.4233   2  11   0.0652   0.0476   0.1870  -0.0179  -0.0110   0.0717   0.00    1.2
2018/03/13 15:17:47.000   78.255291728   16.193789144   488.3988   2  11   0.0644   0.0470   0.1840  -0.0177  -0.0115   0.0706   0.00    1.1
2018/03/13 15:17:48.000   78.255291678   16.193788741   488.3917   2  10   0.0636   0.0465   0.1813  -0.0176  -0.0112   0.0696   0.00    1.1
2018/03/13 15:17:49.000   78.255291405   16.193788639   488.3295   2  11   0.0629   0.0460   0.1785  -0.0174  -0.0116   0.0685   0.00    1.0
2018/03/13 15:17:50.000   78.255291222   16.193788426   488.3128   2  11   0.0621   0.0455   0.1757  -0.0173  -0.0120   0.0676   0.00    1.0
2018/03/13 15:17:51.000   78.255290952   16.193788265   488.2842   2  11   0.0614   0.0450   0.1731  -0.0171  -0.0123   0.0666   0.00    1.0
2018/03/13 15:17:52.000   78.255290710   16.193788079   488.2046   2  11   0.0608   0.0445   0.1708  -0.0169  -0.0122   0.0659   0.00    1.0
2018/03/13 15:17:53.000   78.255290414   16.193787681   488.1121   2   9   0.0602   0.0441   0.1687  -0.0167  -0.0114   0.0652   0.00    1.0
2018/03/13 15:17:54.000   78.255290124   16.193787362   487.9986   2   9   0.0596   0.0438   0.1667  -0.0164  -0.0107   0.0645   0.00    1.0
2018/03/13 15:17:55.000   78.255289803   16.193787054   487.8790   2   9   0.0590   0.0434   0.1646  -0.0162  -0.0099   0.0638   0.00    1.0
2018/03/13 15:17:56.000   78.255289403   16.193786277   487.7767   2  10   0.0585   0.0430   0.1626  -0.0161  -0.0094   0.0631   0.00    1.0
2018/03/13 15:17:57.000   78.255288990   16.193785619   487.6465   2  10   0.0579   0.0427   0.1606  -0.0159  -0.0089   0.0624   0.00    1.0
2018/03/13 15:17:58.000   78.255288360   16.193784868   487.4728   2  10   0.0574   0.0423   0.1586  -0.0157  -0.0085   0.0617   0.00    1.2
2018/03/13 15:17:59.000   78.255288064   16.193784788   487.3606   2  10   0.0569   0.0420   0.1567  -0.0156  -0.0081   0.0610   0.00    1.2
2018/03/13 15:18:00.000   78.255287726   16.193784735   487.2225   2  10   0.0564   0.0417   0.1548  -0.0155  -0.0078   0.0604   0.00    1.2
2018/03/13 15:18:01.000   78.255287362   16.193784817   487.0847   2  10   0.0559   0.0414   0.1530  -0.0154  -0.0075   0.0598   0.00    1.2
2018/03/13 15:18:02.000   78.255286967   16.193784855   486.9293   2  10   0.0554   0.0411   0.1511  -0.0153  -0.0073   0.0591   0.00    1.1
2018/03/13 15:18:03.000   78.255286553   16.193784894   486.7518   2  10   0.0550   0.0408   0.1493  -0.0153  -0.0070   0.0585   0.00    1.1
2018/03/13 15:18:04.000   78.255286084   16.193785001   486.5751   2  10   0.0545   0.0405   0.1475  -0.0152  -0.0068   0.0579   0.00    1.1
2018/03/13 15:18:05.000   78.255285667   16.193785069   486.4081   2  10   0.0541   0.0402   0.1458  -0.0151  -0.0065   0.0573   0.00    1.1
2018/03/13 15:18:06.000   78.255285214   16.193785433   486.2295   2  10   0.0536   0.0399   0.1440  -0.0150  -0.0063   0.0567   0.00    1.1
2018/03/13 15:18:07.000   78.255284815   16.193785654   486.0556   2  10   0.0532   0.0397   0.1423  -0.0149  -0.0061   0.0561   0.00    1.1
2018/03/13 15:18:08.000   78.255284412   16.193785820   485.8883   2  10   0.0528   0.0394   0.1406  -0.0148  -0.0059   0.0555   0.00    1.1
2018/03/13 15:18:09.000   78.255284027   16.193786038   485.7221   2  10   0.0524   0.0391   0.1389  -0.0147  -0.0058   0.0549   0.00    1.0
2018/03/13 15:18:10.000   78.255283576   16.193786126   485.5414   2  10   0.0520   0.0389   0.1373  -0.0146  -0.0056   0.0543   0.00    1.0
2018/03/13 15:18:11.000   78.255283095   16.193786407   485.3595   2  10   0.0516   0.0386   0.1356  -0.0146  -0.0055   0.0537   0.00    1.0
2018/03/13 15:18:12.000   78.255282587   16.193786643   485.1558   2  10   0.0512   0.0383   0.1340  -0.0145  -0.0053   0.0531   0.00    1.0
2018/03/13 15:18:13.000   78.255282017   16.193786851   484.9310   2  10   0.0508   0.0381   0.1325  -0.0144  -0.0052   0.0526   0.00    1.1
2018/03/13 15:18:14.000   78.255281400   16.193787173   484.7089   2  10   0.0504   0.0378   0.1309  -0.0143  -0.0052   0.0520   0.00    1.1
2018/03/13 15:18:15.000   78.255280755   16.193787505   484.4648   2  10   0.0500   0.0376   0.1294  -0.0142  -0.0051   0.0515   0.00    1.0
2018/03/13 15:18:16.000   78.255280285   16.193788374   484.2362   2  10   0.0496   0.0373   0.1279  -0.0141  -0.0049   0.0509   0.00    1.0
2018/03/13 15:18:17.000   78.255279812   16.193789310   484.0034   2  10   0.0493   0.0371   0.1264  -0.0140  -0.0048   0.0504   0.00    1.0
2018/03/13 15:18:18.000   78.255279310   16.193790323   483.7577   2  10   0.0490   0.0369   0.1250  -0.0140  -0.0047   0.0499   0.00    1.0
2018/03/13 15:18:19.000   78.255278754   16.193791229   483.4936   2   9   0.0486   0.0367   0.1235  -0.0139  -0.0048   0.0494   0.00    1.0
2018/03/13 15:18:20.000   78.255278178   16.193792312   483.2190   2   9   0.0483   0.0365   0.1221  -0.0139  -0.0049   0.0490   0.00    1.1
2018/03/13 15:18:21.000   78.255277597   16.193793507   482.9470   2   9   0.0480   0.0363   0.1207  -0.0138  -0.0050   0.0485   0.00    1.0
2018/03/13 15:18:22.000   78.255276975   16.193794660   482.6498   2   9   0.0477   0.0361   0.1194  -0.0138  -0.0051   0.0480   0.00    1.1
2018/03/13 15:18:23.000   78.255276329   16.193795797   482.3591   2   9   0.0474   0.0359   0.1180  -0.0137  -0.0053   0.0475   0.00    1.1
2018/03/13 15:18:24.000   78.255275696   16.193797058   482.0656   2   9   0.0471   0.0357   0.1167  -0.0137  -0.0054   0.0471   0.00    1.0
2018/03/13 15:18:25.000   78.255275058   16.193798332   481.7760   2   9   0.0468   0.0355   0.1154  -0.0137  -0.0055   0.0466   0.00    1.0
2018/03/13 15:18:26.000   78.255274463   16.193799594   481.5147   2   9   0.0465   0.0353   0.1141  -0.0136  -0.0056   0.0462   0.00    1.0
2018/03/13 15:18:27.000   78.255273859   16.193801163   481.2741   2  10   0.0462   0.0351   0.1128  -0.0135  -0.0055   0.0457   0.00    1.0
2018/03/13 15:18:28.000   78.255273226   16.193802481   481.0312   2  10   0.0459   0.0348   0.1116  -0.0134  -0.0055   0.0453   0.00    1.0
2018/03/13 15:18:29.000   78.255272648   16.193803848   480.8132   2  10   0.0456   0.0346   0.1103  -0.0134  -0.0054   0.0448   0.00    1.0
2018/03/13 15:18:30.000   78.255272102   16.193805192   480.6065   2  10   0.0453   0.0344   0.1091  -0.0133  -0.0054   0.0444   0.00    1.0
2018/03/13 15:18:31.000   78.255271518   16.193806617   480.4049   2   9   0.0451   0.0342   0.1080  -0.0132  -0.0055   0.0440   0.00    1.0
2018/03/13 15:18:32.000   78.255270932   16.193808051   480.2321   2   9   0.0448   0.0340   0.1068  -0.0132  -0.0056   0.0437   0.00    1.0
2018/03/13 15:18:33.000   78.255270383   16.193809622   480.0630   2   9   0.0446   0.0338   0.1057  -0.0131  -0.0057   0.0433   0.00    1.0
2018/03/13 15:18:34.000   78.255269844   16.193810984   479.8996   2   9   0.0444   0.0336   0.1046  -0.0130  -0.0058   0.0429   0.00    1.0
2018/03/13 15:18:35.000   78.255269336   16.193812362   479.7568   2   9   0.0441   0.0334   0.1035  -0.0129  -0.0058   0.0426   0.00    1.0
2018/03/13 15:18:36.000   78.255268888   16.193813862   479.6450   2   9   0.0439   0.0332   0.1025  -0.0129  -0.0058   0.0422   0.00    1.1
2018/03/13 15:18:37.000   78.255268422   16.193815303   479.5360   2   9   0.0437   0.0330   0.1014  -0.0128  -0.0059   0.0419   0.00    1.1
2018/03/13 15:18:38.000   78.255267996   16.193816685   479.4352   2  10   0.0434   0.0327   0.1003  -0.0127  -0.0060   0.0416   0.00    1.0
2018/03/13 15:18:39.000   78.255267539   16.193818058   479.3369   2  10   0.0432   0.0325   0.0993  -0.0126  -0.0061   0.0412   0.00    1.0
2018/03/13 15:18:40.000   78.255267087   16.193819657   479.2343   2   9   0.0430   0.0323   0.0983  -0.0125  -0.0062   0.0409   0.00    1.0
2018/03/13 15:18:41.000   78.255266668   16.193821079   479.1368   2   9   0.0427   0.0321   0.0973  -0.0124  -0.0062   0.0405   0.00    1.0
2018/03/13 15:18:42.000   78.255266239   16.193822619   479.0285   2   9   0.0425   0.0319   0.0963  -0.0124  -0.0062   0.0402   0.00    1.0
2018/03/13 15:18:43.000   78.255265804   16.193824071   478.9197   2   9   0.0423   0.0317   0.0953  -0.0123  -0.0063   0.0399   0.00    1.0
2018/03/13 15:18:44.000   78.255265366   16.193825393   478.8098   2   9   0.0421   0.0315   0.0943  -0.0122  -0.0063   0.0395   0.00    1.0
2018/03/13 15:18:45.000   78.255264922   16.193826680   478.7108   2   9   0.0419   0.0314   0.0934  -0.0121  -0.0063   0.0392   0.00    1.1
2018/03/13 15:18:46.000   78.255264500   16.193827808   478.6199   2   9   0.0416   0.0312   0.0924  -0.0121  -0.0064   0.0389   0.00    1.1
2018/03/13 15:18:47.000   78.255264130   16.193828881   478.5305   2   9   0.0414   0.0310   0.0915  -0.0120  -0.0064   0.0385   0.00    1.1
2018/03/13 15:18:48.000   78.255263793   16.193829893   478.4524   2   9   0.0412   0.0308   0.0906  -0.0119  -0.0064   0.0382   0.00    1.1
2018/03/13 15:18:49.000   78.255263469   16.193830736   478.3820   2   9   0.0410   0.0306   0.0896  -0.0119  -0.0064   0.0379   0.00    1.1
2018/03/13 15:18:50.000   78.255263191   16.193831477   478.3397   2   9   0.0408   0.0304   0.0887  -0.0118  -0.0065   0.0376   0.00    1.1
2018/03/13 15:18:51.000   78.255262967   16.193832044   478.3206   2   9   0.0406   0.0303   0.0879  -0.0117  -0.0065   0.0372   0.00    1.0
2018/03/13 15:18:52.000   78.255262804   16.193832601   478.3176   2   9   0.0404   0.0301   0.0870  -0.0117  -0.0065   0.0369   0.00    1.0
2018/03/13 15:18:53.000   78.255262697   16.193833097   478.3368   2   9   0.0402   0.0299   0.0861  -0.0116  -0.0066   0.0366   0.00    1.0
2018/03/13 15:18:54.000   78.255262657   16.193833546   478.3831   2   9   0.0400   0.0297   0.0853  -0.0115  -0.0066   0.0363   0.00    1.0
2018/03/13 15:18:55.000   78.255262687   16.193833999   478.4488   2   9   0.0398   0.0296   0.0844  -0.0115  -0.0066   0.0360   0.00    1.0
2018/03/13 15:18:56.000   78.255262796   16.193834412   478.5384   2   9   0.0396   0.0294   0.0836  -0.0114  -0.0066   0.0357   0.00    1.0
2018/03/13 15:18:57.000   78.255262983   16.193834773   478.6506   2   9   0.0394   0.0292   0.0828  -0.0113  -0.0067   0.0354   0.00    1.0
2018/03/13 15:18:58.000   78.255263238   16.193835242   478.7953   2   9   0.0392   0.0291   0.0820  -0.0113  -0.0067   0.0351   0.00    1.0
2018/03/13 15:18:59.000   78.255263506   16.193835606   478.9414   2   9   0.0390   0.0289   0.0812  -0.0112  -0.0067   0.0348   0.00    1.1
2018/03/13 15:19:00.000   78.255263832   16.193835939   479.0946   2   9   0.0388   0.0287   0.0804  -0.0112  -0.0067   0.0345   0.00    1.1
2018/03/13 15:19:01.000   78.255264146   16.193836179   479.2566   2   9   0.0386   0.0286   0.0796  -0.0111  -0.0067   0.0342   0.00    1.1
2018/03/13 15:19:02.000   78.255264508   16.193836419   479.4319   2   9   0.0384   0.0284   0.0788  -0.0110  -0.0068   0.0339   0.00    1.1
2018/03/13 15:19:03.000   78.255264866   16.193836598   479.6093   2   9   0.0382   0.0283   0.0781  -0.0110  -0.0068   0.0336   0.00    1.1
2018/03/13 15:19:04.000   78.255265228   16.193836654   479.7715   2   9   0.0380   0.0281   0.0773  -0.0109  -0.0068   0.0333   0.00    1.1
2018/03/13 15:19:05.000   78.255265597   16.193836873   479.9428   2   9   0.0378   0.0279   0.0766  -0.0109  -0.0068   0.0331   0.00    1.1
2018/03/13 15:19:06.000   78.255265975   16.193836960   480.1201   2   9   0.0377   0.0278   0.0758  -0.0108  -0.0068   0.0328   0.00    1.1
2018/03/13 15:19:07.000   78.255266378   16.193836922   480.2968   2   9   0.0375   0.0276   0.0751  -0.0107  -0.0069   0.0325   0.00    1.1
2018/03/13 15:19:08.000   78.255266747   16.193836957   480.4672   2  10   0.0373   0.0275   0.0744  -0.0107  -0.0069   0.0322   0.00    1.0
2018/03/13 15:19:09.000   78.255267165   16.193836854   480.6399   2  10   0.0371   0.0273   0.0737  -0.0106  -0.0069   0.0320   0.00    1.0
2018/03/13 15:19:10.000   78.255267528   16.193836919   480.8127   2  10   0.0369   0.0272   0.0730  -0.0106  -0.0070   0.0317   0.00    1.0
2018/03/13 15:19:11.000   78.255267880   16.193836969   480.9844   2  10   0.0367   0.0270   0.0723  -0.0105  -0.0070   0.0314   0.00    1.0
2018/03/13 15:19:12.000   78.255268226   16.193837064   481.1044   2  10   0.0366   0.0269   0.0718  -0.0104  -0.0070   0.0312   0.00    1.0
2018/03/13 15:19:13.000   78.255268498   16.193837048   481.1915   2  10   0.0364   0.0267   0.0712  -0.0104  -0.0071   0.0309   0.00    1.1
2018/03/13 15:19:14.000   78.255268762   16.193837005   481.2810   2  10   0.0362   0.0266   0.0707  -0.0103  -0.0071   0.0307   0.00    1.1
2018/03/13 15:19:15.000   78.255268942   16.193836890   481.3517   2   9   0.0361   0.0265   0.0702  -0.0102  -0.0071   0.0304   0.00    1.0
2018/03/13 15:19:16.000   78.255269076   16.193836811   481.4142   2   9   0.0359   0.0263   0.0696  -0.0102  -0.0071   0.0302   0.00    1.0
2018/03/13 15:19:17.000   78.255269301   16.193836519   481.5048   2   9   0.0358   0.0262   0.0691  -0.0101  -0.0071   0.0300   0.00    1.0
2018/03/13 15:19:18.000   78.255269516   16.193836111   481.5904   2   9   0.0356   0.0260   0.0686  -0.0100  -0.0071   0.0297   0.00    1.0
2018/03/13 15:19:19.000   78.255269676   16.193835626   481.6548   2  10   0.0355   0.0259   0.0681  -0.0100  -0.0072   0.0295   0.00    1.0
2018/03/13 15:19:20.000   78.255269803   16.193835218   481.7134   2  10   0.0353   0.0258   0.0676  -0.0099  -0.0072   0.0293   0.00    1.0
2018/03/13 15:19:21.000   78.255269925   16.193834685   481.7727   2  10   0.0352   0.0256   0.0671  -0.0098  -0.0072   0.0291   0.00    1.0
2018/03/13 15:19:22.000   78.255270027   16.193834083   481.8275   2  10   0.0350   0.0255   0.0667  -0.0098  -0.0073   0.0288   0.00    1.0
2018/03/13 15:19:23.000   78.255270138   16.193833494   481.8847   2  10   0.0348   0.0253   0.0662  -0.0097  -0.0073   0.0286   0.00    1.1
2018/03/13 15:19:24.000   78.255270254   16.193832727   481.9433   2  10   0.0347   0.0252   0.0657  -0.0096  -0.0073   0.0284   0.00    1.1
2018/03/13 15:19:25.000   78.255270387   16.193831997   482.0090   2  10   0.0345   0.0251   0.0652  -0.0096  -0.0073   0.0282   0.00    1.1
2018/03/13 15:19:26.000   78.255270554   16.193831175   482.0878   2  10   0.0344   0.0249   0.0647  -0.0095  -0.0074   0.0280   0.00    1.1
2018/03/13 15:19:27.000   78.255270736   16.193830371   482.1674   2  10   0.0343   0.0248   0.0643  -0.0095  -0.0074   0.0278   0.00    1.1
2018/03/13 15:19:28.000   78.255270916   16.193829557   482.2505   2  10   0.0341   0.0247   0.0638  -0.0094  -0.0074   0.0275   0.00    1.1
2018/03/13 15:19:29.000   78.255271117   16.193828790   482.3337   2  10   0.0340   0.0245   0.0633  -0.0094  -0.0074   0.0273   0.00    1.0
2018/03/13 15:19:30.000   78.255271335   16.193828170   482.4203   2  10   0.0338   0.0244   0.0629  -0.0093  -0.0075   0.0271   0.00    1.0
2018/03/13 15:19:31.000   78.255271580   16.193827566   482.5119   2  10   0.0337   0.0243   0.0624  -0.0092  -0.0075   0.0269   0.00    1.0
2018/03/13 15:19:32.000   78.255271853   16.193826942   482.6031   2  10   0.0335   0.0242   0.0620  -0.0092  -0.0075   0.0267   0.00    1.0
2018/03/13 15:19:33.000   78.255272137   16.193826455   482.6954   2  10   0.0334   0.0240   0.0615  -0.0091  -0.0075   0.0265   0.00    1.0
2018/03/13 15:19:34.000   78.255272424   16.193826061   482.7891   2  10   0.0333   0.0239   0.0611  -0.0091  -0.0075   0.0263   0.00    1.0
2018/03/13 15:19:35.000   78.255272765   16.193825705   482.8939   2  10   0.0331   0.0238   0.0607  -0.0090  -0.0075   0.0261   0.00    1.0
2018/03/13 15:19:36.000   78.255273111   16.193825470   482.9988   2  10   0.0330   0.0237   0.0602  -0.0090  -0.0075   0.0259   0.00    1.0
2018/03/13 15:19:37.000   78.255273504   16.193825286   483.1152   2  10   0.0328   0.0235   0.0598  -0.0089  -0.0075   0.0257   0.00    1.0
2018/03/13 15:19:38.000   78.255273934   16.193825101   483.2356   2  10   0.0327   0.0234   0.0594  -0.0089  -0.0076   0.0255   0.00    1.0
2018/03/13 15:19:39.000   78.255274368   16.193824986   483.3499   2  10   0.0326   0.0233   0.0590  -0.0088  -0.0076   0.0253   0.00    1.0
2018/03/13 15:19:40.000   78.255274781   16.193824964   483.4544   2  10   0.0324   0.0232   0.0585  -0.0088  -0.0076   0.0251   0.00    1.1
2018/03/13 15:19:41.000   78.255275197   16.193825051   483.5535   2  10   0.0323   0.0231   0.0581  -0.0087  -0.0076   0.0249   0.00    1.1
2018/03/13 15:19:42.000   78.255275619   16.193824934   483.6420   2  10   0.0322   0.0229   0.0577  -0.0087  -0.0076   0.0247   0.00    1.1
2018/03/13 15:19:43.000   78.255276040   16.193825027   483.7346   2  10   0.0320   0.0228   0.0573  -0.0086  -0.0076   0.0245   0.00    1.1
2018/03/13 15:19:44.000   78.255276468   16.193825083   483.8288   2  10   0.0319   0.0227   0.0569  -0.0086  -0.0076   0.0243   0.00    1.1
2018/03/13 15:19:45.000   78.255276958   16.193825308   483.9318   2  10   0.0318   0.0226   0.0565  -0.0085  -0.0076   0.0241   0.00    1.1
2018/03/13 15:19:46.000   78.255277457   16.193825494   484.0400   2   9   0.0316   0.0225   0.0561  -0.0085  -0.0076   0.0239   0.00    1.1
2018/03/13 15:19:47.000   78.255277976   16.193825675   484.1478   2   9   0.0315   0.0224   0.0557  -0.0085  -0.0076   0.0238   0.00    1.0
2018/03/13 15:19:48.000   78.255278457   16.193825783   484.2449   2   9   0.0314   0.0223   0.0553  -0.0084  -0.0075   0.0236   0.00    1.0
2018/03/13 15:19:49.000   78.255278952   16.193825980   484.3463   2  10   0.0313   0.0222   0.0550  -0.0084  -0.0075   0.0234   0.00    1.0
2018/03/13 15:19:50.000   78.255279424   16.193826179   484.4418   2  10   0.0311   0.0221   0.0546  -0.0083  -0.0075   0.0232   0.00    1.0
2018/03/13 15:19:51.000   78.255279859   16.193826411   484.5314   2  10   0.0310   0.0220   0.0542  -0.0083  -0.0075   0.0230   0.00    1.0
2018/03/13 15:19:52.000   78.255280270   16.193826622   484.6113   2  10   0.0309   0.0219   0.0538  -0.0083  -0.0075   0.0228   0.00    1.0
2018/03/13 15:19:53.000   78.255280697   16.193826841   484.6893   2  10   0.0308   0.0218   0.0535  -0.0082  -0.0075   0.0227   0.00    1.0
2018/03/13 15:19:54.000   78.255281139   16.193827077   484.7745   2  10   0.0306   0.0217   0.0531  -0.0082  -0.0075   0.0225   0.00    1.0
2018/03/13 15:19:55.000   78.255281581   16.193827317   484.8637   2   9   0.0305   0.0215   0.0527  -0.0082  -0.0075   0.0223   0.00    1.0
2018/03/13 15:19:56.000   78.255282027   16.193827553   484.9560   2  10   0.0304   0.0214   0.0524  -0.0081  -0.0075   0.0221   0.00    1.0
2018/03/13 15:19:57.000   78.255282465   16.193827831   485.0393   2  10   0.0303   0.0213   0.0520  -0.0081  -0.0075   0.0220   0.00    1.0
2018/03/13 15:19:58.000   78.255282934   16.193828043   485.1242   2  10   0.0302   0.0212   0.0517  -0.0080  -0.0075   0.0218   0.00    1.0
2018/03/13 15:19:59.000   78.255283396   16.193828275   485.2087   2  10   0.0300   0.0211   0.0513  -0.0080  -0.0075   0.0216   0.00    1.0
2018/03/13 15:20:00.000   78.255283858   16.193828364   485.2925   2  10   0.0299   0.0210   0.0510  -0.0080  -0.0075   0.0215   0.00    1.0
2018/03/13 15:20:01.000   78.255284326   16.193828430   485.3818   2  10   0.0298   0.0209   0.0506  -0.0080  -0.0075   0.0213   0.00    1.0
2018/03/13 15:20:02.000   78.255284732   16.193828323   485.4630   2  10   0.0297   0.0208   0.0503  -0.0079  -0.0074   0.0211   0.00    1.0
2018/03/13 15:20:03.000   78.255285114   16.193828216   485.5373   2  10   0.0296   0.0207   0.0500  -0.0079  -0.0074   0.0210   0.00    1.0
2018/03/13 15:20:04.000   78.255285491   16.193828024   485.6070   2  10   0.0295   0.0206   0.0497  -0.0078  -0.0074   0.0208   0.00    1.0
2018/03/13 15:20:05.000   78.255285849   16.193828033   485.6778   2  10   0.0294   0.0206   0.0493  -0.0078  -0.0074   0.0207   0.00    1.0
2018/03/13 15:20:06.000   78.255286237   16.193827974   485.7544   2  10   0.0292   0.0205   0.0490  -0.0078  -0.0073   0.0205   0.00    1.0
2018/03/13 15:20:07.000   78.255286597   16.193827770   485.8234   2  10   0.0291   0.0204   0.0487  -0.0077  -0.0073   0.0204   0.00    1.1
2018/03/13 15:20:08.000   78.255286968   16.193827521   485.8913   2  10   0.0290   0.0203   0.0484  -0.0077  -0.0073   0.0202   0.00    1.0
2018/03/13 15:20:09.000   78.255287341   16.193827261   485.9522   2  10   0.0289   0.0202   0.0481  -0.0077  -0.0072   0.0201   0.00    1.0
2018/03/13 15:20:10.000   78.255287736   16.193826895   486.0132   2  10   0.0288   0.0201   0.0478  -0.0076  -0.0072   0.0199   0.00    1.0
2018/03/13 15:20:11.000   78.255288134   16.193826368   486.0674   2  10   0.0287   0.0200   0.0475  -0.0076  -0.0072   0.0198   0.00    1.0
2018/03/13 15:20:12.000   78.255288557   16.193825774   486.1229   2  10   0.0286   0.0199   0.0472  -0.0075  -0.0071   0.0196   0.00    1.0
2018/03/13 15:20:13.000   78.255288970   16.193825187   486.1737   2  10   0.0285   0.0198   0.0469  -0.0075  -0.0071   0.0195   0.00    1.0
2018/03/13 15:20:14.000   78.255289386   16.193824569   486.2255   2  10   0.0284   0.0197   0.0466  -0.0074  -0.0070   0.0194   0.00    1.0
2018/03/13 15:20:15.000   78.255289824   16.193824004   486.2746   2  10   0.0283   0.0197   0.0463  -0.0074  -0.0070   0.0192   0.00    1.0
2018/03/13 15:20:16.000   78.255290243   16.193823431   486.3249   2  10   0.0282   0.0196   0.0460  -0.0074  -0.0069   0.0191   0.00    1.1
2018/03/13 15:20:17.000   78.255290671   16.193822897   486.3756   2  10   0.0281   0.0195   0.0457  -0.0073  -0.0069   0.0190   0.00    1.1
2018/03/13 15:20:18.000   78.255291085   16.193822388   486.4255   2  10   0.0280   0.0194   0.0455  -0.0073  -0.0069   0.0188   0.00    1.1
2018/03/13 15:20:19.000   78.255291489   16.193821938   486.4786   2  10   0.0279   0.0193   0.0452  -0.0072  -0.0068   0.0187   0.00    1.1
2018/03/13 15:20:20.000   78.255291884   16.193821436   486.5339   2  10   0.0277   0.0192   0.0449  -0.0072  -0.0068   0.0186   0.00    1.1
2018/03/13 15:20:21.000   78.255292275   16.193820914   486.5929   2  10   0.0276   0.0192   0.0446  -0.0071  -0.0067   0.0184   0.00    1.1
2018/03/13 15:20:22.000   78.255292657   16.193820455   486.6532   2  10   0.0275   0.0191   0.0444  -0.0071  -0.0067   0.0183   0.00    1.1
2018/03/13 15:20:23.000   78.255293031   16.193819946   486.7167   2  10   0.0274   0.0190   0.0441  -0.0070  -0.0066   0.0182   0.00    1.0
2018/03/13 15:20:24.000   78.255293388   16.193819500   486.7819   2   9   0.0273   0.0189   0.0438  -0.0070  -0.0066   0.0181   0.00    1.0
2018/03/13 15:20:25.000   78.255293696   16.193819056   486.8492   2   9   0.0272   0.0188   0.0436  -0.0070  -0.0065   0.0179   0.00    1.0
2018/03/13 15:20:26.000   78.255293986   16.193818620   486.9134   2   9   0.0271   0.0188   0.0433  -0.0069  -0.0065   0.0178   0.00    1.0
2018/03/13 15:20:27.000   78.255294269   16.193818212   486.9783   2   9   0.0270   0.0187   0.0430  -0.0069  -0.0064   0.0177   0.00    1.0
2018/03/13 15:20:28.000   78.255294528   16.193817741   487.0390   2   9   0.0269   0.0186   0.0428  -0.0069  -0.0064   0.0175   0.00    1.0
2018/03/13 15:20:29.000   78.255294787   16.193817310   487.1007   2   9   0.0268   0.0185   0.0425  -0.0068  -0.0063   0.0174   0.00    1.1
2018/03/13 15:20:30.000   78.255295004   16.193816912   487.1555   2  10   0.0267   0.0185   0.0423  -0.0068  -0.0063   0.0173   0.00    1.0
2018/03/13 15:20:31.000   78.255295229   16.193816504   487.2125   2  10   0.0266   0.0184   0.0420  -0.0068  -0.0063   0.0172   0.00    1.0
2018/03/13 15:20:32.000   78.255295452   16.193816126   487.2704   2  10   0.0265   0.0183   0.0418  -0.0067  -0.0062   0.0171   0.00    1.0
2018/03/13 15:20:33.000   78.255295653   16.193815793   487.3234   2  10   0.0264   0.0182   0.0415  -0.0067  -0.0062   0.0169   0.00    1.0
2018/03/13 15:20:34.000   78.255295871   16.193815443   487.3767   2  10   0.0263   0.0182   0.0413  -0.0067  -0.0061   0.0168   0.00    1.0
2018/03/13 15:20:35.000   78.255296085   16.193815072   487.4330   2  10   0.0262   0.0181   0.0410  -0.0066  -0.0061   0.0167   0.00    1.0
2018/03/13 15:20:36.000   78.255296291   16.193814739   487.4939   2  10   0.0261   0.0180   0.0408  -0.0066  -0.0061   0.0166   0.00    1.0
2018/03/13 15:20:37.000   78.255296493   16.193814391   487.5570   2  10   0.0261   0.0180   0.0405  -0.0066  -0.0060   0.0165   0.00    1.0
2018/03/13 15:20:38.000   78.255296690   16.193814055   487.6211   2  10   0.0260   0.0179   0.0403  -0.0065  -0.0060   0.0164   0.00    1.0
2018/03/13 15:20:39.000   78.255296878   16.193813744   487.6840   2  10   0.0259   0.0178   0.0401  -0.0065  -0.0060   0.0162   0.00    1.0
2018/03/13 15:20:40.000   78.255297064   16.193813469   487.7476   2  10   0.0258   0.0177   0.0398  -0.0065  -0.0059   0.0161   0.00    1.0
2018/03/13 15:20:41.000   78.255297261   16.193813134   487.8131   2  10   0.0257   0.0177   0.0396  -0.0064  -0.0059   0.0160   0.00    1.0
2018/03/13 15:20:42.000   78.255297458   16.193812823   487.8769   2  10   0.0256   0.0176   0.0394  -0.0064  -0.0059   0.0159   0.00    1.0
2018/03/13 15:20:43.000   78.255297668   16.193812510   487.9387   2  10   0.0255   0.0175   0.0391  -0.0064  -0.0058   0.0158   0.00    1.0
2018/03/13 15:20:44.000   78.255297888   16.193812237   488.0023   2  10   0.0254   0.0175   0.0389  -0.0063  -0.0058   0.0157   0.00    1.0
2018/03/13 15:20:45.000   78.255298124   16.193811920   488.0683   2  10   0.0253   0.0174   0.0387  -0.0063  -0.0057   0.0156   0.00    1.0
2018/03/13 15:20:46.000   78.255298366   16.193811640   488.1295   2  10   0.0252   0.0173   0.0385  -0.0063  -0.0057   0.0155   0.00    1.0
2018/03/13 15:20:47.000   78.255298602   16.193811304   488.1851   2  10   0.0251   0.0173   0.0382  -0.0062  -0.0057   0.0153   0.00    1.0
2018/03/13 15:20:48.000   78.255298832   16.193811010   488.2402   2  10   0.0250   0.0172   0.0380  -0.0062  -0.0056   0.0152   0.00    1.0
2018/03/13 15:20:49.000   78.255299066   16.193810682   488.2890   2  10   0.0249   0.0171   0.0378  -0.0062  -0.0056   0.0151   0.00    1.0
2018/03/13 15:20:50.000   78.255299311   16.193810319   488.3359   2  10   0.0248   0.0171   0.0376  -0.0062  -0.0056   0.0150   0.00    1.0
2018/03/13 15:20:51.000   78.255299552   16.193810025   488.3813   2  10   0.0248   0.0170   0.0374  -0.0061  -0.0056   0.0149   0.00    1.0
2018/03/13 15:20:52.000   78.255299785   16.193809708   488.4260   2  10   0.0247   0.0169   0.0372  -0.0061  -0.0055   0.0148   0.00    1.0
2018/03/13 15:20:53.000   78.255300012   16.193809379   488.4686   2  10   0.0246   0.0169   0.0369  -0.0061  -0.0055   0.0147   0.00    1.0
2018/03/13 15:20:54.000   78.255300215   16.193809081   488.5081   2  10   0.0245   0.0168   0.0367  -0.0061  -0.0055   0.0146   0.00    1.1
2018/03/13 15:20:55.000   78.255300415   16.193808805   488.5492   2  10   0.0244   0.0167   0.0365  -0.0060  -0.0054   0.0145   0.00    1.1
2018/03/13 15:20:56.000   78.255300632   16.193808584   488.5943   2  10   0.0243   0.0167   0.0363  -0.0060  -0.0054   0.0144   0.00    1.1
2018/03/13 15:20:57.000   78.255300828   16.193808337   488.6373   2  10   0.0242   0.0166   0.0361  -0.0060  -0.0054   0.0143   0.00    1.1
2018/03/13 15:20:58.000   78.255301025   16.193808137   488.6802   2  10   0.0242   0.0165   0.0359  -0.0060  -0.0053   0.0142   0.00    1.1
2018/03/13 15:20:59.000   78.255301190   16.193807996   488.7216   2  10   0.0241   0.0165   0.0357  -0.0059  -0.0053   0.0141   0.00    1.1
2018/03/13 15:21:00.000   78.255301335   16.193807883   488.7602   2  10   0.0240   0.0164   0.0355  -0.0059  -0.0053   0.0140   0.00    1.1
2018/03/13 15:21:01.000   78.255301454   16.193807839   488.7939   2  10   0.0239   0.0164   0.0353  -0.0059  -0.0053   0.0139   0.00    1.1
2018/03/13 15:21:02.000   78.255301569   16.193807828   488.8258   2  10   0.0238   0.0163   0.0351  -0.0059  -0.0052   0.0138   0.00    1.1
2018/03/13 15:21:03.000   78.255301671   16.193807802   488.8530   2  10   0.0237   0.0162   0.0349  -0.0058  -0.0052   0.0137   0.00    1.1
2018/03/13 15:21:04.000   78.255301768   16.193807814   488.8791   2  10   0.0237   0.0162   0.0347  -0.0058  -0.0052   0.0136   0.00    1.1
2018/03/13 15:21:05.000   78.255301849   16.193807859   488.8989   2  10   0.0236   0.0161   0.0345  -0.0058  -0.0052   0.0135   0.00    1.0
2018/03/13 15:21:06.000   78.255301918   16.193807880   488.9176   2  10   0.0235   0.0160   0.0343  -0.0058  -0.0051   0.0134   0.00    1.0
2018/03/13 15:21:07.000   78.255301981   16.193807936   488.9329   2  10   0.0234   0.0160   0.0342  -0.0057  -0.0051   0.0133   0.00    1.0
2018/03/13 15:21:08.000   78.255302038   16.193808073   488.9473   2  10   0.0233   0.0159   0.0340  -0.0057  -0.0051   0.0132   0.00    1.0
2018/03/13 15:21:09.000   78.255302096   16.193808299   488.9586   2  10   0.0232   0.0159   0.0338  -0.0057  -0.0051   0.0131   0.00    1.0
2018/03/13 15:21:10.000   78.255302151   16.193808562   488.9689   2  10   0.0231   0.0158   0.0336  -0.0057  -0.0050   0.0131   0.00    1.0
2018/03/13 15:21:11.000   78.255302219   16.193808823   488.9778   2  10   0.0231   0.0157   0.0334  -0.0056  -0.0050   0.0130   0.00    1.0
2018/03/13 15:21:12.000   78.255302269   16.193809112   488.9843   2  10   0.0230   0.0157   0.0332  -0.0056  -0.0050   0.0129   0.00    1.0
2018/03/13 15:21:13.000   78.255302295   16.193809391   488.9856   2  10   0.0229   0.0156   0.0330  -0.0056  -0.0050   0.0128   0.00    1.0
2018/03/13 15:21:14.000   78.255302297   16.193809702   488.9840   2  10   0.0228   0.0156   0.0329  -0.0055  -0.0049   0.0127   0.00    1.0
2018/03/13 15:21:15.000   78.255302308   16.193810012   488.9789   2  10   0.0227   0.0155   0.0327  -0.0055  -0.0049   0.0126   0.00    1.0
2018/03/13 15:21:16.000   78.255302301   16.193810340   488.9682   2  10   0.0226   0.0155   0.0325  -0.0055  -0.0049   0.0125   0.00    1.0
2018/03/13 15:21:17.000   78.255302301   16.193810660   488.9546   2  10   0.0226   0.0154   0.0323  -0.0055  -0.0049   0.0124   0.00    1.0
2018/03/13 15:21:18.000   78.255302281   16.193811006   488.9283   2  10   0.0225   0.0153   0.0322  -0.0054  -0.0049   0.0124   0.00    1.0
2018/03/13 15:21:19.000   78.255302241   16.193811381   488.9039   2  10   0.0224   0.0153   0.0320  -0.0054  -0.0048   0.0123   0.00    1.0
2018/03/13 15:21:20.000   78.255302187   16.193811806   488.8732   2  11   0.0223   0.0152   0.0318  -0.0054  -0.0048   0.0122   0.00    1.0
2018/03/13 15:21:21.000   78.255302137   16.193812216   488.8459   2  11   0.0222   0.0152   0.0317  -0.0054  -0.0048   0.0121   0.00    1.0
2018/03/13 15:21:22.000   78.255302076   16.193812686   488.8116   2  11   0.0221   0.0151   0.0315  -0.0053  -0.0048   0.0120   0.00    1.0
2018/03/13 15:21:23.000   78.255302036   16.193813177   488.7786   2  11   0.0221   0.0151   0.0313  -0.0053  -0.0048   0.0119   0.00    1.0
2018/03/13 15:21:24.000   78.255301995   16.193813670   488.7387   2  11   0.0220   0.0150   0.0311  -0.0053  -0.0047   0.0118   0.00    1.0
2018/03/13 15:21:25.000   78.255301972   16.193814217   488.6958   2  11   0.0219   0.0150   0.0310  -0.0053  -0.0047   0.0118   0.00    1.0
2018/03/13 15:21:26.000   78.255301954   16.193814762   488.6602   2  11   0.0218   0.0149   0.0308  -0.0052  -0.0047   0.0117   0.00    1.0
2018/03/13 15:21:27.000   78.255301939   16.193815206   488.6252   2  11   0.0217   0.0148   0.0307  -0.0052  -0.0047   0.0116   0.00    1.0
2018/03/13 15:21:28.000   78.255301910   16.193815651   488.5917   2  11   0.0217   0.0148   0.0305  -0.0052  -0.0046   0.0115   0.00    1.0
2018/03/13 15:21:29.000   78.255301878   16.193816136   488.5558   2  11   0.0216   0.0147   0.0303  -0.0052  -0.0046   0.0114   0.00    1.0
2018/03/13 15:21:30.000   78.255301849   16.193816620   488.5207   2  11   0.0215   0.0147   0.0302  -0.0051  -0.0046   0.0113   0.00    1.0
2018/03/13 15:21:31.000   78.255301809   16.193817126   488.4840   2  11   0.0214   0.0146   0.0300  -0.0051  -0.0046   0.0113   0.00    1.1
2018/03/13 15:21:32.000   78.255301765   16.193817650   488.4421   2  11   0.0214   0.0146   0.0299  -0.0051  -0.0046   0.0112   0.00    1.0
2018/03/13 15:21:33.000   78.255301738   16.193818243   488.4317   2  11   0.0213   0.0145   0.0298  -0.0051  -0.0045   0.0111   0.00    1.0
2018/03/13 15:21:34.000   78.255301850   16.193818488   488.4401   2   9   0.0212   0.0145   0.0297  -0.0051  -0.0046   0.0111   0.00    1.0
2018/03/13 15:21:35.000   78.255301963   16.193818625   488.4567   2  10   0.0212   0.0144   0.0296  -0.0051  -0.0046   0.0110   0.00    1.0
2018/03/13 15:21:36.000   78.255302100   16.193818866   488.4702   2   9   0.0212   0.0144   0.0296  -0.0051  -0.0047   0.0110   0.00    1.0
2018/03/13 15:21:37.000   78.255302237   16.193819070   488.4862   2   9   0.0211   0.0144   0.0295  -0.0052  -0.0047   0.0110   0.00    1.0
2018/03/13 15:21:38.000   78.255302371   16.193819220   488.5001   2   9   0.0211   0.0143   0.0294  -0.0052  -0.0047   0.0109   0.00    1.0
2018/03/13 15:21:39.000   78.255302498   16.193819359   488.5143   2  10   0.0210   0.0143   0.0294  -0.0052  -0.0047   0.0109   0.00    1.0
2018/03/13 15:21:40.000   78.255302621   16.193819444   488.5283   2  10   0.0210   0.0142   0.0293  -0.0052  -0.0047   0.0108   0.00    1.0
2018/03/13 15:21:41.000   78.255302747   16.193819547   488.5419   2  10   0.0210   0.0142   0.0292  -0.0052  -0.0048   0.0108   0.00    1.0
2018/03/13 15:21:42.000   78.255302867   16.193819675   488.5560   2  10   0.0209   0.0141   0.0292  -0.0053  -0.0048   0.0107   0.00    1.0
2018/03/13 15:21:43.000   78.255302995   16.193819801   488.5704   2  10   0.0209   0.0141   0.0291  -0.0053  -0.0048   0.0107   0.00    1.0
2018/03/13 15:21:44.000   78.255303112   16.193819891   488.5846   2  10   0.0209   0.0141   0.0290  -0.0053  -0.0048   0.0107   0.00    1.0
2018/03/13 15:21:45.000   78.255303233   16.193820004   488.5995   2  10   0.0208   0.0140   0.0290  -0.0053  -0.0048   0.0106   0.00    1.0
2018/03/13 15:21:46.000   78.255303355   16.193820082   488.6126   2  10   0.0208   0.0140   0.0289  -0.0053  -0.0049   0.0106   0.00    1.0
2018/03/13 15:21:47.000   78.255303470   16.193820058   488.6271   2  10   0.0207   0.0139   0.0288  -0.0054  -0.0049   0.0105   0.00    1.0
2018/03/13 15:21:48.000   78.255303595   16.193819989   488.6421   2   9   0.0207   0.0139   0.0288  -0.0054  -0.0049   0.0105   0.00    1.0
2018/03/13 15:21:49.000   78.255303730   16.193820023   488.6529   2   9   0.0207   0.0138   0.0287  -0.0054  -0.0049   0.0105   0.00    1.0
2018/03/13 15:21:50.000   78.255303841   16.193819963   488.6613   2   9   0.0206   0.0138   0.0286  -0.0054  -0.0049   0.0104   0.00    1.0
2018/03/13 15:21:51.000   78.255303926   16.193819826   488.6701   2   9   0.0206   0.0138   0.0286  -0.0054  -0.0050   0.0104   0.00    1.0
2018/03/13 15:21:52.000   78.255303994   16.193819718   488.6767   2   9   0.0205   0.0137   0.0285  -0.0055  -0.0050   0.0103   0.00    1.0
2018/03/13 15:21:53.000   78.255304054   16.193819558   488.6775   2   9   0.0205   0.0137   0.0284  -0.0055  -0.0050   0.0103   0.00    1.0
2018/03/13 15:21:54.000   78.255304111   16.193819434   488.6807   2   9   0.0205   0.0136   0.0284  -0.0055  -0.0050   0.0103   0.00    1.0
2018/03/13 15:21:55.000   78.255304179   16.193819316   488.6807   2  10   0.0204   0.0136   0.0283  -0.0055  -0.0050   0.0102   0.00    1.0
2018/03/13 15:21:56.000   78.255304255   16.193819214   488.6811   2  10   0.0204   0.0136   0.0282  -0.0055  -0.0051   0.0102   0.00    1.0
2018/03/13 15:21:57.000   78.255304321   16.193819077   488.6787   2  10   0.0204   0.0135   0.0282  -0.0056  -0.0051   0.0101   0.00    1.0
2018/03/13 15:21:58.000   78.255304384   16.193818997   488.6742   2  10   0.0203   0.0135   0.0281  -0.0056  -0.0051   0.0101   0.00    1.0
2018/03/13 15:21:59.000   78.255304432   16.193818856   488.6674   2  10   0.0203   0.0134   0.0280  -0.0056  -0.0051   0.0101   0.00    1.0
2018/03/13 15:22:00.000   78.255304475   16.193818778   488.6577   2  10   0.0202   0.0134   0.0280  -0.0056  -0.0051   0.0100   0.00    1.0
2018/03/13 15:22:01.000   78.255304527   16.193818721   488.6507   2  10   0.0202   0.0134   0.0279  -0.0056  -0.0051   0.0100   0.00    1.0
2018/03/13 15:22:02.000   78.255304570   16.193818659   488.6425   2  10   0.0202   0.0133   0.0278  -0.0056  -0.0051   0.0099   0.00    1.0
2018/03/13 15:22:03.000   78.255304620   16.193818625   488.6341   2  10   0.0201   0.0133   0.0278  -0.0056  -0.0052   0.0099   0.00    1.0
2018/03/13 15:22:04.000   78.255304676   16.193818616   488.6268   2  10   0.0201   0.0132   0.0277  -0.0057  -0.0052   0.0098   0.00    1.0
2018/03/13 15:22:05.000   78.255304750   16.193818612   488.6218   2  10   0.0200   0.0132   0.0276  -0.0057  -0.0052   0.0098   0.00    1.0
2018/03/13 15:22:06.000   78.255304826   16.193818639   488.6191   2  10   0.0200   0.0132   0.0276  -0.0057  -0.0052   0.0097   0.00    1.0
2018/03/13 15:22:07.000   78.255304900   16.193818721   488.6171   2  10   0.0200   0.0131   0.0275  -0.0057  -0.0052   0.0097   0.00    1.0
2018/03/13 15:22:08.000   78.255304985   16.193818783   488.6178   2  10   0.0199   0.0131   0.0274  -0.0057  -0.0052   0.0097   0.00    1.0
2018/03/13 15:22:09.000   78.255305078   16.193818842   488.6208   2  10   0.0199   0.0130   0.0274  -0.0057  -0.0052   0.0096   0.00    1.0
2018/03/13 15:22:10.000   78.255305170   16.193818944   488.6246   2  10   0.0198   0.0130   0.0273  -0.0057  -0.0052   0.0096   0.00    1.1
2018/03/13 15:22:11.000   78.255305284   16.193819044   488.6312   2  10   0.0198   0.0130   0.0272  -0.0057  -0.0052   0.0095   0.00    1.1
2018/03/13 15:22:12.000   78.255305396   16.193819166   488.6387   2  10   0.0198   0.0129   0.0272  -0.0057  -0.0053   0.0095   0.00    1.1
2018/03/13 15:22:13.000   78.255305503   16.193819264   488.6451   2  10   0.0197   0.0129   0.0271  -0.0058  -0.0053   0.0094   0.00    1.1
2018/03/13 15:22:14.000   78.255305594   16.193819341   488.6525   2  10   0.0197   0.0129   0.0270  -0.0058  -0.0053   0.0094   0.00    1.1
2018/03/13 15:22:15.000   78.255305698   16.193819462   488.6614   2  10   0.0197   0.0128   0.0270  -0.0058  -0.0053   0.0093   0.00    1.1
2018/03/13 15:22:16.000   78.255305799   16.193819527   488.6704   2  10   0.0196   0.0128   0.0269  -0.0058  -0.0053   0.0093   0.00    1.1
2018/03/13 15:22:17.000   78.255305899   16.193819575   488.6788   2  10   0.0196   0.0127   0.0268  -0.0058  -0.0053   0.0093   0.00    1.1
2018/03/13 15:22:18.000   78.255305994   16.193819642   488.6858   2  10   0.0195   0.0127   0.0268  -0.0058  -0.0053   0.0092   0.00    1.1
2018/03/13 15:22:19.000   78.255306081   16.193819666   488.6935   2  10   0.0195   0.0127   0.0267  -0.0058  -0.0053   0.0092   0.00    1.1
2018/03/13 15:22:20.000   78.255306166   16.193819674   488.7000   2  10   0.0195   0.0126   0.0266  -0.0058  -0.0053   0.0091   0.00    1.1
2018/03/13 15:22:21.000   78.255306241   16.193819687   488.7033   2  10   0.0194   0.0126   0.0266  -0.0058  -0.0053   0.0091   0.00    1.1
2018/03/13 15:22:22.000   78.255306304   16.193819664   488.7073   2  10   0.0194   0.0126   0.0265  -0.0058  -0.0053   0.0090   0.00    1.1
2018/03/13 15:22:23.000   78.255306372   16.193819695   488.7128   2  10   0.0194   0.0125   0.0265  -0.0058  -0.0053   0.0090   0.00    1.0
2018/03/13 15:22:24.000   78.255306422   16.193819673   488.7187   2  10   0.0193   0.0125   0.0264  -0.0059  -0.0053   0.0089   0.00    1.1
2018/03/13 15:22:25.000   78.255306472   16.193819657   488.7248   2  10   0.0193   0.0125   0.0263  -0.0059  -0.0054   0.0089   0.00    1.1
2018/03/13 15:22:26.000   78.255306504   16.193819614   488.7295   2  10   0.0192   0.0124   0.0263  -0.0059  -0.0054   0.0089   0.00    1.1
2018/03/13 15:22:27.000   78.255306534   16.193819552   488.7329   2  10   0.0192   0.0124   0.0262  -0.0059  -0.0054   0.0088   0.00    1.1
2018/03/13 15:22:28.000   78.255306564   16.193819499   488.7363   2  10   0.0192   0.0124   0.0261  -0.0059  -0.0054   0.0088   0.00    1.1
2018/03/13 15:22:29.000   78.255306604   16.193819432   488.7412   2  10   0.0191   0.0123   0.0261  -0.0059  -0.0054   0.0087   0.00    1.1
2018/03/13 15:22:30.000   78.255306637   16.193819406   488.7447   2  11   0.0191   0.0123   0.0260  -0.0059  -0.0054   0.0087   0.00    1.0
2018/03/13 15:22:31.000   78.255306662   16.193819339   488.7490   2  11   0.0191   0.0122   0.0259  -0.0059  -0.0054   0.0086   0.00    1.0
2018/03/13 15:22:32.000   78.255306692   16.193819265   488.7526   2  11   0.0190   0.0122   0.0259  -0.0059  -0.0054   0.0086   0.00    1.0
2018/03/13 15:22:33.000   78.255306719   16.193819182   488.7556   2  11   0.0190   0.0122   0.0258  -0.0059  -0.0054   0.0085   0.00    1.1
2018/03/13 15:22:34.000   78.255306739   16.193819117   488.7562   2  11   0.0189   0.0121   0.0257  -0.0059  -0.0054   0.0085   0.00    1.1
2018/03/13 15:22:35.000   78.255306755   16.193819082   488.7559   2  11   0.0189   0.0121   0.0257  -0.0059  -0.0054   0.0084   0.00    1.1
2018/03/13 15:22:36.000   78.255306767   16.193819044   488.7555   2  11   0.0189   0.0121   0.0256  -0.0059  -0.0054   0.0084   0.00    1.1
2018/03/13 15:22:37.000   78.255306780   16.193819012   488.7552   2  11   0.0188   0.0120   0.0255  -0.0059  -0.0054   0.0084   0.00    1.1
2018/03/13 15:22:38.000   78.255306791   16.193818969   488.7557   2  11   0.0188   0.0120   0.0255  -0.0059  -0.0054   0.0083   0.00    1.0
2018/03/13 15:22:39.000   78.255306803   16.193818956   488.7549   2  11   0.0187   0.0120   0.0254  -0.0059  -0.0054   0.0083   0.00    1.0
2018/03/13 15:22:40.000   78.255306796   16.193818936   488.7544   2  11   0.0187   0.0119   0.0253  -0.0059  -0.0054   0.0082   0.00    1.0
2018/03/13 15:22:41.000   78.255306807   16.193818949   488.7569   2  10   0.0187   0.0119   0.0253  -0.0059  -0.0054   0.0082   0.00    1.0
2018/03/13 15:22:42.000   78.255306772   16.193818873   488.7571   2  10   0.0186   0.0119   0.0252  -0.0059  -0.0054   0.0081   0.00    1.0
2018/03/13 15:22:43.000   78.255306754   16.193818859   488.7601   2  11   0.0186   0.0118   0.0251  -0.0059  -0.0054   0.0081   0.00    1.0
2018/03/13 15:22:44.000   78.255306743   16.193818819   488.7642   2  11   0.0186   0.0118   0.0251  -0.0059  -0.0054   0.0080   0.00    1.0
2018/03/13 15:22:45.000   78.255306742   16.193818766   488.7679   2  11   0.0185   0.0118   0.0250  -0.0059  -0.0054   0.0080   0.00    1.0
2018/03/13 15:22:46.000   78.255306738   16.193818743   488.7716   2  11   0.0185   0.0117   0.0249  -0.0059  -0.0054   0.0079   0.00    1.0
2018/03/13 15:22:47.000   78.255306716   16.193818674   488.7758   2  11   0.0185   0.0117   0.0249  -0.0060  -0.0054   0.0079   0.00    1.0
2018/03/13 15:22:48.000   78.255306690   16.193818597   488.7799   2  11   0.0184   0.0117   0.0248  -0.0060  -0.0054   0.0079   0.00    1.0
2018/03/13 15:22:49.000   78.255306657   16.193818526   488.7833   2  11   0.0184   0.0116   0.0247  -0.0060  -0.0054   0.0078   0.00    1.0
2018/03/13 15:22:50.000   78.255306635   16.193818452   488.7878   2  11   0.0183   0.0116   0.0247  -0.0060  -0.0054   0.0078   0.00    1.0
2018/03/13 15:22:51.000   78.255306611   16.193818400   488.7947   2  10   0.0183   0.0116   0.0246  -0.0060  -0.0054   0.0077   0.00    1.0
2018/03/13 15:22:52.000   78.255306590   16.193818316   488.8021   2  10   0.0183   0.0116   0.0245  -0.0060  -0.0054   0.0077   0.00    1.0
2018/03/13 15:22:53.000   78.255306568   16.193818202   488.8095   2  10   0.0182   0.0115   0.0245  -0.0060  -0.0054   0.0076   0.00    1.0
2018/03/13 15:22:54.000   78.255306559   16.193818059   488.8175   2  10   0.0182   0.0115   0.0244  -0.0060  -0.0054   0.0076   0.00    1.0
2018/03/13 15:22:55.000   78.255306541   16.193817912   488.8261   2  10   0.0182   0.0115   0.0244  -0.0060  -0.0054   0.0075   0.00    1.0
2018/03/13 15:22:56.000   78.255306517   16.193817774   488.8359   2  10   0.0181   0.0114   0.0243  -0.0060  -0.0054   0.0075   0.00    1.0
2018/03/13 15:22:57.000   78.255306498   16.193817655   488.8467   2  11   0.0181   0.0114   0.0242  -0.0060  -0.0054   0.0074   0.00    1.0
2018/03/13 15:22:58.000   78.255306479   16.193817556   488.8586   2  11   0.0181   0.0114   0.0242  -0.0060  -0.0054   0.0074   0.00    1.0
2018/03/13 15:22:59.000   78.255306449   16.193817487   488.8697   2  11   0.0180   0.0113   0.0241  -0.0060  -0.0054   0.0073   0.00    1.0
2018/03/13 15:23:00.000   78.255306414   16.193817455   488.8808   2  11   0.0180   0.0113   0.0240  -0.0060  -0.0054   0.0073   0.00    1.0
2018/03/13 15:23:01.000   78.255306370   16.193817463   488.8913   2  11   0.0180   0.0113   0.0240  -0.0060  -0.0054   0.0072   0.00    1.0
2018/03/13 15:23:02.000   78.255306333   16.193817481   488.9004   2  11   0.0179   0.0112   0.0239  -0.0060  -0.0054   0.0072   0.00    1.0
2018/03/13 15:23:03.000   78.255306291   16.193817540   488.9085   2  11   0.0179   0.0112   0.0238  -0.0060  -0.0054   0.0072   0.00    1.0
2018/03/13 15:23:04.000   78.255306249   16.193817596   488.9171   2  11   0.0179   0.0112   0.0238  -0.0060  -0.0054   0.0071   0.00    1.0
2018/03/13 15:23:05.000   78.255306208   16.193817689   488.9252   2  11   0.0178   0.0112   0.0237  -0.0060  -0.0054   0.0071   0.00    1.0
2018/03/13 15:23:06.000   78.255306163   16.193817782   488.9334   2  11   0.0178   0.0111   0.0236  -0.0060  -0.0054   0.0070   0.00    1.0
2018/03/13 15:23:07.000   78.255306108   16.193817850   488.9412   2  11   0.0177   0.0111   0.0236  -0.0060  -0.0054   0.0070   0.00    1.0
2018/03/13 15:23:08.000   78.255306059   16.193817913   488.9484   2  11   0.0177   0.0111   0.0235  -0.0060  -0.0054   0.0069   0.00    1.0
2018/03/13 15:23:09.000   78.255306002   16.193817956   488.9560   2  11   0.0177   0.0110   0.0235  -0.0060  -0.0054   0.0069   0.00    1.0
2018/03/13 15:23:10.000   78.255305942   16.193818007   488.9630   2  11   0.0176   0.0110   0.0234  -0.0060  -0.0054   0.0068   0.00    1.0
2018/03/13 15:23:11.000   78.255305879   16.193818048   488.9691   2  11   0.0176   0.0110   0.0233  -0.0060  -0.0054   0.0068   0.00    1.0
2018/03/13 15:23:12.000   78.255305813   16.193818113   488.9762   2  11   0.0176   0.0110   0.0233  -0.0060  -0.0054   0.0067   0.00    1.0
2018/03/13 15:23:13.000   78.255305738   16.193818123   488.9825   2  11   0.0175   0.0109   0.0232  -0.0060  -0.0054   0.0067   0.00    1.0
2018/03/13 15:23:14.000   78.255305677   16.193818120   488.9893   2  11   0.0175   0.0109   0.0231  -0.0060  -0.0054   0.0066   0.00    1.0
2018/03/13 15:23:15.000   78.255305620   16.193818099   488.9955   2  11   0.0175   0.0109   0.0231  -0.0060  -0.0054   0.0066   0.00    1.0
2018/03/13 15:23:16.000   78.255305572   16.193818080   489.0029   2  11   0.0174   0.0108   0.0230  -0.0060  -0.0054   0.0066   0.00    1.0
2018/03/13 15:23:17.000   78.255305529   16.193818025   489.0105   2  11   0.0174   0.0108   0.0229  -0.0060  -0.0054   0.0065   0.00    1.0
2018/03/13 15:23:18.000   78.255305486   16.193817918   489.0162   2  11   0.0174   0.0108   0.0229  -0.0060  -0.0054   0.0065   0.00    1.0
2018/03/13 15:23:19.000   78.255305441   16.193817791   489.0226   2  11   0.0173   0.0108   0.0228  -0.0060  -0.0054   0.0064   0.00    1.0
2018/03/13 15:23:20.000   78.255305403   16.193817678   489.0312   2  11   0.0173   0.0107   0.0228  -0.0060  -0.0054   0.0064   0.00    1.0
2018/03/13 15:23:21.000   78.255305369   16.193817570   489.0406   2  11   0.0173   0.0107   0.0227  -0.0060  -0.0054   0.0063   0.00    1.0
2018/03/13 15:23:22.000   78.255305342   16.193817450   489.0513   2  11   0.0172   0.0107   0.0226  -0.0060  -0.0053   0.0063   0.00    1.0
2018/03/13 15:23:23.000   78.255305306   16.193817326   489.0629   2  11   0.0172   0.0106   0.0226  -0.0060  -0.0053   0.0062   0.00    1.0
2018/03/13 15:23:24.000   78.255305276   16.193817209   489.0734   2  11   0.0171   0.0106   0.0225  -0.0060  -0.0053   0.0062   0.00    1.0
2018/03/13 15:23:25.000   78.255305240   16.193817071   489.0836   2  11   0.0171   0.0106   0.0224  -0.0060  -0.0053   0.0061   0.00    1.0
2018/03/13 15:23:26.000   78.255305203   16.193816939   489.0932   2  11   0.0171   0.0106   0.0224  -0.0060  -0.0053   0.0061   0.00    1.0
2018/03/13 15:23:27.000   78.255305159   16.193816811   489.1027   2  11   0.0170   0.0105   0.0223  -0.0060  -0.0053   0.0060   0.00    1.0
2018/03/13 15:23:28.000   78.255305114   16.193816680   489.1125   2  11   0.0170   0.0105   0.0223  -0.0059  -0.0053   0.0060   0.00    1.0
2018/03/13 15:23:29.000   78.255305067   16.193816560   489.1216   2  11   0.0170   0.0105   0.0222  -0.0059  -0.0053   0.0060   0.00    1.0
2018/03/13 15:23:30.000   78.255305026   16.193816451   489.1301   2  11   0.0169   0.0105   0.0221  -0.0059  -0.0053   0.0059   0.00    1.0
2018/03/13 15:23:31.000   78.255304972   16.193816349   489.1384   2  11   0.0169   0.0104   0.0221  -0.0059  -0.0053   0.0059   0.00    1.0
2018/03/13 15:23:32.000   78.255304907   16.193816231   489.1464   2  11   0.0169   0.0104   0.0220  -0.0059  -0.0053   0.0058   0.00    1.0
2018/03/13 15:23:33.000   78.255304851   16.193816104   489.1535   2  11   0.0168   0.0104   0.0220  -0.0059  -0.0053   0.0058   0.00    1.0
2018/03/13 15:23:34.000   78.255304778   16.193815976   489.1581   2  11   0.0168   0.0103   0.0219  -0.0059  -0.0053   0.0057   0.00    1.0
2018/03/13 15:23:35.000   78.255304700   16.193815827   489.1608   2  11   0.0168   0.0103   0.0218  -0.0059  -0.0053   0.0057   0.00    1.0
2018/03/13 15:23:36.000   78.255304608   16.193815675   489.1638   2  11   0.0167   0.0103   0.0218  -0.0059  -0.0053   0.0056   0.00    1.0
2018/03/13 15:23:37.000   78.255304514   16.193815495   489.1658   2  10   0.0167   0.0103   0.0217  -0.0059  -0.0053   0.0056   0.00    1.0
2018/03/13 15:23:38.000   78.255304422   16.193815324   489.1647   2  11   0.0167   0.0102   0.0217  -0.0059  -0.0053   0.0055   0.00    1.0
2018/03/13 15:23:39.000   78.255304341   16.193815159   489.1640   2  11   0.0166   0.0102   0.0216  -0.0059  -0.0053   0.0055   0.00    1.0
2018/03/13 15:23:40.000   78.255304267   16.193814963   489.1623   2  11   0.0166   0.0102   0.0215  -0.0059  -0.0052   0.0054   0.00    1.0
2018/03/13 15:23:41.000   78.255304197   16.193814769   489.1615   2  11   0.0166   0.0102   0.0215  -0.0059  -0.0052   0.0054   0.00    1.0
2018/03/13 15:23:42.000   78.255304120   16.193814647   489.1591   2  11   0.0165   0.0101   0.0214  -0.0059  -0.0052   0.0054   0.00    1.0
2018/03/13 15:23:43.000   78.255304041   16.193814561   489.1580   2  11   0.0165   0.0101   0.0214  -0.0059  -0.0052   0.0053   0.00    1.0
2018/03/13 15:23:44.000   78.255303957   16.193814489   489.1559   2  11   0.0164   0.0101   0.0213  -0.0059  -0.0052   0.0053   0.00    1.0
2018/03/13 15:23:45.000   78.255303879   16.193814454   489.1549   2  11   0.0164   0.0101   0.0212  -0.0059  -0.0052   0.0052   0.00    1.0
2018/03/13 15:23:46.000   78.255303794   16.193814388   489.1529   2  11   0.0164   0.0100   0.0212  -0.0059  -0.0052   0.0052   0.00    1.0
2018/03/13 15:23:47.000   78.255303709   16.193814324   489.1510   2  11   0.0163   0.0100   0.0211  -0.0059  -0.0052   0.0051   0.00    1.0
2018/03/13 15:23:48.000   78.255303622   16.193814263   489.1475   2  11   0.0163   0.0100   0.0211  -0.0059  -0.0052   0.0051   0.00    1.0
2018/03/13 15:23:49.000   78.255303533   16.193814178   489.1437   2  11   0.0163   0.0100   0.0210  -0.0059  -0.0052   0.0050   0.00    1.0
2018/03/13 15:23:50.000   78.255303442   16.193814067   489.1395   2  11   0.0162   0.0099   0.0209  -0.0059  -0.0052   0.0050   0.00    1.0
2018/03/13 15:23:51.000   78.255303345   16.193813919   489.1347   2  11   0.0162   0.0099   0.0209  -0.0058  -0.0052   0.0050   0.00    1.0
2018/03/13 15:23:52.000   78.255303253   16.193813753   489.1304   2  11   0.0162   0.0099   0.0208  -0.0058  -0.0052   0.0049   0.00    1.0
2018/03/13 15:23:53.000   78.255303158   16.193813576   489.1250   2  11   0.0161   0.0099   0.0208  -0.0058  -0.0051   0.0049   0.00    1.0
2018/03/13 15:23:54.000   78.255303067   16.193813380   489.1216   2  11   0.0161   0.0098   0.0207  -0.0058  -0.0051   0.0048   0.00    1.0
2018/03/13 15:23:55.000   78.255302977   16.193813189   489.1171   2  11   0.0161   0.0098   0.0206  -0.0058  -0.0051   0.0048   0.00    1.0
2018/03/13 15:23:56.000   78.255302889   16.193813006   489.1129   2  11   0.0160   0.0098   0.0206  -0.0058  -0.0051   0.0047   0.00    1.0
