% program   : RTKPOST ver.2.4.2
% inp file  : Z:\home\linda\Documents\Spring18\GitHub_Unis\data\processed_data\4625074F.obs
% inp file  : Z:\home\linda\Documents\Spring18\GitHub_Unis\data\base_station_data\lyrs0740.18o
% inp file  : Z:\home\linda\Documents\Spring18\GitHub_Unis\data\processed_data\4625074F.nav
% obs start : 2018/03/15 12:47:45.0 GPST (week1992 391665.0s)
% obs end   : 2018/03/15 13:04:41.0 GPST (week1992 392681.0s)
% pos mode  : static
% freqs     : L1+L2
% solution  : forward
% elev mask : 15.0 deg
% dynamics  : on
% tidecorr  : off
% ionos opt : estimation
% tropo opt : saastamoinen
% ephemeris : broadcast
% navi sys  : gps glonass galileo qzss sbas
% amb res   : fix and hold
% amb glo   : on
% val thres : 3.0
% antenna1  :                       ( 0.0000  0.0000  0.0000)
% antenna2  :                       ( 0.0000  0.0000  0.0000)
% ref pos   : 78.228825638   15.397310064   495.6816
%
% (lat/lon/height=WGS84/ellipsoidal,Q=1:fix,2:float,3:sbas,4:dgps,5:single,6:ppp,ns=# of satellites)
%  GPST                  latitude(deg) longitude(deg)  height(m)   Q  ns   sdn(m)   sde(m)   sdu(m)  sdne(m)  sdeu(m)  sdun(m) age(s)  ratio
2018/03/15 12:47:45.000   78.246707651   16.083822144   631.0577   1   9   0.0172   0.0156   0.0654   0.0020   0.0157   0.0181   0.00    3.2
2018/03/15 12:47:46.000   78.246705718   16.083818964   631.0435   2   9   0.3030   0.2762   1.1548   0.0357   0.2750   0.3178   0.00    2.3
2018/03/15 12:47:47.000   78.246705577   16.083816967   630.7086   2   9   0.2509   0.2287   0.9550   0.0295   0.2277   0.2631   0.00    1.9
2018/03/15 12:47:48.000   78.246705673   16.083816053   630.6599   2   9   0.2200   0.2006   0.8365   0.0258   0.1996   0.2306   0.00    1.8
2018/03/15 12:47:49.000   78.246705669   16.083817059   630.6557   2   9   0.1991   0.1816   0.7562   0.0233   0.1804   0.2084   0.00    1.8
2018/03/15 12:47:50.000   78.246706110   16.083817230   630.5347   2   9   0.1838   0.1676   0.6973   0.0214   0.1663   0.1922   0.00    2.3
2018/03/15 12:47:51.000   78.246706380   16.083816381   630.4082   2   9   0.1720   0.1569   0.6519   0.0199   0.1555   0.1796   0.00    3.0
2018/03/15 12:47:52.000   78.246707618   16.083822443   631.0585   1   9   0.0062   0.0057   0.0238   0.0008   0.0057   0.0066   0.00    3.3
2018/03/15 12:47:53.000   78.246707626   16.083822396   631.0559   1   9   0.0059   0.0054   0.0224   0.0007   0.0054   0.0062   0.00    3.1
2018/03/15 12:47:54.000   78.246707631   16.083822386   631.0547   1   9   0.0056   0.0051   0.0213   0.0007   0.0051   0.0059   0.00    3.1
2018/03/15 12:47:55.000   78.246707636   16.083822393   631.0545   1   9   0.0053   0.0048   0.0203   0.0006   0.0049   0.0056   0.00    3.2
2018/03/15 12:47:56.000   78.246707132   16.083816194   630.3517   2   9   0.1380   0.1261   0.5208   0.0157   0.1240   0.1434   0.00    3.0
2018/03/15 12:47:57.000   78.246707448   16.083816768   630.3888   2   9   0.1338   0.1223   0.5045   0.0151   0.1201   0.1389   0.00    2.9
2018/03/15 12:47:58.000   78.246707782   16.083817762   630.4788   2   9   0.1301   0.1189   0.4901   0.0146   0.1167   0.1349   0.00    2.9
2018/03/15 12:47:59.000   78.246707974   16.083818601   630.5253   2   9   0.1268   0.1159   0.4773   0.0142   0.1136   0.1313   0.00    2.7
2018/03/15 12:48:00.000   78.246708166   16.083819044   630.5763   2   9   0.1239   0.1132   0.4657   0.0138   0.1108   0.1281   0.00    2.5
2018/03/15 12:48:01.000   78.246708236   16.083819430   630.6689   2   9   0.1212   0.1108   0.4553   0.0135   0.1082   0.1252   0.00    2.4
2018/03/15 12:48:02.000   78.246708239   16.083819902   630.7163   2   9   0.1187   0.1086   0.4457   0.0131   0.1059   0.1226   0.00    2.4
2018/03/15 12:48:03.000   78.246708276   16.083820285   630.7115   2   9   0.1165   0.1066   0.4370   0.0128   0.1038   0.1202   0.00    2.3
2018/03/15 12:48:04.000   78.246708315   16.083820461   630.7005   2   9   0.1144   0.1047   0.4289   0.0125   0.1019   0.1179   0.00    2.4
2018/03/15 12:48:05.000   78.246708197   16.083819742   630.6140   2   9   0.1126   0.1030   0.4215   0.0123   0.1001   0.1159   0.00    2.4
2018/03/15 12:48:06.000   78.246708071   16.083819253   630.5219   2   9   0.1108   0.1014   0.4146   0.0120   0.0984   0.1139   0.00    2.5
2018/03/15 12:48:07.000   78.246708065   16.083819383   630.5124   2   9   0.1092   0.1000   0.4081   0.0118   0.0968   0.1121   0.00    2.5
2018/03/15 12:48:08.000   78.246708105   16.083819086   630.5205   2   9   0.1077   0.0986   0.4021   0.0116   0.0954   0.1105   0.00    2.5
2018/03/15 12:48:09.000   78.246708160   16.083819225   630.5604   2   9   0.1063   0.0973   0.3964   0.0113   0.0940   0.1089   0.00    2.5
2018/03/15 12:48:10.000   78.246708219   16.083819586   630.5938   2   9   0.1049   0.0961   0.3911   0.0111   0.0927   0.1074   0.00    2.4
2018/03/15 12:48:11.000   78.246708195   16.083819626   630.5809   2   9   0.1037   0.0950   0.3861   0.0110   0.0915   0.1060   0.00    2.3
2018/03/15 12:48:12.000   78.246708178   16.083819633   630.6045   2   9   0.1025   0.0939   0.3814   0.0108   0.0903   0.1047   0.00    2.3
2018/03/15 12:48:13.000   78.246708245   16.083819677   630.6309   2   9   0.1014   0.0929   0.3769   0.0106   0.0892   0.1034   0.00    2.1
2018/03/15 12:48:14.000   78.246708250   16.083819808   630.6651   2   9   0.1003   0.0920   0.3726   0.0104   0.0882   0.1022   0.00    2.0
2018/03/15 12:48:15.000   78.246708221   16.083819695   630.6846   2   9   0.0993   0.0911   0.3685   0.0102   0.0872   0.1011   0.00    1.9
2018/03/15 12:48:16.000   78.246708236   16.083819549   630.6990   2   9   0.0984   0.0902   0.3646   0.0101   0.0862   0.1000   0.00    1.9
2018/03/15 12:48:17.000   78.246708232   16.083819526   630.7022   2   9   0.0975   0.0894   0.3609   0.0099   0.0853   0.0990   0.00    1.9
2018/03/15 12:48:18.000   78.246708327   16.083819348   630.7237   2   9   0.0966   0.0887   0.3573   0.0098   0.0844   0.0980   0.00    1.9
2018/03/15 12:48:19.000   78.246708340   16.083819534   630.7270   2   9   0.0958   0.0879   0.3539   0.0096   0.0836   0.0970   0.00    2.0
2018/03/15 12:48:20.000   78.246708352   16.083819744   630.7277   2   9   0.0950   0.0872   0.3506   0.0095   0.0827   0.0961   0.00    2.1
2018/03/15 12:48:21.000   78.246708349   16.083820001   630.7399   2   9   0.0943   0.0865   0.3474   0.0093   0.0820   0.0952   0.00    2.1
2018/03/15 12:48:22.000   78.246708293   16.083820305   630.7297   2   9   0.0936   0.0859   0.3443   0.0092   0.0812   0.0943   0.00    2.2
2018/03/15 12:48:23.000   78.246708254   16.083820503   630.7187   2   9   0.0929   0.0853   0.3414   0.0090   0.0805   0.0935   0.00    2.1
2018/03/15 12:48:24.000   78.246708249   16.083820518   630.7173   2   9   0.0922   0.0847   0.3385   0.0089   0.0798   0.0927   0.00    2.0
2018/03/15 12:48:25.000   78.246708282   16.083820139   630.6954   2   9   0.0916   0.0841   0.3358   0.0087   0.0791   0.0919   0.00    1.9
2018/03/15 12:48:26.000   78.246708301   16.083819954   630.6870   2   9   0.0910   0.0836   0.3331   0.0086   0.0784   0.0911   0.00    1.7
2018/03/15 12:48:27.000   78.246708390   16.083819760   630.6992   2   9   0.0904   0.0830   0.3305   0.0085   0.0778   0.0904   0.00    1.6
2018/03/15 12:48:28.000   78.246708385   16.083819623   630.7271   2   9   0.0898   0.0825   0.3279   0.0083   0.0771   0.0897   0.00    1.5
2018/03/15 12:48:29.000   78.246708477   16.083819480   630.7708   2   9   0.0893   0.0820   0.3254   0.0082   0.0765   0.0890   0.00    1.4
2018/03/15 12:48:30.000   78.246708555   16.083819307   630.8215   2   9   0.0888   0.0816   0.3230   0.0081   0.0759   0.0883   0.00    1.3
2018/03/15 12:48:31.000   78.246708639   16.083819245   630.8722   2   9   0.0882   0.0811   0.3207   0.0079   0.0753   0.0876   0.00    1.3
2018/03/15 12:48:32.000   78.246708707   16.083819499   630.9338   2   9   0.0877   0.0806   0.3184   0.0078   0.0748   0.0869   0.00    1.2
2018/03/15 12:48:33.000   78.246708788   16.083819231   630.9600   2   9   0.0873   0.0802   0.3161   0.0076   0.0742   0.0863   0.00    1.2
2018/03/15 12:48:34.000   78.246708805   16.083819336   630.9869   2   9   0.0868   0.0798   0.3139   0.0075   0.0736   0.0857   0.00    1.2
2018/03/15 12:48:35.000   78.246708823   16.083819326   630.9940   2   9   0.0863   0.0794   0.3118   0.0074   0.0731   0.0851   0.00    1.2
2018/03/15 12:48:36.000   78.246708718   16.083819337   630.9540   2   9   0.0859   0.0790   0.3097   0.0072   0.0726   0.0845   0.00    1.3
2018/03/15 12:48:37.000   78.246708607   16.083819405   630.9136   2   9   0.0855   0.0786   0.3076   0.0071   0.0720   0.0839   0.00    1.3
2018/03/15 12:48:38.000   78.246708596   16.083819302   630.8899   2   9   0.0851   0.0782   0.3056   0.0070   0.0715   0.0833   0.00    1.4
2018/03/15 12:48:39.000   78.246708571   16.083819247   630.8674   2   9   0.0846   0.0779   0.3036   0.0068   0.0710   0.0827   0.00    1.4
2018/03/15 12:48:40.000   78.246708621   16.083819315   630.8667   2   9   0.0842   0.0775   0.3016   0.0067   0.0705   0.0821   0.00    1.3
2018/03/15 12:48:41.000   78.246708685   16.083819083   630.8722   2   9   0.0839   0.0772   0.2997   0.0066   0.0700   0.0816   0.00    1.3
2018/03/15 12:48:42.000   78.246708725   16.083819233   630.8797   2   9   0.0835   0.0768   0.2978   0.0064   0.0696   0.0810   0.00    1.3
2018/03/15 12:48:43.000   78.246708795   16.083819309   630.8945   2   9   0.0831   0.0765   0.2959   0.0063   0.0691   0.0805   0.00    1.2
2018/03/15 12:48:44.000   78.246708874   16.083819263   630.9245   2   9   0.0828   0.0762   0.2941   0.0061   0.0686   0.0799   0.00    1.2
2018/03/15 12:48:45.000   78.246708964   16.083819419   630.9581   2   9   0.0824   0.0759   0.2922   0.0060   0.0682   0.0794   0.00    1.2
2018/03/15 12:48:46.000   78.246709056   16.083819448   630.9794   2   9   0.0821   0.0756   0.2904   0.0058   0.0677   0.0789   0.00    1.1
2018/03/15 12:48:47.000   78.246709099   16.083819424   630.9917   2   9   0.0817   0.0753   0.2887   0.0057   0.0672   0.0783   0.00    1.1
2018/03/15 12:48:48.000   78.246709101   16.083819473   631.0037   2   9   0.0814   0.0750   0.2869   0.0055   0.0668   0.0778   0.00    1.1
2018/03/15 12:48:49.000   78.246709047   16.083819709   631.0058   2   9   0.0811   0.0747   0.2852   0.0054   0.0664   0.0773   0.00    1.2
2018/03/15 12:48:50.000   78.246709004   16.083819718   631.0046   2   9   0.0808   0.0744   0.2835   0.0052   0.0659   0.0768   0.00    1.2
2018/03/15 12:48:51.000   78.246708983   16.083819656   631.0126   2   9   0.0805   0.0741   0.2818   0.0051   0.0655   0.0763   0.00    1.2
2018/03/15 12:48:52.000   78.246709013   16.083819434   631.0442   2   9   0.0802   0.0739   0.2801   0.0049   0.0651   0.0758   0.00    1.1
2018/03/15 12:48:53.000   78.246709057   16.083819295   631.0520   2   9   0.0799   0.0736   0.2784   0.0047   0.0646   0.0753   0.00    1.1
2018/03/15 12:48:54.000   78.246709077   16.083819092   631.0522   2   9   0.0796   0.0734   0.2768   0.0046   0.0642   0.0748   0.00    1.1
2018/03/15 12:48:55.000   78.246709122   16.083819125   631.0709   2   9   0.0793   0.0731   0.2751   0.0044   0.0638   0.0743   0.00    1.1
2018/03/15 12:48:56.000   78.246709156   16.083819252   631.0838   2   9   0.0790   0.0729   0.2735   0.0042   0.0634   0.0738   0.00    1.1
2018/03/15 12:48:57.000   78.246709226   16.083819345   631.1104   2   9   0.0787   0.0726   0.2719   0.0040   0.0630   0.0733   0.00    1.0
2018/03/15 12:48:58.000   78.246709251   16.083819447   631.1124   2   9   0.0785   0.0724   0.2703   0.0038   0.0626   0.0729   0.00    1.1
2018/03/15 12:48:59.000   78.246709332   16.083819368   631.1326   2   9   0.0782   0.0721   0.2688   0.0036   0.0621   0.0724   0.00    1.1
2018/03/15 12:49:00.000   78.246709371   16.083819218   631.1392   2   9   0.0779   0.0719   0.2672   0.0034   0.0617   0.0719   0.00    1.1
2018/03/15 12:49:01.000   78.246709318   16.083819182   631.1256   2   9   0.0777   0.0717   0.2656   0.0032   0.0613   0.0714   0.00    1.2
2018/03/15 12:49:02.000   78.246709300   16.083819186   631.1529   2   9   0.0774   0.0715   0.2641   0.0030   0.0609   0.0710   0.00    1.2
2018/03/15 12:49:03.000   78.246709418   16.083819003   631.2029   2   9   0.0772   0.0712   0.2626   0.0027   0.0605   0.0705   0.00    1.2
2018/03/15 12:49:04.000   78.246709556   16.083818774   631.2588   2   9   0.0769   0.0710   0.2610   0.0024   0.0601   0.0701   0.00    1.1
2018/03/15 12:49:05.000   78.246709670   16.083818500   631.3096   2   9   0.0767   0.0708   0.2595   0.0021   0.0598   0.0696   0.00    1.1
2018/03/15 12:49:06.000   78.246709786   16.083818427   631.3576   2   9   0.0764   0.0706   0.2580   0.0018   0.0594   0.0691   0.00    1.1
2018/03/15 12:49:07.000   78.246709837   16.083818353   631.3840   2   9   0.0762   0.0704   0.2566   0.0013   0.0590   0.0687   0.00    1.1
2018/03/15 12:49:08.000   78.246709904   16.083818358   631.4020   2   9   0.0760   0.0702   0.2551   0.0006   0.0586   0.0683   0.00    1.0
2018/03/15 12:49:09.000   78.246709962   16.083818457   631.4256   2   9   0.0757   0.0700   0.2538   0.0009   0.0583   0.0679   0.00    1.2
2018/03/15 12:49:10.000   78.246710026   16.083818437   631.4474   2   9   0.0755   0.0698   0.2525   0.0002   0.0579   0.0675   0.00    1.1
2018/03/15 12:49:11.000   78.246710107   16.083818256   631.4797   2   9   0.0753   0.0696   0.2512  -0.0008   0.0576   0.0671   0.00    1.5
2018/03/15 12:49:40.000   78.246710342   16.083817696   631.5504   2   9   0.0750   0.0694   0.2505  -0.0005   0.0574   0.0669   0.00    1.1
2018/03/15 12:49:41.000   78.246710323   16.083817591   631.5500   2   8   0.0749   0.0692   0.2501  -0.0015   0.0572   0.0669   0.00    1.1
2018/03/15 12:49:42.000   78.246710565   16.083816962   631.6088   2   9   0.0747   0.0691   0.2496  -0.0009   0.0571   0.0667   0.00    1.0
2018/03/15 12:49:43.000   78.246710631   16.083816669   631.6292   2   9   0.0745   0.0689   0.2491   0.0005   0.0570   0.0666   0.00    1.1
2018/03/15 12:49:44.000   78.246710694   16.083816527   631.6381   2   9   0.0744   0.0687   0.2486   0.0007   0.0569   0.0665   0.00    1.0
2018/03/15 12:49:45.000   78.246710734   16.083816283   631.6433   2   9   0.0742   0.0686   0.2481   0.0008   0.0568   0.0664   0.00    1.1
2018/03/15 12:49:46.000   78.246710784   16.083816124   631.6392   2   9   0.0741   0.0685   0.2476   0.0009   0.0566   0.0663   0.00    1.1
2018/03/15 12:49:47.000   78.246710848   16.083815934   631.6462   2   9   0.0739   0.0683   0.2471   0.0010   0.0565   0.0662   0.00    1.1
2018/03/15 12:49:48.000   78.246710910   16.083815815   631.6450   2   9   0.0737   0.0682   0.2466   0.0011   0.0564   0.0661   0.00    1.1
2018/03/15 12:49:49.000   78.246710979   16.083815546   631.6514   2   9   0.0736   0.0680   0.2461   0.0012   0.0563   0.0660   0.00    1.1
2018/03/15 12:49:50.000   78.246711043   16.083815411   631.6610   2   9   0.0734   0.0679   0.2457   0.0013   0.0562   0.0658   0.00    1.1
2018/03/15 12:49:51.000   78.246711137   16.083815033   631.6680   2   9   0.0733   0.0678   0.2452   0.0013   0.0560   0.0657   0.00    1.1
2018/03/15 12:49:52.000   78.246711210   16.083814750   631.6794   2   9   0.0732   0.0676   0.2447   0.0014   0.0559   0.0656   0.00    1.1
2018/03/15 12:49:53.000   78.246711208   16.083814727   631.6702   2   8   0.0730   0.0675   0.2443   0.0005   0.0558   0.0656   0.00    1.1
2018/03/15 12:49:54.000   78.246711296   16.083814513   631.6926   2   9   0.0729   0.0674   0.2438   0.0008   0.0557   0.0655   0.00    1.0
2018/03/15 12:49:55.000   78.246711324   16.083814298   631.6992   2   9   0.0728   0.0672   0.2434   0.0008   0.0555   0.0654   0.00    1.0
2018/03/15 12:49:56.000   78.246711353   16.083814265   631.7091   2   9   0.0726   0.0671   0.2429   0.0008   0.0554   0.0653   0.00    1.0
2018/03/15 12:49:57.000   78.246711331   16.083814256   631.7124   2   9   0.0725   0.0670   0.2424   0.0012   0.0553   0.0652   0.00    1.0
2018/03/15 12:49:58.000   78.246711318   16.083814162   631.7167   2   9   0.0723   0.0669   0.2420   0.0013   0.0552   0.0651   0.00    1.0
2018/03/15 12:49:59.000   78.246711316   16.083813998   631.7318   2   9   0.0722   0.0667   0.2415   0.0013   0.0551   0.0650   0.00    1.0
2018/03/15 12:50:00.000   78.246711341   16.083813881   631.7339   2   9   0.0721   0.0666   0.2411   0.0014   0.0550   0.0648   0.00    1.0
2018/03/15 12:50:01.000   78.246711350   16.083813781   631.7471   2   9   0.0719   0.0665   0.2406   0.0014   0.0549   0.0647   0.00    1.0
2018/03/15 12:50:02.000   78.246711337   16.083813672   631.7543   2   9   0.0718   0.0664   0.2402   0.0014   0.0547   0.0646   0.00    1.0
2018/03/15 12:50:03.000   78.246711322   16.083813519   631.7494   2   9   0.0717   0.0663   0.2397   0.0015   0.0546   0.0645   0.00    1.0
2018/03/15 12:50:04.000   78.246711271   16.083813278   631.7376   2   9   0.0716   0.0661   0.2393   0.0015   0.0545   0.0644   0.00    1.0
2018/03/15 12:50:05.000   78.246711227   16.083813232   631.7268   2   9   0.0714   0.0660   0.2388   0.0015   0.0544   0.0643   0.00    1.1
2018/03/15 12:50:06.000   78.246711209   16.083813140   631.7144   2   9   0.0713   0.0659   0.2384   0.0016   0.0543   0.0642   0.00    1.2
2018/03/15 12:50:07.000   78.246711206   16.083813055   631.7139   2   9   0.0712   0.0658   0.2379   0.0016   0.0542   0.0641   0.00    1.2
2018/03/15 12:50:08.000   78.246711194   16.083812990   631.7116   2   9   0.0711   0.0657   0.2375   0.0016   0.0541   0.0640   0.00    1.2
2018/03/15 12:50:09.000   78.246711204   16.083813015   631.7110   2   9   0.0709   0.0656   0.2370   0.0016   0.0539   0.0639   0.00    1.1
2018/03/15 12:50:10.000   78.246711229   16.083813009   631.7147   2   9   0.0708   0.0655   0.2365   0.0016   0.0538   0.0638   0.00    1.1
2018/03/15 12:50:11.000   78.246711237   16.083812926   631.7175   2   9   0.0707   0.0654   0.2361   0.0016   0.0537   0.0636   0.00    1.1
2018/03/15 12:50:12.000   78.246711251   16.083813029   631.7311   2   9   0.0706   0.0653   0.2356   0.0016   0.0536   0.0635   0.00    1.1
2018/03/15 12:50:13.000   78.246711281   16.083812951   631.7390   2   9   0.0705   0.0652   0.2352   0.0016   0.0535   0.0634   0.00    1.2
2018/03/15 12:50:14.000   78.246711303   16.083812898   631.7410   2   9   0.0704   0.0651   0.2347   0.0016   0.0534   0.0633   0.00    1.3
2018/03/15 12:50:15.000   78.246711308   16.083812844   631.7414   2   9   0.0702   0.0649   0.2342   0.0016   0.0532   0.0632   0.00    1.3
2018/03/15 12:50:16.000   78.246711284   16.083812806   631.7402   2   9   0.0701   0.0648   0.2338   0.0016   0.0531   0.0631   0.00    1.3
2018/03/15 12:50:17.000   78.246711226   16.083812928   631.7345   2   9   0.0700   0.0647   0.2333   0.0016   0.0530   0.0629   0.00    1.3
2018/03/15 12:50:18.000   78.246711192   16.083813041   631.7348   2   9   0.0699   0.0646   0.2328   0.0016   0.0529   0.0628   0.00    1.4
2018/03/15 12:50:19.000   78.246711152   16.083813178   631.7445   2   9   0.0698   0.0645   0.2324   0.0016   0.0528   0.0627   0.00    1.4
2018/03/15 12:50:20.000   78.246711142   16.083813268   631.7611   2   9   0.0697   0.0644   0.2319   0.0016   0.0526   0.0626   0.00    1.4
2018/03/15 12:50:21.000   78.246711132   16.083813319   631.7817   2   9   0.0696   0.0643   0.2314   0.0015   0.0525   0.0625   0.00    1.3
2018/03/15 12:50:22.000   78.246711131   16.083813422   631.8002   2   9   0.0695   0.0642   0.2309   0.0015   0.0524   0.0623   0.00    1.3
2018/03/15 12:50:23.000   78.246711122   16.083813427   631.8240   2   9   0.0694   0.0641   0.2304   0.0015   0.0523   0.0622   0.00    1.2
2018/03/15 12:50:24.000   78.246711108   16.083813525   631.8454   2   9   0.0693   0.0640   0.2299   0.0015   0.0521   0.0621   0.00    1.2
2018/03/15 12:50:25.000   78.246711109   16.083813572   631.8647   2   9   0.0691   0.0639   0.2295   0.0014   0.0520   0.0619   0.00    1.2
2018/03/15 12:50:26.000   78.246711121   16.083813580   631.8668   2   9   0.0690   0.0638   0.2290   0.0014   0.0519   0.0618   0.00    1.2
2018/03/15 12:50:27.000   78.246711121   16.083813617   631.8682   2   9   0.0689   0.0638   0.2285   0.0013   0.0518   0.0617   0.00    1.1
2018/03/15 12:50:28.000   78.246711087   16.083813725   631.8615   2   9   0.0688   0.0637   0.2280   0.0013   0.0516   0.0615   0.00    1.1
2018/03/15 12:50:29.000   78.246711041   16.083813772   631.8483   2   9   0.0687   0.0636   0.2274   0.0012   0.0515   0.0614   0.00    1.1
2018/03/15 12:50:30.000   78.246711006   16.083813860   631.8476   2   9   0.0686   0.0635   0.2269   0.0012   0.0514   0.0613   0.00    1.2
2018/03/15 12:50:31.000   78.246711010   16.083813910   631.8496   2   9   0.0685   0.0634   0.2264   0.0011   0.0512   0.0611   0.00    1.1
2018/03/15 12:50:32.000   78.246711012   16.083813894   631.8493   2   9   0.0684   0.0633   0.2259   0.0010   0.0511   0.0610   0.00    1.1
2018/03/15 12:50:33.000   78.246711011   16.083813857   631.8463   2   9   0.0683   0.0632   0.2254   0.0010   0.0509   0.0608   0.00    1.1
2018/03/15 12:50:34.000   78.246711009   16.083813886   631.8421   2   9   0.0682   0.0631   0.2249   0.0009   0.0508   0.0607   0.00    1.0
2018/03/15 12:50:35.000   78.246710996   16.083813843   631.8324   2   9   0.0681   0.0630   0.2243   0.0008   0.0507   0.0605   0.00    1.0
2018/03/15 12:50:36.000   78.246710991   16.083813804   631.8258   2   9   0.0680   0.0629   0.2238   0.0006   0.0505   0.0604   0.00    1.0
2018/03/15 12:50:37.000   78.246710987   16.083813799   631.8164   2   9   0.0679   0.0628   0.2232   0.0004   0.0504   0.0602   0.00    1.0
2018/03/15 12:50:38.000   78.246710950   16.083813839   631.8141   2   9   0.0678   0.0627   0.2227  -0.0000   0.0502   0.0601   0.00    1.0
2018/03/15 12:50:39.000   78.246710890   16.083813795   631.8001   2   9   0.0677   0.0626   0.2221  -0.0005   0.0501   0.0599   0.00    1.0
2018/03/15 12:50:40.000   78.246710833   16.083813846   631.7906   2   9   0.0676   0.0626   0.2216  -0.0006   0.0500   0.0598   0.00    1.1
2018/03/15 12:50:41.000   78.246710765   16.083813894   631.7752   2   9   0.0675   0.0625   0.2210  -0.0008   0.0498   0.0596   0.00    1.1
2018/03/15 12:50:42.000   78.246710723   16.083813942   631.7636   2   9   0.0674   0.0624   0.2205  -0.0009   0.0497   0.0595   0.00    1.1
2018/03/15 12:50:43.000   78.246710677   16.083813899   631.7558   2   9   0.0673   0.0623   0.2199  -0.0010   0.0495   0.0593   0.00    1.1
2018/03/15 12:50:44.000   78.246710644   16.083813847   631.7520   2   9   0.0672   0.0622   0.2193  -0.0011   0.0494   0.0591   0.00    1.1
2018/03/15 12:50:45.000   78.246710602   16.083813868   631.7420   2   9   0.0671   0.0621   0.2187  -0.0012   0.0492   0.0590   0.00    1.1
2018/03/15 12:50:46.000   78.246710565   16.083813769   631.7357   2   9   0.0670   0.0620   0.2182  -0.0013   0.0491   0.0588   0.00    1.1
2018/03/15 12:50:47.000   78.246710531   16.083813723   631.7322   2   9   0.0669   0.0619   0.2176  -0.0014   0.0489   0.0586   0.00    1.1
2018/03/15 12:50:48.000   78.246710491   16.083813751   631.7292   2   9   0.0668   0.0619   0.2170  -0.0015   0.0487   0.0584   0.00    1.1
2018/03/15 12:50:49.000   78.246710441   16.083813776   631.7235   2   9   0.0667   0.0618   0.2164  -0.0016   0.0486   0.0583   0.00    1.1
2018/03/15 12:50:50.000   78.246710412   16.083813822   631.7160   2   9   0.0666   0.0617   0.2158  -0.0017   0.0484   0.0581   0.00    1.1
2018/03/15 12:50:51.000   78.246710375   16.083813894   631.7096   2   9   0.0665   0.0616   0.2152  -0.0017   0.0483   0.0579   0.00    1.1
2018/03/15 12:50:52.000   78.246710339   16.083813893   631.7008   2   9   0.0664   0.0615   0.2146  -0.0018   0.0481   0.0577   0.00    1.2
2018/03/15 12:50:53.000   78.246710314   16.083813796   631.6936   2   9   0.0663   0.0614   0.2140  -0.0019   0.0479   0.0575   0.00    1.2
2018/03/15 12:50:54.000   78.246710298   16.083813779   631.6876   2   9   0.0662   0.0613   0.2133  -0.0020   0.0478   0.0574   0.00    1.2
2018/03/15 12:50:55.000   78.246710280   16.083813714   631.6825   2   9   0.0661   0.0612   0.2127  -0.0020   0.0476   0.0572   0.00    1.2
2018/03/15 12:50:56.000   78.246710277   16.083813723   631.6771   2   9   0.0660   0.0612   0.2121  -0.0021   0.0474   0.0570   0.00    1.2
2018/03/15 12:50:57.000   78.246710281   16.083813724   631.6804   2   9   0.0659   0.0611   0.2114  -0.0022   0.0473   0.0568   0.00    1.2
2018/03/15 12:50:58.000   78.246710306   16.083813702   631.6837   2   9   0.0658   0.0610   0.2108  -0.0022   0.0471   0.0566   0.00    1.3
2018/03/15 12:50:59.000   78.246710306   16.083813681   631.6918   2   9   0.0658   0.0609   0.2102  -0.0023   0.0469   0.0564   0.00    1.3
2018/03/15 12:51:00.000   78.246710293   16.083813570   631.6862   2   9   0.0657   0.0608   0.2095  -0.0023   0.0468   0.0562   0.00    1.3
2018/03/15 12:51:01.000   78.246710276   16.083813456   631.6870   2   9   0.0656   0.0607   0.2089  -0.0024   0.0466   0.0560   0.00    1.2
2018/03/15 12:51:02.000   78.246710237   16.083813469   631.6893   2   9   0.0655   0.0607   0.2082  -0.0025   0.0464   0.0558   0.00    1.2
2018/03/15 12:51:03.000   78.246710161   16.083813469   631.6913   2   9   0.0654   0.0606   0.2075  -0.0025   0.0462   0.0556   0.00    1.2
2018/03/15 12:51:04.000   78.246710095   16.083813572   631.6888   2   9   0.0653   0.0605   0.2069  -0.0026   0.0461   0.0554   0.00    1.2
2018/03/15 12:51:05.000   78.246710043   16.083813694   631.6923   2   9   0.0652   0.0604   0.2062  -0.0026   0.0459   0.0552   0.00    1.2
2018/03/15 12:51:06.000   78.246710002   16.083813881   631.6925   2   9   0.0651   0.0603   0.2055  -0.0027   0.0457   0.0550   0.00    1.2
2018/03/15 12:51:07.000   78.246709968   16.083813925   631.6928   2   9   0.0650   0.0602   0.2049  -0.0027   0.0455   0.0548   0.00    1.2
2018/03/15 12:51:08.000   78.246709954   16.083814009   631.6961   2   9   0.0649   0.0602   0.2042  -0.0028   0.0453   0.0546   0.00    1.2
2018/03/15 12:51:09.000   78.246709951   16.083813900   631.6951   2   9   0.0648   0.0601   0.2035  -0.0028   0.0452   0.0543   0.00    1.2
2018/03/15 12:51:10.000   78.246709958   16.083813828   631.6897   2   9   0.0647   0.0600   0.2028  -0.0029   0.0450   0.0541   0.00    1.2
2018/03/15 12:51:11.000   78.246709944   16.083813797   631.6781   2   9   0.0646   0.0599   0.2021  -0.0029   0.0448   0.0539   0.00    1.3
2018/03/15 12:51:12.000   78.246709934   16.083813826   631.6715   2   9   0.0645   0.0598   0.2014  -0.0030   0.0446   0.0537   0.00    1.3
2018/03/15 12:51:13.000   78.246709905   16.083813954   631.6627   2   9   0.0644   0.0597   0.2007  -0.0030   0.0444   0.0535   0.00    1.3
2018/03/15 12:51:14.000   78.246709874   16.083814088   631.6579   2   9   0.0643   0.0597   0.2000  -0.0030   0.0442   0.0533   0.00    1.3
2018/03/15 12:51:15.000   78.246709848   16.083814190   631.6594   2   9   0.0642   0.0596   0.1993  -0.0031   0.0440   0.0530   0.00    1.3
2018/03/15 12:51:16.000   78.246709815   16.083814286   631.6607   2   9   0.0641   0.0595   0.1986  -0.0031   0.0438   0.0528   0.00    1.3
2018/03/15 12:51:17.000   78.246709785   16.083814344   631.6669   2   9   0.0640   0.0594   0.1979  -0.0031   0.0437   0.0526   0.00    1.3
2018/03/15 12:51:18.000   78.246709753   16.083814421   631.6735   2   9   0.0639   0.0593   0.1972  -0.0032   0.0435   0.0523   0.00    1.3
2018/03/15 12:51:19.000   78.246709736   16.083814454   631.6775   2   9   0.0639   0.0593   0.1964  -0.0032   0.0433   0.0521   0.00    1.3
2018/03/15 12:51:20.000   78.246709710   16.083814548   631.6737   2   9   0.0638   0.0592   0.1957  -0.0033   0.0431   0.0519   0.00    1.3
2018/03/15 12:51:21.000   78.246709684   16.083814611   631.6703   2   9   0.0637   0.0591   0.1950  -0.0033   0.0429   0.0517   0.00    1.3
2018/03/15 12:51:22.000   78.246709682   16.083814687   631.6628   2   9   0.0636   0.0590   0.1943  -0.0033   0.0427   0.0514   0.00    1.3
2018/03/15 12:51:23.000   78.246709680   16.083814612   631.6553   2   9   0.0635   0.0589   0.1935  -0.0033   0.0425   0.0512   0.00    1.3
2018/03/15 12:51:24.000   78.246709663   16.083814527   631.6477   2   9   0.0634   0.0588   0.1928  -0.0034   0.0423   0.0509   0.00    1.3
2018/03/15 12:51:25.000   78.246709640   16.083814473   631.6484   2   9   0.0633   0.0588   0.1921  -0.0034   0.0421   0.0507   0.00    1.3
2018/03/15 12:51:26.000   78.246709598   16.083814445   631.6472   2   9   0.0632   0.0587   0.1913  -0.0034   0.0419   0.0505   0.00    1.3
2018/03/15 12:51:27.000   78.246709558   16.083814510   631.6480   2   9   0.0631   0.0586   0.1906  -0.0034   0.0417   0.0502   0.00    1.3
2018/03/15 12:51:28.000   78.246709525   16.083814642   631.6477   2   9   0.0630   0.0585   0.1899  -0.0035   0.0415   0.0500   0.00    1.3
2018/03/15 12:51:29.000   78.246709493   16.083814805   631.6453   2   9   0.0629   0.0584   0.1891  -0.0035   0.0413   0.0497   0.00    1.3
2018/03/15 12:51:30.000   78.246709462   16.083814965   631.6421   2   9   0.0628   0.0584   0.1884  -0.0035   0.0411   0.0495   0.00    1.3
2018/03/15 12:51:31.000   78.246709438   16.083815136   631.6386   2   9   0.0627   0.0583   0.1876  -0.0035   0.0409   0.0493   0.00    1.2
2018/03/15 12:51:32.000   78.246709428   16.083815197   631.6335   2   9   0.0626   0.0582   0.1869  -0.0035   0.0407   0.0490   0.00    1.2
2018/03/15 12:51:33.000   78.246709429   16.083815206   631.6255   2   9   0.0625   0.0581   0.1861  -0.0036   0.0405   0.0488   0.00    1.2
2018/03/15 12:51:34.000   78.246709428   16.083815249   631.6117   2   9   0.0624   0.0580   0.1854  -0.0036   0.0403   0.0485   0.00    1.2
2018/03/15 12:51:35.000   78.246709426   16.083815218   631.6050   2   9   0.0624   0.0580   0.1846  -0.0036   0.0401   0.0483   0.00    1.2
2018/03/15 12:51:36.000   78.246709430   16.083815190   631.5997   2   9   0.0623   0.0579   0.1839  -0.0036   0.0399   0.0480   0.00    1.2
2018/03/15 12:51:37.000   78.246709427   16.083815166   631.5922   2   9   0.0622   0.0578   0.1831  -0.0036   0.0397   0.0478   0.00    1.2
2018/03/15 12:51:38.000   78.246709410   16.083815297   631.5843   2   9   0.0621   0.0577   0.1824  -0.0036   0.0395   0.0475   0.00    1.2
2018/03/15 12:51:39.000   78.246709389   16.083815412   631.5823   2   9   0.0620   0.0576   0.1816  -0.0036   0.0393   0.0473   0.00    1.2
2018/03/15 12:51:40.000   78.246709344   16.083815507   631.5798   2   9   0.0619   0.0576   0.1809  -0.0036   0.0391   0.0470   0.00    1.2
2018/03/15 12:51:41.000   78.246709295   16.083815569   631.5813   2   9   0.0618   0.0575   0.1801  -0.0036   0.0388   0.0468   0.00    1.2
2018/03/15 12:51:42.000   78.246709244   16.083815666   631.5821   2   9   0.0617   0.0574   0.1793  -0.0036   0.0386   0.0465   0.00    1.2
2018/03/15 12:51:43.000   78.246709218   16.083815733   631.5830   2   9   0.0616   0.0573   0.1786  -0.0036   0.0384   0.0462   0.00    1.2
2018/03/15 12:51:44.000   78.246709194   16.083815833   631.5864   2   9   0.0615   0.0572   0.1778  -0.0036   0.0382   0.0460   0.00    1.2
2018/03/15 12:51:45.000   78.246709190   16.083815929   631.5867   2   9   0.0614   0.0572   0.1771  -0.0036   0.0380   0.0457   0.00    1.2
2018/03/15 12:51:46.000   78.246709182   16.083816012   631.5817   2   9   0.0613   0.0571   0.1763  -0.0036   0.0378   0.0455   0.00    1.2
2018/03/15 12:51:47.000   78.246709191   16.083816032   631.5814   2   9   0.0612   0.0570   0.1755  -0.0036   0.0376   0.0452   0.00    1.2
2018/03/15 12:51:48.000   78.246709203   16.083815979   631.5758   2   9   0.0611   0.0569   0.1748  -0.0036   0.0374   0.0450   0.00    1.2
2018/03/15 12:51:49.000   78.246709214   16.083815931   631.5762   2   9   0.0610   0.0568   0.1740  -0.0036   0.0372   0.0447   0.00    1.2
2018/03/15 12:51:50.000   78.246709205   16.083815965   631.5781   2   9   0.0610   0.0568   0.1733  -0.0035   0.0370   0.0444   0.00    1.2
2018/03/15 12:51:51.000   78.246709193   16.083816004   631.5787   2   9   0.0609   0.0567   0.1725  -0.0035   0.0368   0.0442   0.00    1.2
2018/03/15 12:51:52.000   78.246709191   16.083816028   631.5763   2   9   0.0608   0.0566   0.1717  -0.0035   0.0366   0.0439   0.00    1.2
2018/03/15 12:51:53.000   78.246709167   16.083816084   631.5694   2   9   0.0607   0.0565   0.1710  -0.0035   0.0364   0.0437   0.00    1.2
2018/03/15 12:51:54.000   78.246709163   16.083816191   631.5661   2   9   0.0606   0.0564   0.1702  -0.0035   0.0361   0.0434   0.00    1.2
2018/03/15 12:51:55.000   78.246709155   16.083816257   631.5564   2   9   0.0605   0.0564   0.1695  -0.0034   0.0359   0.0431   0.00    1.2
2018/03/15 12:51:56.000   78.246709165   16.083816200   631.5522   2   9   0.0604   0.0563   0.1687  -0.0034   0.0357   0.0429   0.00    1.2
2018/03/15 12:51:57.000   78.246709163   16.083816151   631.5456   2   9   0.0603   0.0562   0.1680  -0.0034   0.0355   0.0426   0.00    1.2
2018/03/15 12:51:58.000   78.246709169   16.083816108   631.5383   2   9   0.0602   0.0561   0.1672  -0.0034   0.0353   0.0424   0.00    1.2
2018/03/15 12:51:59.000   78.246709176   16.083816065   631.5340   2   9   0.0601   0.0560   0.1664  -0.0033   0.0351   0.0421   0.00    1.2
2018/03/15 12:52:00.000   78.246709174   16.083815993   631.5299   2   9   0.0600   0.0560   0.1657  -0.0033   0.0349   0.0418   0.00    1.2
2018/03/15 12:52:01.000   78.246709166   16.083815959   631.5205   2   9   0.0599   0.0559   0.1649  -0.0032   0.0347   0.0416   0.00    1.2
2018/03/15 12:52:02.000   78.246709161   16.083815984   631.5166   2   9   0.0598   0.0558   0.1642  -0.0032   0.0345   0.0413   0.00    1.2
2018/03/15 12:52:03.000   78.246709135   16.083816013   631.5104   2   9   0.0597   0.0557   0.1634  -0.0032   0.0343   0.0411   0.00    1.2
2018/03/15 12:52:04.000   78.246709113   16.083816071   631.5094   2   9   0.0597   0.0556   0.1627  -0.0031   0.0341   0.0408   0.00    1.2
2018/03/15 12:52:05.000   78.246709095   16.083816040   631.5075   2   9   0.0596   0.0556   0.1619  -0.0031   0.0339   0.0405   0.00    1.2
2018/03/15 12:52:06.000   78.246709072   16.083815994   631.5041   2   9   0.0595   0.0555   0.1612  -0.0030   0.0337   0.0403   0.00    1.2
2018/03/15 12:52:07.000   78.246709063   16.083815944   631.4967   2   9   0.0594   0.0554   0.1605  -0.0029   0.0334   0.0400   0.00    1.2
2018/03/15 12:52:08.000   78.246709047   16.083815962   631.4884   2   9   0.0593   0.0553   0.1597  -0.0029   0.0332   0.0397   0.00    1.2
2018/03/15 12:52:09.000   78.246709053   16.083815944   631.4823   2   9   0.0592   0.0552   0.1590  -0.0028   0.0330   0.0395   0.00    1.2
2018/03/15 12:52:10.000   78.246709061   16.083815919   631.4799   2   9   0.0591   0.0552   0.1582  -0.0028   0.0328   0.0392   0.00    1.2
2018/03/15 12:52:11.000   78.246709072   16.083815873   631.4764   2   9   0.0590   0.0551   0.1575  -0.0027   0.0326   0.0390   0.00    1.2
2018/03/15 12:52:12.000   78.246709064   16.083815893   631.4713   2   9   0.0589   0.0550   0.1568  -0.0026   0.0324   0.0387   0.00    1.2
2018/03/15 12:52:13.000   78.246709073   16.083815867   631.4671   2   9   0.0588   0.0549   0.1560  -0.0025   0.0322   0.0384   0.00    1.2
2018/03/15 12:52:14.000   78.246709079   16.083815852   631.4618   2   9   0.0587   0.0548   0.1553  -0.0024   0.0320   0.0382   0.00    1.2
2018/03/15 12:52:15.000   78.246709085   16.083815935   631.4589   2   9   0.0586   0.0548   0.1546  -0.0023   0.0318   0.0379   0.00    1.2
2018/03/15 12:52:16.000   78.246709082   16.083815958   631.4531   2   9   0.0586   0.0547   0.1538  -0.0022   0.0316   0.0377   0.00    1.2
2018/03/15 12:52:17.000   78.246709096   16.083816016   631.4480   2   9   0.0585   0.0546   0.1531  -0.0021   0.0314   0.0374   0.00    1.2
2018/03/15 12:52:18.000   78.246709105   16.083816066   631.4364   2   9   0.0584   0.0545   0.1524  -0.0020   0.0312   0.0371   0.00    1.2
2018/03/15 12:52:19.000   78.246709105   16.083816021   631.4282   2   9   0.0583   0.0544   0.1517  -0.0019   0.0310   0.0369   0.00    1.2
2018/03/15 12:52:20.000   78.246709106   16.083815979   631.4218   2   9   0.0582   0.0544   0.1510  -0.0017   0.0308   0.0366   0.00    1.2
2018/03/15 12:52:21.000   78.246709093   16.083816020   631.4168   2   9   0.0581   0.0543   0.1503  -0.0016   0.0306   0.0364   0.00    1.2
2018/03/15 12:52:22.000   78.246709094   16.083816079   631.4204   2   9   0.0580   0.0542   0.1495  -0.0014   0.0304   0.0361   0.00    1.2
2018/03/15 12:52:23.000   78.246709092   16.083816075   631.4214   2   9   0.0579   0.0541   0.1488  -0.0011   0.0302   0.0358   0.00    1.2
2018/03/15 12:52:24.000   78.246709096   16.083816092   631.4197   2   9   0.0578   0.0540   0.1481  -0.0009   0.0300   0.0356   0.00    1.2
2018/03/15 12:52:25.000   78.246709098   16.083816127   631.4172   2   9   0.0577   0.0540   0.1474  -0.0004   0.0298   0.0353   0.00    1.2
2018/03/15 12:52:26.000   78.246709100   16.083816166   631.4132   2   9   0.0576   0.0539   0.1467   0.0007   0.0296   0.0351   0.00    1.2
2018/03/15 12:52:27.000   78.246709104   16.083816216   631.4063   2   9   0.0576   0.0538   0.1460   0.0010   0.0294   0.0348   0.00    1.2
2018/03/15 12:52:28.000   78.246709111   16.083816201   631.3936   2   9   0.0575   0.0537   0.1453   0.0013   0.0292   0.0346   0.00    1.2
2018/03/15 12:52:29.000   78.246709118   16.083816200   631.3762   2   9   0.0574   0.0537   0.1446   0.0015   0.0290   0.0343   0.00    1.2
2018/03/15 12:52:30.000   78.246709125   16.083816254   631.3639   2   9   0.0573   0.0536   0.1439   0.0017   0.0288   0.0340   0.00    1.2
2018/03/15 12:52:31.000   78.246709135   16.083816221   631.3547   2   9   0.0572   0.0535   0.1433   0.0019   0.0286   0.0338   0.00    1.2
2018/03/15 12:52:32.000   78.246709136   16.083816210   631.3485   2   9   0.0571   0.0534   0.1426   0.0021   0.0284   0.0335   0.00    1.2
2018/03/15 12:52:33.000   78.246709144   16.083816257   631.3525   2   9   0.0570   0.0533   0.1419   0.0022   0.0282   0.0333   0.00    1.2
2018/03/15 12:52:34.000   78.246709150   16.083816252   631.3543   2   9   0.0569   0.0533   0.1412   0.0024   0.0280   0.0330   0.00    1.2
2018/03/15 12:52:35.000   78.246709147   16.083816297   631.3586   2   9   0.0568   0.0532   0.1405   0.0025   0.0278   0.0328   0.00    1.2
2018/03/15 12:52:36.000   78.246709145   16.083816341   631.3602   2   9   0.0567   0.0531   0.1399   0.0027   0.0276   0.0325   0.00    1.2
2018/03/15 12:52:37.000   78.246709146   16.083816392   631.3636   2   9   0.0566   0.0530   0.1392   0.0028   0.0274   0.0323   0.00    1.2
2018/03/15 12:52:38.000   78.246709140   16.083816394   631.3593   2   9   0.0566   0.0529   0.1385   0.0029   0.0272   0.0320   0.00    1.2
2018/03/15 12:52:39.000   78.246709134   16.083816402   631.3541   2   9   0.0565   0.0529   0.1379   0.0031   0.0271   0.0318   0.00    1.3
2018/03/15 12:52:40.000   78.246709128   16.083816433   631.3440   2   9   0.0564   0.0528   0.1372   0.0032   0.0269   0.0315   0.00    1.3
2018/03/15 12:52:41.000   78.246709125   16.083816391   631.3322   2   9   0.0563   0.0527   0.1365   0.0033   0.0267   0.0313   0.00    1.3
2018/03/15 12:52:42.000   78.246709112   16.083816350   631.3170   2   9   0.0562   0.0526   0.1359   0.0034   0.0265   0.0310   0.00    1.3
2018/03/15 12:52:43.000   78.246709108   16.083816282   631.3066   2   9   0.0561   0.0525   0.1352   0.0036   0.0263   0.0308   0.00    1.3
2018/03/15 12:52:44.000   78.246709109   16.083816218   631.3014   2   9   0.0560   0.0525   0.1346   0.0037   0.0261   0.0305   0.00    1.3
2018/03/15 12:52:45.000   78.246709109   16.083816263   631.3005   2   9   0.0559   0.0524   0.1339   0.0038   0.0259   0.0303   0.00    1.3
2018/03/15 12:52:46.000   78.246709101   16.083816339   631.3091   2   9   0.0558   0.0523   0.1333   0.0039   0.0257   0.0300   0.00    1.3
2018/03/15 12:52:47.000   78.246709096   16.083816439   631.3156   2   9   0.0558   0.0522   0.1326   0.0040   0.0255   0.0298   0.00    1.3
2018/03/15 12:52:48.000   78.246709098   16.083816528   631.3239   2   9   0.0557   0.0521   0.1320   0.0041   0.0254   0.0295   0.00    1.3
2018/03/15 12:52:49.000   78.246709107   16.083816616   631.3282   2   9   0.0556   0.0521   0.1314   0.0042   0.0252   0.0293   0.00    1.3
2018/03/15 12:52:50.000   78.246709114   16.083816717   631.3301   2   9   0.0555   0.0520   0.1307   0.0043   0.0250   0.0291   0.00    1.3
2018/03/15 12:52:51.000   78.246709123   16.083816794   631.3244   2   9   0.0554   0.0519   0.1301   0.0044   0.0248   0.0288   0.00    1.3
2018/03/15 12:52:52.000   78.246709140   16.083816810   631.3185   2   9   0.0553   0.0518   0.1295   0.0045   0.0246   0.0286   0.00    1.3
2018/03/15 12:52:53.000   78.246709165   16.083816809   631.3108   2   9   0.0552   0.0517   0.1289   0.0046   0.0244   0.0283   0.00    1.3
2018/03/15 12:52:54.000   78.246709180   16.083816838   631.3008   2   9   0.0551   0.0517   0.1283   0.0047   0.0243   0.0281   0.00    1.3
2018/03/15 12:52:55.000   78.246709184   16.083816865   631.2889   2   9   0.0550   0.0516   0.1276   0.0048   0.0241   0.0278   0.00    1.3
2018/03/15 12:52:56.000   78.246709200   16.083816952   631.2809   2   9   0.0550   0.0515   0.1270   0.0049   0.0239   0.0276   0.00    1.3
2018/03/15 12:52:57.000   78.246709218   16.083817000   631.2775   2   9   0.0549   0.0514   0.1264   0.0050   0.0237   0.0274   0.00    1.3
2018/03/15 12:52:58.000   78.246709232   16.083817036   631.2788   2   9   0.0548   0.0514   0.1258   0.0051   0.0235   0.0271   0.00    1.3
2018/03/15 12:52:59.000   78.246709229   16.083817059   631.2780   2   9   0.0547   0.0513   0.1252   0.0052   0.0233   0.0269   0.00    1.3
2018/03/15 12:53:00.000   78.246709234   16.083817121   631.2785   2   9   0.0546   0.0512   0.1246   0.0053   0.0232   0.0266   0.00    1.3
2018/03/15 12:53:01.000   78.246709223   16.083817198   631.2806   2   9   0.0545   0.0511   0.1240   0.0054   0.0230   0.0264   0.00    1.3
2018/03/15 12:53:02.000   78.246709203   16.083817278   631.2836   2   9   0.0544   0.0510   0.1234   0.0055   0.0228   0.0262   0.00    1.3
2018/03/15 12:53:03.000   78.246709187   16.083817258   631.2837   2   9   0.0543   0.0510   0.1229   0.0055   0.0226   0.0259   0.00    1.3
2018/03/15 12:53:04.000   78.246709165   16.083817296   631.2825   2   9   0.0542   0.0509   0.1223   0.0056   0.0225   0.0257   0.00    1.4
2018/03/15 12:53:05.000   78.246709147   16.083817375   631.2814   2   9   0.0542   0.0508   0.1217   0.0057   0.0223   0.0255   0.00    1.4
2018/03/15 12:53:06.000   78.246709119   16.083817383   631.2788   2   9   0.0541   0.0507   0.1211   0.0058   0.0221   0.0252   0.00    1.4
2018/03/15 12:53:07.000   78.246709105   16.083817443   631.2751   2   9   0.0540   0.0506   0.1205   0.0059   0.0219   0.0250   0.00    1.4
2018/03/15 12:53:08.000   78.246709098   16.083817476   631.2744   2   9   0.0539   0.0506   0.1200   0.0060   0.0218   0.0248   0.00    1.4
2018/03/15 12:53:09.000   78.246709106   16.083817517   631.2720   2   9   0.0538   0.0505   0.1194   0.0061   0.0216   0.0245   0.00    1.4
2018/03/15 12:53:10.000   78.246709114   16.083817511   631.2686   2   9   0.0537   0.0504   0.1188   0.0061   0.0214   0.0243   0.00    1.4
2018/03/15 12:53:11.000   78.246709119   16.083817514   631.2720   2   9   0.0536   0.0503   0.1183   0.0062   0.0212   0.0241   0.00    1.4
2018/03/15 12:53:12.000   78.246709123   16.083817517   631.2747   2   9   0.0535   0.0503   0.1177   0.0063   0.0211   0.0238   0.00    1.4
2018/03/15 12:53:13.000   78.246709122   16.083817528   631.2796   2   9   0.0535   0.0502   0.1172   0.0064   0.0209   0.0236   0.00    1.4
2018/03/15 12:53:14.000   78.246709115   16.083817574   631.2832   2   9   0.0534   0.0501   0.1166   0.0065   0.0207   0.0234   0.00    1.4
2018/03/15 12:53:15.000   78.246709114   16.083817569   631.2831   2   9   0.0533   0.0500   0.1161   0.0066   0.0206   0.0231   0.00    1.4
2018/03/15 12:53:16.000   78.246709113   16.083817540   631.2786   2   9   0.0532   0.0499   0.1155   0.0066   0.0204   0.0229   0.00    1.4
2018/03/15 12:53:17.000   78.246709112   16.083817522   631.2752   2   9   0.0531   0.0499   0.1150   0.0067   0.0202   0.0227   0.00    1.4
2018/03/15 12:53:18.000   78.246709130   16.083817430   631.2679   2   9   0.0530   0.0498   0.1144   0.0068   0.0201   0.0225   0.00    1.5
2018/03/15 12:53:19.000   78.246709148   16.083817351   631.2598   2   9   0.0529   0.0497   0.1139   0.0069   0.0199   0.0222   0.00    1.5
2018/03/15 12:53:20.000   78.246709158   16.083817255   631.2521   2   9   0.0529   0.0496   0.1134   0.0069   0.0197   0.0220   0.00    1.5
2018/03/15 12:53:21.000   78.246709170   16.083817143   631.2468   2   9   0.0528   0.0495   0.1128   0.0070   0.0196   0.0218   0.00    1.5
2018/03/15 12:53:22.000   78.246709185   16.083817096   631.2464   2   9   0.0527   0.0495   0.1123   0.0071   0.0194   0.0215   0.00    1.5
2018/03/15 12:53:23.000   78.246709192   16.083817067   631.2479   2   9   0.0526   0.0494   0.1118   0.0072   0.0192   0.0213   0.00    1.5
2018/03/15 12:53:24.000   78.246709190   16.083817016   631.2517   2   9   0.0525   0.0493   0.1113   0.0072   0.0191   0.0211   0.00    1.5
2018/03/15 12:53:25.000   78.246709189   16.083816994   631.2567   2   9   0.0524   0.0492   0.1108   0.0073   0.0189   0.0209   0.00    1.5
2018/03/15 12:53:26.000   78.246709188   16.083816963   631.2604   2   9   0.0523   0.0492   0.1102   0.0074   0.0187   0.0206   0.00    1.5
2018/03/15 12:53:27.000   78.246709174   16.083816959   631.2636   2   9   0.0522   0.0491   0.1097   0.0075   0.0186   0.0204   0.00    1.5
2018/03/15 12:53:28.000   78.246709144   16.083816901   631.2664   2   9   0.0522   0.0490   0.1092   0.0075   0.0184   0.0202   0.00    1.6
2018/03/15 12:53:29.000   78.246709141   16.083816906   631.2679   2   9   0.0521   0.0489   0.1087   0.0076   0.0183   0.0200   0.00    1.6
2018/03/15 12:53:30.000   78.246709144   16.083816902   631.2683   2   9   0.0520   0.0488   0.1082   0.0077   0.0181   0.0197   0.00    1.6
2018/03/15 12:53:31.000   78.246709149   16.083816860   631.2713   2   9   0.0519   0.0488   0.1077   0.0078   0.0179   0.0195   0.00    1.6
2018/03/15 12:53:32.000   78.246709167   16.083816814   631.2697   2   9   0.0518   0.0487   0.1072   0.0078   0.0178   0.0193   0.00    1.6
2018/03/15 12:53:33.000   78.246709185   16.083816758   631.2703   2   9   0.0517   0.0486   0.1067   0.0079   0.0176   0.0191   0.00    1.5
2018/03/15 12:53:34.000   78.246709208   16.083816750   631.2701   2   9   0.0516   0.0485   0.1063   0.0080   0.0175   0.0189   0.00    1.5
2018/03/15 12:53:35.000   78.246709230   16.083816714   631.2709   2   9   0.0516   0.0484   0.1058   0.0080   0.0173   0.0186   0.00    1.5
2018/03/15 12:53:36.000   78.246709246   16.083816684   631.2749   2   9   0.0515   0.0484   0.1053   0.0081   0.0172   0.0184   0.00    1.5
2018/03/15 12:53:37.000   78.246709259   16.083816655   631.2786   2   9   0.0514   0.0483   0.1048   0.0082   0.0170   0.0182   0.00    1.5
2018/03/15 12:53:38.000   78.246709274   16.083816629   631.2841   2   9   0.0513   0.0482   0.1043   0.0082   0.0168   0.0180   0.00    1.5
2018/03/15 12:53:39.000   78.246709276   16.083816637   631.2852   2   9   0.0512   0.0481   0.1039   0.0083   0.0167   0.0177   0.00    1.5
2018/03/15 12:53:40.000   78.246709285   16.083816612   631.2852   2   9   0.0511   0.0481   0.1034   0.0084   0.0165   0.0175   0.00    1.5
2018/03/15 12:53:41.000   78.246709296   16.083816600   631.2835   2   9   0.0511   0.0480   0.1029   0.0084   0.0164   0.0173   0.00    1.5
2018/03/15 12:53:42.000   78.246709313   16.083816608   631.2817   2   9   0.0510   0.0479   0.1025   0.0085   0.0162   0.0171   0.00    1.5
2018/03/15 12:53:43.000   78.246709327   16.083816566   631.2793   2   9   0.0509   0.0478   0.1020   0.0086   0.0161   0.0169   0.00    1.5
2018/03/15 12:53:44.000   78.246709340   16.083816554   631.2774   2   9   0.0508   0.0477   0.1015   0.0086   0.0159   0.0166   0.00    1.5
2018/03/15 12:53:45.000   78.246709359   16.083816539   631.2757   2   9   0.0507   0.0477   0.1011   0.0087   0.0158   0.0164   0.00    1.5
2018/03/15 12:53:46.000   78.246709386   16.083816513   631.2754   2   9   0.0506   0.0476   0.1006   0.0088   0.0156   0.0162   0.00    1.5
2018/03/15 12:53:47.000   78.246709403   16.083816484   631.2766   2   9   0.0505   0.0475   0.1002   0.0088   0.0154   0.0160   0.00    1.5
2018/03/15 12:53:48.000   78.246709409   16.083816472   631.2764   2   9   0.0505   0.0474   0.0997   0.0089   0.0153   0.0158   0.00    1.5
2018/03/15 12:53:49.000   78.246709409   16.083816476   631.2779   2   9   0.0504   0.0474   0.0993   0.0089   0.0151   0.0155   0.00    1.5
2018/03/15 12:53:50.000   78.246709406   16.083816478   631.2802   2   9   0.0503   0.0473   0.0988   0.0090   0.0150   0.0153   0.00    1.5
2018/03/15 12:53:51.000   78.246709403   16.083816423   631.2781   2   9   0.0502   0.0472   0.0984   0.0091   0.0148   0.0151   0.00    1.5
2018/03/15 12:53:52.000   78.246709404   16.083816413   631.2774   2   9   0.0501   0.0471   0.0980   0.0091   0.0147   0.0149   0.00    1.5
2018/03/15 12:53:53.000   78.246709398   16.083816397   631.2751   2   9   0.0500   0.0471   0.0975   0.0092   0.0145   0.0146   0.00    1.5
2018/03/15 12:53:54.000   78.246709403   16.083816403   631.2716   2   9   0.0500   0.0470   0.0971   0.0092   0.0144   0.0144   0.00    1.5
2018/03/15 12:53:55.000   78.246709408   16.083816411   631.2658   2   9   0.0499   0.0469   0.0967   0.0093   0.0142   0.0142   0.00    1.5
2018/03/15 12:53:56.000   78.246709423   16.083816415   631.2628   2   9   0.0498   0.0468   0.0962   0.0094   0.0141   0.0140   0.00    1.5
2018/03/15 12:53:57.000   78.246709455   16.083816416   631.2590   2   9   0.0497   0.0467   0.0958   0.0094   0.0139   0.0137   0.00    1.5
2018/03/15 12:53:58.000   78.246709487   16.083816394   631.2554   2   9   0.0496   0.0467   0.0954   0.0095   0.0138   0.0135   0.00    1.5
2018/03/15 12:53:59.000   78.246709513   16.083816378   631.2530   2   9   0.0495   0.0466   0.0950   0.0095   0.0136   0.0133   0.00    1.5
2018/03/15 12:54:00.000   78.246709538   16.083816409   631.2522   2   9   0.0495   0.0465   0.0946   0.0096   0.0135   0.0131   0.00    1.5
2018/03/15 12:54:01.000   78.246709539   16.083816422   631.2522   2   9   0.0494   0.0464   0.0942   0.0096   0.0133   0.0128   0.00    1.5
2018/03/15 12:54:02.000   78.246709543   16.083816436   631.2500   2   9   0.0493   0.0464   0.0938   0.0097   0.0132   0.0126   0.00    1.4
2018/03/15 12:54:03.000   78.246709546   16.083816487   631.2479   2   9   0.0492   0.0463   0.0933   0.0098   0.0131   0.0124   0.00    1.4
2018/03/15 12:54:04.000   78.246709540   16.083816533   631.2470   2   9   0.0491   0.0462   0.0929   0.0098   0.0129   0.0121   0.00    1.4
2018/03/15 12:54:05.000   78.246709545   16.083816554   631.2469   2   9   0.0490   0.0461   0.0925   0.0099   0.0128   0.0119   0.00    1.4
2018/03/15 12:54:06.000   78.246709547   16.083816523   631.2519   2   9   0.0490   0.0461   0.0921   0.0099   0.0126   0.0117   0.00    1.4
2018/03/15 12:54:07.000   78.246709558   16.083816483   631.2566   2   9   0.0489   0.0460   0.0917   0.0100   0.0125   0.0114   0.00    1.4
2018/03/15 12:54:08.000   78.246709565   16.083816453   631.2600   2   9   0.0488   0.0459   0.0914   0.0100   0.0123   0.0112   0.00    1.4
2018/03/15 12:54:09.000   78.246709569   16.083816493   631.2613   2   9   0.0487   0.0458   0.0910   0.0101   0.0122   0.0110   0.00    1.5
2018/03/15 12:54:10.000   78.246709583   16.083816505   631.2591   2   9   0.0486   0.0458   0.0906   0.0101   0.0120   0.0107   0.00    1.5
2018/03/15 12:54:11.000   78.246709595   16.083816546   631.2551   2   9   0.0486   0.0457   0.0902   0.0102   0.0119   0.0105   0.00    1.4
2018/03/15 12:54:12.000   78.246709608   16.083816621   631.2503   2   9   0.0485   0.0456   0.0898   0.0102   0.0117   0.0102   0.00    1.4
2018/03/15 12:54:13.000   78.246709628   16.083816676   631.2442   2   9   0.0484   0.0455   0.0894   0.0103   0.0116   0.0100   0.00    1.4
2018/03/15 12:54:14.000   78.246709649   16.083816708   631.2410   2   9   0.0483   0.0454   0.0890   0.0103   0.0114   0.0097   0.00    1.4
2018/03/15 12:54:15.000   78.246709674   16.083816731   631.2364   2   9   0.0482   0.0454   0.0887   0.0104   0.0113   0.0095   0.00    1.4
2018/03/15 12:54:16.000   78.246709693   16.083816762   631.2338   2   9   0.0481   0.0453   0.0883   0.0104   0.0111   0.0092   0.00    1.4
2018/03/15 12:54:17.000   78.246709699   16.083816770   631.2321   2   9   0.0481   0.0452   0.0879   0.0105   0.0110   0.0090   0.00    1.4
2018/03/15 12:54:18.000   78.246709700   16.083816761   631.2297   2   9   0.0480   0.0451   0.0876   0.0105   0.0109   0.0087   0.00    1.4
2018/03/15 12:54:19.000   78.246709698   16.083816814   631.2273   2   9   0.0479   0.0451   0.0872   0.0106   0.0107   0.0084   0.00    1.4
2018/03/15 12:54:20.000   78.246709692   16.083816841   631.2282   2   9   0.0478   0.0450   0.0868   0.0106   0.0106   0.0082   0.00    1.4
2018/03/15 12:54:21.000   78.246709688   16.083816871   631.2290   2   9   0.0477   0.0449   0.0865   0.0107   0.0104   0.0079   0.00    1.4
2018/03/15 12:54:22.000   78.246709688   16.083816908   631.2277   2   9   0.0477   0.0448   0.0861   0.0107   0.0103   0.0076   0.00    1.4
2018/03/15 12:54:23.000   78.246709705   16.083816935   631.2228   2   9   0.0476   0.0448   0.0857   0.0108   0.0101   0.0073   0.00    1.4
2018/03/15 12:54:24.000   78.246709701   16.083816994   631.2175   2   9   0.0475   0.0447   0.0854   0.0108   0.0100   0.0070   0.00    1.4
2018/03/15 12:54:25.000   78.246709711   16.083816996   631.2110   2   9   0.0474   0.0446   0.0850   0.0109   0.0098   0.0067   0.00    1.4
2018/03/15 12:54:26.000   78.246709726   16.083816958   631.2056   2   9   0.0473   0.0445   0.0847   0.0109   0.0097   0.0064   0.00    1.4
2018/03/15 12:54:27.000   78.246709728   16.083816940   631.2019   2   9   0.0473   0.0445   0.0843   0.0109   0.0095   0.0061   0.00    1.3
2018/03/15 12:54:28.000   78.246709728   16.083817004   631.2017   2   9   0.0472   0.0444   0.0840   0.0110   0.0094   0.0057   0.00    1.3
2018/03/15 12:54:29.000   78.246709723   16.083816985   631.2021   2   9   0.0471   0.0443   0.0836   0.0110   0.0092   0.0054   0.00    1.4
2018/03/15 12:54:30.000   78.246709708   16.083817037   631.2052   2   9   0.0470   0.0442   0.0833   0.0111   0.0091   0.0050   0.00    1.4
2018/03/15 12:54:31.000   78.246709691   16.083817038   631.2068   2   9   0.0469   0.0442   0.0830   0.0111   0.0089   0.0046   0.00    1.4
2018/03/15 12:54:32.000   78.246709675   16.083817008   631.2084   2   9   0.0469   0.0441   0.0826   0.0112   0.0088   0.0041   0.00    1.4
2018/03/15 12:54:33.000   78.246709661   16.083817012   631.2077   2   9   0.0468   0.0440   0.0823   0.0112   0.0086   0.0037   0.00    1.4
2018/03/15 12:54:34.000   78.246709655   16.083816924   631.2041   2   9   0.0467   0.0439   0.0820   0.0113   0.0085   0.0031   0.00    1.4
2018/03/15 12:54:35.000   78.246709660   16.083816864   631.1993   2   9   0.0466   0.0439   0.0816   0.0113   0.0083   0.0024   0.00    1.4
2018/03/15 12:54:36.000   78.246709653   16.083816788   631.1938   2   9   0.0465   0.0438   0.0813   0.0113   0.0082   0.0015   0.00    1.4
2018/03/15 12:54:37.000   78.246709661   16.083816728   631.1891   2   9   0.0465   0.0437   0.0810   0.0114   0.0080  -0.0011   0.00    1.3
2018/03/15 12:54:38.000   78.246709679   16.083816675   631.1854   2   9   0.0464   0.0437   0.0806   0.0114   0.0079  -0.0022   0.00    1.3
2018/03/15 12:54:39.000   78.246709690   16.083816648   631.1827   2   9   0.0463   0.0436   0.0803   0.0115   0.0077  -0.0029   0.00    1.3
2018/03/15 12:54:40.000   78.246709696   16.083816564   631.1817   2   9   0.0462   0.0435   0.0800   0.0115   0.0075  -0.0034   0.00    1.3
2018/03/15 12:54:41.000   78.246709698   16.083816443   631.1811   2   9   0.0461   0.0434   0.0797   0.0115   0.0074  -0.0039   0.00    1.3
2018/03/15 12:54:42.000   78.246709695   16.083816399   631.1806   2   9   0.0461   0.0434   0.0794   0.0116   0.0072  -0.0043   0.00    1.3
2018/03/15 12:54:43.000   78.246709696   16.083816302   631.1809   2   9   0.0460   0.0433   0.0790   0.0116   0.0071  -0.0046   0.00    1.3
2018/03/15 12:54:44.000   78.246709699   16.083816231   631.1827   2   9   0.0459   0.0432   0.0787   0.0116   0.0069  -0.0050   0.00    1.3
2018/03/15 12:54:45.000   78.246709693   16.083816149   631.1820   2   9   0.0458   0.0431   0.0784   0.0117   0.0067  -0.0053   0.00    1.3
2018/03/15 12:54:46.000   78.246709693   16.083816113   631.1812   2   9   0.0458   0.0431   0.0781   0.0117   0.0066  -0.0056   0.00    1.3
2018/03/15 12:54:47.000   78.246709686   16.083816080   631.1829   2   9   0.0457   0.0430   0.0778   0.0118   0.0064  -0.0058   0.00    1.3
2018/03/15 12:54:48.000   78.246709679   16.083816039   631.1819   2   9   0.0456   0.0429   0.0775   0.0118   0.0062  -0.0061   0.00    1.3
2018/03/15 12:54:49.000   78.246709666   16.083816004   631.1791   2   9   0.0455   0.0428   0.0772   0.0118   0.0060  -0.0063   0.00    1.3
2018/03/15 12:54:50.000   78.246709650   16.083815956   631.1762   2   9   0.0454   0.0428   0.0769   0.0119   0.0059  -0.0065   0.00    1.3
2018/03/15 12:54:51.000   78.246709641   16.083815914   631.1749   2   9   0.0454   0.0427   0.0766   0.0119   0.0057  -0.0068   0.00    1.3
2018/03/15 12:54:52.000   78.246709640   16.083815882   631.1727   2   9   0.0453   0.0426   0.0763   0.0119   0.0055  -0.0070   0.00    1.3
2018/03/15 12:54:53.000   78.246709636   16.083815788   631.1721   2   9   0.0452   0.0426   0.0760   0.0120   0.0053  -0.0072   0.00    1.3
2018/03/15 12:54:54.000   78.246709627   16.083815716   631.1707   2   9   0.0451   0.0425   0.0757   0.0120   0.0051  -0.0074   0.00    1.3
2018/03/15 12:54:55.000   78.246709623   16.083815637   631.1698   2   9   0.0451   0.0424   0.0754   0.0120   0.0049  -0.0075   0.00    1.3
2018/03/15 12:54:56.000   78.246709620   16.083815571   631.1689   2   9   0.0450   0.0423   0.0751   0.0121   0.0047  -0.0077   0.00    1.3
2018/03/15 12:54:57.000   78.246709618   16.083815509   631.1691   2   9   0.0449   0.0423   0.0748   0.0121   0.0045  -0.0079   0.00    1.3
2018/03/15 12:54:58.000   78.246709621   16.083815471   631.1688   2   9   0.0448   0.0422   0.0745   0.0121   0.0043  -0.0080   0.00    1.3
2018/03/15 12:54:59.000   78.246709623   16.083815434   631.1701   2   9   0.0447   0.0421   0.0743   0.0122   0.0041  -0.0082   0.00    1.3
2018/03/15 12:55:00.000   78.246709621   16.083815409   631.1687   2   9   0.0447   0.0420   0.0740   0.0122   0.0038  -0.0084   0.00    1.2
2018/03/15 12:55:01.000   78.246709633   16.083815390   631.1674   2   9   0.0446   0.0420   0.0737   0.0122   0.0036  -0.0085   0.00    1.2
2018/03/15 12:55:02.000   78.246709639   16.083815365   631.1671   2   9   0.0445   0.0419   0.0734   0.0123   0.0033  -0.0086   0.00    1.2
2018/03/15 12:55:03.000   78.246709637   16.083815371   631.1673   2   9   0.0444   0.0418   0.0731   0.0123   0.0031  -0.0088   0.00    1.2
2018/03/15 12:55:04.000   78.246709640   16.083815367   631.1679   2   9   0.0444   0.0418   0.0729   0.0123   0.0028  -0.0089   0.00    1.2
2018/03/15 12:55:05.000   78.246709635   16.083815409   631.1702   2   9   0.0443   0.0417   0.0726   0.0124   0.0024  -0.0090   0.00    1.2
2018/03/15 12:55:06.000   78.246709628   16.083815430   631.1713   2   9   0.0442   0.0416   0.0723   0.0124   0.0020  -0.0092   0.00    1.2
