% program   : RTKPOST ver.2.4.2
% inp file  : Z:\home\linda\Documents\Spring18\GitHub_Unis\data\processed_data\4625074D.obs
% inp file  : Z:\home\linda\Documents\Spring18\GitHub_Unis\data\base_station_data\lyrs0740.18o
% inp file  : Z:\home\linda\Documents\Spring18\GitHub_Unis\data\processed_data\4625074D.nav
% obs start : 2018/03/15 11:50:00.0 GPST (week1992 388200.0s)
% obs end   : 2018/03/15 12:34:24.0 GPST (week1992 390864.0s)
% pos mode  : static
% freqs     : L1+L2
% solution  : forward
% elev mask : 15.0 deg
% dynamics  : on
% tidecorr  : off
% ionos opt : iono-free
% tropo opt : saastamoinen
% ephemeris : broadcast
% navi sys  : gps glonass galileo qzss sbas
% amb res   : fix and hold
% amb glo   : on
% val thres : 3.0
% antenna1  :                       ( 0.0000  0.0000  0.0000)
% antenna2  :                       ( 0.0000  0.0000  0.0000)
% ref pos   : 78.228825638   15.397310064   495.6816
%
% (lat/lon/height=WGS84/ellipsoidal,Q=1:fix,2:float,3:sbas,4:dgps,5:single,6:ppp,ns=# of satellites)
%  GPST                  latitude(deg) longitude(deg)  height(m)   Q  ns   sdn(m)   sde(m)   sdu(m)  sdne(m)  sdeu(m)  sdun(m) age(s)  ratio
2018/03/15 11:50:00.000   78.246486745   16.063439757   573.0583   2   9   1.0241   0.9683   3.8084  -0.3935   0.5564   0.8655   0.00    1.1
2018/03/15 11:50:01.000   78.246484931   16.063437725   570.5541   2   9   0.7251   0.6854   2.7054  -0.2787   0.3943   0.6149   0.00    1.2
2018/03/15 11:50:02.000   78.246485565   16.063448536   568.3230   2   9   0.5923   0.5598   2.2115  -0.2276   0.3223   0.5025   0.00    1.2
2018/03/15 11:50:03.000   78.246494395   16.063460798   568.6201   2   9   0.5130   0.4848   1.9153  -0.1972   0.2793   0.4349   0.00    1.2
2018/03/15 11:50:04.000   78.246505610   16.063429522   568.8777   2   9   0.4588   0.4336   1.7123  -0.1764   0.2499   0.3886   0.00    1.2
2018/03/15 11:50:05.000   78.246507442   16.063405324   569.4542   2   9   0.4188   0.3959   1.5617  -0.1610   0.2282   0.3542   0.00    1.2
2018/03/15 11:50:06.000   78.246501859   16.063400647   569.5532   2   9   0.3877   0.3665   1.4441  -0.1490   0.2113   0.3273   0.00    1.3
2018/03/15 11:50:07.000   78.246497471   16.063402668   569.8664   2   9   0.3626   0.3428   1.3489  -0.1394   0.1977   0.3054   0.00    1.2
2018/03/15 11:50:08.000   78.246495960   16.063404730   569.6636   2   9   0.3417   0.3232   1.2695  -0.1314   0.1864   0.2872   0.00    1.2
2018/03/15 11:50:09.000   78.246495642   16.063405881   569.6892   2   9   0.3241   0.3066   1.2020  -0.1247   0.1768   0.2716   0.00    1.1
2018/03/15 11:50:10.000   78.246495295   16.063400011   569.4879   2   9   0.3089   0.2923   1.1435  -0.1189   0.1685   0.2581   0.00    1.1
2018/03/15 11:50:11.000   78.246495347   16.063393395   569.5297   2   9   0.2957   0.2798   1.0921  -0.1138   0.1613   0.2462   0.00    1.0
2018/03/15 11:50:12.000   78.246496495   16.063389880   569.8762   2   9   0.2840   0.2688   1.0465  -0.1093   0.1549   0.2356   0.00    1.0
2018/03/15 11:50:13.000   78.246497495   16.063388777   569.7362   2   9   0.2735   0.2590   1.0055  -0.1053   0.1492   0.2261   0.00    1.0
2018/03/15 11:50:14.000   78.246498437   16.063388640   569.9215   2   9   0.2641   0.2501   0.9684  -0.1017   0.1441   0.2174   0.00    1.0
2018/03/15 11:50:15.000   78.246498457   16.063389892   570.1623   2   9   0.2556   0.2422   0.9345  -0.0985   0.1394   0.2095   0.00    1.0
2018/03/15 11:50:16.000   78.246497875   16.063392452   570.4827   2   9   0.2479   0.2349   0.9035  -0.0955   0.1352   0.2022   0.00    1.0
2018/03/15 11:50:17.000   78.246498235   16.063392074   570.8114   2   9   0.2408   0.2282   0.8748  -0.0928   0.1313   0.1955   0.00    1.0
2018/03/15 11:50:18.000   78.246499560   16.063387424   570.9709   2   9   0.2342   0.2221   0.8481  -0.0903   0.1277   0.1892   0.00    1.1
2018/03/15 11:50:19.000   78.246500363   16.063384722   571.1438   2   9   0.2282   0.2164   0.8233  -0.0880   0.1243   0.1833   0.00    1.1
2018/03/15 11:50:20.000   78.246500069   16.063385593   571.2499   2   9   0.2225   0.2112   0.8001  -0.0859   0.1212   0.1778   0.00    1.1
2018/03/15 11:50:21.000   78.246499330   16.063388527   571.2481   2   9   0.2173   0.2063   0.7782  -0.0839   0.1183   0.1726   0.00    1.1
2018/03/15 11:50:22.000   78.246498439   16.063389763   571.3029   2   9   0.2124   0.2017   0.7576  -0.0820   0.1156   0.1677   0.00    1.1
2018/03/15 11:50:23.000   78.246497611   16.063388562   571.4157   2   9   0.2078   0.1974   0.7382  -0.0802   0.1130   0.1630   0.00    1.0
2018/03/15 11:50:24.000   78.246497602   16.063387145   571.6403   2   9   0.2034   0.1934   0.7197  -0.0786   0.1106   0.1586   0.00    1.0
2018/03/15 11:50:25.000   78.246498070   16.063387589   571.8991   2   9   0.1993   0.1896   0.7022  -0.0770   0.1083   0.1544   0.00    1.1
2018/03/15 11:50:26.000   78.246498846   16.063385395   571.9023   2   9   0.1955   0.1860   0.6855  -0.0756   0.1062   0.1504   0.00    1.1
2018/03/15 11:50:27.000   78.246499694   16.063384910   571.9151   2   9   0.1918   0.1826   0.6696  -0.0742   0.1041   0.1465   0.00    1.1
2018/03/15 11:50:28.000   78.246499517   16.063385078   571.7496   2   9   0.1883   0.1793   0.6543  -0.0729   0.1022   0.1428   0.00    1.1
2018/03/15 11:50:29.000   78.246498772   16.063385901   571.7146   2   9   0.1850   0.1763   0.6397  -0.0716   0.1003   0.1392   0.00    1.0
2018/03/15 11:50:30.000   78.246498479   16.063385987   571.6602   2   9   0.1819   0.1734   0.6257  -0.0704   0.0986   0.1358   0.00    1.0
2018/03/15 11:50:31.000   78.246499026   16.063383363   571.5796   2   9   0.1789   0.1706   0.6123  -0.0693   0.0969   0.1325   0.00    1.0
2018/03/15 11:50:32.000   78.246499603   16.063380566   571.4775   2   9   0.1760   0.1679   0.5994  -0.0682   0.0952   0.1294   0.00    1.0
2018/03/15 11:50:33.000   78.246499046   16.063383391   571.4243   2   9   0.1732   0.1654   0.5869  -0.0671   0.0937   0.1263   0.00    1.0
2018/03/15 11:50:34.000   78.246498439   16.063386207   571.4503   2   9   0.1706   0.1629   0.5749  -0.0661   0.0922   0.1233   0.00    1.0
2018/03/15 11:50:35.000   78.246498008   16.063386345   571.4556   2   9   0.1680   0.1606   0.5633  -0.0652   0.0907   0.1205   0.00    1.0
2018/03/15 11:50:36.000   78.246498006   16.063384844   571.5768   2   9   0.1656   0.1584   0.5522  -0.0643   0.0894   0.1177   0.00    1.0
2018/03/15 11:50:37.000   78.246498309   16.063385268   571.6853   2   9   0.1633   0.1562   0.5413  -0.0634   0.0880   0.1150   0.00    1.0
2018/03/15 11:50:38.000   78.246498461   16.063386563   571.7584   2   9   0.1610   0.1541   0.5309  -0.0625   0.0867   0.1124   0.00    1.1
2018/03/15 11:50:39.000   78.246498285   16.063385278   571.7057   2   9   0.1588   0.1521   0.5208  -0.0617   0.0855   0.1098   0.00    1.0
2018/03/15 11:50:40.000   78.246497888   16.063382350   571.6824   2   9   0.1567   0.1502   0.5109  -0.0609   0.0843   0.1074   0.00    1.0
2018/03/15 11:50:41.000   78.246497589   16.063381875   571.7970   2   9   0.1547   0.1483   0.5014  -0.0601   0.0831   0.1050   0.00    1.0
2018/03/15 11:50:42.000   78.246497565   16.063384399   571.8623   2   9   0.1528   0.1466   0.4922  -0.0594   0.0820   0.1027   0.00    1.0
2018/03/15 11:50:43.000   78.246497384   16.063384602   571.8555   2   9   0.1509   0.1448   0.4832  -0.0587   0.0809   0.1004   0.00    1.0
2018/03/15 11:50:44.000   78.246497012   16.063384574   571.8776   2   9   0.1490   0.1431   0.4745  -0.0580   0.0799   0.0982   0.00    1.0
2018/03/15 11:50:45.000   78.246496786   16.063384236   571.9397   2   9   0.1472   0.1415   0.4661  -0.0573   0.0789   0.0960   0.00    1.0
2018/03/15 11:50:46.000   78.246496765   16.063383297   572.0376   2   9   0.1455   0.1399   0.4579  -0.0567   0.0779   0.0939   0.00    1.0
2018/03/15 11:50:47.000   78.246497275   16.063381153   572.1001   2   9   0.1438   0.1384   0.4499  -0.0560   0.0769   0.0919   0.00    1.0
2018/03/15 11:50:48.000   78.246497285   16.063379968   572.0933   2   9   0.1422   0.1369   0.4421  -0.0554   0.0760   0.0899   0.00    1.0
2018/03/15 11:50:49.000   78.246496887   16.063381433   572.1017   2   9   0.1406   0.1355   0.4345  -0.0548   0.0751   0.0880   0.00    1.0
2018/03/15 11:50:50.000   78.246496318   16.063383224   572.1437   2   9   0.1391   0.1341   0.4272  -0.0542   0.0742   0.0861   0.00    1.0
2018/03/15 11:50:51.000   78.246496076   16.063384246   572.2146   2   9   0.1376   0.1327   0.4200  -0.0537   0.0733   0.0842   0.00    1.0
2018/03/15 11:50:52.000   78.246496009   16.063383076   572.2725   2   9   0.1362   0.1314   0.4130  -0.0531   0.0725   0.0824   0.00    1.0
2018/03/15 11:50:53.000   78.246496268   16.063381636   572.3474   2   9   0.1348   0.1301   0.4062  -0.0526   0.0717   0.0807   0.00    1.1
2018/03/15 11:50:54.000   78.246496204   16.063381648   572.4493   2   9   0.1334   0.1289   0.3996  -0.0521   0.0709   0.0789   0.00    1.1
2018/03/15 11:50:55.000   78.246496144   16.063383004   572.5095   2   9   0.1320   0.1276   0.3931  -0.0515   0.0701   0.0773   0.00    1.1
2018/03/15 11:50:56.000   78.246495964   16.063383279   572.6221   2   9   0.1307   0.1264   0.3868  -0.0510   0.0693   0.0756   0.00    1.1
2018/03/15 11:50:57.000   78.246495820   16.063381874   572.7050   2   9   0.1294   0.1253   0.3806  -0.0506   0.0686   0.0740   0.00    1.1
2018/03/15 11:50:58.000   78.246495708   16.063380926   572.8574   2   9   0.1282   0.1242   0.3746  -0.0501   0.0679   0.0724   0.00    1.1
2018/03/15 11:50:59.000   78.246495767   16.063381343   572.9656   2   9   0.1270   0.1230   0.3687  -0.0496   0.0672   0.0709   0.00    1.1
2018/03/15 11:51:00.000   78.246495810   16.063381296   573.0456   2   9   0.1258   0.1220   0.3630  -0.0492   0.0665   0.0694   0.00    1.1
2018/03/15 11:51:01.000   78.246495623   16.063380328   573.0393   2   9   0.1246   0.1209   0.3574  -0.0487   0.0658   0.0679   0.00    1.1
2018/03/15 11:51:02.000   78.246495422   16.063378965   573.0254   2   9   0.1235   0.1199   0.3520  -0.0483   0.0652   0.0665   0.00    1.1
2018/03/15 11:51:03.000   78.246495197   16.063378741   573.0326   2   9   0.1224   0.1189   0.3466  -0.0478   0.0645   0.0650   0.00    1.1
2018/03/15 11:51:04.000   78.246495037   16.063379273   573.0961   2   9   0.1213   0.1179   0.3414  -0.0474   0.0639   0.0637   0.00    1.1
2018/03/15 11:51:05.000   78.246494913   16.063378784   573.0887   2   9   0.1202   0.1169   0.3363  -0.0470   0.0633   0.0623   0.00    1.1
2018/03/15 11:51:06.000   78.246494892   16.063377348   573.0990   2   9   0.1192   0.1160   0.3314  -0.0466   0.0627   0.0610   0.00    1.1
2018/03/15 11:51:07.000   78.246494984   16.063376878   573.1296   2   9   0.1181   0.1150   0.3265  -0.0462   0.0621   0.0597   0.00    1.1
2018/03/15 11:51:08.000   78.246495082   16.063376448   573.1407   2   9   0.1171   0.1141   0.3218  -0.0458   0.0615   0.0584   0.00    1.2
2018/03/15 11:51:09.000   78.246495009   16.063376083   573.1776   2   9   0.1162   0.1132   0.3171  -0.0455   0.0610   0.0571   0.00    1.2
2018/03/15 11:51:10.000   78.246494610   16.063376731   573.1942   2   9   0.1152   0.1124   0.3126  -0.0451   0.0604   0.0559   0.00    1.2
2018/03/15 11:51:11.000   78.246494412   16.063377412   573.2110   2   9   0.1142   0.1115   0.3081  -0.0447   0.0599   0.0547   0.00    1.2
2018/03/15 11:51:12.000   78.246494392   16.063377179   573.2232   2   9   0.1133   0.1107   0.3038  -0.0444   0.0593   0.0535   0.00    1.2
2018/03/15 11:51:13.000   78.246494611   16.063375108   573.2333   2   9   0.1124   0.1099   0.2995  -0.0440   0.0588   0.0524   0.00    1.2
2018/03/15 11:51:14.000   78.246494721   16.063374230   573.2542   2   9   0.1115   0.1090   0.2954  -0.0437   0.0583   0.0512   0.00    1.2
2018/03/15 11:51:15.000   78.246494593   16.063373911   573.3067   2   9   0.1106   0.1083   0.2913  -0.0433   0.0578   0.0501   0.00    1.2
2018/03/15 11:51:16.000   78.246494266   16.063373931   573.3722   2   9   0.1098   0.1075   0.2873  -0.0430   0.0573   0.0490   0.00    1.2
2018/03/15 11:51:17.000   78.246493924   16.063373809   573.4042   2   9   0.1089   0.1067   0.2834  -0.0426   0.0568   0.0479   0.00    1.2
2018/03/15 11:51:18.000   78.246493868   16.063373867   573.4508   2   9   0.1081   0.1060   0.2796  -0.0423   0.0564   0.0469   0.00    1.2
2018/03/15 11:51:19.000   78.246493893   16.063373708   573.5076   2   9   0.1073   0.1052   0.2758  -0.0420   0.0559   0.0458   0.00    1.3
2018/03/15 11:51:20.000   78.246494050   16.063373155   573.5644   2   9   0.1065   0.1045   0.2722  -0.0417   0.0554   0.0448   0.00    1.3
2018/03/15 11:51:21.000   78.246494063   16.063372514   573.6101   2   9   0.1057   0.1038   0.2686  -0.0414   0.0550   0.0438   0.00    1.3
2018/03/15 11:51:22.000   78.246493908   16.063372286   573.6352   2   9   0.1049   0.1031   0.2651  -0.0411   0.0546   0.0428   0.00    1.3
2018/03/15 11:51:23.000   78.246493678   16.063372479   573.6703   2   9   0.1042   0.1024   0.2616  -0.0408   0.0541   0.0418   0.00    1.3
2018/03/15 11:51:24.000   78.246493374   16.063373189   573.6835   2   9   0.1034   0.1017   0.2583  -0.0405   0.0537   0.0409   0.00    1.3
2018/03/15 11:51:25.000   78.246493171   16.063373533   573.7007   2   9   0.1027   0.1011   0.2550  -0.0402   0.0533   0.0399   0.00    1.4
2018/03/15 11:51:26.000   78.246493070   16.063372999   573.7191   2   9   0.1019   0.1004   0.2517  -0.0399   0.0529   0.0390   0.00    1.4
2018/03/15 11:51:27.000   78.246492965   16.063372162   573.7474   2   9   0.1012   0.0997   0.2485  -0.0396   0.0525   0.0381   0.00    1.4
2018/03/15 11:51:28.000   78.246492986   16.063371956   573.7676   2   9   0.1005   0.0991   0.2454  -0.0393   0.0521   0.0372   0.00    1.4
2018/03/15 11:51:29.000   78.246493056   16.063372005   573.7850   2   9   0.0998   0.0985   0.2424  -0.0391   0.0517   0.0363   0.00    1.4
2018/03/15 11:51:30.000   78.246493036   16.063371830   573.8124   2   9   0.0991   0.0979   0.2394  -0.0388   0.0513   0.0354   0.00    1.4
2018/03/15 11:51:31.000   78.246493012   16.063371682   573.8372   2   9   0.0985   0.0973   0.2365  -0.0385   0.0509   0.0345   0.00    1.4
2018/03/15 11:51:32.000   78.246493012   16.063371196   573.8490   2   9   0.0978   0.0967   0.2336  -0.0382   0.0506   0.0337   0.00    1.4
2018/03/15 11:51:33.000   78.246492976   16.063371225   573.8682   2   9   0.0971   0.0961   0.2308  -0.0380   0.0502   0.0329   0.00    1.4
2018/03/15 11:51:34.000   78.246492958   16.063371201   573.8981   2   9   0.0965   0.0955   0.2280  -0.0377   0.0498   0.0320   0.00    1.4
2018/03/15 11:51:35.000   78.246493012   16.063371036   573.9328   2   9   0.0958   0.0949   0.2253  -0.0375   0.0495   0.0312   0.00    1.4
2018/03/15 11:51:36.000   78.246493058   16.063370942   573.9447   2   9   0.0952   0.0943   0.2226  -0.0372   0.0491   0.0304   0.00    1.4
2018/03/15 11:51:37.000   78.246493082   16.063370589   573.9703   2   9   0.0946   0.0938   0.2200  -0.0370   0.0488   0.0296   0.00    1.4
2018/03/15 11:51:38.000   78.246493073   16.063370771   573.9719   2   9   0.0940   0.0932   0.2174  -0.0367   0.0484   0.0288   0.00    1.4
2018/03/15 11:51:39.000   78.246493017   16.063370731   573.9969   2   9   0.0934   0.0927   0.2149  -0.0365   0.0481   0.0280   0.00    1.4
2018/03/15 11:51:40.000   78.246493020   16.063370910   574.0126   2   9   0.0928   0.0922   0.2125  -0.0362   0.0478   0.0273   0.00    1.4
2018/03/15 11:51:41.000   78.246492945   16.063371235   574.0456   2   9   0.0922   0.0916   0.2100  -0.0360   0.0475   0.0265   0.00    1.4
2018/03/15 11:51:42.000   78.246492856   16.063371052   574.0819   2   9   0.0916   0.0911   0.2077  -0.0358   0.0471   0.0257   0.00    1.4
2018/03/15 11:51:43.000   78.246492818   16.063371385   574.1138   2   9   0.0911   0.0906   0.2053  -0.0355   0.0468   0.0250   0.00    1.4
2018/03/15 11:51:44.000   78.246492835   16.063371287   574.1217   2   9   0.0905   0.0901   0.2030  -0.0353   0.0465   0.0242   0.00    1.4
2018/03/15 11:51:45.000   78.246492920   16.063371113   574.1361   2   9   0.0899   0.0896   0.2008  -0.0351   0.0462   0.0235   0.00    1.4
2018/03/15 11:51:46.000   78.246492960   16.063370441   574.1375   2   9   0.0894   0.0891   0.1986  -0.0349   0.0459   0.0228   0.00    1.4
2018/03/15 11:51:47.000   78.246492943   16.063370072   574.1463   2   9   0.0888   0.0886   0.1964  -0.0346   0.0456   0.0220   0.00    1.4
2018/03/15 11:51:48.000   78.246492893   16.063369895   574.1654   2   9   0.0883   0.0881   0.1942  -0.0344   0.0453   0.0213   0.00    1.4
2018/03/15 11:51:49.000   78.246492870   16.063369397   574.1666   2   9   0.0878   0.0876   0.1922  -0.0342   0.0450   0.0206   0.00    1.4
2018/03/15 11:51:50.000   78.246492882   16.063368427   574.1637   2   9   0.0873   0.0872   0.1901  -0.0340   0.0447   0.0198   0.00    1.4
2018/03/15 11:51:51.000   78.246492867   16.063367789   574.1817   2   9   0.0867   0.0867   0.1881  -0.0338   0.0445   0.0191   0.00    1.4
2018/03/15 11:51:52.000   78.246492810   16.063367626   574.1883   2   9   0.0862   0.0862   0.1861  -0.0336   0.0442   0.0184   0.00    1.4
2018/03/15 11:51:53.000   78.246492765   16.063367351   574.1939   2   9   0.0857   0.0858   0.1841  -0.0334   0.0439   0.0177   0.00    1.4
2018/03/15 11:51:54.000   78.246492761   16.063366876   574.1883   2   9   0.0852   0.0853   0.1822  -0.0332   0.0436   0.0169   0.00    1.4
2018/03/15 11:51:55.000   78.246492717   16.063366590   574.1947   2   9   0.0847   0.0849   0.1803  -0.0330   0.0434   0.0162   0.00    1.4
2018/03/15 11:51:56.000   78.246492631   16.063366876   574.1997   2   9   0.0843   0.0844   0.1785  -0.0328   0.0431   0.0155   0.00    1.4
2018/03/15 11:51:57.000   78.246492553   16.063367116   574.2075   2   9   0.0838   0.0840   0.1766  -0.0326   0.0428   0.0147   0.00    1.4
2018/03/15 11:51:58.000   78.246492492   16.063367222   574.2020   2   9   0.0833   0.0836   0.1748  -0.0324   0.0426   0.0140   0.00    1.4
2018/03/15 11:51:59.000   78.246492573   16.063366505   574.1993   2   9   0.0828   0.0832   0.1731  -0.0322   0.0423   0.0132   0.00    1.4
2018/03/15 11:52:00.000   78.246492626   16.063366337   574.1983   2   9   0.0824   0.0827   0.1713  -0.0320   0.0421   0.0124   0.00    1.4
2018/03/15 11:52:01.000   78.246492671   16.063366141   574.2075   2   9   0.0819   0.0823   0.1696  -0.0318   0.0418   0.0116   0.00    1.4
2018/03/15 11:52:02.000   78.246492689   16.063365660   574.2040   2   9   0.0814   0.0819   0.1679  -0.0316   0.0416   0.0108   0.00    1.4
2018/03/15 11:52:03.000   78.246492726   16.063365502   574.2038   2   9   0.0810   0.0815   0.1663  -0.0314   0.0413   0.0099   0.00    1.4
2018/03/15 11:52:04.000   78.246492853   16.063365064   574.1966   2   9   0.0805   0.0811   0.1647  -0.0312   0.0411   0.0090   0.00    1.4
2018/03/15 11:52:05.000   78.246492910   16.063364489   574.1979   2   9   0.0801   0.0807   0.1631  -0.0311   0.0409   0.0080   0.00    1.4
2018/03/15 11:52:06.000   78.246492845   16.063364056   574.2117   2   9   0.0797   0.0803   0.1615  -0.0309   0.0406   0.0069   0.00    1.4
2018/03/15 11:52:07.000   78.246492670   16.063364219   574.2243   2   9   0.0792   0.0799   0.1599  -0.0307   0.0404   0.0057   0.00    1.4
2018/03/15 11:52:08.000   78.246492655   16.063364672   574.2389   2   9   0.0788   0.0795   0.1584  -0.0305   0.0402   0.0042   0.00    1.4
2018/03/15 11:52:09.000   78.246492583   16.063364578   574.2561   2   9   0.0784   0.0791   0.1569  -0.0303   0.0399   0.0017   0.00    1.4
2018/03/15 11:52:10.000   78.246492541   16.063363877   574.2616   2   9   0.0780   0.0788   0.1555  -0.0302   0.0397  -0.0033   0.00    1.4
2018/03/15 11:52:11.000   78.246492416   16.063363504   574.2679   2   9   0.0776   0.0784   0.1540  -0.0300   0.0395  -0.0049   0.00    1.4
2018/03/15 11:52:12.000   78.246492352   16.063363097   574.2699   2   9   0.0772   0.0780   0.1526  -0.0298   0.0393  -0.0061   0.00    1.4
2018/03/15 11:52:13.000   78.246492328   16.063362812   574.2738   2   9   0.0768   0.0777   0.1512  -0.0297   0.0391  -0.0070   0.00    1.4
2018/03/15 11:52:14.000   78.246492367   16.063362459   574.2702   2   9   0.0764   0.0773   0.1498  -0.0295   0.0388  -0.0078   0.00    1.4
2018/03/15 11:52:15.000   78.246492399   16.063362047   574.2553   2   9   0.0760   0.0769   0.1484  -0.0293   0.0386  -0.0085   0.00    1.4
2018/03/15 11:52:16.000   78.246492342   16.063361558   574.2413   2   9   0.0756   0.0766   0.1471  -0.0292   0.0384  -0.0091   0.00    1.4
2018/03/15 11:52:17.000   78.246492305   16.063361170   574.2320   2   9   0.0752   0.0762   0.1457  -0.0290   0.0382  -0.0097   0.00    1.4
2018/03/15 11:52:18.000   78.246492271   16.063361345   574.2151   2   9   0.0748   0.0759   0.1444  -0.0288   0.0380  -0.0102   0.00    1.4
2018/03/15 11:52:19.000   78.246492278   16.063361214   574.2096   2   9   0.0744   0.0755   0.1432  -0.0287   0.0378  -0.0107   0.00    1.4
2018/03/15 11:52:20.000   78.246492239   16.063361117   574.2067   2   9   0.0740   0.0752   0.1419  -0.0285   0.0376  -0.0111   0.00    1.4
2018/03/15 11:52:21.000   78.246492168   16.063361326   574.2147   2   9   0.0737   0.0748   0.1407  -0.0284   0.0374  -0.0115   0.00    1.4
2018/03/15 11:52:22.000   78.246492065   16.063361651   574.2174   2   9   0.0733   0.0745   0.1394  -0.0282   0.0372  -0.0119   0.00    1.4
2018/03/15 11:52:23.000   78.246492036   16.063361634   574.2161   2   9   0.0729   0.0742   0.1382  -0.0280   0.0370  -0.0122   0.00    1.4
2018/03/15 11:52:24.000   78.246492011   16.063361312   574.2132   2   9   0.0726   0.0738   0.1370  -0.0279   0.0368  -0.0125   0.00    1.4
2018/03/15 11:52:25.000   78.246491942   16.063361401   574.2105   2   9   0.0722   0.0735   0.1359  -0.0277   0.0366  -0.0128   0.00    1.4
2018/03/15 11:52:26.000   78.246491846   16.063362193   574.2153   2   9   0.0718   0.0732   0.1347  -0.0276   0.0364  -0.0131   0.00    1.4
2018/03/15 11:52:27.000   78.246491796   16.063362725   574.2136   2   9   0.0715   0.0729   0.1336  -0.0274   0.0363  -0.0134   0.00    1.4
2018/03/15 11:52:28.000   78.246491797   16.063362366   574.2040   2   9   0.0711   0.0726   0.1324  -0.0273   0.0361  -0.0137   0.00    1.4
2018/03/15 11:52:29.000   78.246491834   16.063361779   574.1938   2   9   0.0708   0.0722   0.1313  -0.0271   0.0359  -0.0139   0.00    1.4
2018/03/15 11:52:30.000   78.246491824   16.063361846   574.1944   2   9   0.0705   0.0719   0.1302  -0.0270   0.0357  -0.0141   0.00    1.4
2018/03/15 11:52:31.000   78.246491741   16.063362123   574.1991   2   9   0.0701   0.0716   0.1292  -0.0268   0.0355  -0.0143   0.00    1.4
2018/03/15 11:52:32.000   78.246491642   16.063362370   574.2036   2   9   0.0698   0.0713   0.1281  -0.0267   0.0354  -0.0145   0.00    1.4
2018/03/15 11:52:33.000   78.246491586   16.063362187   574.2011   2   9   0.0695   0.0710   0.1271  -0.0266   0.0352  -0.0147   0.00    1.4
2018/03/15 11:52:34.000   78.246491597   16.063362084   574.1943   2   9   0.0691   0.0707   0.1260  -0.0264   0.0350  -0.0149   0.00    1.4
2018/03/15 11:52:35.000   78.246491646   16.063362253   574.1877   2   9   0.0688   0.0704   0.1250  -0.0263   0.0348  -0.0151   0.00    1.4
2018/03/15 11:52:36.000   78.246491635   16.063362302   574.1769   2   9   0.0685   0.0701   0.1240  -0.0261   0.0347  -0.0152   0.00    1.4
2018/03/15 11:52:37.000   78.246491650   16.063361991   574.1597   2   9   0.0681   0.0698   0.1230  -0.0260   0.0345  -0.0154   0.00    1.4
2018/03/15 11:52:38.000   78.246491644   16.063361555   574.1503   2   9   0.0678   0.0695   0.1220  -0.0259   0.0343  -0.0155   0.00    1.4
2018/03/15 11:52:39.000   78.246491653   16.063361410   574.1486   2   9   0.0675   0.0692   0.1211  -0.0257   0.0342  -0.0157   0.00    1.4
2018/03/15 11:52:40.000   78.246491642   16.063361618   574.1524   2   9   0.0672   0.0689   0.1201  -0.0256   0.0340  -0.0158   0.00    1.4
2018/03/15 11:52:41.000   78.246491594   16.063361776   574.1505   2   9   0.0669   0.0687   0.1192  -0.0255   0.0338  -0.0159   0.00    1.4
2018/03/15 11:52:42.000   78.246491596   16.063361801   574.1430   2   9   0.0666   0.0684   0.1183  -0.0253   0.0337  -0.0160   0.00    1.4
2018/03/15 11:52:43.000   78.246491596   16.063361844   574.1344   2   9   0.0663   0.0681   0.1174  -0.0252   0.0335  -0.0162   0.00    1.4
2018/03/15 11:52:44.000   78.246491690   16.063361573   574.1275   2   9   0.0660   0.0678   0.1165  -0.0251   0.0333  -0.0163   0.00    1.4
2018/03/15 11:52:45.000   78.246491732   16.063361357   574.1241   2   9   0.0657   0.0675   0.1156  -0.0249   0.0332  -0.0164   0.00    1.4
2018/03/15 11:52:46.000   78.246491733   16.063361412   574.1265   2   9   0.0654   0.0673   0.1147  -0.0248   0.0330  -0.0165   0.00    1.4
2018/03/15 11:52:47.000   78.246491744   16.063361089   574.1276   2   9   0.0651   0.0670   0.1138  -0.0247   0.0329  -0.0165   0.00    1.4
2018/03/15 11:52:48.000   78.246491758   16.063360917   574.1332   2   9   0.0648   0.0667   0.1130  -0.0246   0.0327  -0.0166   0.00    1.4
2018/03/15 11:52:49.000   78.246491800   16.063360466   574.1372   2   9   0.0645   0.0665   0.1122  -0.0244   0.0326  -0.0167   0.00    1.4
2018/03/15 11:52:50.000   78.246491845   16.063360099   574.1346   2   9   0.0642   0.0662   0.1113  -0.0243   0.0324  -0.0168   0.00    1.4
2018/03/15 11:52:51.000   78.246491867   16.063359901   574.1302   2   9   0.0639   0.0659   0.1105  -0.0242   0.0323  -0.0169   0.00    1.4
2018/03/15 11:52:52.000   78.246491914   16.063359500   574.1257   2   9   0.0637   0.0657   0.1097  -0.0241   0.0321  -0.0169   0.00    1.4
2018/03/15 11:52:53.000   78.246492027   16.063359228   574.1269   2   9   0.0634   0.0654   0.1089  -0.0239   0.0320  -0.0170   0.00    1.4
2018/03/15 11:52:54.000   78.246492097   16.063359291   574.1362   2   9   0.0631   0.0652   0.1081  -0.0238   0.0318  -0.0171   0.00    1.4
2018/03/15 11:52:55.000   78.246492094   16.063359365   574.1395   2   9   0.0628   0.0649   0.1073  -0.0237   0.0317  -0.0171   0.00    1.4
2018/03/15 11:52:56.000   78.246492082   16.063359354   574.1471   2   9   0.0626   0.0646   0.1066  -0.0236   0.0316  -0.0172   0.00    1.4
2018/03/15 11:52:57.000   78.246492075   16.063359352   574.1568   2   8   0.0623   0.0644   0.1059  -0.0235   0.0315  -0.0174   0.00    1.4
2018/03/15 11:52:58.000   78.246492123   16.063359423   574.1673   2   8   0.0621   0.0642   0.1052  -0.0234   0.0314  -0.0176   0.00    1.5
2018/03/15 11:52:59.000   78.246492188   16.063359560   574.1818   2   8   0.0618   0.0639   0.1046  -0.0233   0.0314  -0.0178   0.00    1.5
2018/03/15 11:53:00.000   78.246492247   16.063359640   574.1928   2   8   0.0616   0.0637   0.1039  -0.0232   0.0313  -0.0180   0.00    1.5
2018/03/15 11:53:01.000   78.246492253   16.063359462   574.2058   2   8   0.0614   0.0635   0.1033  -0.0231   0.0312  -0.0181   0.00    1.5
2018/03/15 11:53:02.000   78.246492278   16.063359552   574.2157   2   8   0.0611   0.0632   0.1026  -0.0230   0.0312  -0.0183   0.00    1.2
2018/03/15 11:53:03.000   78.246492319   16.063359541   574.2226   2   8   0.0609   0.0630   0.1020  -0.0229   0.0311  -0.0184   0.00    1.2
2018/03/15 11:53:04.000   78.246492360   16.063359645   574.2334   2   8   0.0606   0.0628   0.1014  -0.0228   0.0310  -0.0186   0.00    1.2
2018/03/15 11:53:05.000   78.246492320   16.063359556   574.2398   2   8   0.0604   0.0626   0.1007  -0.0228   0.0310  -0.0187   0.00    1.2
2018/03/15 11:53:06.000   78.246492281   16.063359540   574.2491   2   8   0.0602   0.0623   0.1001  -0.0227   0.0309  -0.0189   0.00    1.2
2018/03/15 11:53:07.000   78.246492268   16.063359625   574.2534   2   8   0.0600   0.0621   0.0995  -0.0226   0.0308  -0.0190   0.00    1.2
2018/03/15 11:53:08.000   78.246492336   16.063359445   574.2562   2   8   0.0597   0.0619   0.0989  -0.0225   0.0308  -0.0191   0.00    1.2
2018/03/15 11:53:09.000   78.246492350   16.063359230   574.2524   2   8   0.0595   0.0617   0.0983  -0.0224   0.0307  -0.0193   0.00    1.2
2018/03/15 11:53:10.000   78.246492309   16.063358947   574.2489   2   8   0.0593   0.0615   0.0977  -0.0223   0.0306  -0.0194   0.00    1.3
2018/03/15 11:53:11.000   78.246492257   16.063359189   574.2517   2   8   0.0591   0.0612   0.0971  -0.0222   0.0306  -0.0195   0.00    1.3
2018/03/15 11:53:12.000   78.246492217   16.063359546   574.2582   2   8   0.0589   0.0610   0.0966  -0.0221   0.0305  -0.0196   0.00    1.3
2018/03/15 11:53:13.000   78.246492270   16.063359921   574.2598   2   8   0.0586   0.0608   0.0960  -0.0221   0.0304  -0.0197   0.00    1.3
2018/03/15 11:53:14.000   78.246492391   16.063359928   574.2588   2   8   0.0584   0.0606   0.0954  -0.0220   0.0304  -0.0198   0.00    1.3
2018/03/15 11:53:15.000   78.246492472   16.063359797   574.2566   2   8   0.0582   0.0604   0.0949  -0.0219   0.0303  -0.0199   0.00    1.3
2018/03/15 11:53:16.000   78.246492536   16.063360030   574.2577   2   8   0.0580   0.0602   0.0943  -0.0218   0.0302  -0.0199   0.00    1.3
2018/03/15 11:53:17.000   78.246492602   16.063360278   574.2622   2   8   0.0578   0.0600   0.0938  -0.0217   0.0301  -0.0200   0.00    1.3
2018/03/15 11:53:18.000   78.246492648   16.063360364   574.2650   2   8   0.0576   0.0598   0.0932  -0.0216   0.0301  -0.0201   0.00    1.3
2018/03/15 11:53:19.000   78.246492714   16.063360071   574.2686   2   8   0.0574   0.0596   0.0927  -0.0216   0.0300  -0.0202   0.00    1.3
2018/03/15 11:53:20.000   78.246492742   16.063359908   574.2804   2   8   0.0571   0.0594   0.0922  -0.0215   0.0299  -0.0202   0.00    1.3
2018/03/15 11:53:21.000   78.246492710   16.063360144   574.2942   2   8   0.0569   0.0592   0.0916  -0.0214   0.0299  -0.0203   0.00    1.3
2018/03/15 11:53:22.000   78.246492678   16.063360383   574.3034   2   8   0.0567   0.0590   0.0911  -0.0213   0.0298  -0.0204   0.00    1.3
2018/03/15 11:53:23.000   78.246492689   16.063360568   574.3136   2   8   0.0565   0.0588   0.0906  -0.0212   0.0297  -0.0204   0.00    1.3
2018/03/15 11:53:24.000   78.246492691   16.063360730   574.3212   2   8   0.0563   0.0586   0.0901  -0.0212   0.0296  -0.0205   0.00    1.3
2018/03/15 11:53:25.000   78.246492714   16.063360555   574.3245   2   8   0.0561   0.0584   0.0896  -0.0211   0.0296  -0.0205   0.00    1.3
2018/03/15 11:53:26.000   78.246492775   16.063360323   574.3262   2   8   0.0559   0.0582   0.0891  -0.0210   0.0295  -0.0206   0.00    1.3
2018/03/15 11:53:27.000   78.246492827   16.063360266   574.3344   2   8   0.0557   0.0580   0.0886  -0.0209   0.0294  -0.0206   0.00    1.3
2018/03/15 11:53:28.000   78.246492844   16.063360526   574.3422   2   8   0.0555   0.0578   0.0881  -0.0209   0.0294  -0.0207   0.00    1.3
2018/03/15 11:53:29.000   78.246492815   16.063360674   574.3452   2   8   0.0553   0.0576   0.0876  -0.0208   0.0293  -0.0207   0.00    1.3
2018/03/15 11:53:30.000   78.246492794   16.063360614   574.3438   2   8   0.0551   0.0574   0.0872  -0.0207   0.0292  -0.0208   0.00    1.3
2018/03/15 11:53:31.000   78.246492803   16.063360594   574.3400   2   8   0.0549   0.0572   0.0867  -0.0206   0.0291  -0.0208   0.00    1.3
2018/03/15 11:53:32.000   78.246492832   16.063360613   574.3395   2   8   0.0548   0.0570   0.0862  -0.0206   0.0291  -0.0208   0.00    1.3
2018/03/15 11:53:33.000   78.246492824   16.063360684   574.3388   2   8   0.0546   0.0569   0.0857  -0.0205   0.0290  -0.0209   0.00    1.3
2018/03/15 11:53:34.000   78.246492772   16.063360642   574.3331   2   8   0.0544   0.0567   0.0853  -0.0204   0.0289  -0.0209   0.00    1.3
2018/03/15 11:53:35.000   78.246492730   16.063360625   574.3332   2   8   0.0542   0.0565   0.0848  -0.0203   0.0289  -0.0209   0.00    1.3
2018/03/15 11:53:36.000   78.246492715   16.063360712   574.3367   2   8   0.0540   0.0563   0.0844  -0.0203   0.0288  -0.0209   0.00    1.4
2018/03/15 11:53:37.000   78.246492812   16.063360749   574.3382   2   8   0.0538   0.0561   0.0839  -0.0202   0.0287  -0.0210   0.00    1.4
2018/03/15 11:53:38.000   78.246492881   16.063360748   574.3397   2   8   0.0536   0.0559   0.0835  -0.0201   0.0286  -0.0210   0.00    1.4
2018/03/15 11:53:39.000   78.246492880   16.063360820   574.3423   2   8   0.0534   0.0558   0.0830  -0.0200   0.0286  -0.0210   0.00    1.4
2018/03/15 11:53:40.000   78.246492804   16.063360736   574.3516   2   8   0.0533   0.0556   0.0826  -0.0200   0.0285  -0.0210   0.00    1.4
2018/03/15 11:53:41.000   78.246492758   16.063360902   574.3589   2   8   0.0531   0.0554   0.0822  -0.0199   0.0284  -0.0210   0.00    1.4
2018/03/15 11:53:42.000   78.246492795   16.063360910   574.3640   2   8   0.0529   0.0552   0.0817  -0.0198   0.0284  -0.0211   0.00    1.4
2018/03/15 11:53:43.000   78.246492807   16.063360785   574.3676   2   8   0.0527   0.0551   0.0813  -0.0198   0.0283  -0.0211   0.00    1.4
2018/03/15 11:53:44.000   78.246492805   16.063360733   574.3703   2   8   0.0525   0.0549   0.0809  -0.0197   0.0282  -0.0211   0.00    1.4
2018/03/15 11:53:45.000   78.246492815   16.063360899   574.3699   2   8   0.0524   0.0547   0.0805  -0.0196   0.0281  -0.0211   0.00    1.4
2018/03/15 11:53:46.000   78.246492845   16.063361009   574.3693   2   8   0.0522   0.0545   0.0801  -0.0195   0.0281  -0.0211   0.00    1.4
2018/03/15 11:53:47.000   78.246492856   16.063360909   574.3695   2   8   0.0520   0.0544   0.0797  -0.0195   0.0280  -0.0211   0.00    1.4
2018/03/15 11:53:48.000   78.246492859   16.063360954   574.3711   2   8   0.0518   0.0542   0.0793  -0.0194   0.0279  -0.0211   0.00    1.4
2018/03/15 11:53:49.000   78.246492844   16.063361048   574.3706   2   8   0.0517   0.0540   0.0789  -0.0193   0.0279  -0.0211   0.00    1.4
2018/03/15 11:53:50.000   78.246492845   16.063361315   574.3701   2   8   0.0515   0.0539   0.0785  -0.0193   0.0278  -0.0211   0.00    1.4
2018/03/15 11:53:51.000   78.246492918   16.063361184   574.3675   2   8   0.0513   0.0537   0.0781  -0.0192   0.0277  -0.0211   0.00    1.4
2018/03/15 11:53:52.000   78.246492994   16.063360966   574.3624   2   8   0.0512   0.0535   0.0777  -0.0191   0.0276  -0.0211   0.00    1.4
2018/03/15 11:53:53.000   78.246492960   16.063361135   574.3620   2   8   0.0510   0.0534   0.0773  -0.0191   0.0276  -0.0211   0.00    1.4
2018/03/15 11:53:54.000   78.246492905   16.063361253   574.3569   2   8   0.0508   0.0532   0.0769  -0.0190   0.0275  -0.0211   0.00    1.4
2018/03/15 11:53:55.000   78.246492854   16.063361294   574.3527   2   8   0.0507   0.0530   0.0766  -0.0189   0.0274  -0.0211   0.00    1.4
2018/03/15 11:53:56.000   78.246492872   16.063361249   574.3492   2   8   0.0505   0.0529   0.0762  -0.0189   0.0274  -0.0211   0.00    1.4
2018/03/15 11:53:57.000   78.246492895   16.063361332   574.3487   2   8   0.0503   0.0527   0.0758  -0.0188   0.0273  -0.0211   0.00    1.5
2018/03/15 11:53:58.000   78.246492882   16.063361424   574.3533   2   8   0.0502   0.0526   0.0754  -0.0187   0.0272  -0.0211   0.00    1.5
2018/03/15 11:53:59.000   78.246492868   16.063361647   574.3597   2   8   0.0500   0.0524   0.0751  -0.0187   0.0272  -0.0211   0.00    1.4
2018/03/15 11:54:00.000   78.246492842   16.063361654   574.3648   2   8   0.0499   0.0523   0.0747  -0.0186   0.0271  -0.0211   0.00    1.4
2018/03/15 11:54:01.000   78.246492805   16.063361658   574.3670   2   8   0.0497   0.0521   0.0744  -0.0186   0.0270  -0.0211   0.00    1.4
2018/03/15 11:54:02.000   78.246492796   16.063361858   574.3649   2   8   0.0495   0.0519   0.0740  -0.0185   0.0269  -0.0211   0.00    1.4
2018/03/15 11:54:03.000   78.246492763   16.063361915   574.3608   2   8   0.0494   0.0518   0.0736  -0.0184   0.0269  -0.0211   0.00    1.4
2018/03/15 11:54:04.000   78.246492739   16.063361820   574.3602   2   8   0.0492   0.0516   0.0733  -0.0184   0.0268  -0.0211   0.00    1.4
2018/03/15 11:54:05.000   78.246492692   16.063361951   574.3605   2   8   0.0491   0.0515   0.0730  -0.0183   0.0267  -0.0211   0.00    1.4
2018/03/15 11:54:06.000   78.246492627   16.063362215   574.3623   2   8   0.0489   0.0513   0.0726  -0.0182   0.0267  -0.0211   0.00    1.4
2018/03/15 11:54:07.000   78.246492544   16.063362449   574.3653   2   8   0.0488   0.0512   0.0723  -0.0182   0.0266  -0.0211   0.00    1.4
2018/03/15 11:54:08.000   78.246492469   16.063362617   574.3666   2   8   0.0486   0.0510   0.0719  -0.0181   0.0265  -0.0210   0.00    1.4
2018/03/15 11:54:09.000   78.246492421   16.063362763   574.3703   2   8   0.0485   0.0509   0.0716  -0.0181   0.0265  -0.0210   0.00    1.4
2018/03/15 11:54:10.000   78.246492402   16.063362765   574.3714   2   8   0.0483   0.0507   0.0713  -0.0180   0.0264  -0.0210   0.00    1.4
2018/03/15 11:54:11.000   78.246492371   16.063362781   574.3694   2   8   0.0482   0.0506   0.0709  -0.0179   0.0263  -0.0210   0.00    1.4
2018/03/15 11:54:12.000   78.246492327   16.063362777   574.3670   2   8   0.0480   0.0504   0.0706  -0.0179   0.0263  -0.0210   0.00    1.4
2018/03/15 11:54:13.000   78.246492249   16.063362865   574.3630   2   8   0.0479   0.0503   0.0703  -0.0178   0.0262  -0.0210   0.00    1.4
2018/03/15 11:54:14.000   78.246492131   16.063363148   574.3590   2   8   0.0477   0.0501   0.0700  -0.0178   0.0261  -0.0209   0.00    1.4
2018/03/15 11:54:15.000   78.246492051   16.063363333   574.3560   2   8   0.0476   0.0500   0.0697  -0.0177   0.0261  -0.0209   0.00    1.4
2018/03/15 11:54:16.000   78.246492015   16.063363411   574.3547   2   8   0.0474   0.0499   0.0694  -0.0176   0.0260  -0.0209   0.00    1.4
2018/03/15 11:54:17.000   78.246492001   16.063363471   574.3513   2   8   0.0473   0.0497   0.0690  -0.0176   0.0259  -0.0209   0.00    1.4
2018/03/15 11:54:18.000   78.246491988   16.063363555   574.3508   2   8   0.0471   0.0496   0.0687  -0.0175   0.0259  -0.0209   0.00    1.5
2018/03/15 11:54:19.000   78.246491948   16.063363634   574.3532   2   8   0.0470   0.0494   0.0684  -0.0175   0.0258  -0.0209   0.00    1.4
2018/03/15 11:54:20.000   78.246491870   16.063363836   574.3562   2   8   0.0468   0.0493   0.0681  -0.0174   0.0257  -0.0208   0.00    1.4
2018/03/15 11:54:21.000   78.246491768   16.063363765   574.3595   2   8   0.0467   0.0492   0.0678  -0.0173   0.0257  -0.0208   0.00    1.4
2018/03/15 11:54:22.000   78.246491683   16.063363796   574.3615   2   8   0.0466   0.0490   0.0675  -0.0173   0.0256  -0.0208   0.00    1.4
2018/03/15 11:54:23.000   78.246491612   16.063363874   574.3635   2   8   0.0464   0.0489   0.0672  -0.0172   0.0255  -0.0208   0.00    1.4
2018/03/15 11:54:24.000   78.246491540   16.063364100   574.3642   2   8   0.0463   0.0487   0.0669  -0.0172   0.0255  -0.0208   0.00    1.4
2018/03/15 11:54:25.000   78.246491460   16.063364150   574.3634   2   8   0.0461   0.0486   0.0667  -0.0171   0.0254  -0.0207   0.00    1.4
2018/03/15 11:54:26.000   78.246491414   16.063364084   574.3627   2   8   0.0460   0.0485   0.0664  -0.0171   0.0253  -0.0207   0.00    1.4
2018/03/15 11:54:27.000   78.246491398   16.063363942   574.3639   2   8   0.0459   0.0483   0.0661  -0.0170   0.0253  -0.0207   0.00    1.4
2018/03/15 11:54:28.000   78.246491376   16.063364150   574.3674   2   8   0.0457   0.0482   0.0658  -0.0170   0.0252  -0.0207   0.00    1.4
2018/03/15 11:54:29.000   78.246491346   16.063364325   574.3685   2   8   0.0456   0.0481   0.0655  -0.0169   0.0252  -0.0207   0.00    1.4
2018/03/15 11:54:30.000   78.246491281   16.063364386   574.3676   2   8   0.0455   0.0479   0.0652  -0.0168   0.0251  -0.0206   0.00    1.4
2018/03/15 11:54:31.000   78.246491229   16.063364263   574.3681   2   8   0.0453   0.0478   0.0650  -0.0168   0.0250  -0.0206   0.00    1.4
2018/03/15 11:54:32.000   78.246491186   16.063364326   574.3680   2   8   0.0452   0.0477   0.0647  -0.0167   0.0250  -0.0206   0.00    1.4
2018/03/15 11:54:33.000   78.246491157   16.063364464   574.3664   2   8   0.0451   0.0475   0.0644  -0.0167   0.0249  -0.0206   0.00    1.4
2018/03/15 11:54:34.000   78.246491153   16.063364633   574.3659   2   8   0.0449   0.0474   0.0641  -0.0166   0.0248  -0.0205   0.00    1.4
2018/03/15 11:54:35.000   78.246491127   16.063364564   574.3636   2   8   0.0448   0.0473   0.0639  -0.0166   0.0248  -0.0205   0.00    1.4
2018/03/15 11:54:36.000   78.246491102   16.063364509   574.3621   2   8   0.0447   0.0472   0.0636  -0.0165   0.0247  -0.0205   0.00    1.4
2018/03/15 11:54:37.000   78.246491022   16.063364648   574.3636   2   8   0.0446   0.0470   0.0634  -0.0165   0.0247  -0.0205   0.00    1.4
2018/03/15 11:54:38.000   78.246490931   16.063364950   574.3675   2   8   0.0444   0.0469   0.0631  -0.0164   0.0246  -0.0204   0.00    1.4
2018/03/15 11:54:39.000   78.246490862   16.063365388   574.3733   2   8   0.0443   0.0468   0.0628  -0.0164   0.0245  -0.0204   0.00    1.4
2018/03/15 11:54:40.000   78.246490832   16.063365657   574.3764   2   8   0.0442   0.0466   0.0626  -0.0163   0.0245  -0.0204   0.00    1.4
2018/03/15 11:54:41.000   78.246490854   16.063365752   574.3770   2   8   0.0440   0.0465   0.0623  -0.0163   0.0244  -0.0204   0.00    1.4
2018/03/15 11:54:42.000   78.246490925   16.063365788   574.3766   2   8   0.0439   0.0464   0.0621  -0.0162   0.0244  -0.0203   0.00    1.4
2018/03/15 11:54:43.000   78.246491013   16.063365833   574.3758   2   8   0.0438   0.0463   0.0618  -0.0162   0.0243  -0.0203   0.00    1.4
2018/03/15 11:54:44.000   78.246491022   16.063365932   574.3763   2   8   0.0437   0.0462   0.0616  -0.0161   0.0242  -0.0203   0.00    1.4
2018/03/15 11:54:45.000   78.246490993   16.063366040   574.3773   2   8   0.0436   0.0460   0.0613  -0.0161   0.0242  -0.0203   0.00    1.4
2018/03/15 11:54:46.000   78.246490957   16.063366117   574.3827   2   8   0.0434   0.0459   0.0611  -0.0160   0.0241  -0.0202   0.00    1.4
2018/03/15 11:54:47.000   78.246490946   16.063366304   574.3860   2   8   0.0433   0.0458   0.0608  -0.0160   0.0241  -0.0202   0.00    1.4
2018/03/15 11:54:48.000   78.246490952   16.063366328   574.3889   2   8   0.0432   0.0457   0.0606  -0.0159   0.0240  -0.0202   0.00    1.4
2018/03/15 11:54:49.000   78.246490978   16.063366302   574.3876   2   8   0.0431   0.0456   0.0604  -0.0159   0.0239  -0.0201   0.00    1.4
2018/03/15 11:54:50.000   78.246490993   16.063366354   574.3881   2   8   0.0430   0.0454   0.0601  -0.0158   0.0239  -0.0201   0.00    1.4
2018/03/15 11:54:51.000   78.246490996   16.063366443   574.3922   2   8   0.0428   0.0453   0.0599  -0.0158   0.0238  -0.0201   0.00    1.4
2018/03/15 11:54:52.000   78.246490983   16.063366490   574.3955   2   8   0.0427   0.0452   0.0597  -0.0157   0.0238  -0.0201   0.00    1.4
2018/03/15 11:54:53.000   78.246490966   16.063366474   574.3990   2   8   0.0426   0.0451   0.0594  -0.0157   0.0237  -0.0200   0.00    1.4
2018/03/15 11:54:54.000   78.246490955   16.063366442   574.4056   2   8   0.0425   0.0450   0.0592  -0.0156   0.0236  -0.0200   0.00    1.4
2018/03/15 11:54:55.000   78.246490941   16.063366565   574.4089   2   8   0.0424   0.0448   0.0590  -0.0156   0.0236  -0.0200   0.00    1.4
2018/03/15 11:54:56.000   78.246490931   16.063366916   574.4138   2   8   0.0423   0.0447   0.0587  -0.0155   0.0235  -0.0199   0.00    1.4
2018/03/15 11:54:57.000   78.246490921   16.063367135   574.4164   2   8   0.0421   0.0446   0.0585  -0.0155   0.0235  -0.0199   0.00    1.4
2018/03/15 11:54:58.000   78.246490952   16.063367049   574.4160   2   8   0.0420   0.0445   0.0583  -0.0154   0.0234  -0.0199   0.00    1.5
2018/03/15 11:54:59.000   78.246491010   16.063366847   574.4153   2   8   0.0419   0.0444   0.0581  -0.0154   0.0234  -0.0199   0.00    1.5
2018/03/15 11:55:00.000   78.246491031   16.063366737   574.4187   2   8   0.0418   0.0443   0.0579  -0.0153   0.0233  -0.0198   0.00    1.5
2018/03/15 11:55:01.000   78.246491007   16.063366723   574.4240   2   8   0.0417   0.0442   0.0576  -0.0153   0.0232  -0.0198   0.00    1.5
2018/03/15 11:55:02.000   78.246490998   16.063366622   574.4269   2   8   0.0416   0.0441   0.0574  -0.0152   0.0232  -0.0198   0.00    1.5
2018/03/15 11:55:03.000   78.246491014   16.063366444   574.4315   2   8   0.0415   0.0439   0.0572  -0.0152   0.0231  -0.0197   0.00    1.5
2018/03/15 11:55:04.000   78.246491033   16.063366243   574.4344   2   8   0.0414   0.0438   0.0570  -0.0151   0.0231  -0.0197   0.00    1.5
2018/03/15 11:55:05.000   78.246491051   16.063366130   574.4403   2   8   0.0412   0.0437   0.0568  -0.0151   0.0230  -0.0197   0.00    1.5
2018/03/15 11:55:06.000   78.246491057   16.063365986   574.4450   2   8   0.0411   0.0436   0.0566  -0.0150   0.0230  -0.0197   0.00    1.5
2018/03/15 11:55:07.000   78.246491078   16.063365886   574.4488   2   8   0.0410   0.0435   0.0564  -0.0150   0.0229  -0.0196   0.00    1.5
2018/03/15 11:55:08.000   78.246491111   16.063365684   574.4508   2   8   0.0409   0.0434   0.0562  -0.0150   0.0229  -0.0196   0.00    1.5
2018/03/15 11:55:09.000   78.246491150   16.063365636   574.4513   2   8   0.0408   0.0433   0.0560  -0.0149   0.0228  -0.0196   0.00    1.5
2018/03/15 11:55:10.000   78.246491159   16.063365471   574.4487   2   8   0.0407   0.0432   0.0557  -0.0149   0.0227  -0.0195   0.00    1.5
2018/03/15 11:55:11.000   78.246491121   16.063365337   574.4475   2   8   0.0406   0.0431   0.0555  -0.0148   0.0227  -0.0195   0.00    1.5
2018/03/15 11:55:12.000   78.246491100   16.063365256   574.4469   2   8   0.0405   0.0430   0.0553  -0.0148   0.0226  -0.0195   0.00    1.5
2018/03/15 11:55:13.000   78.246491111   16.063365209   574.4469   2   8   0.0404   0.0429   0.0551  -0.0147   0.0226  -0.0195   0.00    1.5
2018/03/15 11:55:14.000   78.246491145   16.063365292   574.4497   2   8   0.0403   0.0428   0.0549  -0.0147   0.0225  -0.0194   0.00    1.5
2018/03/15 11:55:15.000   78.246491169   16.063365309   574.4516   2   8   0.0402   0.0427   0.0548  -0.0146   0.0225  -0.0194   0.00    1.5
2018/03/15 11:55:16.000   78.246491210   16.063365261   574.4533   2   8   0.0401   0.0426   0.0546  -0.0146   0.0224  -0.0194   0.00    1.5
2018/03/15 11:55:17.000   78.246491263   16.063365233   574.4540   2   8   0.0400   0.0425   0.0544  -0.0146   0.0224  -0.0193   0.00    1.5
2018/03/15 11:55:18.000   78.246491313   16.063365223   574.4551   2   8   0.0399   0.0423   0.0542  -0.0145   0.0223  -0.0193   0.00    1.5
2018/03/15 11:55:19.000   78.246491347   16.063365350   574.4562   2   8   0.0398   0.0422   0.0540  -0.0145   0.0223  -0.0193   0.00    1.6
2018/03/15 11:55:20.000   78.246491376   16.063365302   574.4585   2   8   0.0397   0.0421   0.0538  -0.0144   0.0222  -0.0193   0.00    1.6
2018/03/15 11:55:21.000   78.246491414   16.063365169   574.4606   2   8   0.0396   0.0420   0.0536  -0.0144   0.0222  -0.0192   0.00    1.6
2018/03/15 11:55:22.000   78.246491463   16.063365110   574.4654   2   8   0.0395   0.0419   0.0534  -0.0143   0.0221  -0.0192   0.00    1.6
2018/03/15 11:55:23.000   78.246491512   16.063365043   574.4719   2   8   0.0394   0.0418   0.0532  -0.0143   0.0221  -0.0192   0.00    1.6
2018/03/15 11:55:24.000   78.246491537   16.063365009   574.4765   2   8   0.0393   0.0417   0.0531  -0.0143   0.0220  -0.0191   0.00    1.6
2018/03/15 11:55:25.000   78.246491565   16.063364809   574.4799   2   8   0.0392   0.0416   0.0529  -0.0142   0.0220  -0.0191   0.00    1.6
2018/03/15 11:55:26.000   78.246491614   16.063364502   574.4837   2   8   0.0391   0.0415   0.0527  -0.0142   0.0219  -0.0191   0.00    1.6
2018/03/15 11:55:27.000   78.246491647   16.063364280   574.4901   2   8   0.0390   0.0414   0.0525  -0.0141   0.0219  -0.0190   0.00    1.6
2018/03/15 11:55:28.000   78.246491651   16.063364191   574.4962   2   8   0.0389   0.0413   0.0523  -0.0141   0.0218  -0.0190   0.00    1.6
2018/03/15 11:55:29.000   78.246491637   16.063364124   574.5007   2   8   0.0388   0.0413   0.0522  -0.0141   0.0218  -0.0190   0.00    1.6
2018/03/15 11:55:30.000   78.246491646   16.063363974   574.5033   2   8   0.0387   0.0412   0.0520  -0.0140   0.0217  -0.0190   0.00    1.6
2018/03/15 11:55:31.000   78.246491680   16.063363760   574.5033   2   8   0.0386   0.0411   0.0518  -0.0140   0.0217  -0.0189   0.00    1.6
2018/03/15 11:55:32.000   78.246491718   16.063363600   574.5024   2   8   0.0385   0.0410   0.0516  -0.0139   0.0216  -0.0189   0.00    1.6
2018/03/15 11:55:33.000   78.246491702   16.063363555   574.5035   2   8   0.0384   0.0409   0.0515  -0.0139   0.0216  -0.0189   0.00    1.6
2018/03/15 11:55:34.000   78.246491687   16.063363525   574.5041   2   8   0.0383   0.0408   0.0513  -0.0139   0.0215  -0.0188   0.00    1.6
2018/03/15 11:55:35.000   78.246491675   16.063363374   574.5047   2   8   0.0382   0.0407   0.0511  -0.0138   0.0215  -0.0188   0.00    1.6
2018/03/15 11:55:36.000   78.246491702   16.063363254   574.5051   2   8   0.0381   0.0406   0.0509  -0.0138   0.0214  -0.0188   0.00    1.6
2018/03/15 11:55:37.000   78.246491765   16.063363125   574.5070   2   8   0.0381   0.0405   0.0508  -0.0137   0.0214  -0.0188   0.00    1.6
2018/03/15 11:55:38.000   78.246491849   16.063363008   574.5077   2   8   0.0380   0.0404   0.0506  -0.0137   0.0213  -0.0187   0.00    1.6
2018/03/15 11:55:39.000   78.246491901   16.063362948   574.5081   2   8   0.0379   0.0403   0.0504  -0.0137   0.0213  -0.0187   0.00    1.6
2018/03/15 11:55:40.000   78.246491909   16.063362832   574.5107   2   8   0.0378   0.0402   0.0503  -0.0136   0.0212  -0.0187   0.00    1.6
2018/03/15 11:55:41.000   78.246491915   16.063362666   574.5109   2   8   0.0377   0.0401   0.0501  -0.0136   0.0212  -0.0186   0.00    1.6
2018/03/15 11:55:42.000   78.246491937   16.063362332   574.5127   2   8   0.0376   0.0400   0.0500  -0.0135   0.0211  -0.0186   0.00    1.6
2018/03/15 11:55:43.000   78.246491995   16.063362099   574.5155   2   8   0.0375   0.0399   0.0498  -0.0135   0.0211  -0.0186   0.00    1.6
2018/03/15 11:55:44.000   78.246492026   16.063361965   574.5193   2   8   0.0374   0.0399   0.0496  -0.0135   0.0210  -0.0186   0.00    1.6
2018/03/15 11:55:45.000   78.246492013   16.063361894   574.5227   2   8   0.0373   0.0398   0.0495  -0.0134   0.0210  -0.0185   0.00    1.6
2018/03/15 11:55:46.000   78.246491992   16.063361756   574.5270   2   8   0.0373   0.0397   0.0493  -0.0134   0.0209  -0.0185   0.00    1.6
2018/03/15 11:55:47.000   78.246492018   16.063361670   574.5285   2   8   0.0372   0.0396   0.0492  -0.0134   0.0209  -0.0185   0.00    1.6
2018/03/15 11:55:48.000   78.246492097   16.063361524   574.5297   2   8   0.0371   0.0395   0.0490  -0.0133   0.0208  -0.0184   0.00    1.6
2018/03/15 11:55:49.000   78.246492175   16.063361273   574.5305   2   8   0.0370   0.0394   0.0489  -0.0133   0.0208  -0.0184   0.00    1.6
2018/03/15 11:55:50.000   78.246492190   16.063361228   574.5320   2   8   0.0369   0.0393   0.0487  -0.0132   0.0208  -0.0184   0.00    1.6
2018/03/15 11:55:51.000   78.246492164   16.063361176   574.5345   2   8   0.0368   0.0392   0.0485  -0.0132   0.0207  -0.0184   0.00    1.6
2018/03/15 11:55:52.000   78.246492166   16.063361134   574.5349   2   8   0.0367   0.0391   0.0484  -0.0132   0.0207  -0.0183   0.00    1.6
2018/03/15 11:55:53.000   78.246492183   16.063361125   574.5349   2   8   0.0367   0.0391   0.0482  -0.0131   0.0206  -0.0183   0.00    1.5
2018/03/15 11:55:54.000   78.246492239   16.063361010   574.5327   2   8   0.0366   0.0390   0.0481  -0.0131   0.0206  -0.0183   0.00    1.5
2018/03/15 11:55:55.000   78.246492271   16.063360814   574.5315   2   8   0.0365   0.0389   0.0479  -0.0131   0.0205  -0.0182   0.00    1.5
2018/03/15 11:55:56.000   78.246492283   16.063360739   574.5347   2   8   0.0364   0.0388   0.0478  -0.0130   0.0205  -0.0182   0.00    1.5
2018/03/15 11:55:57.000   78.246492304   16.063360664   574.5389   2   8   0.0363   0.0387   0.0477  -0.0130   0.0204  -0.0182   0.00    1.5
2018/03/15 11:55:58.000   78.246492345   16.063360712   574.5446   2   8   0.0362   0.0386   0.0475  -0.0130   0.0204  -0.0182   0.00    1.5
2018/03/15 11:55:59.000   78.246492382   16.063360691   574.5484   2   8   0.0362   0.0385   0.0474  -0.0129   0.0203  -0.0181   0.00    1.5
2018/03/15 11:56:00.000   78.246492410   16.063360540   574.5500   2   8   0.0361   0.0385   0.0472  -0.0129   0.0203  -0.0181   0.00    1.5
2018/03/15 11:56:01.000   78.246492417   16.063360369   574.5516   2   8   0.0360   0.0384   0.0471  -0.0128   0.0203  -0.0181   0.00    1.5
2018/03/15 11:56:02.000   78.246492444   16.063360346   574.5530   2   8   0.0359   0.0383   0.0469  -0.0128   0.0202  -0.0180   0.00    1.5
2018/03/15 11:56:03.000   78.246492459   16.063360260   574.5535   2   8   0.0358   0.0382   0.0468  -0.0128   0.0202  -0.0180   0.00    1.5
2018/03/15 11:56:04.000   78.246492471   16.063360113   574.5534   2   8   0.0358   0.0381   0.0467  -0.0127   0.0201  -0.0180   0.00    1.5
2018/03/15 11:56:05.000   78.246492513   16.063360017   574.5542   2   8   0.0357   0.0381   0.0465  -0.0127   0.0201  -0.0180   0.00    1.5
2018/03/15 11:56:06.000   78.246492542   16.063359846   574.5552   2   8   0.0356   0.0380   0.0464  -0.0127   0.0200  -0.0179   0.00    1.5
2018/03/15 11:56:07.000   78.246492536   16.063359820   574.5588   2   8   0.0355   0.0379   0.0462  -0.0126   0.0200  -0.0179   0.00    1.5
2018/03/15 11:56:08.000   78.246492539   16.063359847   574.5606   2   8   0.0354   0.0378   0.0461  -0.0126   0.0200  -0.0179   0.00    1.5
2018/03/15 11:56:09.000   78.246492539   16.063359911   574.5612   2   8   0.0354   0.0377   0.0460  -0.0126   0.0199  -0.0178   0.00    1.5
2018/03/15 11:56:10.000   78.246492588   16.063359903   574.5581   2   8   0.0353   0.0377   0.0458  -0.0125   0.0199  -0.0178   0.00    1.5
2018/03/15 11:56:11.000   78.246492674   16.063359779   574.5543   2   8   0.0352   0.0376   0.0457  -0.0125   0.0198  -0.0178   0.00    1.5
2018/03/15 11:56:12.000   78.246492727   16.063359635   574.5519   2   8   0.0351   0.0375   0.0456  -0.0125   0.0198  -0.0178   0.00    1.5
2018/03/15 11:56:13.000   78.246492719   16.063359659   574.5529   2   8   0.0351   0.0374   0.0454  -0.0124   0.0197  -0.0177   0.00    1.5
2018/03/15 11:56:14.000   78.246492715   16.063359748   574.5540   2   8   0.0350   0.0373   0.0453  -0.0124   0.0197  -0.0177   0.00    1.5
2018/03/15 11:56:15.000   78.246492719   16.063359833   574.5543   2   8   0.0349   0.0373   0.0452  -0.0124   0.0197  -0.0177   0.00    1.5
2018/03/15 11:56:16.000   78.246492769   16.063359810   574.5519   2   8   0.0348   0.0372   0.0450  -0.0123   0.0196  -0.0177   0.00    1.5
2018/03/15 11:56:17.000   78.246492858   16.063359706   574.5485   2   8   0.0348   0.0371   0.0449  -0.0123   0.0196  -0.0176   0.00    1.5
2018/03/15 11:56:18.000   78.246492895   16.063359632   574.5486   2   8   0.0347   0.0370   0.0448  -0.0123   0.0195  -0.0176   0.00    1.5
2018/03/15 11:56:19.000   78.246492912   16.063359561   574.5499   2   8   0.0346   0.0369   0.0447  -0.0122   0.0195  -0.0176   0.00    1.5
2018/03/15 11:56:20.000   78.246492915   16.063359458   574.5530   2   8   0.0345   0.0369   0.0445  -0.0122   0.0195  -0.0175   0.00    1.5
2018/03/15 11:56:21.000   78.246492935   16.063359409   574.5566   2   8   0.0345   0.0368   0.0444  -0.0122   0.0194  -0.0175   0.00    1.5
2018/03/15 11:56:22.000   78.246492964   16.063359411   574.5603   2   8   0.0344   0.0367   0.0443  -0.0121   0.0194  -0.0175   0.00    1.5
2018/03/15 11:56:23.000   78.246492999   16.063359396   574.5598   2   8   0.0343   0.0366   0.0442  -0.0121   0.0193  -0.0175   0.00    1.5
2018/03/15 11:56:24.000   78.246493030   16.063359170   574.5570   2   8   0.0342   0.0366   0.0440  -0.0121   0.0193  -0.0174   0.00    1.5
2018/03/15 11:56:25.000   78.246493077   16.063358938   574.5558   2   8   0.0342   0.0365   0.0439  -0.0120   0.0193  -0.0174   0.00    1.5
2018/03/15 11:56:26.000   78.246493116   16.063358861   574.5572   2   8   0.0341   0.0364   0.0438  -0.0120   0.0192  -0.0174   0.00    1.5
2018/03/15 11:56:27.000   78.246493139   16.063358849   574.5598   2   8   0.0340   0.0363   0.0437  -0.0120   0.0192  -0.0174   0.00    1.5
2018/03/15 11:56:28.000   78.246493154   16.063358851   574.5619   2   8   0.0340   0.0363   0.0435  -0.0120   0.0191  -0.0173   0.00    1.5
2018/03/15 11:56:29.000   78.246493163   16.063358747   574.5621   2   8   0.0339   0.0362   0.0434  -0.0119   0.0191  -0.0173   0.00    1.5
2018/03/15 11:56:30.000   78.246493172   16.063358577   574.5615   2   8   0.0338   0.0361   0.0433  -0.0119   0.0191  -0.0173   0.00    1.5
2018/03/15 11:56:31.000   78.246493201   16.063358455   574.5602   2   8   0.0338   0.0361   0.0432  -0.0119   0.0190  -0.0173   0.00    1.5
2018/03/15 11:56:32.000   78.246493230   16.063358417   574.5598   2   8   0.0337   0.0360   0.0431  -0.0118   0.0190  -0.0172   0.00    1.5
2018/03/15 11:56:33.000   78.246493243   16.063358397   574.5606   2   8   0.0336   0.0359   0.0429  -0.0118   0.0190  -0.0172   0.00    1.5
2018/03/15 11:56:34.000   78.246493247   16.063358395   574.5617   2   8   0.0335   0.0358   0.0428  -0.0118   0.0189  -0.0172   0.00    1.5
2018/03/15 11:56:35.000   78.246493255   16.063358379   574.5618   2   8   0.0335   0.0358   0.0427  -0.0117   0.0189  -0.0172   0.00    1.5
2018/03/15 11:56:36.000   78.246493295   16.063358291   574.5610   2   8   0.0334   0.0357   0.0426  -0.0117   0.0188  -0.0171   0.00    1.5
2018/03/15 11:56:37.000   78.246493317   16.063358291   574.5595   2   8   0.0333   0.0356   0.0425  -0.0117   0.0188  -0.0171   0.00    1.5
2018/03/15 11:56:38.000   78.246493321   16.063358369   574.5591   2   8   0.0333   0.0356   0.0424  -0.0116   0.0188  -0.0171   0.00    1.5
2018/03/15 11:56:39.000   78.246493331   16.063358403   574.5580   2   8   0.0332   0.0355   0.0423  -0.0116   0.0187  -0.0171   0.00    1.5
2018/03/15 11:56:40.000   78.246493354   16.063358312   574.5593   2   8   0.0331   0.0354   0.0421  -0.0116   0.0187  -0.0170   0.00    1.5
2018/03/15 11:56:41.000   78.246493413   16.063358148   574.5607   2   8   0.0331   0.0354   0.0420  -0.0116   0.0187  -0.0170   0.00    1.5
2018/03/15 11:56:42.000   78.246493447   16.063358116   574.5662   2   8   0.0330   0.0353   0.0419  -0.0115   0.0186  -0.0170   0.00    1.5
2018/03/15 11:56:43.000   78.246493434   16.063358171   574.5705   2   8   0.0329   0.0352   0.0418  -0.0115   0.0186  -0.0170   0.00    1.5
2018/03/15 11:56:44.000   78.246493412   16.063358127   574.5742   2   8   0.0329   0.0351   0.0417  -0.0115   0.0185  -0.0169   0.00    1.5
2018/03/15 11:56:45.000   78.246493401   16.063358040   574.5763   2   8   0.0328   0.0351   0.0416  -0.0114   0.0185  -0.0169   0.00    1.5
2018/03/15 11:56:46.000   78.246493434   16.063357986   574.5756   2   8   0.0327   0.0350   0.0415  -0.0114   0.0185  -0.0169   0.00    1.5
2018/03/15 11:56:47.000   78.246493473   16.063357873   574.5759   2   8   0.0327   0.0349   0.0414  -0.0114   0.0184  -0.0169   0.00    1.5
2018/03/15 11:56:48.000   78.246493487   16.063357828   574.5761   2   8   0.0326   0.0349   0.0413  -0.0114   0.0184  -0.0168   0.00    1.5
2018/03/15 11:56:49.000   78.246493491   16.063357736   574.5769   2   8   0.0326   0.0348   0.0412  -0.0113   0.0184  -0.0168   0.00    1.5
2018/03/15 11:56:50.000   78.246493502   16.063357718   574.5776   2   8   0.0325   0.0347   0.0411  -0.0113   0.0183  -0.0168   0.00    1.5
2018/03/15 11:56:51.000   78.246493528   16.063357673   574.5781   2   8   0.0324   0.0347   0.0410  -0.0113   0.0183  -0.0168   0.00    1.5
2018/03/15 11:56:52.000   78.246493563   16.063357648   574.5771   2   8   0.0324   0.0346   0.0409  -0.0112   0.0183  -0.0167   0.00    1.5
2018/03/15 11:56:53.000   78.246493586   16.063357563   574.5772   2   8   0.0323   0.0345   0.0407  -0.0112   0.0182  -0.0167   0.00    1.5
