% program   : RTKPOST ver.2.4.2
% inp file  : Z:\home\linda\Documents\Spring18\GitHub_Unis\data\processed_data\4625074B.obs
% inp file  : Z:\home\linda\Documents\Spring18\GitHub_Unis\data\processed_data\4625074B.nav
% obs start : 2018/03/15 11:21:35.0 GPST (week1992 386495.0s)
% obs end   : 2018/03/15 11:38:20.0 GPST (week1992 387500.0s)
% pos mode  : single
% elev mask : 15.0 deg
% ionos opt : broadcast
% tropo opt : saastamoinen
% ephemeris : broadcast
% navi sys  : gps glonass galileo qzss sbas
%
% (lat/lon/height=WGS84/ellipsoidal,Q=1:fix,2:float,3:sbas,4:dgps,5:single,6:ppp,ns=# of satellites)
%  GPST                  latitude(deg) longitude(deg)  height(m)   Q  ns   sdn(m)   sde(m)   sdu(m)  sdne(m)  sdeu(m)  sdun(m) age(s)  ratio
2018/03/15 11:21:35.000   78.246542666   16.035478797   489.4894   5   8   2.1300   1.9939   7.5714   0.1537   2.0766   2.6944   0.00    0.0
2018/03/15 11:21:36.000   78.246537360   16.035486010   490.1340   5   8   2.1298   1.9941   7.5722   0.1541   2.0773   2.6941   0.00    0.0
2018/03/15 11:21:37.000   78.246535922   16.035498044   490.6167   5   8   2.1296   1.9942   7.5730   0.1546   2.0779   2.6939   0.00    0.0
2018/03/15 11:21:38.000   78.246530806   16.035510828   489.7991   5   8   2.1294   1.9943   7.5738   0.1550   2.0786   2.6937   0.00    0.0
2018/03/15 11:21:39.000   78.246530747   16.035511189   489.4122   5   8   2.1292   1.9945   7.5747   0.1554   2.0792   2.6935   0.00    0.0
2018/03/15 11:21:40.000   78.246531436   16.035498286   490.3238   5   8   2.1290   1.9946   7.5755   0.1559   2.0799   2.6933   0.00    0.0
2018/03/15 11:21:41.000   78.246534867   16.035488083   489.5284   5   8   2.1288   1.9947   7.5763   0.1563   2.0805   2.6930   0.00    0.0
2018/03/15 11:21:42.000   78.246539913   16.035478231   488.1242   5   8   2.1287   1.9949   7.5771   0.1568   2.0812   2.6928   0.00    0.0
2018/03/15 11:21:43.000   78.246543010   16.035463231   490.0530   5   8   2.1285   1.9950   7.5779   0.1572   2.0819   2.6926   0.00    0.0
2018/03/15 11:21:44.000   78.246537803   16.035444893   489.5174   5   8   2.1283   1.9951   7.5788   0.1576   2.0825   2.6924   0.00    0.0
2018/03/15 11:21:45.000   78.246533400   16.035480790   489.5401   5   8   2.1281   1.9953   7.5796   0.1581   2.0832   2.6922   0.00    0.0
2018/03/15 11:21:46.000   78.246531041   16.035490487   488.3960   5   7   2.4355   2.2304   9.1756  -1.0751  -0.9000   3.6569   0.00    0.0
2018/03/15 11:21:47.000   78.246530900   16.035508542   489.1446   5   7   2.5071   1.9989   7.5823  -0.3583   2.0879   2.6608   0.00    0.0
2018/03/15 11:21:48.000   78.246525864   16.035516352   489.5465   5   8   2.1275   1.9956   7.5820   0.1593   2.0851   2.6915   0.00    0.0
2018/03/15 11:21:49.000   78.246535643   16.035487063   489.0289   5   8   2.1273   1.9958   7.5829   0.1597   2.0858   2.6913   0.00    0.0
2018/03/15 11:21:50.000   78.246538921   16.035464483   489.8192   5   8   2.1271   1.9959   7.5837   0.1602   2.0864   2.6911   0.00    0.0
2018/03/15 11:21:51.000   78.246538006   16.035467869   490.3306   5   8   2.1269   1.9960   7.5845   0.1606   2.0871   2.6908   0.00    0.0
2018/03/15 11:21:52.000   78.246531218   16.035495824   489.1727   5   8   2.1267   1.9962   7.5853   0.1610   2.0877   2.6906   0.00    0.0
2018/03/15 11:21:53.000   78.246539069   16.035475350   487.1900   5   8   2.1265   1.9963   7.5861   0.1614   2.0884   2.6904   0.00    0.0
2018/03/15 11:21:54.000   78.246539266   16.035474946   488.3280   5   8   2.1263   1.9964   7.5869   0.1618   2.0891   2.6902   0.00    0.0
2018/03/15 11:21:55.000   78.246538755   16.035479485   489.4532   5   7   2.3865   2.8443  10.3875   1.4907   4.3288   3.8633   0.00    0.0
2018/03/15 11:21:56.000   78.246534921   16.035504163   488.4992   5   7   2.3860   2.8442  10.3863   1.4901   4.3282   3.8621   0.00    0.0
2018/03/15 11:21:57.000   78.246529349   16.035496355   488.8825   5   7   2.3855   2.8441  10.3850   1.4896   4.3277   3.8609   0.00    0.0
2018/03/15 11:21:58.000   78.246536444   16.035508592   490.4951   5   7   2.3849   2.8440  10.3838   1.4890   4.3271   3.8597   0.00    0.0
2018/03/15 11:21:59.000   78.246532101   16.035484810   486.7474   5   6   2.8956   2.8634  13.1336   1.2910   4.0041   5.3011   0.00    0.0
2018/03/15 11:22:00.000   78.246536079   16.035434081   487.5079   5   6   2.8951   2.8633  13.1335   1.2905   4.0035   5.3003   0.00    0.0
2018/03/15 11:22:01.000   78.246539352   16.035430364   486.2965   5   6   2.8945   2.8632  13.1335   1.2899   4.0030   5.2994   0.00    0.0
2018/03/15 11:22:02.000   78.246519655   16.035555239   487.8451   5   6   2.8939   2.8631  13.1334   1.2894   4.0024   5.2986   0.00    0.0
2018/03/15 11:22:03.000   78.246528688   16.035495621   490.5726   5   7   2.3824   2.8435  10.3775   1.4862   4.3244   3.8536   0.00    0.0
2018/03/15 11:22:04.000   78.246540188   16.035524247   491.7696   5   5   3.2840   3.3986  17.1287  -1.0898  -2.0321   6.7195   0.00    0.0
2018/03/15 11:22:05.000   78.246540165   16.035508151   491.4480   5   6   2.3870   3.0107  10.4786   1.5387   4.1515   3.8198   0.00    0.0
2018/03/15 11:22:06.000   78.246536967   16.035469228   490.0964   5   7   2.1268   2.1860   7.8123   0.3538   1.6674   2.6500   0.00    0.0
2018/03/15 11:22:07.000   78.246538431   16.035460250   490.0996   5   7   2.1266   2.1862   7.8126   0.3545   1.6687   2.6496   0.00    0.0
2018/03/15 11:22:08.000   78.246528465   16.035474347   485.9756   5   7   2.1265   2.1863   7.8130   0.3552   1.6700   2.6493   0.00    0.0
2018/03/15 11:22:09.000   78.246523114   16.035467466   487.9765   5   7   2.1263   2.1865   7.8133   0.3559   1.6712   2.6490   0.00    0.0
2018/03/15 11:22:10.000   78.246526036   16.035457376   486.8959   5   6   2.6451   3.1771  12.1260  -1.8708  -4.3100   4.6483   0.00    0.0
2018/03/15 11:22:11.000   78.246534301   16.035487397   488.6574   5   6   2.6446   3.1767  12.1262  -1.8700  -4.3087   4.6475   0.00    0.0
2018/03/15 11:22:12.000   78.246536828   16.035467738   489.6517   5   6   2.6441   3.1762  12.1264  -1.8691  -4.3074   4.6468   0.00    0.0
2018/03/15 11:22:13.000   78.246546048   16.035479393   489.5725   5   6   2.6436   3.1758  12.1267  -1.8683  -4.3060   4.6460   0.00    0.0
2018/03/15 11:22:14.000   78.246543244   16.035487078   489.1722   5   7   2.4314   2.2306   9.2354  -1.0701  -0.8771   3.6649   0.00    0.0
2018/03/15 11:22:15.000   78.246538688   16.035479386   488.0943   5   7   2.4312   2.2306   9.2375  -1.0699  -0.8763   3.6651   0.00    0.0
2018/03/15 11:22:16.000   78.246533343   16.035485315   487.4771   5   7   2.4311   2.2306   9.2396  -1.0697  -0.8754   3.6654   0.00    0.0
2018/03/15 11:22:17.000   78.246539236   16.035485967   489.7912   5   7   2.4309   2.2306   9.2418  -1.0695  -0.8746   3.6657   0.00    0.0
2018/03/15 11:22:18.000   78.246536115   16.035491672   489.5480   5   7   2.4308   2.2306   9.2439  -1.0694  -0.8737   3.6660   0.00    0.0
2018/03/15 11:22:19.000   78.246539579   16.035486692   489.7955   5   7   2.4306   2.2306   9.2460  -1.0692  -0.8729   3.6663   0.00    0.0
2018/03/15 11:22:20.000   78.246542009   16.035493164   488.2365   5   7   2.4305   2.2306   9.2482  -1.0690  -0.8720   3.6665   0.00    0.0
2018/03/15 11:22:21.000   78.246538290   16.035496751   489.8171   5   7   2.4303   2.2307   9.2503  -1.0688  -0.8712   3.6668   0.00    0.0
2018/03/15 11:22:22.000   78.246531529   16.035491712   489.0874   5   7   2.4302   2.2307   9.2524  -1.0686  -0.8703   3.6671   0.00    0.0
2018/03/15 11:22:23.000   78.246531752   16.035499595   488.9337   5   7   2.4300   2.2307   9.2545  -1.0685  -0.8694   3.6674   0.00    0.0
2018/03/15 11:22:24.000   78.246527350   16.035526864   487.1317   5   7   2.4299   2.2307   9.2567  -1.0683  -0.8686   3.6676   0.00    0.0
2018/03/15 11:22:25.000   78.246531352   16.035515186   487.9457   5   7   2.4297   2.2307   9.2588  -1.0681  -0.8677   3.6679   0.00    0.0
2018/03/15 11:22:26.000   78.246536354   16.035475622   490.4358   5   7   2.4296   2.2307   9.2609  -1.0679  -0.8668   3.6682   0.00    0.0
2018/03/15 11:22:27.000   78.246535630   16.035471435   490.7803   5   7   2.4294   2.2307   9.2631  -1.0677  -0.8660   3.6685   0.00    0.0
2018/03/15 11:22:28.000   78.246537460   16.035483302   493.3289   5   7   2.4293   2.2307   9.2652  -1.0676  -0.8651   3.6687   0.00    0.0
2018/03/15 11:22:29.000   78.246541940   16.035490000   494.8944   5   8   2.1153   2.1401   6.8805  -1.3751  -2.1573   2.4593   0.00    0.0
2018/03/15 11:22:30.000   78.246538585   16.035538409   492.2641   5   9   1.9363   1.7366   5.9302  -0.9088  -0.5383   1.7538   0.00    0.0
2018/03/15 11:22:31.000   78.246545195   16.035535187   493.7867   5   8   2.2318   1.7688   6.0359  -1.0946   0.2973   1.3506   0.00    0.0
2018/03/15 11:22:32.000   78.246537534   16.035521432   494.0646   5   9   1.9359   1.7367   5.9300  -0.9087  -0.5373   1.7526   0.00    0.0
2018/03/15 11:22:33.000   78.246542037   16.035519723   496.3886   5   9   1.9358   1.7368   5.9299  -0.9087  -0.5367   1.7520   0.00    0.0
2018/03/15 11:22:34.000   78.246543316   16.035522254   494.3544   5   9   1.9356   1.7369   5.9298  -0.9086  -0.5362   1.7515   0.00    0.0
2018/03/15 11:22:35.000   78.246539097   16.035539713   493.8751   5   9   1.9354   1.7369   5.9297  -0.9086  -0.5357   1.7509   0.00    0.0
2018/03/15 11:22:36.000   78.246533042   16.035548413   493.4508   5   9   1.9352   1.7370   5.9296  -0.9086  -0.5352   1.7503   0.00    0.0
2018/03/15 11:22:37.000   78.246532654   16.035539517   493.8356   5   9   1.9351   1.7370   5.9295  -0.9085  -0.5347   1.7497   0.00    0.0
2018/03/15 11:22:38.000   78.246535138   16.035555389   493.9206   5   9   1.9349   1.7371   5.9294  -0.9085  -0.5341   1.7491   0.00    0.0
2018/03/15 11:22:39.000   78.246544382   16.035535002   493.4235   5   9   1.9347   1.7372   5.9293  -0.9084  -0.5336   1.7485   0.00    0.0
2018/03/15 11:22:40.000   78.246540153   16.035543974   492.4617   5   9   1.9345   1.7372   5.9292  -0.9084  -0.5331   1.7480   0.00    0.0
2018/03/15 11:22:41.000   78.246541056   16.035528869   492.2605   5   9   1.9344   1.7373   5.9291  -0.9084  -0.5325   1.7474   0.00    0.0
2018/03/15 11:22:42.000   78.246537854   16.035530581   492.9782   5   9   1.9342   1.7373   5.9290  -0.9083  -0.5320   1.7468   0.00    0.0
2018/03/15 11:22:43.000   78.246540869   16.035526187   492.7956   5   9   1.9340   1.7374   5.9289  -0.9083  -0.5315   1.7462   0.00    0.0
2018/03/15 11:22:44.000   78.246538898   16.035528662   493.8488   5   9   1.9338   1.7375   5.9288  -0.9083  -0.5310   1.7456   0.00    0.0
2018/03/15 11:22:45.000   78.246534545   16.035511541   493.9452   5   9   1.9337   1.7375   5.9286  -0.9082  -0.5304   1.7451   0.00    0.0
2018/03/15 11:22:46.000   78.246529354   16.035530162   491.7648   5   9   1.9335   1.7376   5.9285  -0.9082  -0.5299   1.7445   0.00    0.0
2018/03/15 11:22:47.000   78.246531099   16.035516122   490.7592   5   9   1.9333   1.7376   5.9284  -0.9081  -0.5294   1.7439   0.00    0.0
2018/03/15 11:22:48.000   78.246532528   16.035509252   489.9683   5   9   1.9331   1.7377   5.9283  -0.9081  -0.5288   1.7433   0.00    0.0
2018/03/15 11:22:49.000   78.246532441   16.035476351   487.0309   5   8   2.1156   2.0037   7.6309   0.1819   2.1247   2.6773   0.00    0.0
2018/03/15 11:22:50.000   78.246535871   16.035454143   486.5326   5   8   2.1154   2.0039   7.6317   0.1822   2.1253   2.6771   0.00    0.0
2018/03/15 11:22:51.000   78.246541478   16.035486533   492.0461   5   9   1.9326   1.7379   5.9280  -0.9080  -0.5272   1.7415   0.00    0.0
2018/03/15 11:22:52.000   78.246539609   16.035500209   492.9624   5   9   1.9325   1.7379   5.9279  -0.9079  -0.5267   1.7410   0.00    0.0
2018/03/15 11:22:53.000   78.246530625   16.035539761   491.9728   5   9   1.9323   1.7380   5.9278  -0.9079  -0.5262   1.7404   0.00    0.0
2018/03/15 11:22:54.000   78.246531240   16.035534149   492.1899   5   9   1.9321   1.7381   5.9277  -0.9079  -0.5256   1.7398   0.00    0.0
2018/03/15 11:22:55.000   78.246534548   16.035515333   491.6662   5   9   1.9319   1.7381   5.9276  -0.9078  -0.5251   1.7392   0.00    0.0
2018/03/15 11:22:56.000   78.246538016   16.035499393   492.4652   5   9   1.9318   1.7382   5.9275  -0.9078  -0.5246   1.7386   0.00    0.0
2018/03/15 11:22:57.000   78.246540521   16.035507031   492.4863   5   9   1.9316   1.7382   5.9274  -0.9078  -0.5240   1.7380   0.00    0.0
2018/03/15 11:22:58.000   78.246544218   16.035497856   492.5838   5   9   1.9314   1.7383   5.9273  -0.9077  -0.5235   1.7375   0.00    0.0
2018/03/15 11:22:59.000   78.246535451   16.035508034   491.9934   5   9   1.9313   1.7384   5.9272  -0.9077  -0.5229   1.7369   0.00    0.0
2018/03/15 11:23:00.000   78.246534164   16.035517434   492.4355   5   9   1.9311   1.7384   5.9271  -0.9076  -0.5224   1.7363   0.00    0.0
2018/03/15 11:23:01.000   78.246530179   16.035531635   491.4567   5   9   1.9309   1.7385   5.9270  -0.9076  -0.5219   1.7357   0.00    0.0
2018/03/15 11:23:02.000   78.246534250   16.035534384   491.1758   5   9   1.9307   1.7385   5.9268  -0.9076  -0.5213   1.7351   0.00    0.0
2018/03/15 11:23:03.000   78.246531090   16.035512039   491.5165   5   9   1.9306   1.7386   5.9267  -0.9075  -0.5208   1.7345   0.00    0.0
2018/03/15 11:23:04.000   78.246530089   16.035513364   491.5122   5   9   1.9304   1.7387   5.9266  -0.9075  -0.5202   1.7339   0.00    0.0
2018/03/15 11:23:05.000   78.246535249   16.035509136   491.7032   5   9   1.9302   1.7387   5.9265  -0.9074  -0.5197   1.7334   0.00    0.0
2018/03/15 11:23:06.000   78.246532847   16.035515665   490.8780   5   9   1.9301   1.7388   5.9264  -0.9074  -0.5192   1.7328   0.00    0.0
2018/03/15 11:23:07.000   78.246537600   16.035498014   492.9312   5   9   1.9299   1.7388   5.9263  -0.9074  -0.5186   1.7322   0.00    0.0
2018/03/15 11:23:08.000   78.246539427   16.035499447   492.6811   5   9   1.9297   1.7389   5.9262  -0.9073  -0.5181   1.7316   0.00    0.0
2018/03/15 11:23:09.000   78.246540696   16.035500515   490.9204   5   9   1.9295   1.7390   5.9261  -0.9073  -0.5175   1.7310   0.00    0.0
2018/03/15 11:23:10.000   78.246534576   16.035520165   490.0920   5   9   1.9294   1.7390   5.9260  -0.9073  -0.5170   1.7304   0.00    0.0
2018/03/15 11:23:11.000   78.246531816   16.035498610   491.4383   5   9   1.9292   1.7391   5.9258  -0.9072  -0.5164   1.7298   0.00    0.0
2018/03/15 11:23:12.000   78.246533163   16.035512317   492.1698   5   9   1.9290   1.7391   5.9257  -0.9072  -0.5159   1.7292   0.00    0.0
2018/03/15 11:23:13.000   78.246536070   16.035510161   492.0616   5   9   1.9289   1.7392   5.9256  -0.9071  -0.5153   1.7287   0.00    0.0
2018/03/15 11:23:14.000   78.246533929   16.035505759   491.7586   5   9   1.9287   1.7393   5.9255  -0.9071  -0.5148   1.7281   0.00    0.0
2018/03/15 11:23:15.000   78.246541957   16.035485526   491.9374   5   9   1.9285   1.7393   5.9254  -0.9071  -0.5142   1.7275   0.00    0.0
2018/03/15 11:23:16.000   78.246540713   16.035503432   492.8463   5   9   1.9283   1.7394   5.9253  -0.9070  -0.5137   1.7269   0.00    0.0
2018/03/15 11:23:17.000   78.246539713   16.035514304   493.7269   5   9   1.9282   1.7395   5.9252  -0.9070  -0.5131   1.7263   0.00    0.0
2018/03/15 11:23:18.000   78.246536164   16.035509358   492.7561   5   9   1.9280   1.7395   5.9251  -0.9070  -0.5126   1.7257   0.00    0.0
2018/03/15 11:23:19.000   78.246534318   16.035516193   492.3586   5   9   1.9278   1.7396   5.9249  -0.9069  -0.5120   1.7251   0.00    0.0
2018/03/15 11:23:20.000   78.246540580   16.035508712   492.3946   5   9   1.9277   1.7396   5.9248  -0.9069  -0.5115   1.7245   0.00    0.0
2018/03/15 11:23:21.000   78.246541416   16.035492326   492.2308   5   9   1.9275   1.7397   5.9247  -0.9068  -0.5109   1.7239   0.00    0.0
2018/03/15 11:23:22.000   78.246537531   16.035509465   492.4303   5   9   1.9273   1.7398   5.9246  -0.9068  -0.5104   1.7234   0.00    0.0
2018/03/15 11:23:23.000   78.246533198   16.035518480   492.6918   5   9   1.9272   1.7398   5.9245  -0.9068  -0.5098   1.7228   0.00    0.0
2018/03/15 11:23:24.000   78.246533198   16.035514618   491.7935   5   9   1.9270   1.7399   5.9244  -0.9067  -0.5093   1.7222   0.00    0.0
2018/03/15 11:23:25.000   78.246532175   16.035510902   492.0678   5   9   1.9268   1.7399   5.9243  -0.9067  -0.5087   1.7216   0.00    0.0
2018/03/15 11:23:26.000   78.246538482   16.035501333   491.8566   5   9   1.9266   1.7400   5.9241  -0.9067  -0.5082   1.7210   0.00    0.0
2018/03/15 11:23:27.000   78.246542051   16.035489228   492.5659   5   9   1.9265   1.7401   5.9240  -0.9066  -0.5076   1.7204   0.00    0.0
2018/03/15 11:23:28.000   78.246539669   16.035509453   493.2378   5   9   1.9263   1.7401   5.9239  -0.9066  -0.5070   1.7198   0.00    0.0
2018/03/15 11:23:29.000   78.246536937   16.035499568   491.8015   5   9   1.9261   1.7402   5.9238  -0.9065  -0.5065   1.7192   0.00    0.0
2018/03/15 11:23:30.000   78.246534439   16.035509337   492.4265   5   9   1.9260   1.7403   5.9237  -0.9065  -0.5059   1.7186   0.00    0.0
2018/03/15 11:23:31.000   78.246537746   16.035515876   493.0804   5   9   1.9258   1.7403   5.9235  -0.9065  -0.5054   1.7180   0.00    0.0
2018/03/15 11:23:32.000   78.246533971   16.035518907   492.1894   5   9   1.9256   1.7404   5.9234  -0.9064  -0.5048   1.7175   0.00    0.0
2018/03/15 11:23:33.000   78.246537824   16.035508675   491.2939   5   9   1.9255   1.7404   5.9233  -0.9064  -0.5042   1.7169   0.00    0.0
2018/03/15 11:23:34.000   78.246538378   16.035502938   491.3095   5   9   1.9253   1.7405   5.9232  -0.9064  -0.5037   1.7163   0.00    0.0
2018/03/15 11:23:35.000   78.246537043   16.035494305   491.3969   5   9   1.9251   1.7406   5.9231  -0.9063  -0.5031   1.7157   0.00    0.0
2018/03/15 11:23:36.000   78.246540327   16.035486976   491.9676   5   9   1.9249   1.7406   5.9230  -0.9063  -0.5025   1.7151   0.00    0.0
2018/03/15 11:23:37.000   78.246537950   16.035519211   490.6153   5   9   1.9248   1.7407   5.9228  -0.9062  -0.5020   1.7145   0.00    0.0
2018/03/15 11:23:38.000   78.246540501   16.035498836   492.5299   5   9   1.9246   1.7408   5.9227  -0.9062  -0.5014   1.7139   0.00    0.0
2018/03/15 11:23:39.000   78.246540094   16.035504901   492.5776   5   9   1.9244   1.7408   5.9226  -0.9062  -0.5009   1.7133   0.00    0.0
2018/03/15 11:23:40.000   78.246534922   16.035509523   492.7168   5   9   1.9243   1.7409   5.9225  -0.9061  -0.5003   1.7127   0.00    0.0
2018/03/15 11:23:41.000   78.246535421   16.035494035   492.6326   5   9   1.9241   1.7409   5.9223  -0.9061  -0.4997   1.7121   0.00    0.0
2018/03/15 11:23:42.000   78.246538032   16.035505481   492.2882   5   9   1.9239   1.7410   5.9222  -0.9061  -0.4992   1.7115   0.00    0.0
2018/03/15 11:23:43.000   78.246536504   16.035485705   491.6574   5   9   1.9238   1.7411   5.9221  -0.9060  -0.4986   1.7109   0.00    0.0
2018/03/15 11:23:44.000   78.246536324   16.035512097   491.2315   5   9   1.9236   1.7411   5.9220  -0.9060  -0.4980   1.7103   0.00    0.0
2018/03/15 11:23:45.000   78.246531991   16.035508006   491.0882   5   9   1.9234   1.7412   5.9219  -0.9059  -0.4974   1.7098   0.00    0.0
2018/03/15 11:23:46.000   78.246532073   16.035515419   491.5940   5   9   1.9233   1.7413   5.9217  -0.9059  -0.4969   1.7092   0.00    0.0
2018/03/15 11:23:47.000   78.246530800   16.035517497   491.0254   5   9   1.9231   1.7413   5.9216  -0.9059  -0.4963   1.7086   0.00    0.0
2018/03/15 11:23:48.000   78.246533666   16.035507613   491.3645   5   9   1.9229   1.7414   5.9215  -0.9058  -0.4957   1.7080   0.00    0.0
2018/03/15 11:23:49.000   78.246537464   16.035526735   492.6355   5   9   1.9228   1.7414   5.9214  -0.9058  -0.4952   1.7074   0.00    0.0
2018/03/15 11:23:50.000   78.246539982   16.035490479   492.4441   5   9   1.9226   1.7415   5.9212  -0.9058  -0.4946   1.7068   0.00    0.0
2018/03/15 11:23:51.000   78.246539552   16.035483590   491.3328   5   9   1.9224   1.7416   5.9211  -0.9057  -0.4940   1.7062   0.00    0.0
2018/03/15 11:23:52.000   78.246533773   16.035498251   490.5354   5   9   1.9223   1.7416   5.9210  -0.9057  -0.4934   1.7056   0.00    0.0
2018/03/15 11:23:53.000   78.246530198   16.035521748   490.1458   5   9   1.9221   1.7417   5.9209  -0.9057  -0.4929   1.7050   0.00    0.0
2018/03/15 11:23:54.000   78.246529258   16.035525133   490.9092   5   9   1.9219   1.7418   5.9207  -0.9056  -0.4923   1.7044   0.00    0.0
2018/03/15 11:23:55.000   78.246534386   16.035509141   490.8346   5   9   1.9218   1.7418   5.9206  -0.9056  -0.4917   1.7038   0.00    0.0
2018/03/15 11:23:56.000   78.246536237   16.035508814   492.0214   5   9   1.9216   1.7419   5.9205  -0.9055  -0.4911   1.7032   0.00    0.0
2018/03/15 11:23:57.000   78.246536140   16.035493988   491.3433   5   9   1.9214   1.7419   5.9204  -0.9055  -0.4905   1.7026   0.00    0.0
2018/03/15 11:23:58.000   78.246537796   16.035489997   490.9776   5   9   1.9213   1.7420   5.9202  -0.9055  -0.4900   1.7020   0.00    0.0
2018/03/15 11:23:59.000   78.246539971   16.035507984   491.4986   5   9   1.9211   1.7421   5.9201  -0.9054  -0.4894   1.7014   0.00    0.0
2018/03/15 11:24:00.000   78.246534148   16.035507958   490.6981   5   9   1.9209   1.7421   5.9200  -0.9054  -0.4888   1.7008   0.00    0.0
2018/03/15 11:24:01.000   78.246536575   16.035501555   491.4678   5   9   1.9208   1.7422   5.9199  -0.9054  -0.4882   1.7002   0.00    0.0
2018/03/15 11:24:02.000   78.246534295   16.035517264   490.7407   5   9   1.9206   1.7423   5.9197  -0.9053  -0.4876   1.6997   0.00    0.0
2018/03/15 11:24:03.000   78.246535790   16.035523378   490.6556   5   9   1.9204   1.7423   5.9196  -0.9053  -0.4871   1.6991   0.00    0.0
2018/03/15 11:24:04.000   78.246537519   16.035509256   490.7362   5   9   1.9203   1.7424   5.9195  -0.9053  -0.4865   1.6985   0.00    0.0
2018/03/15 11:24:05.000   78.246534673   16.035511669   490.8548   5   9   1.9201   1.7424   5.9193  -0.9052  -0.4859   1.6979   0.00    0.0
2018/03/15 11:24:06.000   78.246535998   16.035475475   490.7462   5   8   2.1004   2.0142   7.6895   0.2033   2.1734   2.6574   0.00    0.0
2018/03/15 11:24:07.000   78.246531645   16.035476472   489.6393   5   8   2.1002   2.0144   7.6902   0.2036   2.1740   2.6572   0.00    0.0
2018/03/15 11:24:08.000   78.246531076   16.035463484   488.4260   5   8   2.1000   2.0145   7.6909   0.2038   2.1746   2.6569   0.00    0.0
2018/03/15 11:24:09.000   78.246528340   16.035471959   488.6462   5   8   2.0998   2.0147   7.6917   0.2040   2.1752   2.6566   0.00    0.0
2018/03/15 11:24:10.000   78.246527181   16.035457914   487.3913   5   8   2.0996   2.0148   7.6924   0.2043   2.1759   2.6563   0.00    0.0
2018/03/15 11:24:11.000   78.246528182   16.035464279   487.8063   5   8   2.0994   2.0149   7.6931   0.2045   2.1765   2.6561   0.00    0.0
2018/03/15 11:24:12.000   78.246532526   16.035484976   487.6501   5   8   2.0992   2.0151   7.6939   0.2047   2.1771   2.6558   0.00    0.0
2018/03/15 11:24:13.000   78.246536947   16.035478097   488.9768   5   8   2.0990   2.0152   7.6946   0.2049   2.1777   2.6555   0.00    0.0
2018/03/15 11:24:14.000   78.246533389   16.035459069   486.8279   5   8   2.0989   2.0153   7.6953   0.2052   2.1783   2.6552   0.00    0.0
2018/03/15 11:24:15.000   78.246528553   16.035474905   487.7688   5   8   2.0987   2.0155   7.6960   0.2054   2.1790   2.6550   0.00    0.0
2018/03/15 11:24:16.000   78.246523890   16.035485845   487.3824   5   8   2.0985   2.0156   7.6968   0.2056   2.1796   2.6547   0.00    0.0
2018/03/15 11:24:17.000   78.246528263   16.035490172   488.5767   5   8   2.0983   2.0158   7.6975   0.2059   2.1802   2.6544   0.00    0.0
2018/03/15 11:24:18.000   78.246527998   16.035475581   489.9830   5   8   2.0981   2.0159   7.6982   0.2061   2.1808   2.6541   0.00    0.0
2018/03/15 11:24:19.000   78.246535077   16.035463935   489.9489   5   8   2.0979   2.0160   7.6990   0.2063   2.1814   2.6538   0.00    0.0
2018/03/15 11:24:20.000   78.246539314   16.035456194   488.9712   5   8   2.0977   2.0162   7.6997   0.2065   2.1821   2.6536   0.00    0.0
2018/03/15 11:24:21.000   78.246534536   16.035468276   487.4005   5   8   2.0975   2.0163   7.7004   0.2068   2.1827   2.6533   0.00    0.0
2018/03/15 11:24:22.000   78.246528511   16.035467424   487.1968   5   8   2.0973   2.0165   7.7011   0.2070   2.1833   2.6530   0.00    0.0
2018/03/15 11:24:23.000   78.246527087   16.035463223   487.6228   5   8   2.0971   2.0166   7.7019   0.2072   2.1839   2.6527   0.00    0.0
2018/03/15 11:24:24.000   78.246524336   16.035487776   488.8775   5   8   2.0969   2.0167   7.7026   0.2074   2.1845   2.6525   0.00    0.0
2018/03/15 11:24:25.000   78.246532225   16.035493514   490.5920   5   8   2.0967   2.0169   7.7033   0.2076   2.1852   2.6522   0.00    0.0
2018/03/15 11:24:26.000   78.246538756   16.035490726   492.5966   5   8   2.0965   2.0170   7.7040   0.2078   2.1858   2.6519   0.00    0.0
2018/03/15 11:24:27.000   78.246539519   16.035462737   491.1708   5   8   2.0963   2.0172   7.7047   0.2081   2.1864   2.6516   0.00    0.0
2018/03/15 11:24:28.000   78.246537395   16.035468295   488.8500   5   8   2.0961   2.0173   7.7055   0.2083   2.1870   2.6513   0.00    0.0
2018/03/15 11:24:29.000   78.246531112   16.035456606   488.0532   5   8   2.0959   2.0174   7.7062   0.2085   2.1876   2.6510   0.00    0.0
2018/03/15 11:24:30.000   78.246530756   16.035463017   488.8437   5   8   2.0957   2.0176   7.7069   0.2087   2.1883   2.6508   0.00    0.0
2018/03/15 11:24:31.000   78.246530628   16.035486918   488.7528   5   8   2.0955   2.0177   7.7076   0.2089   2.1889   2.6505   0.00    0.0
2018/03/15 11:24:32.000   78.246533399   16.035485106   488.7471   5   8   2.0953   2.0179   7.7083   0.2091   2.1895   2.6502   0.00    0.0
2018/03/15 11:24:33.000   78.246532336   16.035499184   489.6896   5   8   2.0951   2.0180   7.7091   0.2093   2.1901   2.6499   0.00    0.0
2018/03/15 11:24:34.000   78.246538526   16.035490379   492.9847   5   8   2.0949   2.0181   7.7098   0.2095   2.1907   2.6496   0.00    0.0
2018/03/15 11:24:35.000   78.246534949   16.035499709   490.8696   5   8   2.0947   2.0183   7.7105   0.2098   2.1913   2.6493   0.00    0.0
2018/03/15 11:24:36.000   78.246533393   16.035486200   489.6332   5   8   2.0945   2.0184   7.7112   0.2100   2.1920   2.6491   0.00    0.0
2018/03/15 11:24:37.000   78.246530514   16.035487812   490.0186   5   8   2.0943   2.0186   7.7119   0.2102   2.1926   2.6488   0.00    0.0
2018/03/15 11:24:38.000   78.246530526   16.035491573   490.6109   5   8   2.0941   2.0187   7.7126   0.2104   2.1932   2.6485   0.00    0.0
2018/03/15 11:24:39.000   78.246530409   16.035476718   489.2179   5   8   2.0939   2.0188   7.7134   0.2106   2.1938   2.6482   0.00    0.0
2018/03/15 11:24:40.000   78.246530063   16.035491379   488.1892   5   8   2.0937   2.0190   7.7141   0.2108   2.1944   2.6479   0.00    0.0
2018/03/15 11:24:41.000   78.246534832   16.035477816   488.0109   5   8   2.0935   2.0191   7.7148   0.2110   2.1950   2.6476   0.00    0.0
2018/03/15 11:24:42.000   78.246544804   16.035459894   490.6556   5   8   2.0933   2.0193   7.7155   0.2112   2.1956   2.6473   0.00    0.0
2018/03/15 11:24:43.000   78.246541068   16.035482631   491.3934   5   8   2.0931   2.0194   7.7162   0.2114   2.1963   2.6471   0.00    0.0
2018/03/15 11:24:44.000   78.246532526   16.035497056   489.3624   5   8   2.0929   2.0195   7.7169   0.2116   2.1969   2.6468   0.00    0.0
2018/03/15 11:24:45.000   78.246524683   16.035517839   490.2940   5   8   2.0927   2.0197   7.7176   0.2118   2.1975   2.6465   0.00    0.0
2018/03/15 11:24:46.000   78.246526644   16.035510299   489.2716   5   8   2.0925   2.0198   7.7183   0.2120   2.1981   2.6462   0.00    0.0
2018/03/15 11:24:47.000   78.246532725   16.035515494   489.5835   5   8   2.0924   2.0200   7.7190   0.2122   2.1987   2.6459   0.00    0.0
2018/03/15 11:24:48.000   78.246532589   16.035483386   490.1974   5   8   2.0922   2.0201   7.7197   0.2124   2.1993   2.6456   0.00    0.0
2018/03/15 11:24:49.000   78.246537642   16.035460514   488.1287   5   8   2.0920   2.0202   7.7204   0.2126   2.1999   2.6453   0.00    0.0
2018/03/15 11:24:50.000   78.246542096   16.035444440   489.6246   5   8   2.0918   2.0204   7.7212   0.2128   2.2005   2.6450   0.00    0.0
2018/03/15 11:24:51.000   78.246538828   16.035484903   489.5290   5   8   2.0916   2.0205   7.7219   0.2130   2.2012   2.6447   0.00    0.0
2018/03/15 11:24:52.000   78.246532283   16.035507940   489.8476   5   8   2.0914   2.0207   7.7226   0.2132   2.2018   2.6444   0.00    0.0
2018/03/15 11:24:53.000   78.246531741   16.035502030   490.3581   5   8   2.0912   2.0208   7.7233   0.2134   2.2024   2.6442   0.00    0.0
2018/03/15 11:24:54.000   78.246528395   16.035480828   486.9087   5   8   2.0910   2.0209   7.7240   0.2136   2.2030   2.6439   0.00    0.0
2018/03/15 11:24:55.000   78.246531456   16.035453639   486.9395   5   8   2.0908   2.0211   7.7247   0.2137   2.2036   2.6436   0.00    0.0
2018/03/15 11:24:56.000   78.246532441   16.035474140   485.7493   5   8   2.0906   2.0212   7.7254   0.2139   2.2042   2.6433   0.00    0.0
2018/03/15 11:24:57.000   78.246531510   16.035482055   487.4955   5   8   2.0904   2.0214   7.7261   0.2141   2.2048   2.6430   0.00    0.0
2018/03/15 11:24:58.000   78.246532177   16.035488645   489.5159   5   8   2.0902   2.0215   7.7268   0.2143   2.2054   2.6427   0.00    0.0
2018/03/15 11:24:59.000   78.246536258   16.035486253   490.3571   5   8   2.0900   2.0216   7.7275   0.2145   2.2060   2.6424   0.00    0.0
2018/03/15 11:25:00.000   78.246537649   16.035493988   490.5663   5   8   2.0898   2.0218   7.7282   0.2147   2.2067   2.6421   0.00    0.0
2018/03/15 11:25:01.000   78.246535363   16.035495322   489.3510   5   8   2.0896   2.0219   7.7289   0.2149   2.2073   2.6418   0.00    0.0
2018/03/15 11:25:02.000   78.246535767   16.035449372   488.7481   5   8   2.0894   2.0221   7.7296   0.2151   2.2079   2.6415   0.00    0.0
2018/03/15 11:25:03.000   78.246526974   16.035468731   486.1085   5   8   2.0892   2.0222   7.7303   0.2152   2.2085   2.6412   0.00    0.0
2018/03/15 11:25:04.000   78.246533891   16.035470622   487.9861   5   8   2.0890   2.0223   7.7310   0.2154   2.2091   2.6409   0.00    0.0
2018/03/15 11:25:05.000   78.246537529   16.035485414   489.5552   5   8   2.0888   2.0225   7.7317   0.2156   2.2097   2.6406   0.00    0.0
2018/03/15 11:25:06.000   78.246538138   16.035505046   490.5132   5   8   2.0886   2.0226   7.7324   0.2158   2.2103   2.6403   0.00    0.0
2018/03/15 11:25:07.000   78.246536251   16.035508292   489.4769   5   8   2.0884   2.0228   7.7330   0.2160   2.2109   2.6400   0.00    0.0
2018/03/15 11:25:08.000   78.246530405   16.035513281   487.9629   5   8   2.0882   2.0229   7.7337   0.2161   2.2115   2.6397   0.00    0.0
2018/03/15 11:25:09.000   78.246526167   16.035504884   486.5955   5   8   2.0880   2.0231   7.7344   0.2163   2.2121   2.6394   0.00    0.0
2018/03/15 11:25:10.000   78.246528105   16.035498643   488.7144   5   8   2.0878   2.0232   7.7351   0.2165   2.2127   2.6391   0.00    0.0
2018/03/15 11:25:11.000   78.246535093   16.035471717   487.9022   5   8   2.0876   2.0233   7.7358   0.2167   2.2133   2.6388   0.00    0.0
2018/03/15 11:25:12.000   78.246536914   16.035453243   488.4430   5   8   2.0874   2.0235   7.7365   0.2169   2.2140   2.6385   0.00    0.0
2018/03/15 11:25:13.000   78.246535883   16.035492286   488.4216   5   8   2.0872   2.0236   7.7372   0.2170   2.2146   2.6382   0.00    0.0
2018/03/15 11:25:14.000   78.246529537   16.035506210   488.3441   5   8   2.0870   2.0238   7.7379   0.2172   2.2152   2.6379   0.00    0.0
2018/03/15 11:25:15.000   78.246528878   16.035507781   488.5643   5   8   2.0868   2.0239   7.7386   0.2174   2.2158   2.6376   0.00    0.0
2018/03/15 11:25:16.000   78.246530204   16.035496763   487.9146   5   8   2.0866   2.0240   7.7393   0.2176   2.2164   2.6373   0.00    0.0
2018/03/15 11:25:17.000   78.246533431   16.035468245   488.2745   5   8   2.0864   2.0242   7.7399   0.2177   2.2170   2.6370   0.00    0.0
2018/03/15 11:25:18.000   78.246535550   16.035481432   489.3980   5   8   2.0862   2.0243   7.7406   0.2179   2.2176   2.6367   0.00    0.0
2018/03/15 11:25:19.000   78.246540202   16.035464052   489.5985   5   8   2.0860   2.0245   7.7413   0.2181   2.2182   2.6364   0.00    0.0
2018/03/15 11:25:20.000   78.246534679   16.035474834   488.9724   5   8   2.0858   2.0246   7.7420   0.2182   2.2188   2.6361   0.00    0.0
2018/03/15 11:25:21.000   78.246533916   16.035485879   488.0081   5   8   2.0856   2.0247   7.7427   0.2184   2.2194   2.6358   0.00    0.0
2018/03/15 11:25:22.000   78.246530328   16.035476346   487.4677   5   8   2.0854   2.0249   7.7434   0.2186   2.2200   2.6355   0.00    0.0
2018/03/15 11:25:23.000   78.246534717   16.035481227   488.7103   5   8   2.0853   2.0250   7.7440   0.2187   2.2206   2.6352   0.00    0.0
2018/03/15 11:25:24.000   78.246533162   16.035476031   489.1682   5   8   2.0851   2.0252   7.7447   0.2189   2.2212   2.6349   0.00    0.0
2018/03/15 11:25:25.000   78.246528539   16.035481568   488.0103   5   8   2.0849   2.0253   7.7454   0.2191   2.2218   2.6346   0.00    0.0
2018/03/15 11:25:26.000   78.246531726   16.035475110   487.3380   5   8   2.0847   2.0255   7.7461   0.2192   2.2224   2.6343   0.00    0.0
2018/03/15 11:25:27.000   78.246531687   16.035476972   485.1198   5   8   2.0845   2.0256   7.7468   0.2194   2.2230   2.6340   0.00    0.0
2018/03/15 11:25:28.000   78.246533834   16.035466513   487.0517   5   8   2.0843   2.0257   7.7474   0.2196   2.2236   2.6337   0.00    0.0
2018/03/15 11:25:29.000   78.246533451   16.035464150   488.2418   5   8   2.0841   2.0259   7.7481   0.2197   2.2242   2.6334   0.00    0.0
2018/03/15 11:25:30.000   78.246537151   16.035470868   488.2960   5   8   2.0839   2.0260   7.7488   0.2199   2.2248   2.6331   0.00    0.0
2018/03/15 11:25:31.000   78.246531185   16.035472786   487.5667   5   8   2.0837   2.0262   7.7495   0.2200   2.2254   2.6328   0.00    0.0
2018/03/15 11:25:32.000   78.246524428   16.035471798   486.0277   5   8   2.0835   2.0263   7.7502   0.2202   2.2260   2.6325   0.00    0.0
2018/03/15 11:25:33.000   78.246526941   16.035469166   486.2271   5   8   2.0833   2.0265   7.7508   0.2204   2.2266   2.6322   0.00    0.0
2018/03/15 11:25:34.000   78.246535239   16.035493245   488.0093   5   8   2.0831   2.0266   7.7515   0.2205   2.2272   2.6319   0.00    0.0
2018/03/15 11:25:35.000   78.246533614   16.035474320   487.7626   5   8   2.0829   2.0267   7.7522   0.2207   2.2278   2.6316   0.00    0.0
2018/03/15 11:25:36.000   78.246533733   16.035472639   487.0307   5   8   2.0827   2.0269   7.7528   0.2208   2.2284   2.6312   0.00    0.0
2018/03/15 11:25:37.000   78.246530179   16.035469350   485.9232   5   8   2.0825   2.0270   7.7535   0.2210   2.2290   2.6309   0.00    0.0
2018/03/15 11:25:38.000   78.246528839   16.035484897   486.8641   5   8   2.0823   2.0272   7.7542   0.2211   2.2296   2.6306   0.00    0.0
2018/03/15 11:25:39.000   78.246526847   16.035456858   485.7096   5   8   2.0821   2.0273   7.7549   0.2213   2.2302   2.6303   0.00    0.0
2018/03/15 11:25:40.000   78.246528719   16.035456543   486.1925   5   8   2.0819   2.0275   7.7555   0.2215   2.2308   2.6300   0.00    0.0
2018/03/15 11:25:41.000   78.246531176   16.035452042   487.0962   5   8   2.0817   2.0276   7.7562   0.2216   2.2314   2.6297   0.00    0.0
2018/03/15 11:25:42.000   78.246528286   16.035481383   485.7945   5   8   2.0815   2.0277   7.7569   0.2218   2.2320   2.6294   0.00    0.0
2018/03/15 11:25:43.000   78.246530184   16.035501783   486.6202   5   8   2.0813   2.0279   7.7575   0.2219   2.2326   2.6291   0.00    0.0
2018/03/15 11:25:44.000   78.246530401   16.035499354   487.2609   5   8   2.0811   2.0280   7.7582   0.2221   2.2332   2.6288   0.00    0.0
2018/03/15 11:25:45.000   78.246535198   16.035484917   488.2061   5   8   2.0809   2.0282   7.7589   0.2222   2.2338   2.6284   0.00    0.0
2018/03/15 11:25:46.000   78.246537096   16.035460886   487.4022   5   8   2.0807   2.0283   7.7595   0.2224   2.2344   2.6281   0.00    0.0
2018/03/15 11:25:47.000   78.246540621   16.035448999   486.6902   5   8   2.0805   2.0285   7.7602   0.2225   2.2350   2.6278   0.00    0.0
2018/03/15 11:25:48.000   78.246533283   16.035482570   488.2059   5   8   2.0803   2.0286   7.7609   0.2226   2.2356   2.6275   0.00    0.0
2018/03/15 11:25:49.000   78.246522616   16.035517014   487.0799   5   8   2.0801   2.0287   7.7615   0.2228   2.2362   2.6272   0.00    0.0
2018/03/15 11:25:50.000   78.246526412   16.035528399   488.3039   5   8   2.0799   2.0289   7.7622   0.2229   2.2368   2.6269   0.00    0.0
2018/03/15 11:25:51.000   78.246527328   16.035510131   486.6488   5   8   2.0797   2.0290   7.7628   0.2231   2.2374   2.6266   0.00    0.0
2018/03/15 11:25:52.000   78.246534385   16.035473739   488.1111   5   8   2.0795   2.0292   7.7635   0.2232   2.2380   2.6262   0.00    0.0
2018/03/15 11:25:53.000   78.246535838   16.035451933   487.0068   5   8   2.0793   2.0293   7.7642   0.2234   2.2386   2.6259   0.00    0.0
2018/03/15 11:25:54.000   78.246536037   16.035463530   487.4131   5   8   2.0791   2.0295   7.7648   0.2235   2.2392   2.6256   0.00    0.0
2018/03/15 11:25:55.000   78.246527029   16.035485267   486.1120   5   8   2.0789   2.0296   7.7655   0.2237   2.2398   2.6253   0.00    0.0
2018/03/15 11:25:56.000   78.246523914   16.035464137   484.2340   5   8   2.0787   2.0297   7.7661   0.2238   2.2404   2.6250   0.00    0.0
2018/03/15 11:25:57.000   78.246527338   16.035471697   487.1226   5   8   2.0785   2.0299   7.7668   0.2239   2.2410   2.6247   0.00    0.0
2018/03/15 11:25:58.000   78.246531919   16.035500338   487.6790   5   8   2.0783   2.0300   7.7675   0.2241   2.2416   2.6243   0.00    0.0
2018/03/15 11:25:59.000   78.246536027   16.035506291   488.6329   5   8   2.0781   2.0302   7.7681   0.2242   2.2422   2.6240   0.00    0.0
2018/03/15 11:26:00.000   78.246532894   16.035508729   487.2037   5   8   2.0779   2.0303   7.7688   0.2243   2.2427   2.6237   0.00    0.0
2018/03/15 11:26:01.000   78.246529966   16.035469213   485.0271   5   8   2.0778   2.0305   7.7694   0.2245   2.2433   2.6234   0.00    0.0
2018/03/15 11:26:02.000   78.246530109   16.035460185   485.5805   5   8   2.0776   2.0306   7.7701   0.2246   2.2439   2.6231   0.00    0.0
2018/03/15 11:26:03.000   78.246535443   16.035447403   487.3511   5   8   2.0774   2.0307   7.7707   0.2248   2.2445   2.6228   0.00    0.0
2018/03/15 11:26:04.000   78.246532744   16.035462685   486.6156   5   8   2.0772   2.0309   7.7714   0.2249   2.2451   2.6224   0.00    0.0
2018/03/15 11:26:05.000   78.246534803   16.035450990   487.7428   5   8   2.0770   2.0310   7.7720   0.2250   2.2457   2.6221   0.00    0.0
2018/03/15 11:26:06.000   78.246529652   16.035463892   485.9399   5   8   2.0768   2.0312   7.7727   0.2252   2.2463   2.6218   0.00    0.0
2018/03/15 11:26:07.000   78.246529047   16.035464401   484.6742   5   8   2.0766   2.0313   7.7733   0.2253   2.2469   2.6215   0.00    0.0
2018/03/15 11:26:08.000   78.246533590   16.035479017   487.6255   5   8   2.0764   2.0315   7.7740   0.2254   2.2475   2.6211   0.00    0.0
2018/03/15 11:26:09.000   78.246537972   16.035491056   490.4283   5   8   2.0762   2.0316   7.7746   0.2255   2.2481   2.6208   0.00    0.0
2018/03/15 11:26:10.000   78.246539534   16.035491898   489.6172   5   8   2.0760   2.0318   7.7753   0.2257   2.2487   2.6205   0.00    0.0
2018/03/15 11:26:11.000   78.246536194   16.035497700   488.9188   5   8   2.0758   2.0319   7.7759   0.2258   2.2493   2.6202   0.00    0.0
2018/03/15 11:26:12.000   78.246532593   16.035486224   488.1230   5   8   2.0756   2.0320   7.7766   0.2259   2.2498   2.6199   0.00    0.0
2018/03/15 11:26:13.000   78.246531598   16.035473322   487.1804   5   8   2.0754   2.0322   7.7772   0.2261   2.2504   2.6195   0.00    0.0
2018/03/15 11:26:14.000   78.246535830   16.035491091   487.8089   5   8   2.0752   2.0323   7.7779   0.2262   2.2510   2.6192   0.00    0.0
2018/03/15 11:26:15.000   78.246537615   16.035453045   488.3267   5   8   2.0750   2.0325   7.7785   0.2263   2.2516   2.6189   0.00    0.0
2018/03/15 11:26:16.000   78.246537824   16.035446097   488.7007   5   8   2.0748   2.0326   7.7791   0.2264   2.2522   2.6186   0.00    0.0
2018/03/15 11:26:17.000   78.246532505   16.035464236   485.0273   5   8   2.0746   2.0328   7.7798   0.2266   2.2528   2.6182   0.00    0.0
2018/03/15 11:26:18.000   78.246525480   16.035482839   486.5763   5   8   2.0744   2.0329   7.7804   0.2267   2.2534   2.6179   0.00    0.0
2018/03/15 11:26:19.000   78.246527230   16.035524215   486.9670   5   8   2.0742   2.0331   7.7811   0.2268   2.2540   2.6176   0.00    0.0
2018/03/15 11:26:20.000   78.246529391   16.035501914   489.0331   5   8   2.0740   2.0332   7.7817   0.2269   2.2546   2.6173   0.00    0.0
2018/03/15 11:26:21.000   78.246537251   16.035476271   489.1400   5   8   2.0738   2.0333   7.7823   0.2270   2.2551   2.6169   0.00    0.0
2018/03/15 11:26:22.000   78.246537885   16.035467068   487.4068   5   8   2.0736   2.0335   7.7830   0.2272   2.2557   2.6166   0.00    0.0
2018/03/15 11:26:23.000   78.246533557   16.035491229   488.1896   5   8   2.0734   2.0336   7.7836   0.2273   2.2563   2.6163   0.00    0.0
2018/03/15 11:26:24.000   78.246532145   16.035508924   488.8258   5   8   2.0732   2.0338   7.7843   0.2274   2.2569   2.6159   0.00    0.0
2018/03/15 11:26:25.000   78.246528549   16.035486163   487.1028   5   8   2.0730   2.0339   7.7849   0.2275   2.2575   2.6156   0.00    0.0
2018/03/15 11:26:26.000   78.246533958   16.035488512   487.6519   5   8   2.0728   2.0341   7.7855   0.2276   2.2581   2.6153   0.00    0.0
2018/03/15 11:26:27.000   78.246534665   16.035471187   488.8416   5   8   2.0726   2.0342   7.7862   0.2278   2.2587   2.6149   0.00    0.0
2018/03/15 11:26:28.000   78.246538081   16.035468246   489.1485   5   8   2.0724   2.0344   7.7868   0.2279   2.2592   2.6146   0.00    0.0
2018/03/15 11:26:29.000   78.246534731   16.035501684   489.3115   5   8   2.0722   2.0345   7.7874   0.2280   2.2598   2.6143   0.00    0.0
2018/03/15 11:26:30.000   78.246531686   16.035517587   489.1268   5   8   2.0720   2.0346   7.7881   0.2281   2.2604   2.6140   0.00    0.0
2018/03/15 11:26:31.000   78.246536490   16.035511551   489.6572   5   8   2.0718   2.0348   7.7887   0.2282   2.2610   2.6136   0.00    0.0
2018/03/15 11:26:32.000   78.246533969   16.035485768   487.6150   5   8   2.0716   2.0349   7.7893   0.2283   2.2616   2.6133   0.00    0.0
2018/03/15 11:26:33.000   78.246535065   16.035479479   487.2555   5   8   2.0714   2.0351   7.7899   0.2284   2.2622   2.6130   0.00    0.0
2018/03/15 11:26:34.000   78.246533754   16.035487804   487.1020   5   8   2.0712   2.0352   7.7906   0.2285   2.2628   2.6126   0.00    0.0
2018/03/15 11:26:35.000   78.246533067   16.035480326   487.7629   5   8   2.0710   2.0354   7.7912   0.2287   2.2633   2.6123   0.00    0.0
2018/03/15 11:26:36.000   78.246534118   16.035488672   488.7757   5   8   2.0708   2.0355   7.7918   0.2288   2.2639   2.6120   0.00    0.0
2018/03/15 11:26:37.000   78.246529984   16.035476378   486.3695   5   8   2.0706   2.0357   7.7925   0.2289   2.2645   2.6116   0.00    0.0
2018/03/15 11:26:38.000   78.246532100   16.035475294   487.0324   5   8   2.0704   2.0358   7.7931   0.2290   2.2651   2.6113   0.00    0.0
2018/03/15 11:26:39.000   78.246535316   16.035479255   488.7722   5   8   2.0702   2.0359   7.7937   0.2291   2.2657   2.6110   0.00    0.0
2018/03/15 11:26:40.000   78.246533323   16.035475972   487.3219   5   8   2.0700   2.0361   7.7943   0.2292   2.2663   2.6106   0.00    0.0
2018/03/15 11:26:41.000   78.246533992   16.035490488   487.6775   5   8   2.0699   2.0362   7.7950   0.2293   2.2668   2.6103   0.00    0.0
2018/03/15 11:26:42.000   78.246529451   16.035475997   485.9544   5   8   2.0697   2.0364   7.7956   0.2294   2.2674   2.6100   0.00    0.0
2018/03/15 11:26:43.000   78.246533479   16.035442607   486.8242   5   8   2.0695   2.0365   7.7962   0.2295   2.2680   2.6096   0.00    0.0
2018/03/15 11:26:44.000   78.246536952   16.035428778   487.3786   5   8   2.0693   2.0367   7.7968   0.2296   2.2686   2.6093   0.00    0.0
2018/03/15 11:26:45.000   78.246535297   16.035434902   486.7282   5   8   2.0691   2.0368   7.7974   0.2297   2.2692   2.6089   0.00    0.0
2018/03/15 11:26:46.000   78.246534215   16.035476956   487.8896   5   8   2.0689   2.0370   7.7981   0.2298   2.2697   2.6086   0.00    0.0
2018/03/15 11:26:47.000   78.246529103   16.035488725   489.0260   5   8   2.0687   2.0371   7.7987   0.2299   2.2703   2.6083   0.00    0.0
2018/03/15 11:26:48.000   78.246523004   16.035496243   486.7030   5   8   2.0685   2.0373   7.7993   0.2300   2.2709   2.6079   0.00    0.0
2018/03/15 11:26:49.000   78.246527485   16.035504170   488.2887   5   8   2.0683   2.0374   7.7999   0.2301   2.2715   2.6076   0.00    0.0
2018/03/15 11:26:50.000   78.246536851   16.035480797   488.4847   5   8   2.0681   2.0375   7.8005   0.2302   2.2721   2.6072   0.00    0.0
2018/03/15 11:26:51.000   78.246538653   16.035479615   489.9624   5   8   2.0679   2.0377   7.8011   0.2303   2.2726   2.6069   0.00    0.0
2018/03/15 11:26:52.000   78.246538063   16.035482015   490.9692   5   8   2.0677   2.0378   7.8018   0.2304   2.2732   2.6066   0.00    0.0
2018/03/15 11:26:53.000   78.246535941   16.035474358   488.2283   5   8   2.0675   2.0380   7.8024   0.2305   2.2738   2.6062   0.00    0.0
2018/03/15 11:26:54.000   78.246534154   16.035469793   488.3733   5   8   2.0673   2.0381   7.8030   0.2306   2.2744   2.6059   0.00    0.0
2018/03/15 11:26:55.000   78.246532773   16.035469937   488.0319   5   8   2.0671   2.0383   7.8036   0.2307   2.2749   2.6055   0.00    0.0
2018/03/15 11:26:56.000   78.246534369   16.035482464   489.7064   5   8   2.0669   2.0384   7.8042   0.2308   2.2755   2.6052   0.00    0.0
2018/03/15 11:26:57.000   78.246531755   16.035518712   491.0464   5   8   2.0667   2.0386   7.8048   0.2309   2.2761   2.6049   0.00    0.0
2018/03/15 11:26:58.000   78.246530155   16.035520322   489.6865   5   8   2.0665   2.0387   7.8054   0.2310   2.2767   2.6045   0.00    0.0
2018/03/15 11:26:59.000   78.246530884   16.035501738   489.6160   5   8   2.0663   2.0389   7.8060   0.2311   2.2773   2.6042   0.00    0.0
2018/03/15 11:27:00.000   78.246535717   16.035479697   488.8890   5   8   2.0661   2.0390   7.8066   0.2312   2.2778   2.6038   0.00    0.0
2018/03/15 11:27:01.000   78.246539821   16.035473822   489.7678   5   8   2.0659   2.0391   7.8072   0.2313   2.2784   2.6035   0.00    0.0
2018/03/15 11:27:02.000   78.246537496   16.035474141   490.2423   5   8   2.0657   2.0393   7.8079   0.2314   2.2790   2.6031   0.00    0.0
2018/03/15 11:27:03.000   78.246530428   16.035500602   490.4123   5   8   2.0655   2.0394   7.8085   0.2314   2.2796   2.6028   0.00    0.0
2018/03/15 11:27:04.000   78.246533502   16.035494314   490.8448   5   8   2.0653   2.0396   7.8091   0.2315   2.2801   2.6025   0.00    0.0
2018/03/15 11:27:05.000   78.246526230   16.035505885   487.8483   5   8   2.0651   2.0397   7.8097   0.2316   2.2807   2.6021   0.00    0.0
2018/03/15 11:27:06.000   78.246528505   16.035476880   487.8124   5   8   2.0649   2.0399   7.8103   0.2317   2.2813   2.6018   0.00    0.0
2018/03/15 11:27:07.000   78.246536774   16.035471555   488.9915   5   8   2.0647   2.0400   7.8109   0.2318   2.2819   2.6014   0.00    0.0
2018/03/15 11:27:08.000   78.246540522   16.035475364   489.2809   5   8   2.0645   2.0402   7.8115   0.2319   2.2824   2.6011   0.00    0.0
2018/03/15 11:27:09.000   78.246539256   16.035479500   490.0103   5   8   2.0643   2.0403   7.8121   0.2320   2.2830   2.6007   0.00    0.0
2018/03/15 11:27:10.000   78.246536837   16.035486456   491.3178   5   8   2.0641   2.0405   7.8127   0.2320   2.2836   2.6004   0.00    0.0
2018/03/15 11:27:11.000   78.246532305   16.035474850   491.6571   5   8   2.0639   2.0406   7.8133   0.2321   2.2841   2.6000   0.00    0.0
2018/03/15 11:27:12.000   78.246529874   16.035462065   490.6576   5   8   2.0637   2.0408   7.8139   0.2322   2.2847   2.5997   0.00    0.0
2018/03/15 11:27:13.000   78.246538199   16.035466708   491.3164   5   7   2.3797   2.2341   9.8452  -1.0116  -0.4692   3.7221   0.00    0.0
2018/03/15 11:27:14.000   78.246535803   16.035477648   488.7763   5   7   2.3795   2.2341   9.8471  -1.0114  -0.4669   3.7222   0.00    0.0
2018/03/15 11:27:15.000   78.246531975   16.035468717   487.8500   5   7   2.3793   2.2342   9.8490  -1.0111  -0.4645   3.7223   0.00    0.0
2018/03/15 11:27:16.000   78.246528381   16.035479751   489.8807   5   7   2.3791   2.2342   9.8509  -1.0109  -0.4621   3.7224   0.00    0.0
2018/03/15 11:27:17.000   78.246532562   16.035492629   490.4850   5   7   2.3789   2.2342   9.8528  -1.0107  -0.4597   3.7225   0.00    0.0
2018/03/15 11:27:18.000   78.246531021   16.035496019   489.5237   5   7   2.3787   2.2342   9.8547  -1.0105  -0.4573   3.7226   0.00    0.0
2018/03/15 11:27:19.000   78.246532810   16.035496830   489.2373   5   7   2.3785   2.2342   9.8566  -1.0103  -0.4549   3.7226   0.00    0.0
2018/03/15 11:27:20.000   78.246538786   16.035481890   489.1863   5   8   2.0621   2.0419   7.8186   0.2329   2.2893   2.5969   0.00    0.0
2018/03/15 11:27:21.000   78.246536985   16.035485853   490.3474   5   8   2.0620   2.0421   7.8192   0.2329   2.2899   2.5965   0.00    0.0
2018/03/15 11:27:22.000   78.246534121   16.035516948   490.2334   5   8   2.0618   2.0422   7.8198   0.2330   2.2904   2.5962   0.00    0.0
2018/03/15 11:27:23.000   78.246532374   16.035496903   490.0433   5   8   2.0616   2.0424   7.8204   0.2331   2.2910   2.5958   0.00    0.0
2018/03/15 11:27:24.000   78.246532614   16.035500820   488.6738   5   8   2.0614   2.0425   7.8210   0.2332   2.2916   2.5955   0.00    0.0
2018/03/15 11:27:25.000   78.246534975   16.035492040   488.9912   5   8   2.0612   2.0427   7.8216   0.2332   2.2921   2.5951   0.00    0.0
2018/03/15 11:27:26.000   78.246537989   16.035486681   488.8322   5   8   2.0610   2.0428   7.8222   0.2333   2.2927   2.5948   0.00    0.0
2018/03/15 11:27:27.000   78.246535654   16.035516179   491.6925   5   8   2.0608   2.0429   7.8227   0.2334   2.2933   2.5944   0.00    0.0
2018/03/15 11:27:28.000   78.246533262   16.035512387   490.3800   5   8   2.0606   2.0431   7.8233   0.2334   2.2938   2.5940   0.00    0.0
2018/03/15 11:27:29.000   78.246532553   16.035497497   489.8557   5   8   2.0604   2.0432   7.8239   0.2335   2.2944   2.5937   0.00    0.0
2018/03/15 11:27:30.000   78.246532267   16.035467035   488.0492   5   8   2.0602   2.0434   7.8245   0.2336   2.2950   2.5933   0.00    0.0
2018/03/15 11:27:31.000   78.246535017   16.035467605   489.2051   5   8   2.0600   2.0435   7.8251   0.2337   2.2955   2.5930   0.00    0.0
2018/03/15 11:27:32.000   78.246533697   16.035542237   490.3183   5   8   2.0598   2.0437   7.8257   0.2337   2.2961   2.5926   0.00    0.0
2018/03/15 11:27:33.000   78.246533544   16.035528709   490.8651   5   8   2.0596   2.0438   7.8262   0.2338   2.2967   2.5923   0.00    0.0
2018/03/15 11:27:34.000   78.246534377   16.035484685   489.3524   5   8   2.0594   2.0440   7.8268   0.2339   2.2972   2.5919   0.00    0.0
2018/03/15 11:27:35.000   78.246534670   16.035481174   488.1984   5   8   2.0592   2.0441   7.8274   0.2339   2.2978   2.5915   0.00    0.0
2018/03/15 11:27:36.000   78.246537352   16.035470762   488.4647   5   8   2.0590   2.0443   7.8280   0.2340   2.2984   2.5912   0.00    0.0
2018/03/15 11:27:37.000   78.246534827   16.035492040   488.4332   5   8   2.0588   2.0444   7.8286   0.2341   2.2989   2.5908   0.00    0.0
2018/03/15 11:27:38.000   78.246527860   16.035522282   489.7926   5   8   2.0586   2.0446   7.8291   0.2341   2.2995   2.5905   0.00    0.0
2018/03/15 11:27:39.000   78.246529519   16.035541026   491.2920   5   8   2.0584   2.0447   7.8297   0.2342   2.3001   2.5901   0.00    0.0
2018/03/15 11:27:40.000   78.246533184   16.035518434   491.2926   5   8   2.0582   2.0449   7.8303   0.2342   2.3006   2.5897   0.00    0.0
2018/03/15 11:27:41.000   78.246538855   16.035490690   489.8861   5   8   2.0580   2.0450   7.8309   0.2343   2.3012   2.5894   0.00    0.0
2018/03/15 11:27:42.000   78.246536040   16.035469839   489.1995   5   8   2.0578   2.0452   7.8314   0.2344   2.3018   2.5890   0.00    0.0
2018/03/15 11:27:43.000   78.246536043   16.035455502   487.4625   5   8   2.0576   2.0453   7.8320   0.2344   2.3023   2.5887   0.00    0.0
2018/03/15 11:27:44.000   78.246530514   16.035490599   486.7204   5   8   2.0574   2.0454   7.8326   0.2345   2.3029   2.5883   0.00    0.0
2018/03/15 11:27:45.000   78.246529851   16.035487515   488.6207   5   8   2.0572   2.0456   7.8332   0.2345   2.3034   2.5879   0.00    0.0
2018/03/15 11:27:46.000   78.246532256   16.035479239   489.3849   5   8   2.0570   2.0457   7.8337   0.2346   2.3040   2.5876   0.00    0.0
2018/03/15 11:27:47.000   78.246529689   16.035499572   488.9820   5   8   2.0568   2.0459   7.8343   0.2347   2.3046   2.5872   0.00    0.0
2018/03/15 11:27:48.000   78.246530913   16.035486321   487.9771   5   8   2.0566   2.0460   7.8349   0.2347   2.3051   2.5868   0.00    0.0
2018/03/15 11:27:49.000   78.246531760   16.035480763   489.6173   5   8   2.0564   2.0462   7.8354   0.2348   2.3057   2.5865   0.00    0.0
2018/03/15 11:27:50.000   78.246537632   16.035497194   490.5866   5   8   2.0562   2.0463   7.8360   0.2348   2.3062   2.5861   0.00    0.0
2018/03/15 11:27:51.000   78.246538044   16.035503124   490.7190   5   8   2.0560   2.0465   7.8366   0.2349   2.3068   2.5857   0.00    0.0
2018/03/15 11:27:52.000   78.246539144   16.035503528   491.0860   5   8   2.0558   2.0466   7.8371   0.2349   2.3074   2.5854   0.00    0.0
2018/03/15 11:27:53.000   78.246542375   16.035503452   492.5224   5   8   2.0556   2.0468   7.8377   0.2350   2.3079   2.5850   0.00    0.0
2018/03/15 11:27:54.000   78.246535897   16.035502086   490.1609   5   8   2.0554   2.0469   7.8383   0.2350   2.3085   2.5847   0.00    0.0
2018/03/15 11:27:55.000   78.246530109   16.035495183   488.2938   5   8   2.0552   2.0471   7.8388   0.2351   2.3090   2.5843   0.00    0.0
2018/03/15 11:27:56.000   78.246532113   16.035478372   487.2527   5   8   2.0550   2.0472   7.8394   0.2351   2.3096   2.5839   0.00    0.0
2018/03/15 11:27:57.000   78.246533890   16.035482446   487.7481   5   8   2.0548   2.0474   7.8399   0.2352   2.3102   2.5836   0.00    0.0
2018/03/15 11:27:58.000   78.246534047   16.035495062   489.9729   5   8   2.0546   2.0475   7.8405   0.2352   2.3107   2.5832   0.00    0.0
2018/03/15 11:27:59.000   78.246538985   16.035491446   491.9783   5   8   2.0544   2.0477   7.8411   0.2353   2.3113   2.5828   0.00    0.0
2018/03/15 11:28:00.000   78.246538462   16.035485628   489.9581   5   8   2.0543   2.0478   7.8416   0.2353   2.3118   2.5824   0.00    0.0
2018/03/15 11:28:01.000   78.246535963   16.035500333   489.3142   5   8   2.0541   2.0480   7.8422   0.2354   2.3124   2.5821   0.00    0.0
2018/03/15 11:28:02.000   78.246537403   16.035504199   489.2432   5   8   2.0539   2.0481   7.8427   0.2354   2.3130   2.5817   0.00    0.0
2018/03/15 11:28:03.000   78.246533238   16.035487116   489.3844   5   7   2.2116   2.7939   9.8670   1.2709   4.0899   3.4026   0.00    0.0
2018/03/15 11:28:04.000   78.246531399   16.035496755   488.9222   5   7   2.2112   2.7937   9.8654   1.2703   4.0892   3.4013   0.00    0.0
2018/03/15 11:28:05.000   78.246530644   16.035484541   488.3653   5   7   2.2108   2.7936   9.8639   1.2697   4.0885   3.4001   0.00    0.0
2018/03/15 11:28:06.000   78.246534526   16.035506435   489.0916   5   7   2.2103   2.7934   9.8623   1.2690   4.0877   3.3988   0.00    0.0
2018/03/15 11:28:07.000   78.246535159   16.035510092   489.4920   5   7   2.2099   2.7932   9.8608   1.2684   4.0870   3.3975   0.00    0.0
2018/03/15 11:28:08.000   78.246536552   16.035508657   490.2313   5   7   2.2095   2.7931   9.8593   1.2678   4.0863   3.3962   0.00    0.0
2018/03/15 11:28:09.000   78.246534679   16.035482338   489.3526   5   8   2.0525   2.0491   7.8466   0.2357   2.3168   2.5791   0.00    0.0
2018/03/15 11:28:10.000   78.246539225   16.035465926   487.9377   5   8   2.0523   2.0493   7.8472   0.2358   2.3174   2.5787   0.00    0.0
2018/03/15 11:28:11.000   78.246533373   16.035481094   489.0521   5   8   2.0521   2.0494   7.8477   0.2358   2.3180   2.5784   0.00    0.0
2018/03/15 11:28:12.000   78.246531501   16.035486838   488.7882   5   8   2.0519   2.0496   7.8483   0.2359   2.3185   2.5780   0.00    0.0
2018/03/15 11:28:13.000   78.246529508   16.035508665   487.7015   5   8   2.0517   2.0497   7.8488   0.2359   2.3191   2.5776   0.00    0.0
2018/03/15 11:28:14.000   78.246531448   16.035517494   489.6707   5   8   2.0515   2.0499   7.8493   0.2359   2.3196   2.5772   0.00    0.0
2018/03/15 11:28:15.000   78.246535264   16.035509788   490.3579   5   8   2.0513   2.0500   7.8499   0.2360   2.3202   2.5769   0.00    0.0
2018/03/15 11:28:16.000   78.246539941   16.035469013   489.4598   5   8   2.0511   2.0502   7.8504   0.2360   2.3207   2.5765   0.00    0.0
2018/03/15 11:28:17.000   78.246538196   16.035446060   488.0920   5   8   2.0509   2.0503   7.8510   0.2361   2.3213   2.5761   0.00    0.0
2018/03/15 11:28:18.000   78.246526402   16.035460794   486.4590   5   8   2.0507   2.0505   7.8515   0.2361   2.3218   2.5757   0.00    0.0
2018/03/15 11:28:19.000   78.246527607   16.035477286   487.1873   5   8   2.0505   2.0506   7.8521   0.2361   2.3224   2.5754   0.00    0.0
2018/03/15 11:28:20.000   78.246527075   16.035498765   489.1752   5   7   2.2043   2.7912   9.8408   1.2603   4.0775   3.3810   0.00    0.0
2018/03/15 11:28:21.000   78.246525347   16.035508443   488.5773   5   6   2.6645   2.8104  12.8993   1.0458   3.7248   4.8901   0.00    0.0
2018/03/15 11:28:22.000   78.246526345   16.035483617   487.6962   5   6   2.6638   2.8102  12.8982   1.0450   3.7239   4.8888   0.00    0.0
2018/03/15 11:28:23.000   78.246532487   16.035453604   488.0006   5   6   2.6632   2.8101  12.8970   1.0443   3.7230   4.8876   0.00    0.0
2018/03/15 11:28:24.000   78.246537934   16.035431035   489.2547   5   6   2.6626   2.8099  12.8959   1.0436   3.7221   4.8863   0.00    0.0
2018/03/15 11:28:25.000   78.246541386   16.035468102   491.3734   5   6   2.6619   2.8098  12.8947   1.0428   3.7212   4.8850   0.00    0.0
2018/03/15 11:28:26.000   78.246540390   16.035500535   492.0042   5   6   2.6613   2.8096  12.8935   1.0421   3.7203   4.8837   0.00    0.0
2018/03/15 11:28:27.000   78.246533499   16.035520134   491.8119   5   6   2.6607   2.8095  12.8924   1.0413   3.7193   4.8824   0.00    0.0
2018/03/15 11:28:28.000   78.246526296   16.035496418   489.4820   5   6   2.6600   2.8093  12.8912   1.0406   3.7184   4.8811   0.00    0.0
2018/03/15 11:28:29.000   78.246524385   16.035498006   488.3243   5   6   2.6594   2.8092  12.8901   1.0399   3.7175   4.8798   0.00    0.0
2018/03/15 11:28:30.000   78.246526295   16.035493993   488.5098   5   6   2.6588   2.8090  12.8889   1.0391   3.7166   4.8785   0.00    0.0
2018/03/15 11:28:31.000   78.246533777   16.035488300   488.3972   5   6   2.6581   2.8089  12.8877   1.0384   3.7157   4.8772   0.00    0.0
