     2.11           OBSERVATION DATA    M (MIXED)           RINEX VERSION / TYPE
teqc  2018Mar15                         20180319 14:17:33UTCPGM / RUN BY / DATE
Linux 2.6.32-573.12.1.x86_64|x86_64|gcc -static|Linux 64|=+ COMMENT
END OF STATIC MODE OBSERVATION                              COMMENT
BIT 2 OF LLI FLAGS DATA COLLECTED UNDER A/S CONDITION       COMMENT
-Unknown-                                                   MARKER NAME
4625                                                        MARKER NUMBER
-Unknown-           -Unknown-                               OBSERVER / AGENCY
5127468778          TRIMBLE             4.63                REC # / TYPE / VERS
47477114                            NONE                    ANT # / TYPE
  6378137.0000        0.0000        0.0000                  APPROX POSITION XYZ
        0.0000        0.0000        0.0000                  ANTENNA: DELTA H/E/N
     1     1                                                WAVELENGTH FACT L1/2
     7    L1    L2    C1    P1    P2    S1    S2            # / TYPES OF OBSERV
    18                                                      LEAP SECONDS
 SNR is mapped to RINEX snr flag value [0-9]                COMMENT
  L1 & L2: min(max(int(snr_dBHz/6), 0), 9)                  COMMENT
  2018     3    15    11    21   35.0000000     GPS         TIME OF FIRST OBS
                                                            END OF HEADER
 18  3 15 11 21 35.0000000  0 14R09R10R01G24R16R17R18G08G11G30G28G10
                                G15G13
                  80839015.499 7  19463851.875                    19463851.926
                        42.500
                                  22226473.422

                  88067769.222 5  21182008.766                    21182011.859
                        31.600
 122787669.219 5                  23365718.430
        32.600
                  88117669.300 5  21208904.859                    21208906.547
                        33.300
                  86268707.233 6  20727475.805                    20727478.086
                        37.900
                  88249480.473 6  21255560.313                    21255562.090
                        37.300
 120912750.429 6  94217742.95642  23008931.820                    23008938.305
        36.600          16.300
 123404914.233 6                  23483174.625
        36.600
 124990182.774 5                  23784832.438
        34.600
 112690143.699 7  87810513.92844  21444222.141                    21444224.238
        46.300          29.400
 119626926.266 6  93215801.56743  22764245.266                    22764252.219
        36.400          21.100
 112449529.022 8  87622990.61645  21398434.422                    21398437.859
        52.600          35.800
 115021764.289 8  89627351.50945  21887914.133                    21887916.363
        48.800          30.800
 18  3 15 11 21 36.0000000  0 14R09R10R01G24R16R17R18G08G11G30G28G10
                                G15G13
                  80838694.030 7  19463774.523                    19463773.770
                        42.400
                  92147812.06614  22225750.531                    22225751.148
                        26.800
                  88065752.975 5  21181522.828                    21181526.578
                        32.500
 122784498.646 5                  23365114.867
        33.700
                  88120738.243 5  21209643.602                    21209644.871
                        33.700
                  86269926.014 6  20727768.531                    20727770.527
                        38.100
                  88247520.724 6  21255088.469                    21255090.566
                        37.400
 120915294.183 6  94219725.08742  23009416.344                    23009422.375
        36.400          15.600
 123402662.018 6                  23482745.930
        36.600
 124994135.692 5                  23785585.195
        34.600
 112690708.771 7  87810954.23944  21444329.328                    21444332.141
        46.500          28.900
 119625340.938 6  93214566.28943  22763944.828                    22763950.250
        37.700          20.600
 112450916.503 8  87624071.78145  21398698.156                    21398701.414
        52.700          35.300
 115024703.160 8  89629641.52345  21888473.281                    21888475.602
        49.100          30.600
 18  3 15 11 21 37.0000000  0 14R09R10R01G24R16R17R18G08G11G30G28G10
                                G15G13
                  80838373.279 7  19463697.180                    19463697.258
                        42.300
                  92144811.94814  22225028.742                    22225027.832
                        27.500
                  88063737.332 5  21181038.398                    21181041.688
                        33.200
 122781328.427 5                  23364511.781
        33.300
                  88123807.591 5  21210382.023                    21210384.082
                        33.500
                  86271145.569 6  20728061.547                    20728063.953
                        37.900
                  88245561.607 6  21254616.938                    21254618.836
                        37.300
 120917838.647 6  94221707.76542  23009899.711                    23009906.195
        36.700          15.600
 123400410.369 6                  23482318.117
        36.800
 124998088.887 5                  23786337.063
        34.800
 112691274.498 7  87811395.07244  21444436.992                    21444439.258
        46.500          29.800
 119623756.320 6  93213331.57043  22763644.180                    22763648.809
        39.900          21.100
 112452304.728 8  87625153.51345  21398962.125                    21398965.766
        52.500          35.400
 115027642.624 8  89631932.01245  21889032.555                    21889035.082
        49.500          30.800
 18  3 15 11 21 38.0000000  0 13R09R01G24R16R17R18G08G11G30G28G10G15
                                G13
                  80838053.169 7  19463620.336                    19463620.313
                        42.300
                  88061722.224 5  21180553.172                    21180557.453
                        33.200
 122778158.419 5                  23363908.578
        33.100
                  88126877.313 5  21211121.203                    21211122.953
                        33.300
                  86272365.855 6  20728355.695                    20728357.172
                        37.900
                  88243603.057 6  21254144.375                    21254146.844
                        37.800
 120920383.674 6  94223690.92342  23010384.258                    23010390.762
        37.200          15.600
 123398159.282 6                  23481889.414
        36.400
 125002042.309 5                  23787088.836
        34.800
 112691840.844 7  87811836.38345  21444544.734                    21444547.277
        47.100          30.000
 119622172.317 6  93212097.32243  22763343.063                    22763347.578
        41.800          20.900
 112453693.610 8  87626235.75245  21399226.516                    21399229.969
        52.200          35.400
 115030582.618 8  89634222.93644  21889591.328                    21889594.551
        48.800          29.200
 18  3 15 11 21 39.0000000  0 13R09R01G24R16R17R18G08G11G30G28G10G15
                                G13
                  80837733.741 7  19463543.211                    19463543.109
                        42.400
                  88059707.653 5  21180069.125                    21180072.297
                        33.100
 122774988.805 5                  23363305.742
        32.500
                  88129947.412 5  21211861.141                    21211862.082
                        33.700
                  86273586.856 6  20728648.289                    20728650.410
                        38.000
                  88241645.066 6  21253673.844                    21253675.820
                        37.200
 120922929.181 6  94225674.46342  23010868.586                    23010874.863
        36.800          16.300
 123395908.726 5                  23481460.477
        35.800
 125005995.953 5                  23787841.500
        34.400
 112692407.793 7  87812278.16345  21444653.313                    21444655.258
        46.800          30.000
 119620588.916 7  93210863.49243  22763041.578                    22763046.074
        42.000          21.100
 112455083.199 8  87627318.54245  21399490.930                    21399494.660
        51.800          35.500
 115033523.146 8  89636514.26645  21890150.367                    21890154.082
        48.400          31.300
 18  3 15 11 21 40.0000000  0 13R09R01G24R16R17R18G08G11G30G28G10G15
                                G13
                  80837414.950 7  19463466.398                    19463466.633
                        42.400
                  88057693.597 5  21179585.141                    21179588.266
                        33.300
 122771819.414 5                  23362702.047
        34.100
                  88133017.882 5  21212599.344                    21212601.031
                        33.100
                  86274808.580 6  20728942.734                    20728943.625
                        38.600
                  88239687.647 6  21253201.844                    21253204.316
                        37.300
 120925475.312 6  94227658.46342  23011353.039                    23011359.738
        37.500          16.300
 123393658.727 6                  23481032.891
        36.400
 125009949.896 5                  23788594.453
        34.400
 112692975.322 7  87812720.39045  21444760.586                    21444763.215
        46.700          30.200
 119619006.096 6  93209630.09043  22762739.969                    22762745.016
        41.600          21.500
 112456473.460 8  87628401.85445  21399755.719                    21399758.773
        51.900          35.200
 115036464.220 7  89638806.01345  21890709.531                    21890713.820
        47.600          30.500
 18  3 15 11 21 41.0000000  0 13R09R01G24R16R17R18G08G11G30G28G10G15
                                G13
                  80837096.827 7  19463389.320                    19463389.711
                        42.300
                  88055680.054 5  21179100.039                    21179103.871
                        33.800
 122768650.333 5                  23362098.773
        35.300
                  88136088.746 5  21213339.531                    21213340.254
                        32.300
                  86276031.042 6  20729236.391                    20729237.520
                        38.700
                  88237730.760 6  21252731.047                    21252732.719
                        36.700
 120928021.970 6  94229642.85542  23011837.656                    23011844.016
        37.200          16.900
 123391409.276 5                  23480604.688
        35.900
 125013903.966 5                  23789346.477
        35.200
 112693543.483 7  87813163.11445  21444868.789                    21444871.441
        47.200          30.300
 119617423.908 6  93208397.18143  22762437.938                    22762443.840
        39.200          21.100
 112457864.397 8  87629485.69445  21400020.445                    21400023.590
        52.300          35.500
 115039405.847 7  89641098.18844  21891269.734                    21891273.230
        47.800          29.600
 18  3 15 11 21 42.0000000  0 14R09R10R01G24R16R17R18G08G11G30G28G10
                                G15G13
                  80836779.354 7  19463313.906                    19463313.730
                        42.900
                  92129815.43714  22221409.031                    22221410.906
                        26.600
                  88053667.025 5  21178614.695                    21178619.520
                        33.400
 122765481.528 5                  23361495.461
        34.800
                  88139160.082 5  21214077.633                    21214079.477
                        32.900
                  86277254.219 6  20729530.109                    20729531.238
                        38.700
                  88235774.602 6  21252259.531                    21252261.484
                        37.100
 120930569.176 6  94231627.69042  23012322.133                    23012329.094
        37.400          16.300
 123389160.351 6                  23480176.523
        36.200
 125017858.420 5                  23790098.227
        32.600
 112694112.198 7  87813606.27144  21444977.297                    21444979.500
        46.100          28.300
 119615842.228 5  93207164.67443  22762136.031                    22762143.344
        35.400          20.100
 112459256.006 8  87630570.06345  21400285.289                    21400288.535
        52.000          35.600
 115042347.981 8  89643390.75345  21891830.570                    21891833.133
        48.500          30.500
 18  3 15 11 21 43.0000000  0 14R09R10R01G24R16R17R18G08G11G30G28G10
                                G15G13
                  80836462.512 7  19463237.695                    19463237.055
                        42.800
                                  22220686.336

                  88051654.570 5  21178132.281                    21178135.172
                        34.500
 122762313.035 6                  23360892.758
        36.200
                  88142231.682 5  21214817.328                    21214819.109
                        32.900
                  86278478.073 6  20729823.797                    20729824.988
                        38.300
                  88233818.867 6  21251788.852                    21251789.957
                        37.400
 120933116.933 6  94233612.93642  23012807.250                    23012814.020
        36.600          16.300
 123386911.909 6                  23479748.953
        36.900
 125021813.040 5                  23790852.555
        31.900
 112694681.510 7  87814049.89344  21445085.719                    21445088.023
        46.100          29.100
 119614261.133 5  93205932.68543  22761835.281                    22761842.680
        35.600          19.900
 112460648.270 8  87631654.94746  21400550.297                    21400553.719
        52.000          36.100
 115045290.605 8  89645683.69445  21892390.680                    21892393.211
        49.600          32.300
 18  3 15 11 21 44.0000000  0 13R09R01G24R16R17R18G08G11G30G28G10G15
                                G13
                  80836146.394 7  19463160.883                    19463161.309
                        42.300
                  88049642.660 5  21177647.867                    21177651.914
                        34.700
 122759144.778 5                  23360288.266
        32.400
                  88145303.696 5  21215556.609                    21215558.406
                        33.500
                  86279702.680 6  20730118.609                    20730119.410
                        38.700
                  88231863.736 6  21251317.367                    21251319.211
                        37.000
 120935665.301 6  94235598.69642  23013292.617                    23013298.273
        36.700          15.600
 123384664.101 6                  23479321.484
        36.000
 125025768.34915                  23791605.453
        30.700
 112695251.477 7  87814494.02044  21445193.563                    21445196.043
        45.700          28.900
 119612680.703 6  93204701.24843  22761535.188                    22761540.906
        37.600          20.100
 112462041.279 8  87632740.42045  21400815.039                    21400818.797
        51.700          35.000
 115048233.804 8  89647977.08345  21892950.828                    21892953.211
        50.700          32.600
 18  3 15 11 21 45.0000000  0 13R09R01G24R16R17R18G08G11G30G28G10G15
                                G13
                  80835830.925 7  19463084.969                    19463084.793
                        42.400
                  88047631.248 5  21177164.422                    21177168.586
                        35.100
 122755977.032 5                  23359686.125
        31.200
                  88148376.106 5  21216296.703                    21216297.652
                        33.000
                  86280928.003 6  20730413.602                    20730413.641
                        38.500
                  88229909.210 6  21250845.273                    21250848.648
                        37.900
 120938214.291 6  94237584.87542  23013777.031                    23013783.996
        37.600          14.800
 123382416.814 5                  23478893.922
        35.900
 125029723.073 5                  23792357.188
        32.400
 112695822.016 7  87814938.60044  21445301.977                    21445304.844
        46.300          27.300
 119611100.876 6  93203470.29743  22761235.648                    22761240.488
        39.700          20.600
 112463434.953 8  87633826.40645  21401080.461                    21401084.160
        52.000          35.500
 115051177.510 8  89650270.87745  21893510.320                    21893513.305
        50.900          31.700
 18  3 15 11 21 46.0000000  0 12R09R01G24R16R17R18G08G11G28G10G15G13
                  80835516.118 6  19463008.922                    19463009.496
                        40.400
                  88045620.350 5  21176681.109                    21176684.453
                        34.000
 122752809.35815                  23359083.344
        32.800
                  88151448.852 5  21217036.992                    21217036.094
                        32.000
                  86282154.055 6  20730708.148                    20730709.023
                        38.000
                  88227955.205 6  21250374.750                    21250378.043
                        36.300
 120940763.801 6  94239571.47042  23014261.797                    23014269.086
        37.100          14.800
 123380170.113 5                  23478466.492
        34.600
 112696393.100 8  87815383.58446  21445411.070                    21445413.719
        51.200          37.500
 119609521.594 6  93202239.72543  22760935.797                    22760939.898
        39.900          21.700
 112464829.271 8  87634912.89145  21401345.555                    21401349.355
        52.200          34.700
 115054121.475 6  89652564.88643  21894070.930                    21894073.918
        41.100          21.800
 18  3 15 11 21 47.0000000  0 12R09R01G24R16R17R18G08G11G30G28G10G15
                  80835201.945 6  19462933.609                    19462933.824
                        39.700
                  88043610.004 5  21176197.797                    21176201.133
                        33.800
 122749642.191 5                  23358481.180
        35.400
                  88154522.001 5  21217776.477                    21217777.188
                        30.900
                  86283380.867 6  20731002.109                    20731003.504
                        38.100
                  88226001.892 6  21249905.789                    21249907.098
                        36.200
 120943313.877 6  94241558.56242  23014747.164                    23014754.344
        36.500          14.800
 123377923.827 5                  23478037.742
        34.000
 125037633.79315                  23793862.359
        35.200
 112696964.860 8  87815829.10345  21445519.852                    21445522.219
        49.800          34.500
 119607942.978 6  93201009.60443  22760635.758                    22760639.516
        41.700          21.700
 112466224.294 8  87635999.92345  21401610.969                    21401614.531
        51.500          33.500
 18  3 15 11 21 48.0000000  0 13R09R01G24R16R17R18G08G11G30G28G10G15
                                G13
                  80834888.479 6  19462857.797                    19462858.309
                        39.800
                  88041600.224 5  21175713.813                    21175717.652
                        34.200
 122746475.227 5                  23357879.430
        34.800
                  88157595.527 5  21218514.445                    21218516.457
                        31.200
                  86284608.373 6  20731297.063                    20731298.348
                        38.100
                  88224049.064 6  21249435.156                    21249437.488
                        36.300
 120945864.506 6  94243546.08742  23015233.266                    23015239.945
        36.900          15.600
 123375678.102 5                  23477610.117
        32.600
 125041589.617 5                  23794614.703
        35.100
 112697537.204 8  87816275.08445  21445628.688                    21445631.418
        50.500          35.000
 119606364.960 6  93199779.93943  22760334.367                    22760339.379
        41.700          21.300
 112467620.037 8  87637087.49445  21401876.656                    21401880.004
        51.200          32.500
 115060012.55615                  21895189.289
        35.400
 18  3 15 11 21 49.0000000  0 14R09R10R01G24R16R17R18G08G11G30G28G10
                                G15G13
                  80834575.735 6  19462782.320                    19462782.844
                        39.500
                  92108830.69314  22216347.719                    22216349.484
                        24.900
                  88039590.979 5  21175230.852                    21175234.668
                        32.400
 122743308.669 5                  23357276.664
        35.800
                  88160669.510 5  21219254.664                    21219256.309
                        30.300
                  86285836.668 6  20731592.125                    20731593.965
                        36.100
                  88222096.885 5  21248965.320                    21248967.168
                        35.600
 120948415.751 6  94245534.07642  23015718.625                    23015725.496
        36.400          15.600
 123373432.947 6                  23477183.617
        36.400
 125045545.70215                  23795367.156
        35.000
 112698110.194 8  87816721.58045  21445738.117                    21445740.324
        49.800          33.600
 119604787.552 6  93198550.77143  22760032.781                    22760039.078
        41.700          21.500
 112469016.467 8  87638175.61245  21402142.328                    21402145.668
        52.100          34.800
 115062957.991 6                  21895751.711
        38.600
 18  3 15 11 21 50.0000000  0 14R09R10R01G24R16R17R18G08G11G30G28G10
                                G15G13
                  80834263.625 6  19462707.898                    19462707.465
                        39.300
                  92105834.079 4  22215625.289                    22215626.672
                        28.100
                  88037582.332 5  21174746.898                    21174751.621
                        32.200
 122740142.392 5                  23356673.570
        31.600
                  88163743.893 5  21219995.805                    21219996.582
                        31.300
                  86287065.686 5  20731888.273                    20731888.902
                        35.800
                  88220145.234 5  21248494.602                    21248496.949
                        35.800
 120950967.598 6  94247522.52442  23016204.117                    23016211.117
        38.300          15.600
 123371188.425 5                  23476757.086
        35.800
 125049502.071 5                  23796120.852
        33.500
 112698683.849 8  87817168.58945  21445847.055                    21445849.531
        50.700          35.100
 119603210.775 6  93197322.08243  22759732.344                    22759739.152
        40.200          21.300
 112470413.670 8  87639264.33245  21402408.211                    21402411.613
        52.400          35.800
 115065904.499 5                  21896312.633
        32.200
 18  3 15 11 21 51.0000000  0 13R09R01G24R16R17R18G08G11G30G28G10G15
                                G13
                  80833952.188 6  19462632.805                    19462632.430
                        37.900
                  88035574.258 5  21174264.992                    21174268.699
                        31.500
 122736976.426 5                  23356071.438
        35.100
                  88166818.636 4  21220735.844                    21220736.137
                        29.200
                  86288295.530 5  20732182.867                    20732184.594
                        35.800
                  88218194.231 5  21248025.484                    21248026.629
                        35.600
 120953520.078 6  94249511.49542  23016690.398                    23016696.969
        38.800          16.300
 123368944.439 5                  23476330.617
        35.200
 125053458.804 5                  23796873.711
        35.500
 112699258.143 8  87817616.07646  21445956.219                    21445958.754
        52.300          36.700
 119601634.604 6  93196093.91143  22759432.977                    22759438.977
        40.100          21.500
 112471811.508 8  87640353.58245  21402674.094                    21402677.586
        51.200          31.000
 115068851.164 7                  21896874.266
        43.500
 18  3 15 11 21 52.0000000  0 13R09R01G24R16R17R18G08G11G30G28G10G15
                                G13
                  80833641.420 6  19462558.008                    19462557.398
                        36.300
                  88033566.698 4  21173781.867                    21173785.898
                        29.600
 122733810.776 5                  23355469.211
        34.800
                  88169893.765 4  21221475.750                    21221476.090
                        26.500
                  86289526.017 5  20732478.633                    20732480.293
                        35.600
                  88216243.809 5  21247556.047                    21247557.410
                        32.900
 120956073.013 6  94251500.83942  23017176.117                    23017182.930
        37.200          16.900
 123366701.101 6                  23475903.664
        37.200
 125057415.590 6                  23797625.969
        36.500
 112699832.968 8  87818063.97445  21446065.656                    21446068.043
        52.300          35.200
 119600059.050 6  93194866.20343  22759134.320                    22759139.527
        39.500          21.100
 112473210.053 8  87641443.37745  21402940.789                    21402943.551
        50.900          30.400
 115071798.96314                  21897434.438
        29.600
 18  3 15 11 21 53.0000000  0 13R09R01G24R16R17R18G08G11G30G28G10G15
                                G13
                  80833331.506 5  19462483.883                    19462483.379
                        32.600
                  88031559.703 4  21173297.688                    21173303.031
                        29.000
 122730645.34815                  23354865.672
        31.300
                                  21222215.109

                  86290757.217 5  20732774.234                    20732775.598
                        32.100
                  88214294.035 5  21247086.547                    21247087.488
                        32.400
 120958626.698 6  94253490.72742  23017661.672                    23017668.039
        37.300          16.900
 123364458.117 6                  23475476.391
        36.200
 125061372.758 6                  23798378.945
        36.900
 112700408.366 7  87818512.32544  21446175.352                    21446177.555
        47.000          25.000
 119598483.954 7  93193638.87643  22758833.859                    22758838.867
        42.000          20.600
 112474609.290 8  87642533.69144  21403207.430                    21403210.102
        49.900          27.000
 115074747.70817                  21897997.156
        44.600
 18  3 15 11 21 54.0000000  0 12R09R01G24R17R18G08G11G30G28G10G15G13
                  80833022.050 5  19462408.453                    19462408.133
                        34.800
                  88029553.083 5  21172816.070                    21172819.477
                        31.000
 122727480.43315                  23354263.273
        32.500
                  86291989.186 6  20733069.977                    20733072.430
                        38.300
                  88212344.755 6  21246616.469                    21246618.074
                        36.200
 120961180.985 5  94255481.02342  23018147.547                    23018154.461
        33.700          15.600
 123362215.863 5                  23475049.852
        34.700
 125065330.092 5                  23799132.969
        32.200
 112700984.455 7  87818961.22644  21446284.508                    21446287.191
        45.400          24.000
 119596909.725 6  93192412.21743  22758534.313                    22758539.766
        39.700          22.300
 112476009.221 7  87643624.54244  21403474.305                    21403476.332
        46.700          29.600
 115077696.31218                  21898557.445
        48.000
 18  3 15 11 21 55.0000000  0 12R09R10R01R17R18G08G11G30G28G10G15G13
                  80832713.278 5  19462333.984                    19462334.148
                        33.600
                                  22212010.164

                  88027547.037 5  21172333.906                    21172337.434
                        34.100
                  86293221.929 5  20733367.102                    20733368.246
                        33.700
                  88210396.024 6  21246147.391                    21246148.637
                        37.100
 120963735.597 5  94257471.58942  23018633.273                    23018640.676
        31.900          16.300
 123359974.068 6                  23474623.031
        36.200
 125069287.686 5                  23799885.523
        35.800
 112701561.142 7  87819410.59044  21446394.625                    21446397.074
        46.200          29.200
 119595336.021 6  93191185.92544  22758234.773                    22758240.766
        38.100          24.400
 112477409.867 7  87644715.93945  21403739.477                    21403742.867
        47.200          32.100
 115080645.418 7                  21899118.367
        43.800
 18  3 15 11 21 56.0000000  0 12R09R10R01R17R18G08G11G30G28G10G15G13
                  80832405.180 5  19462260.164                    19462260.156
                        34.000
                                  22211288.648

                  88025541.615 5  21171851.016                    21171854.957
                        35.600
                  86294455.350 5  20733663.594                    20733664.418
                        34.900
                  88208447.994 6  21245678.609                    21245679.469
                        36.900
 120966290.980 5  94259462.81742  23019118.625                    23019127.199
        33.800          16.300
 123357732.802 6                  23474196.328
        37.100
 125073245.487 5                  23800638.078
        34.200
 112702138.438 7  87819860.43144  21446504.742                    21446507.156
        46.100          28.300
 119593762.850 6  93189960.02644  22757936.313                    22757941.359
        40.500          24.600
 112478811.191 7  87645807.84045  21404006.508                    21404009.762
        47.500          33.000
 115083595.129 7                  21899678.773
        43.900
 18  3 15 11 21 57.0000000  0 13R09R10R01R16R17R18G08G11G30G28G10G15
                                G13
                  80832097.822 6  19462186.109                    19462185.797
                        37.200
                                  22210564.852

                  88023536.745 4  21171368.953                    21171373.121
                        29.700
                  88185275.34514  21225177.016                    21225178.648
                        29.900
                  86295689.531 6  20733959.469                    20733960.328
                        36.200
                  88206500.518 5  21245208.469                    21245210.262
                        35.400
 120968846.827 5  94261454.30642  23019606.555                    23019613.488
        34.400          17.400
 123355492.198 6                  23473769.563
        36.500
 125077203.681 5                  23801392.250
        33.000
 112702716.385 7  87820310.77844  21446614.641                    21446616.938
        45.700          26.700
 119592190.380 6  93188734.71844  22757637.336                    22757641.859
        41.400          25.600
 112480213.231 8  87646900.34045  21404273.195                    21404276.539
        48.400          32.700
 115086545.429 7  89677826.46856  21900239.766                    21900241.453
        45.200          36.100
 18  3 15 11 21 58.0000000  0 13R09R10R01R16R17R18G08G11G30G28G10G15
                                G13
                  80831791.104 5  19462112.180                    19462112.656
                        31.000
                                  22209842.961

                  88021532.419 5  21170886.500                    21170891.156
                        32.700
                  88188352.866 4  21225917.484                    21225919.055
                        27.900
                  86296924.457 6  20734257.141                    20734257.199
                        36.300
                  88204553.633 5  21244739.555                    21244741.363
                        34.300
 120971403.274 6  94263446.32442  23020092.438                    23020099.750
        39.900          16.900
 123353252.135 5                  23473342.273
        33.900
 125081162.202 5                  23802146.078
        30.800
 112703295.133 6  87820761.73643  21446724.391                    21446727.090
        38.800          21.500
 119590618.484 6  93187509.86543  22757337.781                    22757343.105
        40.200          23.800
 112481615.979 8  87647993.41145  21404539.945                    21404543.641
        48.900          35.900
 115089496.385 7  89680125.93944  21900801.648                    21900804.410
        45.200          26.200
 18  3 15 11 21 59.0000000  0 12R09R10R01R16R17R18G08G11G28G10G15G13
                                  19462040.164

                                  22209121.438

                  88019528.674 5  21170405.609                    21170408.891
                        33.300
                  88191430.788 4  21226657.398                    21226659.859
                        25.400
                  86298160.150 5  20734554.117                    20734555.199
                        34.600
                  88202607.376 5  21244270.688                    21244272.387
                        32.200
 120973960.360 5  94265438.87042  23020578.617                    23020586.727
        35.300          16.900
 123351012.605 5                  23472917.031
        35.900
 112703874.183 6  87821212.93543  21446835.383                    21446837.430
        41.600          21.500
 119589047.257 6  93186285.58243  22757038.711                    22757043.777
        41.700          22.200
 112483019.403 8  87649086.99745  21404806.727                    21404810.605
        49.100          35.900
 115092447.688 7  89682425.71353  21901363.641                    21901366.836
        44.700          21.800
 18  3 15 11 22  0.0000000  0 10R01R16R17R18G08G11G28G10G15G13
                  88017525.404 5  21169923.828                    21169927.660
                        32.400
                  88194509.011 3  21227400.078                    21227401.254
                        23.800
                  86299396.574 6  20734849.930                    20734851.504
                        38.400
                  88200661.575 5  21243802.828                    21243804.184
                        30.000
 120976517.893 5  94267431.78842  23021066.500                    23021073.125
        35.700          16.300
 123348773.536 6                  23472491.625
        36.100
 112704453.993 6  87821664.75843  21446945.484                    21446947.598
        40.400          20.400
 119587476.486 6  93185061.64844  22756738.125                    22756745.285
        38.300          26.000
 112484423.463 7  87650181.05345  21405073.969                    21405077.676
        47.500          33.200
 115095399.543 6                  21901925.547
        41.400
 18  3 15 11 22  1.0000000  0 10R01R16R17R18G08G11G28G10G15G13
                  88015522.628 5  21169440.133                    21169445.844
                        31.400
                  88197587.680 3  21228140.617                    21228142.516
                        21.600
                  86300633.653 6  20735147.570                    20735148.824
                        37.300
                  88198716.414 4  21243333.734                    21243335.559
                        29.400
 120979076.100 5  94269425.30442  23021551.461                    23021560.164
        30.100          14.800
 123346535.071 6                  23472065.961
        36.800
 112705034.344 6  87822116.99843  21447055.563                    21447058.078
        40.900          18.600
 119585906.262 5  93183838.17243  22756438.086                    22756445.977
        33.900          22.000
 112485828.221 7  87651275.65145  21405342.094                    21405345.297
        46.900          30.300
 115098351.983 6                  21902485.867
        41.000
 18  3 15 11 22  2.0000000  0 10R01R16R17R18G08G11G28G10G15G13
                  88013520.455 5  21168960.313                    21168963.941
                        30.300
                                  21228881.914

                  86301871.456 6  20735444.648                    20735446.113
                        36.800
                  88196771.864 4  21242863.758                    21242867.465
                        29.900
 120981634.618 5  94271418.93842  23022038.875                    23022047.035
        32.000          14.800
 123344297.162 5                  23471640.008
        33.000
 112705615.256 7  87822569.67043  21447166.641                    21447168.145
        42.500          19.000
 119584336.740 6  93182615.29743  22756145.656                    22756147.375
        37.700          19.900
 112487233.643 7  87652370.78744  21405609.156                    21405612.586
        44.700          27.400
 115101304.860 6                  21903048.133
        40.900
 18  3 15 11 22  3.0000000  0 12R09R01R16R17R18G08G11G30G28G10G15G13
                  80830268.46515  19461746.594                    19461745.344
                        30.800
                  88011518.789 3  21168480.359                    21168483.398
                        22.800
                                  21229624.023

                  86303110.063 5  20735741.906                    20735744.313
                        30.100
                  88194827.877 5  21242397.578                    21242398.906
                        30.600
 120984193.99716                  23022527.000
        38.800
 123342060.05516                  23471214.648
        38.800
 125100959.05714                  23805913.023
        28.000
 112706196.786 6  87823022.79843  21447277.023                    21447278.844
        40.400          18.600
 119582767.870 7  93181392.72543  22755845.070                    22755848.832
        42.400          19.300
 112488639.810 7  87653466.52644  21405876.586                    21405879.816
        46.000          29.300
 115104258.279 6                  21903610.445
        38.400
 18  3 15 11 22  4.0000000  0  8R09R01R17G08G28G10G15G13
                  80829965.598 6  19461673.078                    19461672.824
                        40.900
                  88009517.645 5  21167996.609                    21168001.688
                        32.400
                  86304349.273 5  20736039.391                    20736041.859
                        34.600
 120986753.41016                  23023012.938
        36.500
 112706778.300 6  87823475.78243  21447387.297                    21447389.879
        40.800          19.000
 119581199.670 6  93180170.67143  22755546.047                    22755551.074
        39.600          19.900
 112490046.617 8  87654562.76546  21406144.313                    21406147.852
        49.400          37.900
 115107212.216 7  89693930.48155  21904174.016                    21904174.742
        46.000          31.200
 18  3 15 11 22  5.0000000  0  9R09R01R17G08G30G28G10G15G13
                  80829663.440 7  19461599.891                    19461599.441
                        42.100
                  88007517.043 5  21167516.477                    21167520.539
                        32.900
                  86305589.272 5  20736337.609                    20736339.609
                        34.700
 120989313.89915                  23023501.047
        32.200
 125108876.20515                  23807419.547
        32.300
 112707361.021 6  87823929.70643  21447497.992                    21447500.848
        38.700          19.900
 119579631.940 7  93178948.95043  22755247.039                    22755252.457
        42.200          22.600
 112491454.117 8  87655659.52445  21406412.367                    21406415.348
        49.300          35.900
 115110166.769 7  89696232.75244  21904736.453                    21904738.340
        47.800          29.000
 18  3 15 11 22  6.0000000  0 10R09R01G24R17G08G30G28G10G15G13
                  80829361.985 6  19461527.234                    19461527.441
                        40.800
                  88005517.038 5  21167036.461                    21167038.805
                        33.600
 122689503.40115                  23347041.742
        31.800
                  86306829.988 5  20736636.656                    20736638.359
                        34.400
 120991874.86015                  23023989.906
        34.000
 125112836.71115                  23808173.016
        30.500
 112707944.511 5  87824384.34742  21447609.047                    21447612.035
        34.200          17.800
 119578064.858 6  93177727.84944  22754947.227                    22754954.156
        39.800          25.000
 112492862.297 8  87656756.81346  21406680.383                    21406683.637
        50.000          36.800
 115113121.771 7  89698535.34544  21905298.211                    21905300.617
        47.200          28.100
 18  3 15 11 22  7.0000000  0 11R09R01G24R17R18G08G30G28G10G15G13
                  80829061.283 5  19461455.320                    19461455.289
                        35.800
                  88003517.533 5  21166554.461                    21166558.242
                        35.300
 122686341.891 4                  23346439.688
        27.300
                  86308071.545 5  20736934.102                    20736935.770
                        34.900
                  88187057.44915  21240525.727                    21240527.102
                        32.700
 120994435.905 5                  23024476.430
        32.800
 125116797.858 5                  23808926.852
        31.200
 112708528.727 6  87824839.57842  21447720.359                    21447722.805
        39.900          17.400
 119576498.444 6  93176507.26944  22754649.086                    22754656.262
        38.700          26.500
 112494271.123 8  87657854.58746  21406948.031                    21406951.516
        51.600          37.900
 115116077.301 7  89700838.36843  21905860.359                    21905863.270
        45.300          21.500
 18  3 15 11 22  8.0000000  0 12R09R01G24R16R17R18G08G30G28G10G15G13
                  80828761.280 5  19461382.641                    19461382.289
                        34.600
                  88001518.549 5  21166073.367                    21166077.105
                        33.800
 122683181.185 4                  23345837.453
        28.600
                                  21233330.078

                  86309313.825 5  20737232.633                    20737234.508
                        35.600
                  88185116.475 5  21240057.336                    21240059.938
                        34.900
 120996998.105 5                  23024964.219
        35.700
 125120758.973 5                  23809679.031
        30.500
 112709113.453 6  87825295.20242  21447832.508                    21447834.133
        41.400          16.300
 119574932.574 6  93175287.10044  22754352.414                    22754358.125
        40.500          24.600
 112495680.702 8  87658952.92745  21407216.430                    21407219.727
        50.200          31.300
 115119033.547 7  89703141.94443  21906422.859                    21906426.051
        42.300          20.600
 18  3 15 11 22  9.0000000  0 10R09R01G24R17G08G30G28G10G15G13
                  80828461.993 5  19461311.680                    19461310.465
                        35.600
                  87999520.049 5  21165593.727                    21165596.387
                        34.000
 122680020.774 4                  23345235.117
        28.600
                  86310556.769 5  20737531.398                    20737533.035
                        30.800
 120999560.836 5                  23025451.328
        33.000
 125124720.058 5                  23810434.117
        30.700
 112709698.738 7  87825751.32443  21447943.117                    21447945.754
        42.000          18.600
 119573367.247 7  93174067.37143  22754055.844                    22754060.730
        42.200          22.200
 112497091.012 7  87660051.86143  21407484.297                    21407488.078
        43.600          21.500
 115121990.275 5                  21906984.250
        34.400
 18  3 15 11 22 10.0000000  0  9R09R01G24R17G08G28G10G15G13
                  80828163.071 6  19461239.977                    19461238.840
                        37.800
                  87997522.190 5  21165112.086                    21165115.828
                        35.600
 122676860.855 5                  23344634.195
        32.900
                  86311800.449 6  20737829.742                    20737831.797
                        36.000
 121002124.042 5                  23025939.430
        35.100
 112710284.316 6  87826207.67943  21448055.297                    21448057.023
        40.600          18.300
 119571802.700 6  93172848.24844  22753756.844                    22753762.230
        41.800          24.400
 112498501.947 8  87661151.28844  21407752.820                    21407756.391
        49.100          29.600
 115124947.421 6                  21907547.188
        39.600
 18  3 15 11 22 11.0000000  0  9R09R01G24R17G08G28G10G15G13
                  80827864.938 6  19461166.047                    19461166.063
                        41.400
                  87995524.889 5  21164631.586                    21164635.547
                        32.900
 122673701.021 5                  23344033.211
        32.200
                  86313044.830 6  20738128.805                    20738131.094
                        37.500
 121004687.842 6                  23026426.242
        37.000
 112710870.402 6  87826664.35743  21448165.797                    21448168.578
        41.900          19.300
 119570238.612 7  93171629.54043  22753460.039                    22753465.113
        42.900          21.500
 112499913.657 8  87662251.32646  21408021.695                    21408025.039
        52.300          36.800
 115127905.105 7  89710047.77854  21908111.719                    21908110.613
        44.600          29.700
 18  3 15 11 22 12.0000000  0  9R09R01G24R17G08G28G10G15G13
                  80827567.536 7  19461094.703                    19461094.820
                        43.500
                  87993528.110 5  21164151.922                    21164155.395
                        35.600
 122670541.580 5                  23343432.586
        34.100
                  86314289.993 6  20738427.938                    20738430.277
                        40.400
 121007252.263 6                  23026914.984
        37.300
 112711457.356 7  87827121.69444  21448278.234                    21448280.105
        45.400          26.400
 119568675.263 6  93170411.31243  22753162.688                    22753167.625
        38.600          21.100
 112501325.972 8  87663351.86545  21408290.906                    21408294.012
        49.800          32.100
 115130863.391 8  89712352.96945  21908675.336                    21908675.875
        50.400          33.300
 18  3 15 11 22 13.0000000  0  9R09R01G24R17G08G28G10G15G13
                  80827270.850 7  19461023.492                    19461023.777
                        42.300
                  87991531.816 5  21163670.914                    21163675.379
                        35.700
 122667382.424 5                  23342831.727
        34.300
                  86315535.827 6  20738727.117                    20738729.211
                        38.900
 121009817.286 5                  23027402.164
        30.700
 112712045.018 7  87827579.61843  21448389.539                    21448392.297
        43.700          22.000
 119567112.459 6  93169193.52543  22752863.414                    22752869.930
        37.900          20.400
 112502739.038 8  87664452.99045  21408560.344                    21408563.211
        51.900          35.800
 115133822.188 8  89714658.53744  21909238.180                    21909240.098
        49.900          29.700
 18  3 15 11 22 14.0000000  0 11R09R01G24R17R18G08G11G28G10G15G13
                  80826974.835 7  19460952.828                    19460952.754
                        42.100
                  87989536.154 5  21163192.773                    21163195.414
                        35.500
 122664223.632 5                  23342230.242
        33.700
                  86316782.495 6  20739027.617                    20739029.156
                        39.300
                  88173484.62915  21237257.359                    21237257.832
                        33.000
 121012382.896 5                  23027889.648
        31.000
 123317521.11415                  23466536.875
        35.400
 112712633.341 7  87828038.07243  21448501.211                    21448504.465
        43.700          23.300
 119565550.292 6  93167976.25043  22752565.977                    22752572.367
        37.100          20.600
 112504152.819 8  87665554.63846  21408828.742                    21408831.977
        51.800          36.100
 115136781.565 8  89716964.57345  21909800.359                    21909803.250
        49.900          31.000
 18  3 15 11 22 15.0000000  0 11R09R01G24R17R18G08G11G28G10G15G13
                  80826679.468 6  19460881.422                    19460881.762
                        41.600
                  87987540.993 5  21162712.836                    21162715.234
                        35.700
 122661065.120 5                  23341628.320
        33.100
                  86318029.834 6  20739326.805                    20739328.980
                        38.500
                  88171547.63315  21236789.164                    21236790.734
                        33.500
 121014949.090 4                  23028377.422
        29.600
 123315290.401 5                  23466112.789
        35.900
 112713222.262 7  87828496.98043  21448613.445                    21448615.645
        43.000          23.000
 119563988.703 6  93166759.43343  22752269.273                    22752275.336
        37.600          21.500
 112505567.248 8  87666656.78545  21409097.664                    21409100.773
        51.900          35.800
 115139741.468 8  89719271.01644  21910362.930                    21910367.031
        48.700          29.200
 18  3 15 11 22 16.0000000  0 11R09R01G24R17R18G08G11G28G10G15G13
                  80826384.724 6  19460810.922                    19460810.523
                        41.000
                  87985546.308 5  21162230.859                    21162235.430
                        35.500
 122657906.849 5                  23341027.844
        32.400
                  86319277.933 6  20739626.086                    20739628.516
                        38.700
                  88169611.122 5  21236323.188                    21236324.594
                        33.100
 121017515.776 5                  23028866.383
        30.800
 123313060.158 5                  23465688.938
        35.400
 112713811.719 7  87828956.29144  21448725.977                    21448728.242
        43.900          25.500
 119562427.668 6  93165543.03443  22751972.289                    22751978.289
        38.600          21.100
 112506982.305 8  87667759.41645  21409367.586                    21409370.227
        51.400          34.400
 115142701.906 7  89721577.83145  21910925.141                    21910930.289
        46.900          30.100
 18  3 15 11 22 17.0000000  0 11R09R01G24R17R18G08G11G28G10G15G13
                  80826090.638 6  19460739.469                    19460739.824
                        41.100
                  87983552.151 5  21161752.086                    21161755.566
                        35.000
 122654748.954 5                  23340427.242
        33.800
                  86320526.731 6  20739927.039                    20739928.305
                        38.500
                  88167675.259 5  21235855.758                    21235858.234
                        33.400
 121020083.021 4                  23029354.523
        29.900
 123310830.433 5                  23465264.789
        34.900
 112714401.810 7  87829416.08744  21448837.750                    21448840.480
        43.900          24.900
 119560867.243 6  93164327.13043  22751675.492                    22751681.277
        39.300          21.700
 112508398.045 8  87668862.59045  21409636.625                    21409639.480
        51.600          35.100
 115145662.860 7  89723885.05844  21911489.469                    21911493.113
        46.100          29.700
 18  3 15 11 22 18.0000000  0 11R09R01G24R17R18G08G11G28G10G15G13
                  80825797.244 6  19460668.977                    19460669.125
                        40.900
                  87981558.629 5  21161274.688                    21161276.309
                        34.900
 122651591.384 5                  23339826.883
        35.200
                  86321776.283 6  20740226.398                    20740228.637
                        38.900
                  88165740.007 5  21235388.766                    21235392.395
                        33.400
 121022650.895 5                  23029844.578
        30.700
 123308601.322 5                  23464840.039
        34.500
 112714992.532 7  87829876.38144  21448950.422                    21448952.770
        44.200          24.300
 119559307.465 6  93163111.70543  22751379.070                    22751384.668
        39.800          22.300
 112509814.524 8  87669966.34045  21409905.969                    21409909.477
        51.500          35.900
 115148624.395 7  89726192.72144  21912053.680                    21912056.430
        47.500          28.900
 18  3 15 11 22 19.0000000  0 11R09R01G24R17R18G08G11G28G10G15G13
                  80825504.563 6  19460598.227                    19460598.457
                        40.900
                  87979565.611 5  21160793.750                    21160797.402
                        34.800
 122648434.160 6                  23339226.164
        36.900
                  86323026.580 6  20740527.305                    20740529.480
                        38.900
                  88163805.396 5  21234923.391                    21234926.477
                        33.600
 121025219.371 5                  23030333.352
        30.800
 123306372.755 5                  23464415.836
        34.600
 112715583.881 7  87830337.16544  21449063.219                    21449065.461
        44.300          25.100
 119557748.372 6  93161896.81043  22751082.500                    22751087.727
        40.100          23.400
 112511231.740 8  87671070.66245  21410175.531                    21410178.859
        51.700          35.700
 115151586.466 8  89728500.80544  21912618.289                    21912620.148
        48.800          29.200
 18  3 15 11 22 20.0000000  0 11R09R01G24R17R18G08G11G28G10G15G13
                  80825212.535 6  19460527.875                    19460528.461
                        40.400
                  87977573.155 5  21160313.047                    21160318.078
                        34.700
 122645277.271 6                  23338625.094
        37.200
                  86324277.592 6  20740827.383                    20740829.699
                        38.400
                  88161871.401 5  21234459.125                    21234460.363
                        32.800
 121027788.456 5                  23030822.305
        31.500
 123304144.803 5                  23463991.133
        35.000
 112716175.864 7  87830798.44544  21449175.656                    21449178.152
        44.100          24.700
 119556189.867 6  93160682.38544  22750785.289                    22750791.395
        40.200          24.500
 112512649.642 8  87672175.51345  21410446.055                    21410448.672
        52.200          35.700
 115154549.060 8  89730809.31945  21913182.422                    21913184.168
        49.700          30.000
 18  3 15 11 22 21.0000000  0 11R09R01G24R17R18G08G11G28G10G15G13
                  80824921.182 6  19460457.828                    19460457.355
                        40.500
                  87975581.286 5  21159836.227                    21159838.453
                        34.700
 122642120.663 6                  23338024.883
        36.600
                  86325529.342 6  20741128.656                    20741130.262
                        38.700
                  88159937.947 5  21233993.016                    21233995.125
                        32.400
 121030358.037 5                  23031311.445
        31.800
 123301917.383 5                  23463568.125
        34.600
 112716768.450 7  87831260.19944  21449288.281                    21449290.762
        43.700          25.700
 119554631.952 6  93159468.42643  22750489.586                    22750494.746
        39.800          22.800
 112514068.228 8  87673280.89945  21410715.750                    21410718.676
        52.200          35.900
 115157512.210 8  89733118.28744  21913745.742                    21913747.984
        49.600          29.100
 18  3 15 11 22 22.0000000  0 11R09R01G24R17R18G08G11G28G10G15G13
                  80824630.502 6  19460387.734                    19460387.699
                        40.400
                  87973589.931 5  21159357.086                    21159360.004
                        34.700
 122638964.376 5                  23337423.703
        35.900
                  86326781.821 6  20741429.477                    20741431.430
                        38.800
                  88158005.088 5  21233526.516                    21233530.023
                        32.700
 121032928.257 5                  23031801.078
        32.400
 123299690.522 5                  23463144.266
        35.000
 112717361.632 7  87831722.40844  21449401.008                    21449404.043
        44.100          26.000
 119553074.635 6  93158254.93443  22750193.281                    22750198.309
        39.700          22.500
 112515487.487 8  87674386.81845  21410985.383                    21410989.133
        51.900          35.800
 115160475.876 8  89735427.66044  21914308.875                    21914312.035
        49.300          28.900
 18  3 15 11 22 23.0000000  0 11R09R01G24R17R18G08G11G28G10G15G13
                  80824340.498 6  19460318.242                    19460318.461
