% program   : RTKPOST ver.2.4.2
% inp file  : Z:\home\linda\Documents\Spring18\GitHub_Unis\data\processed_data\4625074A.obs
% inp file  : Z:\home\linda\Documents\Spring18\GitHub_Unis\data\processed_data\4625074A.nav
% obs start : 2018/03/15 10:48:19.0 GPST (week1992 384499.0s)
% obs end   : 2018/03/15 11:19:49.0 GPST (week1992 386389.0s)
% pos mode  : single
% elev mask : 15.0 deg
% ionos opt : broadcast
% tropo opt : saastamoinen
% ephemeris : broadcast
% navi sys  : gps glonass galileo qzss sbas
%
% (lat/lon/height=WGS84/ellipsoidal,Q=1:fix,2:float,3:sbas,4:dgps,5:single,6:ppp,ns=# of satellites)
%  GPST                  latitude(deg) longitude(deg)  height(m)   Q  ns   sdn(m)   sde(m)   sdu(m)  sdne(m)  sdeu(m)  sdun(m) age(s)  ratio
2018/03/15 10:48:19.000   78.246534722   16.035424794   492.1378   5   6   3.3588   2.1210   9.8806  -1.6045  -0.8396   3.5841   0.00    0.0
2018/03/15 10:48:20.000   78.246532400   16.035429330   492.4608   5   6   3.3583   2.1211   9.8775  -1.6046  -0.8396   3.5827   0.00    0.0
2018/03/15 10:48:21.000   78.246539956   16.035490365   500.6015   5   6   3.3578   2.1212   9.8744  -1.6046  -0.8397   3.5814   0.00    0.0
2018/03/15 10:48:22.000   78.246535214   16.035504159   501.1783   5   6   3.3573   2.1214   9.8713  -1.6047  -0.8397   3.5800   0.00    0.0
2018/03/15 10:48:23.000   78.246532631   16.035470071   497.7726   5   6   3.3568   2.1215   9.8683  -1.6048  -0.8398   3.5786   0.00    0.0
2018/03/15 10:48:24.000   78.246523930   16.035427694   490.0228   5   6   3.3563   2.1216   9.8652  -1.6049  -0.8398   3.5773   0.00    0.0
2018/03/15 10:48:25.000   78.246514175   16.035408953   485.6383   5   6   3.3558   2.1218   9.8621  -1.6049  -0.8399   3.5759   0.00    0.0
2018/03/15 10:48:26.000   78.246520870   16.035467123   496.2125   5   6   3.3553   2.1219   9.8590  -1.6050  -0.8399   3.5746   0.00    0.0
2018/03/15 10:48:27.000   78.246520269   16.035490328   498.8619   5   6   3.3548   2.1220   9.8560  -1.6051  -0.8400   3.5732   0.00    0.0
2018/03/15 10:48:28.000   78.246519365   16.035472234   494.6410   5   6   3.3544   2.1221   9.8529  -1.6052  -0.8401   3.5718   0.00    0.0
2018/03/15 10:48:29.000   78.246524335   16.035427083   490.8448   5   6   3.3539   2.1223   9.8498  -1.6053  -0.8401   3.5705   0.00    0.0
2018/03/15 10:48:30.000   78.246527007   16.035399159   489.8963   5   6   3.3534   2.1224   9.8468  -1.6053  -0.8401   3.5691   0.00    0.0
2018/03/15 10:48:31.000   78.246532477   16.035433569   492.3614   5   6   3.3529   2.1225   9.8437  -1.6054  -0.8402   3.5677   0.00    0.0
2018/03/15 10:48:32.000   78.246534418   16.035497617   499.7706   5   6   3.3524   2.1227   9.8406  -1.6055  -0.8403   3.5664   0.00    0.0
2018/03/15 10:48:33.000   78.246536292   16.035494097   500.2624   5   6   3.3519   2.1228   9.8376  -1.6056  -0.8403   3.5650   0.00    0.0
2018/03/15 10:48:34.000   78.246538393   16.035448969   495.4795   5   6   3.3514   2.1229   9.8345  -1.6056  -0.8404   3.5637   0.00    0.0
2018/03/15 10:48:35.000   78.246530597   16.035417911   487.3806   5   6   3.3509   2.1230   9.8315  -1.6057  -0.8404   3.5623   0.00    0.0
2018/03/15 10:48:36.000   78.246543464   16.035418062   492.7499   5   6   3.3505   2.1232   9.8284  -1.6058  -0.8405   3.5610   0.00    0.0
2018/03/15 10:48:37.000   78.246547880   16.035468433   497.9734   5   6   3.3500   2.1233   9.8254  -1.6059  -0.8405   3.5596   0.00    0.0
2018/03/15 10:48:38.000   78.246541720   16.035469258   498.1628   5   6   3.3495   2.1234   9.8223  -1.6059  -0.8406   3.5583   0.00    0.0
2018/03/15 10:48:39.000   78.246536712   16.035425958   491.8409   5   6   3.3490   2.1236   9.8193  -1.6060  -0.8406   3.5569   0.00    0.0
2018/03/15 10:48:40.000   78.246532751   16.035427695   490.6270   5   6   3.3485   2.1237   9.8162  -1.6061  -0.8407   3.5556   0.00    0.0
2018/03/15 10:48:41.000   78.246538685   16.035445534   495.5916   5   6   3.3480   2.1238   9.8132  -1.6062  -0.8407   3.5542   0.00    0.0
2018/03/15 10:48:42.000   78.246530702   16.035470851   494.8671   5   6   3.3475   2.1240   9.8101  -1.6062  -0.8408   3.5529   0.00    0.0
2018/03/15 10:48:43.000   78.246527724   16.035453521   494.3476   5   6   3.3471   2.1241   9.8071  -1.6063  -0.8408   3.5515   0.00    0.0
2018/03/15 10:48:44.000   78.246521332   16.035445188   491.6296   5   6   3.3466   2.1242   9.8040  -1.6064  -0.8409   3.5502   0.00    0.0
2018/03/15 10:48:45.000   78.246521045   16.035431185   490.5251   5   6   3.3461   2.1243   9.8010  -1.6065  -0.8409   3.5488   0.00    0.0
2018/03/15 10:48:46.000   78.246520372   16.035444428   492.4491   5   6   3.3456   2.1245   9.7980  -1.6065  -0.8410   3.5475   0.00    0.0
2018/03/15 10:48:47.000   78.246527735   16.035439888   494.6366   5   6   3.3451   2.1246   9.7949  -1.6066  -0.8410   3.5461   0.00    0.0
2018/03/15 10:48:48.000   78.246530976   16.035453392   494.6261   5   6   3.3446   2.1247   9.7919  -1.6067  -0.8411   3.5448   0.00    0.0
2018/03/15 10:48:49.000   78.246535956   16.035456789   493.0793   5   6   3.3441   2.1249   9.7889  -1.6068  -0.8411   3.5434   0.00    0.0
2018/03/15 10:48:50.000   78.246537185   16.035434726   492.3206   5   6   3.3437   2.1250   9.7859  -1.6068  -0.8412   3.5421   0.00    0.0
2018/03/15 10:48:51.000   78.246532747   16.035432215   491.1312   5   6   3.3432   2.1251   9.7828  -1.6069  -0.8412   3.5407   0.00    0.0
2018/03/15 10:48:52.000   78.246527972   16.035441732   492.2974   5   6   3.3427   2.1252   9.7798  -1.6070  -0.8413   3.5394   0.00    0.0
2018/03/15 10:48:53.000   78.246530292   16.035442901   493.7775   5   6   3.3422   2.1254   9.7768  -1.6071  -0.8413   3.5381   0.00    0.0
2018/03/15 10:48:54.000   78.246536627   16.035455743   495.5625   5   6   3.3417   2.1255   9.7738  -1.6071  -0.8414   3.5367   0.00    0.0
2018/03/15 10:48:55.000   78.246536891   16.035464391   497.7309   5   6   3.3412   2.1256   9.7707  -1.6072  -0.8414   3.5354   0.00    0.0
2018/03/15 10:48:56.000   78.246540103   16.035443599   496.7746   5   6   3.3408   2.1258   9.7677  -1.6073  -0.8415   3.5340   0.00    0.0
2018/03/15 10:48:57.000   78.246537887   16.035433610   494.0740   5   6   3.3403   2.1259   9.7647  -1.6074  -0.8415   3.5327   0.00    0.0
2018/03/15 10:48:58.000   78.246536590   16.035417480   491.1279   5   6   3.3398   2.1260   9.7617  -1.6074  -0.8416   3.5314   0.00    0.0
2018/03/15 10:48:59.000   78.246532318   16.035428137   490.1744   5   6   3.3393   2.1262   9.7587  -1.6075  -0.8416   3.5300   0.00    0.0
2018/03/15 10:49:00.000   78.246532532   16.035428404   492.4549   5   6   3.3388   2.1263   9.7557  -1.6076  -0.8417   3.5287   0.00    0.0
2018/03/15 10:49:01.000   78.246534848   16.035456924   496.1966   5   6   3.3383   2.1264   9.7527  -1.6077  -0.8417   3.5274   0.00    0.0
2018/03/15 10:49:02.000   78.246533254   16.035468837   498.2225   5   6   3.3379   2.1265   9.7497  -1.6077  -0.8418   3.5260   0.00    0.0
2018/03/15 10:49:03.000   78.246530974   16.035455500   496.8104   5   6   3.3374   2.1267   9.7467  -1.6078  -0.8418   3.5247   0.00    0.0
2018/03/15 10:49:04.000   78.246533338   16.035444707   494.3811   5   6   3.3369   2.1268   9.7437  -1.6079  -0.8419   3.5234   0.00    0.0
2018/03/15 10:49:05.000   78.246528773   16.035428638   489.3332   5   6   3.3364   2.1269   9.7407  -1.6080  -0.8419   3.5220   0.00    0.0
2018/03/15 10:49:06.000   78.246528146   16.035446554   490.4841   5   6   3.3359   2.1271   9.7377  -1.6080  -0.8420   3.5207   0.00    0.0
2018/03/15 10:49:07.000   78.246533702   16.035452321   493.1989   5   6   3.3355   2.1272   9.7347  -1.6081  -0.8420   3.5194   0.00    0.0
2018/03/15 10:49:08.000   78.246528427   16.035445455   493.1546   5   6   3.3350   2.1273   9.7317  -1.6082  -0.8421   3.5180   0.00    0.0
2018/03/15 10:49:09.000   78.246530723   16.035466771   495.4492   5   6   3.3345   2.1275   9.7287  -1.6082  -0.8421   3.5167   0.00    0.0
2018/03/15 10:49:10.000   78.246535534   16.035464465   495.8531   5   6   3.3340   2.1276   9.7257  -1.6083  -0.8422   3.5154   0.00    0.0
2018/03/15 10:49:11.000   78.246542089   16.035442572   496.4364   5   6   3.3335   2.1277   9.7227  -1.6084  -0.8422   3.5141   0.00    0.0
2018/03/15 10:49:12.000   78.246540730   16.035436260   491.9885   5   6   3.3331   2.1278   9.7197  -1.6085  -0.8423   3.5127   0.00    0.0
2018/03/15 10:49:13.000   78.246534842   16.035440995   491.4332   5   6   3.3326   2.1280   9.7167  -1.6085  -0.8423   3.5114   0.00    0.0
2018/03/15 10:49:14.000   78.246532083   16.035432222   490.5430   5   6   3.3321   2.1281   9.7138  -1.6086  -0.8424   3.5101   0.00    0.0
2018/03/15 10:49:15.000   78.246535625   16.035450586   495.7367   5   6   3.3316   2.1282   9.7108  -1.6087  -0.8424   3.5088   0.00    0.0
2018/03/15 10:49:16.000   78.246533542   16.035463956   495.5896   5   6   3.3311   2.1284   9.7078  -1.6087  -0.8425   3.5074   0.00    0.0
2018/03/15 10:49:17.000   78.246534260   16.035459147   495.8675   5   6   3.3307   2.1285   9.7048  -1.6088  -0.8425   3.5061   0.00    0.0
2018/03/15 10:49:18.000   78.246530963   16.035452334   497.2175   5   6   3.3302   2.1286   9.7018  -1.6089  -0.8425   3.5048   0.00    0.0
2018/03/15 10:49:19.000   78.246528757   16.035460500   496.3229   5   6   3.3297   2.1287   9.6989  -1.6090  -0.8426   3.5035   0.00    0.0
2018/03/15 10:49:20.000   78.246523863   16.035461222   493.7550   5   6   3.3292   2.1289   9.6959  -1.6090  -0.8426   3.5022   0.00    0.0
2018/03/15 10:49:21.000   78.246521413   16.035429783   488.1783   5   6   3.3287   2.1290   9.6929  -1.6091  -0.8427   3.5008   0.00    0.0
2018/03/15 10:49:22.000   78.246526739   16.035409635   490.6562   5   6   3.3283   2.1291   9.6900  -1.6092  -0.8427   3.4995   0.00    0.0
2018/03/15 10:49:23.000   78.246527996   16.035477745   498.9145   5   6   3.3278   2.1293   9.6870  -1.6092  -0.8428   3.4982   0.00    0.0
2018/03/15 10:49:24.000   78.246529705   16.035508302   500.6582   5   6   3.3273   2.1294   9.6840  -1.6093  -0.8428   3.4969   0.00    0.0
2018/03/15 10:49:25.000   78.246533762   16.035477601   497.1880   5   6   3.3268   2.1295   9.6811  -1.6094  -0.8429   3.4956   0.00    0.0
2018/03/15 10:49:26.000   78.246530310   16.035400598   488.7125   5   6   3.3263   2.1297   9.6781  -1.6095  -0.8429   3.4943   0.00    0.0
2018/03/15 10:49:27.000   78.246534203   16.035417608   490.3059   5   6   3.3259   2.1298   9.6751  -1.6095  -0.8430   3.4929   0.00    0.0
2018/03/15 10:49:28.000   78.246540098   16.035457402   495.1840   5   6   3.3254   2.1299   9.6722  -1.6096  -0.8430   3.4916   0.00    0.0
2018/03/15 10:49:29.000   78.246543524   16.035451180   495.5601   5   7   2.8142   1.9869   9.2200  -1.1097  -1.7168   4.1642   0.00    0.0
2018/03/15 10:49:30.000   78.246539277   16.035431225   494.3280   5   7   2.8134   1.9869   9.2180  -1.1095  -1.7163   4.1625   0.00    0.0
2018/03/15 10:49:31.000   78.246540823   16.035450187   493.1697   5   7   2.8125   1.9869   9.2159  -1.1092  -1.7158   4.1608   0.00    0.0
2018/03/15 10:49:32.000   78.246546192   16.035461700   494.4917   5   7   2.8117   1.9870   9.2139  -1.1090  -1.7152   4.1592   0.00    0.0
2018/03/15 10:49:33.000   78.246548824   16.035428818   494.1554   5   7   2.8109   1.9870   9.2118  -1.1088  -1.7147   4.1575   0.00    0.0
2018/03/15 10:49:34.000   78.246544145   16.035435211   493.7836   5   7   2.8101   1.9871   9.2098  -1.1085  -1.7142   4.1559   0.00    0.0
2018/03/15 10:49:35.000   78.246544178   16.035426607   494.5254   5   7   2.8092   1.9871   9.2078  -1.1083  -1.7137   4.1542   0.00    0.0
2018/03/15 10:49:36.000   78.246536114   16.035438177   492.8214   5   7   2.8084   1.9871   9.2057  -1.1080  -1.7132   4.1525   0.00    0.0
2018/03/15 10:49:37.000   78.246525803   16.035416415   489.6638   5   7   2.8076   1.9872   9.2037  -1.1078  -1.7127   4.1509   0.00    0.0
2018/03/15 10:49:38.000   78.246535964   16.035414322   490.6476   5   7   2.8068   1.9872   9.2016  -1.1075  -1.7122   4.1492   0.00    0.0
2018/03/15 10:49:39.000   78.246540777   16.035463273   496.3831   5   7   2.8060   1.9873   9.1996  -1.1073  -1.7117   4.1476   0.00    0.0
2018/03/15 10:49:40.000   78.246541085   16.035467408   495.6430   5   7   2.8052   1.9873   9.1975  -1.1071  -1.7112   4.1459   0.00    0.0
2018/03/15 10:49:41.000   78.246533642   16.035419961   492.0944   5   7   2.8043   1.9874   9.1955  -1.1068  -1.7107   4.1442   0.00    0.0
2018/03/15 10:49:42.000   78.246527176   16.035406642   488.9709   5   7   2.8035   1.9874   9.1935  -1.1066  -1.7102   4.1426   0.00    0.0
2018/03/15 10:49:43.000   78.246531410   16.035428443   489.7878   5   7   2.8027   1.9874   9.1914  -1.1063  -1.7097   4.1409   0.00    0.0
2018/03/15 10:49:44.000   78.246541767   16.035457159   495.3692   5   7   2.8019   1.9875   9.1894  -1.1061  -1.7091   4.1393   0.00    0.0
2018/03/15 10:49:45.000   78.246540835   16.035468268   496.7073   5   7   2.8011   1.9875   9.1873  -1.1059  -1.7086   4.1376   0.00    0.0
2018/03/15 10:49:46.000   78.246536770   16.035446294   493.0460   5   7   2.8003   1.9876   9.1853  -1.1056  -1.7081   4.1360   0.00    0.0
2018/03/15 10:49:47.000   78.246534944   16.035440898   491.0701   5   7   2.7994   1.9876   9.1833  -1.1054  -1.7076   4.1343   0.00    0.0
2018/03/15 10:49:48.000   78.246535954   16.035422166   491.2338   5   7   2.7986   1.9876   9.1812  -1.1051  -1.7071   4.1327   0.00    0.0
2018/03/15 10:49:49.000   78.246540451   16.035436615   492.2501   5   7   2.7978   1.9877   9.1792  -1.1049  -1.7066   4.1310   0.00    0.0
2018/03/15 10:49:50.000   78.246545910   16.035435678   495.4715   5   7   2.7970   1.9877   9.1771  -1.1046  -1.7061   4.1293   0.00    0.0
2018/03/15 10:49:51.000   78.246543175   16.035459787   493.2135   5   7   2.7962   1.9878   9.1751  -1.1044  -1.7056   4.1277   0.00    0.0
2018/03/15 10:49:52.000   78.246540060   16.035457294   492.2874   5   7   2.7954   1.9878   9.1731  -1.1042  -1.7051   4.1260   0.00    0.0
2018/03/15 10:49:53.000   78.246542343   16.035427815   492.2230   5   7   2.7946   1.9879   9.1710  -1.1039  -1.7046   4.1244   0.00    0.0
2018/03/15 10:49:54.000   78.246542928   16.035456262   492.6330   5   7   2.7937   1.9879   9.1690  -1.1037  -1.7040   4.1227   0.00    0.0
2018/03/15 10:49:55.000   78.246544847   16.035463321   493.8272   5   7   2.7929   1.9879   9.1669  -1.1034  -1.7035   4.1211   0.00    0.0
2018/03/15 10:49:56.000   78.246536628   16.035456994   493.0248   5   7   2.7921   1.9880   9.1649  -1.1032  -1.7030   4.1194   0.00    0.0
2018/03/15 10:49:57.000   78.246534802   16.035412096   491.4634   5   7   2.7913   1.9880   9.1629  -1.1030  -1.7025   4.1178   0.00    0.0
2018/03/15 10:49:58.000   78.246531376   16.035411923   489.4888   5   7   2.7905   1.9881   9.1608  -1.1027  -1.7020   4.1161   0.00    0.0
2018/03/15 10:49:59.000   78.246529832   16.035428058   490.0453   5   7   2.7897   1.9881   9.1588  -1.1025  -1.7015   4.1145   0.00    0.0
2018/03/15 10:50:00.000   78.246534205   16.035413424   491.3467   5   7   2.7889   1.9882   9.1568  -1.1022  -1.7010   4.1128   0.00    0.0
2018/03/15 10:50:01.000   78.246544074   16.035415320   492.5027   5   7   2.7881   1.9882   9.1547  -1.1020  -1.7005   4.1112   0.00    0.0
2018/03/15 10:50:02.000   78.246543378   16.035438238   495.2297   5   7   2.7873   1.9882   9.1527  -1.1018  -1.7000   4.1095   0.00    0.0
2018/03/15 10:50:03.000   78.246538304   16.035449329   493.3023   5   7   2.7865   1.9883   9.1507  -1.1015  -1.6994   4.1079   0.00    0.0
2018/03/15 10:50:04.000   78.246525491   16.035417381   489.4842   5   7   2.7857   1.9883   9.1486  -1.1013  -1.6989   4.1062   0.00    0.0
2018/03/15 10:50:05.000   78.246528773   16.035411989   490.5617   5   7   2.7848   1.9884   9.1466  -1.1010  -1.6984   4.1046   0.00    0.0
2018/03/15 10:50:06.000   78.246535544   16.035447390   494.0047   5   7   2.7840   1.9884   9.1446  -1.1008  -1.6979   4.1029   0.00    0.0
2018/03/15 10:50:07.000   78.246546988   16.035446057   496.9527   5   7   2.7832   1.9884   9.1425  -1.1005  -1.6974   4.1013   0.00    0.0
2018/03/15 10:50:08.000   78.246544490   16.035423859   495.0745   5   7   2.7824   1.9885   9.1405  -1.1003  -1.6969   4.0996   0.00    0.0
2018/03/15 10:50:09.000   78.246544445   16.035425757   492.6683   5   7   2.7816   1.9885   9.1385  -1.1001  -1.6964   4.0980   0.00    0.0
2018/03/15 10:50:10.000   78.246543217   16.035439797   489.8473   5   7   2.7808   1.9886   9.1365  -1.0998  -1.6959   4.0963   0.00    0.0
2018/03/15 10:50:11.000   78.246536908   16.035463459   489.2023   5   7   2.7800   1.9886   9.1344  -1.0996  -1.6953   4.0947   0.00    0.0
2018/03/15 10:50:12.000   78.246543770   16.035435169   493.5824   5   7   2.7792   1.9887   9.1324  -1.0993  -1.6948   4.0930   0.00    0.0
2018/03/15 10:50:13.000   78.246541671   16.035428649   494.2399   5   7   2.7784   1.9887   9.1304  -1.0991  -1.6943   4.0914   0.00    0.0
2018/03/15 10:50:14.000   78.246547516   16.035472759   497.2995   5   7   2.7776   1.9887   9.1283  -1.0989  -1.6938   4.0898   0.00    0.0
2018/03/15 10:50:15.000   78.246548361   16.035456488   497.7815   5   7   2.7768   1.9888   9.1263  -1.0986  -1.6933   4.0881   0.00    0.0
2018/03/15 10:50:16.000   78.246542489   16.035436525   493.3777   5   7   2.7760   1.9888   9.1243  -1.0984  -1.6928   4.0865   0.00    0.0
2018/03/15 10:50:17.000   78.246534307   16.035425773   488.6641   5   7   2.7752   1.9889   9.1223  -1.0981  -1.6923   4.0848   0.00    0.0
2018/03/15 10:50:18.000   78.246541853   16.035450555   492.4929   5   7   2.7744   1.9889   9.1202  -1.0979  -1.6917   4.0832   0.00    0.0
2018/03/15 10:50:19.000   78.246544661   16.035457568   494.2258   5   7   2.7736   1.9890   9.1182  -1.0977  -1.6912   4.0815   0.00    0.0
2018/03/15 10:50:20.000   78.246535321   16.035447200   493.6291   5   7   2.7728   1.9890   9.1162  -1.0974  -1.6907   4.0799   0.00    0.0
2018/03/15 10:50:21.000   78.246528253   16.035434741   490.1085   5   7   2.7720   1.9890   9.1142  -1.0972  -1.6902   4.0783   0.00    0.0
2018/03/15 10:50:22.000   78.246526390   16.035440383   490.3807   5   7   2.7712   1.9891   9.1121  -1.0969  -1.6897   4.0766   0.00    0.0
2018/03/15 10:50:23.000   78.246533022   16.035437686   492.3168   5   7   2.7704   1.9891   9.1101  -1.0967  -1.6892   4.0750   0.00    0.0
2018/03/15 10:50:24.000   78.246538998   16.035441673   493.1765   5   7   2.7696   1.9892   9.1081  -1.0965  -1.6887   4.0733   0.00    0.0
2018/03/15 10:50:25.000   78.246535546   16.035426307   491.5693   5   7   2.7688   1.9892   9.1061  -1.0962  -1.6882   4.0717   0.00    0.0
2018/03/15 10:50:26.000   78.246543747   16.035435883   494.3977   5   7   2.7680   1.9892   9.1040  -1.0960  -1.6876   4.0701   0.00    0.0
2018/03/15 10:50:27.000   78.246541514   16.035438005   494.7756   5   7   2.7672   1.9893   9.1020  -1.0957  -1.6871   4.0684   0.00    0.0
2018/03/15 10:50:28.000   78.246536769   16.035420431   494.2507   5   7   2.7664   1.9893   9.1000  -1.0955  -1.6866   4.0668   0.00    0.0
2018/03/15 10:50:29.000   78.246537323   16.035439810   491.9550   5   7   2.7656   1.9894   9.0980  -1.0953  -1.6861   4.0651   0.00    0.0
2018/03/15 10:50:30.000   78.246546903   16.035451172   495.0903   5   7   2.7648   1.9894   9.0959  -1.0950  -1.6856   4.0635   0.00    0.0
2018/03/15 10:50:31.000   78.246542391   16.035448574   493.8550   5   7   2.7640   1.9895   9.0939  -1.0948  -1.6851   4.0619   0.00    0.0
2018/03/15 10:50:32.000   78.246538347   16.035421816   492.4604   5   7   2.7632   1.9895   9.0919  -1.0945  -1.6845   4.0602   0.00    0.0
2018/03/15 10:50:33.000   78.246531700   16.035410855   490.4796   5   7   2.7624   1.9895   9.0899  -1.0943  -1.6840   4.0586   0.00    0.0
2018/03/15 10:50:34.000   78.246536330   16.035424218   492.5875   5   7   2.7617   1.9896   9.0879  -1.0941  -1.6835   4.0569   0.00    0.0
2018/03/15 10:50:35.000   78.246544370   16.035455506   496.1028   5   7   2.7609   1.9896   9.0858  -1.0938  -1.6830   4.0553   0.00    0.0
2018/03/15 10:50:36.000   78.246548022   16.035450044   496.3289   5   7   2.7601   1.9897   9.0838  -1.0936  -1.6825   4.0537   0.00    0.0
2018/03/15 10:50:37.000   78.246544881   16.035441432   494.4484   5   7   2.7593   1.9897   9.0818  -1.0933  -1.6820   4.0520   0.00    0.0
2018/03/15 10:50:38.000   78.246533397   16.035434535   490.4864   5   7   2.7585   1.9898   9.0798  -1.0931  -1.6815   4.0504   0.00    0.0
2018/03/15 10:50:39.000   78.246535003   16.035417468   491.5434   5   7   2.7577   1.9898   9.0778  -1.0929  -1.6809   4.0488   0.00    0.0
2018/03/15 10:50:40.000   78.246538532   16.035430539   492.2450   5   7   2.7569   1.9898   9.0758  -1.0926  -1.6804   4.0471   0.00    0.0
2018/03/15 10:50:41.000   78.246538825   16.035454315   493.0588   5   7   2.7561   1.9899   9.0737  -1.0924  -1.6799   4.0455   0.00    0.0
2018/03/15 10:50:42.000   78.246539950   16.035455025   493.8826   5   7   2.7553   1.9899   9.0717  -1.0921  -1.6794   4.0439   0.00    0.0
2018/03/15 10:50:43.000   78.246548475   16.035437652   496.6151   5   7   2.7545   1.9900   9.0697  -1.0919  -1.6789   4.0422   0.00    0.0
2018/03/15 10:50:44.000   78.246539974   16.035415836   494.0860   5   7   2.7537   1.9900   9.0677  -1.0917  -1.6784   4.0406   0.00    0.0
2018/03/15 10:50:45.000   78.246530623   16.035440284   490.3388   5   7   2.7530   1.9901   9.0657  -1.0914  -1.6778   4.0390   0.00    0.0
2018/03/15 10:50:46.000   78.246535853   16.035422177   490.4658   5   7   2.7522   1.9901   9.0637  -1.0912  -1.6773   4.0373   0.00    0.0
2018/03/15 10:50:47.000   78.246542833   16.035430808   492.7016   5   7   2.7514   1.9901   9.0617  -1.0909  -1.6768   4.0357   0.00    0.0
2018/03/15 10:50:48.000   78.246542570   16.035449020   494.0387   5   7   2.7506   1.9902   9.0596  -1.0907  -1.6763   4.0341   0.00    0.0
2018/03/15 10:50:49.000   78.246537339   16.035437888   492.4258   5   7   2.7498   1.9902   9.0576  -1.0905  -1.6758   4.0325   0.00    0.0
2018/03/15 10:50:50.000   78.246536302   16.035422158   492.4205   5   7   2.7490   1.9903   9.0556  -1.0902  -1.6753   4.0308   0.00    0.0
2018/03/15 10:50:51.000   78.246541281   16.035429701   493.6971   5   7   2.7482   1.9903   9.0536  -1.0900  -1.6747   4.0292   0.00    0.0
2018/03/15 10:50:52.000   78.246541389   16.035439443   495.4400   5   7   2.7475   1.9904   9.0516  -1.0897  -1.6742   4.0276   0.00    0.0
2018/03/15 10:50:53.000   78.246538279   16.035447684   494.7529   5   7   2.7467   1.9904   9.0496  -1.0895  -1.6737   4.0259   0.00    0.0
2018/03/15 10:50:54.000   78.246536004   16.035433989   491.0426   5   7   2.7459   1.9904   9.0476  -1.0893  -1.6732   4.0243   0.00    0.0
2018/03/15 10:50:55.000   78.246537215   16.035411809   492.1410   5   7   2.7451   1.9905   9.0456  -1.0890  -1.6727   4.0227   0.00    0.0
2018/03/15 10:50:56.000   78.246536465   16.035430108   490.4873   5   7   2.7443   1.9905   9.0436  -1.0888  -1.6722   4.0211   0.00    0.0
2018/03/15 10:50:57.000   78.246533883   16.035418123   490.4641   5   7   2.7435   1.9906   9.0416  -1.0885  -1.6716   4.0194   0.00    0.0
2018/03/15 10:50:58.000   78.246538251   16.035435406   492.4736   5   7   2.7428   1.9906   9.0395  -1.0883  -1.6711   4.0178   0.00    0.0
2018/03/15 10:50:59.000   78.246545408   16.035445111   497.2815   5   7   2.7420   1.9906   9.0375  -1.0881  -1.6706   4.0162   0.00    0.0
2018/03/15 10:51:00.000   78.246542658   16.035450378   495.7707   5   7   2.7412   1.9907   9.0355  -1.0878  -1.6701   4.0146   0.00    0.0
2018/03/15 10:51:01.000   78.246534058   16.035434946   490.8376   5   7   2.7404   1.9907   9.0335  -1.0876  -1.6696   4.0129   0.00    0.0
2018/03/15 10:51:02.000   78.246543372   16.035398043   492.8299   5   7   2.7396   1.9908   9.0315  -1.0873  -1.6690   4.0113   0.00    0.0
2018/03/15 10:51:03.000   78.246546829   16.035445954   495.2170   5   7   2.7389   1.9908   9.0295  -1.0871  -1.6685   4.0097   0.00    0.0
2018/03/15 10:51:04.000   78.246552381   16.035457973   497.9880   5   7   2.7381   1.9909   9.0275  -1.0869  -1.6680   4.0081   0.00    0.0
2018/03/15 10:51:05.000   78.246545516   16.035435793   495.9427   5   7   2.7373   1.9909   9.0255  -1.0866  -1.6675   4.0064   0.00    0.0
2018/03/15 10:51:06.000   78.246537994   16.035423393   491.7919   5   7   2.7365   1.9909   9.0235  -1.0864  -1.6670   4.0048   0.00    0.0
2018/03/15 10:51:07.000   78.246540867   16.035430762   492.7405   5   7   2.7357   1.9910   9.0215  -1.0862  -1.6665   4.0032   0.00    0.0
2018/03/15 10:51:08.000   78.246542484   16.035450458   494.9410   5   7   2.7350   1.9910   9.0195  -1.0859  -1.6659   4.0016   0.00    0.0
2018/03/15 10:51:09.000   78.246540023   16.035431911   493.1676   5   7   2.7342   1.9911   9.0175  -1.0857  -1.6654   3.9999   0.00    0.0
2018/03/15 10:51:10.000   78.246534029   16.035420275   490.2235   5   7   2.7334   1.9911   9.0155  -1.0854  -1.6649   3.9983   0.00    0.0
2018/03/15 10:51:11.000   78.246543053   16.035415344   492.3183   5   7   2.7326   1.9912   9.0135  -1.0852  -1.6644   3.9967   0.00    0.0
2018/03/15 10:51:12.000   78.246545623   16.035460285   495.2144   5   7   2.7319   1.9912   9.0115  -1.0850  -1.6639   3.9951   0.00    0.0
2018/03/15 10:51:13.000   78.246544062   16.035447945   493.8631   5   7   2.7311   1.9912   9.0095  -1.0847  -1.6633   3.9935   0.00    0.0
2018/03/15 10:51:14.000   78.246532620   16.035432684   492.2857   5   7   2.7303   1.9913   9.0075  -1.0845  -1.6628   3.9918   0.00    0.0
2018/03/15 10:51:15.000   78.246528344   16.035427054   490.5601   5   7   2.7295   1.9913   9.0055  -1.0842  -1.6623   3.9902   0.00    0.0
2018/03/15 10:51:16.000   78.246538376   16.035418366   492.7290   5   7   2.7288   1.9914   9.0035  -1.0840  -1.6618   3.9886   0.00    0.0
2018/03/15 10:51:17.000   78.246543309   16.035428027   493.8087   5   7   2.7280   1.9914   9.0015  -1.0838  -1.6613   3.9870   0.00    0.0
2018/03/15 10:51:18.000   78.246537856   16.035420481   491.1600   5   7   2.7272   1.9915   8.9995  -1.0835  -1.6607   3.9854   0.00    0.0
2018/03/15 10:51:19.000   78.246528372   16.035407881   488.9948   5   7   2.7264   1.9915   8.9975  -1.0833  -1.6602   3.9838   0.00    0.0
2018/03/15 10:51:20.000   78.246536733   16.035419722   492.1528   5   7   2.7257   1.9915   8.9955  -1.0831  -1.6597   3.9821   0.00    0.0
2018/03/15 10:51:21.000   78.246547684   16.035445700   496.9077   5   7   2.7249   1.9916   8.9935  -1.0828  -1.6592   3.9805   0.00    0.0
2018/03/15 10:51:22.000   78.246547030   16.035443343   496.4728   5   7   2.7241   1.9916   8.9915  -1.0826  -1.6587   3.9789   0.00    0.0
2018/03/15 10:51:23.000   78.246539567   16.035451505   493.1424   5   7   2.7234   1.9917   8.9895  -1.0823  -1.6581   3.9773   0.00    0.0
2018/03/15 10:51:24.000   78.246541473   16.035419896   492.6389   5   7   2.7226   1.9917   8.9875  -1.0821  -1.6576   3.9757   0.00    0.0
2018/03/15 10:51:25.000   78.246533806   16.035404694   489.4320   5   7   2.7218   1.9918   8.9855  -1.0819  -1.6571   3.9741   0.00    0.0
2018/03/15 10:51:26.000   78.246546922   16.035439701   496.1439   5   7   2.7211   1.9918   8.9835  -1.0816  -1.6566   3.9725   0.00    0.0
2018/03/15 10:51:27.000   78.246553683   16.035467639   497.6934   5   7   2.7203   1.9918   8.9815  -1.0814  -1.6561   3.9708   0.00    0.0
2018/03/15 10:51:28.000   78.246549488   16.035469021   495.4928   5   7   2.7195   1.9919   8.9795  -1.0811  -1.6555   3.9692   0.00    0.0
2018/03/15 10:51:29.000   78.246541390   16.035433639   492.4637   5   7   2.7187   1.9919   8.9775  -1.0809  -1.6550   3.9676   0.00    0.0
2018/03/15 10:51:30.000   78.246536032   16.035402561   490.4607   5   7   2.7180   1.9920   8.9756  -1.0807  -1.6545   3.9660   0.00    0.0
2018/03/15 10:51:31.000   78.246537649   16.035418612   491.8949   5   7   2.7172   1.9920   8.9736  -1.0804  -1.6540   3.9644   0.00    0.0
2018/03/15 10:51:32.000   78.246543547   16.035453436   494.5238   5   7   2.7164   1.9921   8.9716  -1.0802  -1.6535   3.9628   0.00    0.0
2018/03/15 10:51:33.000   78.246540662   16.035444914   494.0654   5   7   2.7157   1.9921   8.9696  -1.0800  -1.6529   3.9612   0.00    0.0
2018/03/15 10:51:34.000   78.246534598   16.035419853   491.6244   5   7   2.7149   1.9921   8.9676  -1.0797  -1.6524   3.9596   0.00    0.0
2018/03/15 10:51:35.000   78.246526248   16.035385620   489.0800   5   7   2.7142   1.9922   8.9656  -1.0795  -1.6519   3.9580   0.00    0.0
2018/03/15 10:51:36.000   78.246535255   16.035411179   495.7006   5   7   2.7134   1.9922   8.9636  -1.0792  -1.6514   3.9563   0.00    0.0
2018/03/15 10:51:37.000   78.246540401   16.035447619   496.8231   5   7   2.7126   1.9923   8.9616  -1.0790  -1.6509   3.9547   0.00    0.0
2018/03/15 10:51:38.000   78.246542802   16.035424435   495.0138   5   7   2.7119   1.9923   8.9596  -1.0788  -1.6503   3.9531   0.00    0.0
2018/03/15 10:51:39.000   78.246530144   16.035406420   488.6480   5   7   2.7111   1.9924   8.9577  -1.0785  -1.6498   3.9515   0.00    0.0
2018/03/15 10:51:40.000   78.246532093   16.035404324   490.1103   5   7   2.7103   1.9924   8.9557  -1.0783  -1.6493   3.9499   0.00    0.0
2018/03/15 10:51:41.000   78.246536968   16.035452246   492.4159   5   7   2.7096   1.9925   8.9537  -1.0781  -1.6488   3.9483   0.00    0.0
2018/03/15 10:51:42.000   78.246538511   16.035433971   494.4706   5   7   2.7088   1.9925   8.9517  -1.0778  -1.6483   3.9467   0.00    0.0
2018/03/15 10:51:43.000   78.246536157   16.035413766   492.0778   5   7   2.7081   1.9925   8.9497  -1.0776  -1.6477   3.9451   0.00    0.0
2018/03/15 10:51:44.000   78.246535877   16.035425938   489.6192   5   7   2.7073   1.9926   8.9477  -1.0773  -1.6472   3.9435   0.00    0.0
2018/03/15 10:51:45.000   78.246544424   16.035444675   493.6438   5   7   2.7065   1.9926   8.9457  -1.0771  -1.6467   3.9419   0.00    0.0
2018/03/15 10:51:46.000   78.246547384   16.035429533   496.1946   5   7   2.7058   1.9927   8.9438  -1.0769  -1.6462   3.9403   0.00    0.0
2018/03/15 10:51:47.000   78.246543784   16.035438406   494.9934   5   7   2.7050   1.9927   8.9418  -1.0766  -1.6456   3.9387   0.00    0.0
2018/03/15 10:51:48.000   78.246542127   16.035422622   493.9479   5   7   2.7043   1.9928   8.9398  -1.0764  -1.6451   3.9371   0.00    0.0
2018/03/15 10:51:49.000   78.246545145   16.035433394   494.6715   5   7   2.7035   1.9928   8.9378  -1.0762  -1.6446   3.9355   0.00    0.0
2018/03/15 10:51:50.000   78.246549886   16.035444060   495.6136   5   7   2.7027   1.9928   8.9358  -1.0759  -1.6441   3.9339   0.00    0.0
2018/03/15 10:51:51.000   78.246542373   16.035439471   492.3477   5   7   2.7020   1.9929   8.9338  -1.0757  -1.6436   3.9323   0.00    0.0
2018/03/15 10:51:52.000   78.246544306   16.035439241   494.1756   5   7   2.7012   1.9929   8.9319  -1.0754  -1.6430   3.9307   0.00    0.0
2018/03/15 10:51:53.000   78.246539632   16.035424513   494.8342   5   7   2.7005   1.9930   8.9299  -1.0752  -1.6425   3.9291   0.00    0.0
2018/03/15 10:51:54.000   78.246528166   16.035412124   491.7799   5   7   2.6997   1.9930   8.9279  -1.0750  -1.6420   3.9275   0.00    0.0
2018/03/15 10:51:55.000   78.246526134   16.035384965   488.5629   5   7   2.6990   1.9931   8.9259  -1.0747  -1.6415   3.9259   0.00    0.0
2018/03/15 10:51:56.000   78.246538592   16.035423085   491.6661   5   7   2.6982   1.9931   8.9240  -1.0745  -1.6409   3.9243   0.00    0.0
2018/03/15 10:51:57.000   78.246551185   16.035465027   495.7823   5   7   2.6975   1.9931   8.9220  -1.0743  -1.6404   3.9227   0.00    0.0
2018/03/15 10:51:58.000   78.246549079   16.035451617   495.8653   5   7   2.6967   1.9932   8.9200  -1.0740  -1.6399   3.9211   0.00    0.0
2018/03/15 10:51:59.000   78.246536215   16.035414959   492.6686   5   7   2.6959   1.9932   8.9180  -1.0738  -1.6394   3.9195   0.00    0.0
2018/03/15 10:52:00.000   78.246531746   16.035399945   491.4251   5   7   2.6952   1.9933   8.9160  -1.0736  -1.6389   3.9179   0.00    0.0
2018/03/15 10:52:01.000   78.246542633   16.035432923   495.6399   5   7   2.6944   1.9933   8.9141  -1.0733  -1.6383   3.9163   0.00    0.0
2018/03/15 10:52:02.000   78.246546204   16.035461753   496.8649   5   7   2.6937   1.9934   8.9121  -1.0731  -1.6378   3.9147   0.00    0.0
2018/03/15 10:52:03.000   78.246548326   16.035456559   495.7554   5   7   2.6929   1.9934   8.9101  -1.0728  -1.6373   3.9131   0.00    0.0
2018/03/15 10:52:04.000   78.246539035   16.035415881   488.9981   5   7   2.6922   1.9934   8.9081  -1.0726  -1.6368   3.9115   0.00    0.0
2018/03/15 10:52:05.000   78.246533913   16.035394176   486.9840   5   7   2.6914   1.9935   8.9062  -1.0724  -1.6362   3.9099   0.00    0.0
2018/03/15 10:52:06.000   78.246545826   16.035437315   494.9423   5   7   2.6907   1.9935   8.9042  -1.0721  -1.6357   3.9083   0.00    0.0
2018/03/15 10:52:07.000   78.246552350   16.035473596   498.7492   5   7   2.6899   1.9936   8.9022  -1.0719  -1.6352   3.9067   0.00    0.0
2018/03/15 10:52:08.000   78.246546023   16.035451029   497.5867   5   7   2.6892   1.9936   8.9003  -1.0717  -1.6347   3.9051   0.00    0.0
2018/03/15 10:52:09.000   78.246538436   16.035415990   493.8790   5   7   2.6884   1.9937   8.8983  -1.0714  -1.6341   3.9035   0.00    0.0
2018/03/15 10:52:10.000   78.246532634   16.035411248   488.8083   5   7   2.6877   1.9937   8.8963  -1.0712  -1.6336   3.9019   0.00    0.0
2018/03/15 10:52:11.000   78.246538742   16.035425274   490.4734   5   7   2.6869   1.9938   8.8943  -1.0710  -1.6331   3.9003   0.00    0.0
2018/03/15 10:52:12.000   78.246547502   16.035440908   495.5411   5   7   2.6862   1.9938   8.8924  -1.0707  -1.6326   3.8987   0.00    0.0
2018/03/15 10:52:13.000   78.246550384   16.035439581   497.9803   5   7   2.6854   1.9938   8.8904  -1.0705  -1.6321   3.8971   0.00    0.0
2018/03/15 10:52:14.000   78.246541290   16.035446552   495.1738   5   7   2.6847   1.9939   8.8884  -1.0702  -1.6315   3.8955   0.00    0.0
2018/03/15 10:52:15.000   78.246538720   16.035415570   492.4526   5   7   2.6840   1.9939   8.8865  -1.0700  -1.6310   3.8939   0.00    0.0
2018/03/15 10:52:16.000   78.246535575   16.035397325   489.3687   5   7   2.6832   1.9940   8.8845  -1.0698  -1.6305   3.8923   0.00    0.0
2018/03/15 10:52:17.000   78.246534781   16.035413141   489.6076   5   7   2.6825   1.9940   8.8825  -1.0695  -1.6300   3.8908   0.00    0.0
2018/03/15 10:52:18.000   78.246541372   16.035456209   494.2325   5   7   2.6817   1.9941   8.8806  -1.0693  -1.6294   3.8892   0.00    0.0
2018/03/15 10:52:19.000   78.246547174   16.035457720   497.7855   5   7   2.6810   1.9941   8.8786  -1.0691  -1.6289   3.8876   0.00    0.0
2018/03/15 10:52:20.000   78.246545957   16.035453999   496.8199   5   7   2.6802   1.9941   8.8766  -1.0688  -1.6284   3.8860   0.00    0.0
2018/03/15 10:52:21.000   78.246539225   16.035429548   491.0055   5   7   2.6795   1.9942   8.8747  -1.0686  -1.6279   3.8844   0.00    0.0
2018/03/15 10:52:22.000   78.246535538   16.035411676   489.6946   5   7   2.6787   1.9942   8.8727  -1.0684  -1.6273   3.8828   0.00    0.0
2018/03/15 10:52:23.000   78.246543208   16.035419105   492.1168   5   7   2.6780   1.9943   8.8707  -1.0681  -1.6268   3.8812   0.00    0.0
2018/03/15 10:52:24.000   78.246546913   16.035467436   495.4857   5   7   2.6773   1.9943   8.8688  -1.0679  -1.6263   3.8796   0.00    0.0
2018/03/15 10:52:25.000   78.246550786   16.035452416   498.0692   5   7   2.6765   1.9944   8.8668  -1.0677  -1.6258   3.8780   0.00    0.0
2018/03/15 10:52:26.000   78.246542887   16.035434777   493.2636   5   7   2.6758   1.9944   8.8649  -1.0674  -1.6252   3.8765   0.00    0.0
2018/03/15 10:52:27.000   78.246534636   16.035416398   489.2334   5   7   2.6750   1.9944   8.8629  -1.0672  -1.6247   3.8749   0.00    0.0
2018/03/15 10:52:28.000   78.246540120   16.035426917   492.5022   5   7   2.6743   1.9945   8.8609  -1.0670  -1.6242   3.8733   0.00    0.0
2018/03/15 10:52:29.000   78.246548483   16.035432991   496.6045   5   7   2.6736   1.9945   8.8590  -1.0667  -1.6237   3.8717   0.00    0.0
2018/03/15 10:52:30.000   78.246538772   16.035440811   493.3120   5   7   2.6728   1.9946   8.8570  -1.0665  -1.6231   3.8701   0.00    0.0
2018/03/15 10:52:31.000   78.246538033   16.035411521   491.7797   5   7   2.6721   1.9946   8.8551  -1.0662  -1.6226   3.8685   0.00    0.0
2018/03/15 10:52:32.000   78.246533358   16.035401848   489.7950   5   7   2.6713   1.9947   8.8531  -1.0660  -1.6221   3.8670   0.00    0.0
2018/03/15 10:52:33.000   78.246534203   16.035424338   490.8852   5   7   2.6706   1.9947   8.8511  -1.0658  -1.6216   3.8654   0.00    0.0
2018/03/15 10:52:34.000   78.246536830   16.035428011   493.1745   5   7   2.6699   1.9948   8.8492  -1.0655  -1.6210   3.8638   0.00    0.0
2018/03/15 10:52:35.000   78.246538919   16.035439860   493.8548   5   7   2.6691   1.9948   8.8472  -1.0653  -1.6205   3.8622   0.00    0.0
2018/03/15 10:52:36.000   78.246543715   16.035439727   495.5388   5   7   2.6684   1.9948   8.8453  -1.0651  -1.6200   3.8606   0.00    0.0
2018/03/15 10:52:37.000   78.246538851   16.035436339   492.8055   5   7   2.6677   1.9949   8.8433  -1.0648  -1.6195   3.8590   0.00    0.0
2018/03/15 10:52:38.000   78.246535301   16.035439407   491.4118   5   7   2.6669   1.9949   8.8414  -1.0646  -1.6189   3.8575   0.00    0.0
2018/03/15 10:52:39.000   78.246537623   16.035418862   491.4340   5   7   2.6662   1.9950   8.8394  -1.0644  -1.6184   3.8559   0.00    0.0
2018/03/15 10:52:40.000   78.246538057   16.035413195   490.9049   5   7   2.6655   1.9950   8.8375  -1.0641  -1.6179   3.8543   0.00    0.0
2018/03/15 10:52:41.000   78.246542475   16.035436456   492.9406   5   7   2.6647   1.9951   8.8355  -1.0639  -1.6174   3.8527   0.00    0.0
2018/03/15 10:52:42.000   78.246548536   16.035449604   494.2520   5   7   2.6640   1.9951   8.8335  -1.0637  -1.6168   3.8511   0.00    0.0
2018/03/15 10:52:43.000   78.246548487   16.035443836   493.6326   5   7   2.6633   1.9952   8.8316  -1.0634  -1.6163   3.8496   0.00    0.0
2018/03/15 10:52:44.000   78.246544545   16.035442274   492.7097   5   7   2.6625   1.9952   8.8296  -1.0632  -1.6158   3.8480   0.00    0.0
2018/03/15 10:52:45.000   78.246543859   16.035426589   491.7895   5   7   2.6618   1.9952   8.8277  -1.0630  -1.6153   3.8464   0.00    0.0
2018/03/15 10:52:46.000   78.246542570   16.035440269   494.9548   5   7   2.6611   1.9953   8.8257  -1.0627  -1.6147   3.8448   0.00    0.0
2018/03/15 10:52:47.000   78.246550636   16.035457215   496.9724   5   7   2.6603   1.9953   8.8238  -1.0625  -1.6142   3.8433   0.00    0.0
2018/03/15 10:52:48.000   78.246556330   16.035458162   499.1867   5   7   2.6596   1.9954   8.8218  -1.0623  -1.6137   3.8417   0.00    0.0
2018/03/15 10:52:49.000   78.246548214   16.035440718   494.7796   5   7   2.6589   1.9954   8.8199  -1.0620  -1.6132   3.8401   0.00    0.0
2018/03/15 10:52:50.000   78.246536377   16.035415274   489.5460   5   7   2.6581   1.9955   8.8179  -1.0618  -1.6126   3.8385   0.00    0.0
2018/03/15 10:52:51.000   78.246526104   16.035407885   486.3647   5   7   2.6574   1.9955   8.8160  -1.0616  -1.6121   3.8370   0.00    0.0
2018/03/15 10:52:52.000   78.246529051   16.035404474   489.3041   5   7   2.6567   1.9955   8.8140  -1.0613  -1.6116   3.8354   0.00    0.0
2018/03/15 10:52:53.000   78.246537185   16.035420312   494.0295   5   7   2.6560   1.9956   8.8121  -1.0611  -1.6111   3.8338   0.00    0.0
2018/03/15 10:52:54.000   78.246537439   16.035432190   493.2872   5   7   2.6552   1.9956   8.8102  -1.0609  -1.6105   3.8322   0.00    0.0
2018/03/15 10:52:55.000   78.246533084   16.035441177   490.5647   5   7   2.6545   1.9957   8.8082  -1.0606  -1.6100   3.8307   0.00    0.0
2018/03/15 10:52:56.000   78.246535715   16.035431712   491.1914   5   7   2.6538   1.9957   8.8063  -1.0604  -1.6095   3.8291   0.00    0.0
2018/03/15 10:52:57.000   78.246540631   16.035410587   492.6834   5   7   2.6531   1.9958   8.8043  -1.0602  -1.6090   3.8275   0.00    0.0
2018/03/15 10:52:58.000   78.246539322   16.035439894   491.9127   5   7   2.6523   1.9958   8.8024  -1.0599  -1.6084   3.8260   0.00    0.0
2018/03/15 10:52:59.000   78.246545989   16.035442574   494.2827   5   7   2.6516   1.9959   8.8004  -1.0597  -1.6079   3.8244   0.00    0.0
2018/03/15 10:53:00.000   78.246548702   16.035438370   495.6519   5   7   2.6509   1.9959   8.7985  -1.0595  -1.6074   3.8228   0.00    0.0
2018/03/15 10:53:01.000   78.246544353   16.035435142   492.9139   5   7   2.6502   1.9959   8.7966  -1.0592  -1.6068   3.8212   0.00    0.0
2018/03/15 10:53:02.000   78.246537870   16.035413889   490.9282   5   7   2.6494   1.9960   8.7946  -1.0590  -1.6063   3.8197   0.00    0.0
2018/03/15 10:53:03.000   78.246528593   16.035401337   488.3242   5   7   2.6487   1.9960   8.7927  -1.0588  -1.6058   3.8181   0.00    0.0
2018/03/15 10:53:04.000   78.246546108   16.035413502   493.5047   5   7   2.6480   1.9961   8.7907  -1.0585  -1.6053   3.8165   0.00    0.0
2018/03/15 10:53:05.000   78.246561311   16.035474727   499.0859   5   7   2.6473   1.9961   8.7888  -1.0583  -1.6047   3.8150   0.00    0.0
2018/03/15 10:53:06.000   78.246557682   16.035487218   497.1501   5   7   2.6465   1.9962   8.7869  -1.0581  -1.6042   3.8134   0.00    0.0
2018/03/15 10:53:07.000   78.246550279   16.035474008   495.1828   5   7   2.6458   1.9962   8.7849  -1.0578  -1.6037   3.8118   0.00    0.0
2018/03/15 10:53:08.000   78.246541931   16.035409970   491.2216   5   7   2.6451   1.9963   8.7830  -1.0576  -1.6032   3.8103   0.00    0.0
2018/03/15 10:53:09.000   78.246533353   16.035390099   490.1165   5   7   2.6444   1.9963   8.7810  -1.0574  -1.6026   3.8087   0.00    0.0
2018/03/15 10:53:10.000   78.246544304   16.035459277   495.7362   5   7   2.6437   1.9963   8.7791  -1.0571  -1.6021   3.8071   0.00    0.0
2018/03/15 10:53:11.000   78.246550667   16.035458030   496.3949   5   7   2.6429   1.9964   8.7772  -1.0569  -1.6016   3.8056   0.00    0.0
2018/03/15 10:53:12.000   78.246542789   16.035441753   492.3905   5   7   2.6422   1.9964   8.7752  -1.0567  -1.6011   3.8040   0.00    0.0
2018/03/15 10:53:13.000   78.246534390   16.035411053   489.7887   5   7   2.6415   1.9965   8.7733  -1.0564  -1.6005   3.8024   0.00    0.0
2018/03/15 10:53:14.000   78.246528987   16.035402541   488.5022   5   7   2.6408   1.9965   8.7714  -1.0562  -1.6000   3.8009   0.00    0.0
2018/03/15 10:53:15.000   78.246535820   16.035417294   491.5664   5   7   2.6401   1.9966   8.7694  -1.0560  -1.5995   3.7993   0.00    0.0
2018/03/15 10:53:16.000   78.246545055   16.035410444   495.2425   5   7   2.6393   1.9966   8.7675  -1.0557  -1.5989   3.7978   0.00    0.0
2018/03/15 10:53:17.000   78.246534837   16.035442405   492.4441   5   7   2.6386   1.9967   8.7656  -1.0555  -1.5984   3.7962   0.00    0.0
2018/03/15 10:53:18.000   78.246537482   16.035435832   493.9822   5   7   2.6379   1.9967   8.7636  -1.0553  -1.5979   3.7946   0.00    0.0
2018/03/15 10:53:19.000   78.246537026   16.035435194   492.9249   5   7   2.6372   1.9967   8.7617  -1.0550  -1.5974   3.7931   0.00    0.0
2018/03/15 10:53:20.000   78.246539887   16.035407154   493.4514   5   7   2.6365   1.9968   8.7598  -1.0548  -1.5968   3.7915   0.00    0.0
2018/03/15 10:53:21.000   78.246540519   16.035405091   491.7034   5   7   2.6358   1.9968   8.7578  -1.0546  -1.5963   3.7899   0.00    0.0
2018/03/15 10:53:22.000   78.246543172   16.035453162   492.1063   5   7   2.6351   1.9969   8.7559  -1.0543  -1.5958   3.7884   0.00    0.0
2018/03/15 10:53:23.000   78.246549787   16.035449369   495.0433   5   7   2.6343   1.9969   8.7540  -1.0541  -1.5953   3.7868   0.00    0.0
2018/03/15 10:53:24.000   78.246548266   16.035450067   496.4367   5   7   2.6336   1.9970   8.7521  -1.0539  -1.5947   3.7853   0.00    0.0
2018/03/15 10:53:25.000   78.246540148   16.035441425   493.8060   5   7   2.6329   1.9970   8.7501  -1.0536  -1.5942   3.7837   0.00    0.0
2018/03/15 10:53:26.000   78.246537029   16.035410596   489.7962   5   7   2.6322   1.9971   8.7482  -1.0534  -1.5937   3.7822   0.00    0.0
2018/03/15 10:53:27.000   78.246545282   16.035425596   492.3647   5   7   2.6315   1.9971   8.7463  -1.0532  -1.5931   3.7806   0.00    0.0
2018/03/15 10:53:28.000   78.246561690   16.035469222   498.7199   5   7   2.6308   1.9971   8.7443  -1.0529  -1.5926   3.7790   0.00    0.0
2018/03/15 10:53:29.000   78.246557883   16.035462441   497.7447   5   7   2.6301   1.9972   8.7424  -1.0527  -1.5921   3.7775   0.00    0.0
2018/03/15 10:53:30.000   78.246546121   16.035444195   494.7192   5   7   2.6294   1.9972   8.7405  -1.0525  -1.5916   3.7759   0.00    0.0
2018/03/15 10:53:31.000   78.246536392   16.035400028   490.8104   5   7   2.6286   1.9973   8.7386  -1.0522  -1.5910   3.7744   0.00    0.0
2018/03/15 10:53:32.000   78.246530553   16.035394584   489.3069   5   7   2.6279   1.9973   8.7366  -1.0520  -1.5905   3.7728   0.00    0.0
2018/03/15 10:53:33.000   78.246545246   16.035468348   495.3489   5   7   2.6272   1.9974   8.7347  -1.0518  -1.5900   3.7713   0.00    0.0
2018/03/15 10:53:34.000   78.246546836   16.035473530   496.9365   5   7   2.6265   1.9974   8.7328  -1.0516  -1.5895   3.7697   0.00    0.0
2018/03/15 10:53:35.000   78.246546580   16.035425998   496.9810   5   7   2.6258   1.9975   8.7309  -1.0513  -1.5889   3.7682   0.00    0.0
2018/03/15 10:53:36.000   78.246536810   16.035405324   491.8670   5   7   2.6251   1.9975   8.7290  -1.0511  -1.5884   3.7666   0.00    0.0
2018/03/15 10:53:37.000   78.246530471   16.035394571   487.7056   5   7   2.6244   1.9976   8.7270  -1.0509  -1.5879   3.7651   0.00    0.0
2018/03/15 10:53:38.000   78.246528887   16.035408819   488.7607   5   7   2.6237   1.9976   8.7251  -1.0506  -1.5873   3.7635   0.00    0.0
2018/03/15 10:53:39.000   78.246538185   16.035415787   491.5511   5   7   2.6230   1.9976   8.7232  -1.0504  -1.5868   3.7619   0.00    0.0
2018/03/15 10:53:40.000   78.246537781   16.035407082   494.2244   5   7   2.6223   1.9977   8.7213  -1.0502  -1.5863   3.7604   0.00    0.0
2018/03/15 10:53:41.000   78.246542334   16.035432848   495.3907   5   7   2.6216   1.9977   8.7194  -1.0499  -1.5858   3.7588   0.00    0.0
2018/03/15 10:53:42.000   78.246548888   16.035447462   495.8893   5   7   2.6209   1.9978   8.7174  -1.0497  -1.5852   3.7573   0.00    0.0
2018/03/15 10:53:43.000   78.246543069   16.035432118   493.4513   5   7   2.6202   1.9978   8.7155  -1.0495  -1.5847   3.7557   0.00    0.0
2018/03/15 10:53:44.000   78.246536682   16.035408873   489.4113   5   7   2.6195   1.9979   8.7136  -1.0492  -1.5842   3.7542   0.00    0.0
2018/03/15 10:53:45.000   78.246541922   16.035427809   491.5907   5   7   2.6187   1.9979   8.7117  -1.0490  -1.5837   3.7526   0.00    0.0
2018/03/15 10:53:46.000   78.246546765   16.035456989   496.1241   5   7   2.6180   1.9980   8.7098  -1.0488  -1.5831   3.7511   0.00    0.0
2018/03/15 10:53:47.000   78.246552290   16.035464183   498.2592   5   7   2.6173   1.9980   8.7079  -1.0486  -1.5826   3.7496   0.00    0.0
2018/03/15 10:53:48.000   78.246545353   16.035462533   494.6881   5   7   2.6166   1.9980   8.7060  -1.0483  -1.5821   3.7480   0.00    0.0
2018/03/15 10:53:49.000   78.246541400   16.035406602   491.3416   5   7   2.6159   1.9981   8.7040  -1.0481  -1.5815   3.7465   0.00    0.0
2018/03/15 10:53:50.000   78.246536161   16.035372781   486.2919   5   7   2.6152   1.9981   8.7021  -1.0479  -1.5810   3.7449   0.00    0.0
2018/03/15 10:53:51.000   78.246546178   16.035408520   492.3284   5   7   2.6145   1.9982   8.7002  -1.0476  -1.5805   3.7434   0.00    0.0
2018/03/15 10:53:52.000   78.246553818   16.035459339   498.1190   5   7   2.6138   1.9982   8.6983  -1.0474  -1.5800   3.7418   0.00    0.0
2018/03/15 10:53:53.000   78.246546844   16.035448305   496.9433   5   7   2.6131   1.9983   8.6964  -1.0472  -1.5794   3.7403   0.00    0.0
2018/03/15 10:53:54.000   78.246538339   16.035428514   492.9812   5   7   2.6124   1.9983   8.6945  -1.0469  -1.5789   3.7387   0.00    0.0
2018/03/15 10:53:55.000   78.246536242   16.035391402   490.8730   5   7   2.6117   1.9984   8.6926  -1.0467  -1.5784   3.7372   0.00    0.0
2018/03/15 10:53:56.000   78.246540080   16.035420537   492.3525   5   7   2.6110   1.9984   8.6907  -1.0465  -1.5778   3.7356   0.00    0.0
2018/03/15 10:53:57.000   78.246549444   16.035449547   497.1481   5   7   2.6103   1.9985   8.6888  -1.0462  -1.5773   3.7341   0.00    0.0
2018/03/15 10:53:58.000   78.246547539   16.035458107   496.4749   5   7   2.6096   1.9985   8.6868  -1.0460  -1.5768   3.7326   0.00    0.0
2018/03/15 10:53:59.000   78.246545272   16.035434489   495.3165   5   7   2.6089   1.9985   8.6849  -1.0458  -1.5763   3.7310   0.00    0.0
2018/03/15 10:54:00.000   78.246533321   16.035418484   490.4863   5   7   2.6082   1.9986   8.6830  -1.0456  -1.5757   3.7295   0.00    0.0
2018/03/15 10:54:01.000   78.246523851   16.035393416   486.6621   5   7   2.6076   1.9986   8.6811  -1.0453  -1.5752   3.7279   0.00    0.0
2018/03/15 10:54:02.000   78.246537578   16.035419774   490.7910   5   7   2.6069   1.9987   8.6792  -1.0451  -1.5747   3.7264   0.00    0.0
2018/03/15 10:54:03.000   78.246551364   16.035461152   498.0390   5   7   2.6062   1.9987   8.6773  -1.0449  -1.5741   3.7249   0.00    0.0
2018/03/15 10:54:04.000   78.246551206   16.035464965   497.1323   5   7   2.6055   1.9988   8.6754  -1.0446  -1.5736   3.7233   0.00    0.0
2018/03/15 10:54:05.000   78.246547358   16.035464583   494.5627   5   7   2.6048   1.9988   8.6735  -1.0444  -1.5731   3.7218   0.00    0.0
2018/03/15 10:54:06.000   78.246545645   16.035426273   493.5551   5   7   2.6041   1.9989   8.6716  -1.0442  -1.5726   3.7202   0.00    0.0
2018/03/15 10:54:07.000   78.246537804   16.035413011   490.1752   5   7   2.6034   1.9989   8.6697  -1.0440  -1.5720   3.7187   0.00    0.0
2018/03/15 10:54:08.000   78.246542383   16.035431903   492.1013   5   7   2.6027   1.9990   8.6678  -1.0437  -1.5715   3.7172   0.00    0.0
2018/03/15 10:54:09.000   78.246550670   16.035462291   496.3943   5   7   2.6020   1.9990   8.6659  -1.0435  -1.5710   3.7156   0.00    0.0
2018/03/15 10:54:10.000   78.246553115   16.035455842   499.5816   5   7   2.6013   1.9990   8.6640  -1.0433  -1.5704   3.7141   0.00    0.0
2018/03/15 10:54:11.000   78.246546095   16.035435285   496.3542   5   7   2.6006   1.9991   8.6621  -1.0430  -1.5699   3.7126   0.00    0.0
2018/03/15 10:54:12.000   78.246533147   16.035414961   489.7282   5   7   2.5999   1.9991   8.6602  -1.0428  -1.5694   3.7110   0.00    0.0
2018/03/15 10:54:13.000   78.246525703   16.035376208   485.2669   5   7   2.5992   1.9992   8.6583  -1.0426  -1.5689   3.7095   0.00    0.0
2018/03/15 10:54:14.000   78.246550183   16.035453194   496.0551   5   7   2.5985   1.9992   8.6564  -1.0424  -1.5683   3.7080   0.00    0.0
2018/03/15 10:54:15.000   78.246554529   16.035491614   498.5857   5   7   2.5979   1.9993   8.6545  -1.0421  -1.5678   3.7064   0.00    0.0
2018/03/15 10:54:16.000   78.246547916   16.035477495   497.1024   5   7   2.5972   1.9993   8.6526  -1.0419  -1.5673   3.7049   0.00    0.0
2018/03/15 10:54:17.000   78.246540662   16.035428333   494.1138   5   7   2.5965   1.9994   8.6507  -1.0417  -1.5667   3.7034   0.00    0.0
2018/03/15 10:54:18.000   78.246532928   16.035382171   488.9225   5   7   2.5958   1.9994   8.6488  -1.0414  -1.5662   3.7018   0.00    0.0
2018/03/15 10:54:19.000   78.246537796   16.035418033   490.5130   5   7   2.5951   1.9995   8.6469  -1.0412  -1.5657   3.7003   0.00    0.0
2018/03/15 10:54:20.000   78.246550921   16.035479806   497.1663   5   7   2.5944   1.9995   8.6450  -1.0410  -1.5652   3.6988   0.00    0.0
2018/03/15 10:54:21.000   78.246553043   16.035467864   496.4993   5   7   2.5937   1.9995   8.6431  -1.0408  -1.5646   3.6972   0.00    0.0
2018/03/15 10:54:22.000   78.246547119   16.035433861   494.9676   5   7   2.5930   1.9996   8.6412  -1.0405  -1.5641   3.6957   0.00    0.0
2018/03/15 10:54:23.000   78.246539222   16.035410469   491.9786   5   7   2.5924   1.9996   8.6394  -1.0403  -1.5636   3.6942   0.00    0.0
2018/03/15 10:54:24.000   78.246535828   16.035409701   490.2192   5   7   2.5917   1.9997   8.6375  -1.0401  -1.5630   3.6926   0.00    0.0
2018/03/15 10:54:25.000   78.246545285   16.035430240   492.3548   5   7   2.5910   1.9997   8.6356  -1.0398  -1.5625   3.6911   0.00    0.0
2018/03/15 10:54:26.000   78.246552275   16.035457172   497.0818   5   7   2.5903   1.9998   8.6337  -1.0396  -1.5620   3.6896   0.00    0.0
2018/03/15 10:54:27.000   78.246546648   16.035436726   496.4110   5   7   2.5896   1.9998   8.6318  -1.0394  -1.5615   3.6881   0.00    0.0
2018/03/15 10:54:28.000   78.246540174   16.035431014   493.5554   5   7   2.5889   1.9999   8.6299  -1.0392  -1.5609   3.6865   0.00    0.0
2018/03/15 10:54:29.000   78.246534887   16.035427025   490.8849   5   7   2.5882   1.9999   8.6280  -1.0389  -1.5604   3.6850   0.00    0.0
2018/03/15 10:54:30.000   78.246532263   16.035415323   490.0196   5   7   2.5876   2.0000   8.6261  -1.0387  -1.5599   3.6835   0.00    0.0
2018/03/15 10:54:31.000   78.246540877   16.035436736   493.4940   5   7   2.5869   2.0000   8.6242  -1.0385  -1.5593   3.6819   0.00    0.0
2018/03/15 10:54:32.000   78.246544909   16.035459083   495.6652   5   7   2.5862   2.0001   8.6223  -1.0382  -1.5588   3.6804   0.00    0.0
2018/03/15 10:54:33.000   78.246546542   16.035443279   496.4622   5   7   2.5855   2.0001   8.6205  -1.0380  -1.5583   3.6789   0.00    0.0
2018/03/15 10:54:34.000   78.246537534   16.035435764   494.0425   5   7   2.5848   2.0001   8.6186  -1.0378  -1.5578   3.6774   0.00    0.0
2018/03/15 10:54:35.000   78.246530857   16.035413340   490.6149   5   7   2.5842   2.0002   8.6167  -1.0376  -1.5572   3.6759   0.00    0.0
2018/03/15 10:54:36.000   78.246540411   16.035427785   492.2192   5   7   2.5835   2.0002   8.6148  -1.0373  -1.5567   3.6743   0.00    0.0
2018/03/15 10:54:37.000   78.246541371   16.035453426   493.0450   5   7   2.5828   2.0003   8.6129  -1.0371  -1.5562   3.6728   0.00    0.0
2018/03/15 10:54:38.000   78.246548065   16.035440611   495.3359   5   7   2.5821   2.0003   8.6110  -1.0369  -1.5556   3.6713   0.00    0.0
2018/03/15 10:54:39.000   78.246544105   16.035430109   493.5866   5   7   2.5814   2.0004   8.6092  -1.0367  -1.5551   3.6698   0.00    0.0
2018/03/15 10:54:40.000   78.246536972   16.035416650   489.8545   5   7   2.5808   2.0004   8.6073  -1.0364  -1.5546   3.6682   0.00    0.0
2018/03/15 10:54:41.000   78.246535530   16.035424275   491.1298   5   7   2.5801   2.0005   8.6054  -1.0362  -1.5540   3.6667   0.00    0.0
2018/03/15 10:54:42.000   78.246549712   16.035446853   498.4702   5   7   2.5794   2.0005   8.6035  -1.0360  -1.5535   3.6652   0.00    0.0
2018/03/15 10:54:43.000   78.246550435   16.035447587   497.3288   5   7   2.5787   2.0006   8.6016  -1.0357  -1.5530   3.6637   0.00    0.0
2018/03/15 10:54:44.000   78.246548561   16.035451507   495.5426   5   7   2.5780   2.0006   8.5998  -1.0355  -1.5525   3.6622   0.00    0.0
2018/03/15 10:54:45.000   78.246549775   16.035443261   495.1660   5   7   2.5774   2.0006   8.5979  -1.0353  -1.5519   3.6606   0.00    0.0
2018/03/15 10:54:46.000   78.246546237   16.035448248   495.2326   5   7   2.5767   2.0007   8.5960  -1.0351  -1.5514   3.6591   0.00    0.0
2018/03/15 10:54:47.000   78.246538444   16.035425079   492.2705   5   7   2.5760   2.0007   8.5941  -1.0348  -1.5509   3.6576   0.00    0.0
2018/03/15 10:54:48.000   78.246531809   16.035413728   490.4575   5   7   2.5753   2.0008   8.5922  -1.0346  -1.5503   3.6561   0.00    0.0
2018/03/15 10:54:49.000   78.246528753   16.035408268   489.6717   5   7   2.5747   2.0008   8.5904  -1.0344  -1.5498   3.6546   0.00    0.0
2018/03/15 10:54:50.000   78.246539629   16.035443086   492.9399   5   7   2.5740   2.0009   8.5885  -1.0342  -1.5493   3.6531   0.00    0.0
2018/03/15 10:54:51.000   78.246545466   16.035438009   494.8222   5   7   2.5733   2.0009   8.5866  -1.0339  -1.5488   3.6515   0.00    0.0
2018/03/15 10:54:52.000   78.246544526   16.035415128   495.4483   5   7   2.5727   2.0010   8.5847  -1.0337  -1.5482   3.6500   0.00    0.0
2018/03/15 10:54:53.000   78.246539218   16.035412153   493.2247   5   7   2.5720   2.0010   8.5829  -1.0335  -1.5477   3.6485   0.00    0.0
2018/03/15 10:54:54.000   78.246539975   16.035450042   493.1548   5   7   2.5713   2.0011   8.5810  -1.0333  -1.5472   3.6470   0.00    0.0
2018/03/15 10:54:55.000   78.246546709   16.035468294   497.1801   5   7   2.5706   2.0011   8.5791  -1.0330  -1.5466   3.6455   0.00    0.0
2018/03/15 10:54:56.000   78.246550612   16.035465888   497.4371   5   7   2.5700   2.0012   8.5773  -1.0328  -1.5461   3.6440   0.00    0.0
2018/03/15 10:54:57.000   78.246548143   16.035448102   496.1649   5   7   2.5693   2.0012   8.5754  -1.0326  -1.5456   3.6424   0.00    0.0
2018/03/15 10:54:58.000   78.246541650   16.035420248   491.9839   5   7   2.5686   2.0013   8.5735  -1.0324  -1.5450   3.6409   0.00    0.0
2018/03/15 10:54:59.000   78.246530146   16.035404247   488.3070   5   7   2.5680   2.0013   8.5716  -1.0321  -1.5445   3.6394   0.00    0.0
2018/03/15 10:55:00.000   78.246543072   16.035408992   494.4978   5   7   2.5673   2.0013   8.5698  -1.0319  -1.5440   3.6379   0.00    0.0
2018/03/15 10:55:01.000   78.246547364   16.035450513   496.3681   5   7   2.5666   2.0014   8.5679  -1.0317  -1.5435   3.6364   0.00    0.0
2018/03/15 10:55:02.000   78.246545267   16.035464767   496.2180   5   7   2.5660   2.0014   8.5660  -1.0314  -1.5429   3.6349   0.00    0.0
2018/03/15 10:55:03.000   78.246546338   16.035433490   495.3677   5   7   2.5653   2.0015   8.5642  -1.0312  -1.5424   3.6334   0.00    0.0
2018/03/15 10:55:04.000   78.246543641   16.035421747   494.6931   5   7   2.5646   2.0015   8.5623  -1.0310  -1.5419   3.6319   0.00    0.0
2018/03/15 10:55:05.000   78.246544202   16.035419482   492.7359   5   7   2.5640   2.0016   8.5604  -1.0308  -1.5413   3.6304   0.00    0.0
2018/03/15 10:55:06.000   78.246545906   16.035461750   493.7882   5   7   2.5633   2.0016   8.5586  -1.0305  -1.5408   3.6289   0.00    0.0
2018/03/15 10:55:07.000   78.246549066   16.035447284   495.5360   5   7   2.5626   2.0017   8.5567  -1.0303  -1.5403   3.6273   0.00    0.0
2018/03/15 10:55:08.000   78.246544992   16.035441682   496.0409   5   7   2.5620   2.0017   8.5548  -1.0301  -1.5398   3.6258   0.00    0.0
2018/03/15 10:55:09.000   78.246539818   16.035417509   493.8792   5   7   2.5613   2.0018   8.5530  -1.0299  -1.5392   3.6243   0.00    0.0
2018/03/15 10:55:10.000   78.246537223   16.035430650   491.7298   5   7   2.5606   2.0018   8.5511  -1.0296  -1.5387   3.6228   0.00    0.0
2018/03/15 10:55:11.000   78.246536892   16.035436546   491.3314   5   7   2.5600   2.0019   8.5493  -1.0294  -1.5382   3.6213   0.00    0.0
2018/03/15 10:55:12.000   78.246544022   16.035439359   495.0161   5   7   2.5593   2.0019   8.5474  -1.0292  -1.5376   3.6198   0.00    0.0
2018/03/15 10:55:13.000   78.246545092   16.035428168   495.2793   5   7   2.5586   2.0019   8.5455  -1.0290  -1.5371   3.6183   0.00    0.0
2018/03/15 10:55:14.000   78.246539549   16.035421832   492.6893   5   7   2.5580   2.0020   8.5437  -1.0287  -1.5366   3.6168   0.00    0.0
2018/03/15 10:55:15.000   78.246535554   16.035431116   491.0120   5   7   2.5573   2.0020   8.5418  -1.0285  -1.5361   3.6153   0.00    0.0
