% program   : RTKPOST ver.2.4.2
% inp file  : Z:\home\linda\Documents\Spring18\GitHub_Unis\data\processed_data\46250700.obs
% inp file  : Z:\home\linda\Documents\Spring18\GitHub_Unis\data\processed_data\46250700.nav
% obs start : 2018/03/11 10:25:17.0 GPST (week1992  37517.0s)
% obs end   : 2018/03/11 10:43:41.0 GPST (week1992  38621.0s)
% pos mode  : single
% elev mask : 15.0 deg
% ionos opt : broadcast
% tropo opt : saastamoinen
% ephemeris : broadcast
% navi sys  : gps glonass galileo qzss sbas
%
% (lat/lon/height=WGS84/ellipsoidal,Q=1:fix,2:float,3:sbas,4:dgps,5:single,6:ppp,ns=# of satellites)
%  GPST                  latitude(deg) longitude(deg)  height(m)   Q  ns   sdn(m)   sde(m)   sdu(m)  sdne(m)  sdeu(m)  sdun(m) age(s)  ratio
2018/03/11 10:25:17.000   78.254768826   16.249373221   342.9809   5   9   3.2212   1.5048   9.9245   0.8154   1.5045   4.6550   0.00    0.0
2018/03/11 10:25:18.000   78.254769891   16.249381128   342.0166   5   9   3.2211   1.5048   9.9229   0.8151   1.5041   4.6547   0.00    0.0
2018/03/11 10:25:19.000   78.254765763   16.249379029   340.5206   5   9   3.2211   1.5048   9.9214   0.8148   1.5036   4.6544   0.00    0.0
2018/03/11 10:25:20.000   78.254767278   16.249369716   341.8817   5   9   3.2211   1.5048   9.9198   0.8145   1.5032   4.6541   0.00    0.0
2018/03/11 10:25:21.000   78.254764300   16.249362015   341.2878   5   9   3.2211   1.5048   9.9183   0.8142   1.5028   4.6537   0.00    0.0
2018/03/11 10:25:22.000   78.254762244   16.249364164   340.5225   5   9   3.2211   1.5048   9.9167   0.8139   1.5024   4.6534   0.00    0.0
2018/03/11 10:25:23.000   78.254760786   16.249367637   340.3410   5   9   3.2210   1.5048   9.9152   0.8136   1.5020   4.6531   0.00    0.0
2018/03/11 10:25:24.000   78.254760345   16.249375169   341.5816   5   9   3.2210   1.5048   9.9136   0.8133   1.5015   4.6527   0.00    0.0
2018/03/11 10:25:25.000   78.254769111   16.249373380   342.4984   5   9   3.2210   1.5048   9.9121   0.8130   1.5011   4.6524   0.00    0.0
2018/03/11 10:25:26.000   78.254765288   16.249387408   339.8213   5   9   3.2209   1.5048   9.9105   0.8127   1.5007   4.6520   0.00    0.0
2018/03/11 10:25:27.000   78.254764307   16.249388061   339.5421   5   9   3.2209   1.5048   9.9089   0.8124   1.5003   4.6517   0.00    0.0
2018/03/11 10:25:28.000   78.254776009   16.249384906   344.7684   5   9   3.2209   1.5048   9.9074   0.8121   1.4998   4.6513   0.00    0.0
2018/03/11 10:25:29.000   78.254774193   16.249374282   344.1921   5   9   3.2209   1.5047   9.9058   0.8118   1.4994   4.6510   0.00    0.0
2018/03/11 10:25:30.000   78.254769514   16.249385576   343.4734   5   9   3.2208   1.5047   9.9042   0.8115   1.4990   4.6507   0.00    0.0
2018/03/11 10:25:31.000   78.254766897   16.249387770   341.5584   5   9   3.2208   1.5047   9.9026   0.8112   1.4985   4.6503   0.00    0.0
2018/03/11 10:25:32.000   78.254764650   16.249394386   341.5912   5   9   3.2208   1.5047   9.9011   0.8108   1.4981   4.6500   0.00    0.0
2018/03/11 10:25:33.000   78.254765564   16.249376687   341.3791   5   9   3.2207   1.5047   9.8995   0.8105   1.4977   4.6496   0.00    0.0
2018/03/11 10:25:34.000   78.254768101   16.249373740   342.9121   5   9   3.2207   1.5047   9.8979   0.8102   1.4972   4.6493   0.00    0.0
2018/03/11 10:25:35.000   78.254767820   16.249374782   341.7665   5   9   3.2207   1.5047   9.8963   0.8099   1.4968   4.6489   0.00    0.0
2018/03/11 10:25:36.000   78.254771818   16.249372160   343.3510   5   9   3.2206   1.5047   9.8947   0.8096   1.4964   4.6486   0.00    0.0
2018/03/11 10:25:37.000   78.254768806   16.249361788   342.5718   5   9   3.2206   1.5047   9.8931   0.8093   1.4959   4.6482   0.00    0.0
2018/03/11 10:25:38.000   78.254767171   16.249374840   342.3482   5   9   3.2206   1.5047   9.8915   0.8090   1.4955   4.6478   0.00    0.0
2018/03/11 10:25:39.000   78.254770827   16.249387451   342.9240   5   9   3.2205   1.5047   9.8899   0.8087   1.4951   4.6475   0.00    0.0
2018/03/11 10:25:40.000   78.254763484   16.249380775   339.4014   5   9   3.2205   1.5047   9.8883   0.8084   1.4946   4.6471   0.00    0.0
2018/03/11 10:25:41.000   78.254766052   16.249390279   339.6163   5   9   3.2205   1.5047   9.8867   0.8081   1.4942   4.6468   0.00    0.0
2018/03/11 10:25:42.000   78.254769821   16.249373020   341.5419   5   9   3.2204   1.5047   9.8851   0.8077   1.4938   4.6464   0.00    0.0
2018/03/11 10:25:43.000   78.254763074   16.249383544   339.2703   5   9   3.2204   1.5047   9.8835   0.8074   1.4933   4.6460   0.00    0.0
2018/03/11 10:25:44.000   78.254760374   16.249379416   339.6474   5   9   3.2204   1.5047   9.8819   0.8071   1.4929   4.6457   0.00    0.0
2018/03/11 10:25:45.000   78.254764945   16.249363524   341.7456   5   9   3.2203   1.5047   9.8803   0.8068   1.4925   4.6453   0.00    0.0
2018/03/11 10:25:46.000   78.254762097   16.249349386   341.0554   5   9   3.2203   1.5047   9.8787   0.8065   1.4920   4.6449   0.00    0.0
2018/03/11 10:25:47.000   78.254759865   16.249352506   340.9270   5   9   3.2202   1.5046   9.8771   0.8062   1.4916   4.6446   0.00    0.0
2018/03/11 10:25:48.000   78.254758724   16.249344353   341.5105   5   9   3.2202   1.5046   9.8755   0.8059   1.4911   4.6442   0.00    0.0
2018/03/11 10:25:49.000   78.254766007   16.249350802   343.7655   5   9   3.2202   1.5046   9.8739   0.8055   1.4907   4.6438   0.00    0.0
2018/03/11 10:25:50.000   78.254767023   16.249374708   344.4450   5   9   3.2201   1.5046   9.8722   0.8052   1.4902   4.6435   0.00    0.0
2018/03/11 10:25:51.000   78.254770823   16.249385137   343.3311   5   9   3.2201   1.5046   9.8706   0.8049   1.4898   4.6431   0.00    0.0
2018/03/11 10:25:52.000   78.254774258   16.249402045   345.8530   5   9   3.2200   1.5046   9.8690   0.8046   1.4894   4.6427   0.00    0.0
2018/03/11 10:25:53.000   78.254771929   16.249376318   343.8434   5   9   3.2200   1.5046   9.8674   0.8043   1.4889   4.6423   0.00    0.0
2018/03/11 10:25:54.000   78.254771711   16.249376351   342.2439   5   9   3.2199   1.5046   9.8657   0.8040   1.4885   4.6419   0.00    0.0
2018/03/11 10:25:55.000   78.254761538   16.249389664   338.6817   5   9   3.2199   1.5046   9.8641   0.8036   1.4880   4.6416   0.00    0.0
2018/03/11 10:25:56.000   78.254761773   16.249377103   336.4682   5   9   3.2199   1.5046   9.8625   0.8033   1.4876   4.6412   0.00    0.0
2018/03/11 10:25:57.000   78.254766998   16.249369520   337.6902   5   9   3.2198   1.5046   9.8609   0.8030   1.4871   4.6408   0.00    0.0
2018/03/11 10:25:58.000   78.254769180   16.249382594   339.4312   5   9   3.2198   1.5046   9.8592   0.8027   1.4867   4.6404   0.00    0.0
2018/03/11 10:25:59.000   78.254770890   16.249370283   341.4567   5   9   3.2197   1.5046   9.8576   0.8024   1.4862   4.6400   0.00    0.0
2018/03/11 10:26:00.000   78.254767619   16.249381985   342.7997   5   9   3.2197   1.5046   9.8559   0.8020   1.4858   4.6396   0.00    0.0
2018/03/11 10:26:01.000   78.254770306   16.249379524   344.4478   5   9   3.2196   1.5046   9.8543   0.8017   1.4853   4.6393   0.00    0.0
2018/03/11 10:26:02.000   78.254765748   16.249383916   343.5994   5   9   3.2196   1.5046   9.8526   0.8014   1.4849   4.6389   0.00    0.0
2018/03/11 10:26:03.000   78.254768163   16.249388147   341.0650   5   9   3.2195   1.5046   9.8510   0.8011   1.4844   4.6385   0.00    0.0
2018/03/11 10:26:04.000   78.254763970   16.249385655   340.5791   5   9   3.2195   1.5046   9.8493   0.8008   1.4840   4.6381   0.00    0.0
2018/03/11 10:26:05.000   78.254771693   16.249377861   343.8272   5   9   3.2194   1.5046   9.8477   0.8004   1.4835   4.6377   0.00    0.0
2018/03/11 10:26:06.000   78.254775493   16.249376719   343.7885   5   9   3.2194   1.5045   9.8460   0.8001   1.4831   4.6373   0.00    0.0
2018/03/11 10:26:07.000   78.254770446   16.249376619   343.1867   5   9   3.2193   1.5045   9.8444   0.7998   1.4826   4.6369   0.00    0.0
2018/03/11 10:26:08.000   78.254768437   16.249373857   343.8663   5   9   3.2193   1.5045   9.8427   0.7995   1.4822   4.6365   0.00    0.0
2018/03/11 10:26:09.000   78.254760038   16.249361352   340.1927   5   9   3.2192   1.5045   9.8411   0.7992   1.4817   4.6361   0.00    0.0
2018/03/11 10:26:10.000   78.254771682   16.249375533   342.2569   5   9   3.2192   1.5045   9.8394   0.7988   1.4813   4.6357   0.00    0.0
2018/03/11 10:26:11.000   78.254767050   16.249362176   342.0429   5   9   3.2191   1.5045   9.8377   0.7985   1.4808   4.6353   0.00    0.0
2018/03/11 10:26:12.000   78.254767042   16.249369679   341.1268   5   9   3.2191   1.5045   9.8361   0.7982   1.4803   4.6349   0.00    0.0
2018/03/11 10:26:13.000   78.254771019   16.249375681   342.2040   5   9   3.2190   1.5045   9.8344   0.7979   1.4799   4.6345   0.00    0.0
2018/03/11 10:26:14.000   78.254766016   16.249384672   341.5587   5   9   3.2190   1.5045   9.8327   0.7975   1.4794   4.6341   0.00    0.0
2018/03/11 10:26:15.000   78.254763114   16.249391638   341.0030   5   9   3.2189   1.5045   9.8310   0.7972   1.4790   4.6337   0.00    0.0
2018/03/11 10:26:16.000   78.254762337   16.249394147   341.4280   5   9   3.2189   1.5045   9.8294   0.7969   1.4785   4.6333   0.00    0.0
2018/03/11 10:26:17.000   78.254770147   16.249376577   342.0220   5   9   3.2188   1.5045   9.8277   0.7966   1.4781   4.6328   0.00    0.0
2018/03/11 10:26:18.000   78.254767094   16.249371635   341.6761   5   9   3.2187   1.5045   9.8260   0.7962   1.4776   4.6324   0.00    0.0
2018/03/11 10:26:19.000   78.254764145   16.249360719   340.1121   5   9   3.2187   1.5045   9.8243   0.7959   1.4771   4.6320   0.00    0.0
2018/03/11 10:26:20.000   78.254769749   16.249360653   342.7130   5   9   3.2186   1.5045   9.8226   0.7956   1.4767   4.6316   0.00    0.0
2018/03/11 10:26:21.000   78.254763981   16.249363211   340.0999   5   9   3.2186   1.5045   9.8210   0.7952   1.4762   4.6312   0.00    0.0
2018/03/11 10:26:22.000   78.254763086   16.249364949   341.0610   5   9   3.2185   1.5045   9.8193   0.7949   1.4757   4.6308   0.00    0.0
2018/03/11 10:26:23.000   78.254759504   16.249372032   339.3055   5   9   3.2185   1.5045   9.8176   0.7946   1.4753   4.6304   0.00    0.0
2018/03/11 10:26:24.000   78.254758000   16.249360921   340.4663   5   9   3.2184   1.5045   9.8159   0.7943   1.4748   4.6299   0.00    0.0
2018/03/11 10:26:25.000   78.254769828   16.249363024   345.0236   5   9   3.2183   1.5045   9.8142   0.7939   1.4744   4.6295   0.00    0.0
2018/03/11 10:26:26.000   78.254763029   16.249360753   342.3899   5   9   3.2183   1.5044   9.8125   0.7936   1.4739   4.6291   0.00    0.0
2018/03/11 10:26:27.000   78.254768576   16.249367122   342.2037   5   9   3.2182   1.5044   9.8108   0.7933   1.4734   4.6287   0.00    0.0
2018/03/11 10:26:28.000   78.254767423   16.249392543   342.0430   5   9   3.2182   1.5044   9.8091   0.7929   1.4730   4.6282   0.00    0.0
2018/03/11 10:26:29.000   78.254769201   16.249398390   341.5352   5   9   3.2181   1.5044   9.8074   0.7926   1.4725   4.6278   0.00    0.0
2018/03/11 10:26:30.000   78.254773785   16.249385903   344.1477   5   9   3.2180   1.5044   9.8057   0.7923   1.4720   4.6274   0.00    0.0
2018/03/11 10:26:31.000   78.254773207   16.249378843   343.9470   5   9   3.2180   1.5044   9.8040   0.7919   1.4716   4.6270   0.00    0.0
2018/03/11 10:26:32.000   78.254768504   16.249383912   342.3963   5   9   3.2179   1.5044   9.8023   0.7916   1.4711   4.6265   0.00    0.0
2018/03/11 10:26:33.000   78.254759540   16.249385952   340.1572   5   9   3.2178   1.5044   9.8005   0.7913   1.4706   4.6261   0.00    0.0
2018/03/11 10:26:34.000   78.254759352   16.249380346   338.7516   5   9   3.2178   1.5044   9.7988   0.7910   1.4701   4.6257   0.00    0.0
2018/03/11 10:26:35.000   78.254757547   16.249377392   338.1759   5   9   3.2177   1.5044   9.7971   0.7906   1.4697   4.6252   0.00    0.0
2018/03/11 10:26:36.000   78.254765386   16.249375792   340.7616   5   9   3.2176   1.5044   9.7954   0.7903   1.4692   4.6248   0.00    0.0
2018/03/11 10:26:37.000   78.254766108   16.249352784   341.0733   5   9   3.2176   1.5044   9.7937   0.7899   1.4687   4.6244   0.00    0.0
2018/03/11 10:26:38.000   78.254764741   16.249365034   341.3792   5   9   3.2175   1.5044   9.7920   0.7896   1.4683   4.6239   0.00    0.0
2018/03/11 10:26:39.000   78.254769264   16.249363556   343.7497   5   9   3.2174   1.5044   9.7902   0.7893   1.4678   4.6235   0.00    0.0
2018/03/11 10:26:40.000   78.254769476   16.249365827   343.0586   5   9   3.2174   1.5044   9.7885   0.7889   1.4673   4.6230   0.00    0.0
2018/03/11 10:26:41.000   78.254773333   16.249382042   341.8696   5   9   3.2173   1.5044   9.7868   0.7886   1.4668   4.6226   0.00    0.0
2018/03/11 10:26:42.000   78.254770660   16.249414838   343.0680   5   9   3.2172   1.5044   9.7850   0.7883   1.4664   4.6222   0.00    0.0
2018/03/11 10:26:43.000   78.254771826   16.249408708   344.5297   5   9   3.2172   1.5044   9.7833   0.7879   1.4659   4.6217   0.00    0.0
2018/03/11 10:26:44.000   78.254772660   16.249389642   345.1402   5   9   3.2171   1.5044   9.7816   0.7876   1.4654   4.6213   0.00    0.0
2018/03/11 10:26:45.000   78.254771230   16.249384248   345.7163   5   9   3.2170   1.5044   9.7798   0.7873   1.4649   4.6208   0.00    0.0
2018/03/11 10:26:46.000   78.254767168   16.249382680   343.1070   5   9   3.2170   1.5044   9.7781   0.7869   1.4645   4.6204   0.00    0.0
2018/03/11 10:26:47.000   78.254757084   16.249392745   338.8458   5   9   3.2169   1.5044   9.7764   0.7866   1.4640   4.6199   0.00    0.0
2018/03/11 10:26:48.000   78.254759590   16.249383046   338.1327   5   9   3.2168   1.5043   9.7746   0.7862   1.4635   4.6195   0.00    0.0
2018/03/11 10:26:49.000   78.254769833   16.249367757   341.5523   5   9   3.2167   1.5043   9.7729   0.7859   1.4630   4.6190   0.00    0.0
2018/03/11 10:26:50.000   78.254768320   16.249363300   341.6011   5   9   3.2167   1.5043   9.7711   0.7856   1.4625   4.6186   0.00    0.0
2018/03/11 10:26:51.000   78.254767131   16.249357210   341.3989   5   9   3.2166   1.5043   9.7694   0.7852   1.4621   4.6181   0.00    0.0
2018/03/11 10:26:52.000   78.254766499   16.249355823   341.3594   5   9   3.2165   1.5043   9.7676   0.7849   1.4616   4.6177   0.00    0.0
2018/03/11 10:26:53.000   78.254765644   16.249372860   341.4576   5   9   3.2164   1.5043   9.7659   0.7846   1.4611   4.6172   0.00    0.0
2018/03/11 10:26:55.000   78.254769231   16.249376266   341.2304   5   9   3.2163   1.5043   9.7624   0.7839   1.4601   4.6163   0.00    0.0
2018/03/11 10:26:56.000   78.254769400   16.249383730   342.4787   5   9   3.2162   1.5043   9.7606   0.7835   1.4596   4.6158   0.00    0.0
2018/03/11 10:26:57.000   78.254777175   16.249372642   344.0915   5   9   3.2161   1.5043   9.7589   0.7832   1.4592   4.6154   0.00    0.0
2018/03/11 10:26:58.000   78.254771275   16.249375455   343.7994   5   9   3.2161   1.5043   9.7571   0.7828   1.4587   4.6149   0.00    0.0
2018/03/11 10:26:59.000   78.254766638   16.249376331   342.6209   5   9   3.2160   1.5043   9.7553   0.7825   1.4582   4.6144   0.00    0.0
2018/03/11 10:27:00.000   78.254761878   16.249376320   341.9331   5   9   3.2159   1.5043   9.7536   0.7822   1.4577   4.6140   0.00    0.0
2018/03/11 10:27:01.000   78.254764615   16.249382859   341.5133   5   9   3.2158   1.5043   9.7518   0.7818   1.4572   4.6135   0.00    0.0
2018/03/11 10:27:02.000   78.254764333   16.249381364   341.8442   5   9   3.2157   1.5043   9.7500   0.7815   1.4567   4.6130   0.00    0.0
2018/03/11 10:27:03.000   78.254762854   16.249369371   340.1557   5   9   3.2157   1.5043   9.7483   0.7811   1.4562   4.6126   0.00    0.0
2018/03/11 10:27:04.000   78.254768036   16.249366322   342.5384   5   9   3.2156   1.5043   9.7465   0.7808   1.4558   4.6121   0.00    0.0
2018/03/11 10:27:05.000   78.254767237   16.249375260   341.3305   5   9   3.2155   1.5043   9.7447   0.7804   1.4553   4.6116   0.00    0.0
2018/03/11 10:27:06.000   78.254764034   16.249366696   340.0597   5   9   3.2154   1.5043   9.7429   0.7801   1.4548   4.6111   0.00    0.0
2018/03/11 10:27:07.000   78.254765205   16.249367951   340.1953   5   9   3.2153   1.5043   9.7412   0.7797   1.4543   4.6107   0.00    0.0
2018/03/11 10:27:08.000   78.254761842   16.249385417   339.2640   5   9   3.2152   1.5043   9.7394   0.7794   1.4538   4.6102   0.00    0.0
2018/03/11 10:27:09.000   78.254768029   16.249374747   342.6536   5   9   3.2152   1.5043   9.7376   0.7791   1.4533   4.6097   0.00    0.0
2018/03/11 10:27:10.000   78.254767664   16.249377943   342.2934   5   9   3.2151   1.5043   9.7358   0.7787   1.4528   4.6092   0.00    0.0
2018/03/11 10:27:11.000   78.254765039   16.249385837   340.8335   5   9   3.2150   1.5043   9.7340   0.7784   1.4523   4.6088   0.00    0.0
2018/03/11 10:27:12.000   78.254766879   16.249392243   342.4200   5   9   3.2149   1.5042   9.7322   0.7780   1.4518   4.6083   0.00    0.0
2018/03/11 10:27:13.000   78.254763484   16.249382621   342.6334   5   9   3.2148   1.5042   9.7304   0.7777   1.4513   4.6078   0.00    0.0
2018/03/11 10:27:14.000   78.254763201   16.249377053   342.6848   5   9   3.2147   1.5042   9.7286   0.7773   1.4508   4.6073   0.00    0.0
2018/03/11 10:27:15.000   78.254759629   16.249371303   341.9405   5   9   3.2147   1.5042   9.7268   0.7770   1.4503   4.6068   0.00    0.0
2018/03/11 10:27:16.000   78.254764232   16.249379769   343.0431   5   9   3.2146   1.5042   9.7251   0.7766   1.4498   4.6063   0.00    0.0
2018/03/11 10:27:17.000   78.254771242   16.249379571   344.8150   5   9   3.2145   1.5042   9.7233   0.7763   1.4493   4.6058   0.00    0.0
2018/03/11 10:27:18.000   78.254769408   16.249372518   342.9566   5   9   3.2144   1.5042   9.7215   0.7759   1.4489   4.6054   0.00    0.0
2018/03/11 10:27:19.000   78.254765975   16.249382214   341.1815   5   9   3.2143   1.5042   9.7197   0.7756   1.4484   4.6049   0.00    0.0
2018/03/11 10:27:20.000   78.254765826   16.249382000   339.7873   5   9   3.2142   1.5042   9.7179   0.7752   1.4479   4.6044   0.00    0.0
2018/03/11 10:27:21.000   78.254779067   16.249371489   343.5410   5   9   3.2141   1.5042   9.7160   0.7749   1.4474   4.6039   0.00    0.0
2018/03/11 10:27:22.000   78.254772119   16.249366245   341.9966   5   9   3.2140   1.5042   9.7142   0.7745   1.4469   4.6034   0.00    0.0
2018/03/11 10:27:23.000   78.254769033   16.249370837   341.0195   5   9   3.2139   1.5042   9.7124   0.7742   1.4464   4.6029   0.00    0.0
2018/03/11 10:27:24.000   78.254766718   16.249377004   341.2351   5   9   3.2138   1.5042   9.7106   0.7738   1.4459   4.6024   0.00    0.0
2018/03/11 10:27:25.000   78.254759004   16.249377122   338.4480   5   9   3.2138   1.5042   9.7088   0.7735   1.4454   4.6019   0.00    0.0
2018/03/11 10:27:26.000   78.254760317   16.249358910   339.1649   5   9   3.2137   1.5042   9.7070   0.7731   1.4449   4.6014   0.00    0.0
2018/03/11 10:27:27.000   78.254764054   16.249373275   340.1449   5   9   3.2136   1.5042   9.7052   0.7727   1.4444   4.6009   0.00    0.0
2018/03/11 10:27:28.000   78.254765769   16.249387815   341.9028   5   9   3.2135   1.5042   9.7034   0.7724   1.4439   4.6004   0.00    0.0
2018/03/11 10:27:29.000   78.254767217   16.249387173   343.4870   5   9   3.2134   1.5042   9.7015   0.7720   1.4434   4.5999   0.00    0.0
2018/03/11 10:27:30.000   78.254769211   16.249382591   342.4898   5   9   3.2133   1.5042   9.6997   0.7717   1.4428   4.5994   0.00    0.0
2018/03/11 10:27:31.000   78.254765535   16.249381217   341.4410   5   9   3.2132   1.5042   9.6979   0.7713   1.4423   4.5989   0.00    0.0
2018/03/11 10:27:32.000   78.254767030   16.249382523   341.8686   5   9   3.2131   1.5042   9.6961   0.7710   1.4418   4.5984   0.00    0.0
2018/03/11 10:27:33.000   78.254771679   16.249364953   342.7473   5   9   3.2130   1.5042   9.6942   0.7706   1.4413   4.5979   0.00    0.0
2018/03/11 10:27:34.000   78.254771667   16.249360080   341.6901   5   9   3.2129   1.5042   9.6924   0.7703   1.4408   4.5974   0.00    0.0
2018/03/11 10:27:35.000   78.254770413   16.249373990   342.9524   5   9   3.2128   1.5042   9.6906   0.7699   1.4403   4.5969   0.00    0.0
2018/03/11 10:27:36.000   78.254769126   16.249374130   344.5057   5   9   3.2127   1.5042   9.6887   0.7695   1.4398   4.5964   0.00    0.0
2018/03/11 10:27:37.000   78.254760445   16.249375395   341.0112   5   9   3.2126   1.5042   9.6869   0.7692   1.4393   4.5959   0.00    0.0
2018/03/11 10:27:38.000   78.254761020   16.249380646   341.8269   5   9   3.2125   1.5042   9.6851   0.7688   1.4388   4.5953   0.00    0.0
2018/03/11 10:27:39.000   78.254759353   16.249392442   341.8432   5   9   3.2124   1.5042   9.6832   0.7685   1.4383   4.5948   0.00    0.0
2018/03/11 10:27:40.000   78.254759680   16.249394166   340.6123   5   9   3.2123   1.5041   9.6814   0.7681   1.4378   4.5943   0.00    0.0
2018/03/11 10:27:41.000   78.254764583   16.249375844   341.4365   5   9   3.2122   1.5041   9.6796   0.7678   1.4373   4.5938   0.00    0.0
2018/03/11 10:27:42.000   78.254768869   16.249369908   344.1187   5   9   3.2121   1.5041   9.6777   0.7674   1.4368   4.5933   0.00    0.0
2018/03/11 10:27:43.000   78.254770274   16.249370307   342.3447   5   9   3.2120   1.5041   9.6759   0.7670   1.4363   4.5928   0.00    0.0
2018/03/11 10:27:44.000   78.254762992   16.249364394   339.4277   5   9   3.2119   1.5041   9.6740   0.7667   1.4357   4.5922   0.00    0.0
2018/03/11 10:27:45.000   78.254766127   16.249363602   339.7793   5   9   3.2118   1.5041   9.6722   0.7663   1.4352   4.5917   0.00    0.0
2018/03/11 10:27:46.000   78.254763445   16.249364931   340.1192   5   9   3.2117   1.5041   9.6703   0.7660   1.4347   4.5912   0.00    0.0
2018/03/11 10:27:47.000   78.254772374   16.249361898   342.0173   5   9   3.2116   1.5041   9.6685   0.7656   1.4342   4.5907   0.00    0.0
2018/03/11 10:27:48.000   78.254778632   16.249376840   345.3207   5   9   3.2115   1.5041   9.6666   0.7652   1.4337   4.5902   0.00    0.0
2018/03/11 10:27:49.000   78.254770372   16.249395647   342.5108   5   9   3.2114   1.5041   9.6648   0.7649   1.4332   4.5896   0.00    0.0
2018/03/11 10:27:50.000   78.254769319   16.249400963   343.9422   5   9   3.2113   1.5041   9.6629   0.7645   1.4327   4.5891   0.00    0.0
2018/03/11 10:27:51.000   78.254770708   16.249395948   344.4962   5   9   3.2112   1.5041   9.6610   0.7641   1.4321   4.5886   0.00    0.0
2018/03/11 10:27:52.000   78.254762438   16.249399618   341.5271   5   9   3.2111   1.5041   9.6592   0.7638   1.4316   4.5880   0.00    0.0
2018/03/11 10:27:53.000   78.254761816   16.249394757   341.1892   5   9   3.2110   1.5041   9.6573   0.7634   1.4311   4.5875   0.00    0.0
2018/03/11 10:27:54.000   78.254767314   16.249382912   343.6145   5   9   3.2109   1.5041   9.6555   0.7631   1.4306   4.5870   0.00    0.0
2018/03/11 10:27:55.000   78.254766097   16.249356949   343.3220   5   9   3.2108   1.5041   9.6536   0.7627   1.4301   4.5865   0.00    0.0
2018/03/11 10:27:56.000   78.254763262   16.249367333   342.0150   5   9   3.2107   1.5041   9.6517   0.7623   1.4296   4.5859   0.00    0.0
2018/03/11 10:27:57.000   78.254765778   16.249376455   340.1900   5   9   3.2106   1.5041   9.6499   0.7620   1.4290   4.5854   0.00    0.0
2018/03/11 10:27:58.000   78.254763868   16.249378631   338.9970   5   9   3.2104   1.5041   9.6480   0.7616   1.4285   4.5849   0.00    0.0
2018/03/11 10:27:59.000   78.254760374   16.249374711   338.3407   5   9   3.2103   1.5041   9.6461   0.7612   1.4280   4.5843   0.00    0.0
2018/03/11 10:28:00.000   78.254767696   16.249366140   341.6140   5   9   3.2102   1.5041   9.6442   0.7609   1.4275   4.5838   0.00    0.0
2018/03/11 10:28:01.000   78.254768804   16.249361931   341.3436   5   9   3.2101   1.5041   9.6424   0.7605   1.4270   4.5832   0.00    0.0
2018/03/11 10:28:02.000   78.254767516   16.249360295   342.6045   5   9   3.2100   1.5041   9.6405   0.7601   1.4264   4.5827   0.00    0.0
2018/03/11 10:28:03.000   78.254767631   16.249371301   343.7690   5   9   3.2099   1.5041   9.6386   0.7598   1.4259   4.5822   0.00    0.0
2018/03/11 10:28:04.000   78.254764260   16.249391715   341.3781   5   9   3.2098   1.5041   9.6367   0.7594   1.4254   4.5816   0.00    0.0
2018/03/11 10:28:05.000   78.254762530   16.249390557   340.0866   5   9   3.2097   1.5041   9.6349   0.7590   1.4249   4.5811   0.00    0.0
2018/03/11 10:28:06.000   78.254758923   16.249384055   338.6943   5   9   3.2096   1.5041   9.6330   0.7587   1.4243   4.5805   0.00    0.0
2018/03/11 10:28:07.000   78.254766199   16.249381981   340.7866   5   9   3.2095   1.5041   9.6311   0.7583   1.4238   4.5800   0.00    0.0
2018/03/11 10:28:08.000   78.254769260   16.249358190   343.4851   5   9   3.2093   1.5041   9.6292   0.7579   1.4233   4.5794   0.00    0.0
2018/03/11 10:28:09.000   78.254763904   16.249360356   341.3239   5   9   3.2092   1.5041   9.6273   0.7575   1.4228   4.5789   0.00    0.0
2018/03/11 10:28:10.000   78.254765286   16.249366072   340.9099   5   9   3.2091   1.5041   9.6254   0.7572   1.4223   4.5783   0.00    0.0
2018/03/11 10:28:11.000   78.254770424   16.249365911   341.9894   5   9   3.2090   1.5041   9.6235   0.7568   1.4217   4.5778   0.00    0.0
2018/03/11 10:28:12.000   78.254771796   16.249371450   344.1987   5   9   3.2089   1.5041   9.6216   0.7564   1.4212   4.5772   0.00    0.0
2018/03/11 10:28:13.000   78.254770135   16.249390316   343.6788   5   9   3.2088   1.5041   9.6197   0.7561   1.4207   4.5767   0.00    0.0
2018/03/11 10:28:14.000   78.254768325   16.249400439   342.5813   5   9   3.2087   1.5041   9.6178   0.7557   1.4201   4.5761   0.00    0.0
2018/03/11 10:28:15.000   78.254773354   16.249397460   344.5473   5   9   3.2085   1.5041   9.6159   0.7553   1.4196   4.5756   0.00    0.0
2018/03/11 10:28:16.000   78.254773369   16.249395430   344.7830   5   9   3.2084   1.5041   9.6140   0.7549   1.4191   4.5750   0.00    0.0
2018/03/11 10:28:17.000   78.254767136   16.249392657   342.8006   5   9   3.2083   1.5040   9.6121   0.7546   1.4186   4.5745   0.00    0.0
2018/03/11 10:28:18.000   78.254765724   16.249398278   342.1558   5   9   3.2082   1.5040   9.6102   0.7542   1.4180   4.5739   0.00    0.0
2018/03/11 10:28:19.000   78.254755616   16.249390071   337.1549   5   9   3.2081   1.5040   9.6083   0.7538   1.4175   4.5734   0.00    0.0
2018/03/11 10:28:20.000   78.254768689   16.249362039   341.7742   5   9   3.2079   1.5040   9.6064   0.7535   1.4170   4.5728   0.00    0.0
2018/03/11 10:28:21.000   78.254767233   16.249355950   341.9208   5   9   3.2078   1.5040   9.6045   0.7531   1.4164   4.5722   0.00    0.0
2018/03/11 10:28:22.000   78.254759406   16.249359925   339.1304   5   9   3.2077   1.5040   9.6026   0.7527   1.4159   4.5717   0.00    0.0
2018/03/11 10:28:23.000   78.254761851   16.249360066   340.3199   5   9   3.2076   1.5040   9.6007   0.7523   1.4154   4.5711   0.00    0.0
2018/03/11 10:28:24.000   78.254766983   16.249367056   342.0317   5   9   3.2075   1.5040   9.5988   0.7520   1.4148   4.5705   0.00    0.0
2018/03/11 10:28:25.000   78.254768618   16.249369149   342.7515   5   9   3.2073   1.5040   9.5969   0.7516   1.4143   4.5700   0.00    0.0
2018/03/11 10:28:26.000   78.254767359   16.249394535   343.3582   5   9   3.2072   1.5040   9.5950   0.7512   1.4138   4.5694   0.00    0.0
2018/03/11 10:28:27.000   78.254771112   16.249388181   343.8384   5   9   3.2071   1.5040   9.5930   0.7508   1.4132   4.5688   0.00    0.0
2018/03/11 10:28:28.000   78.254771277   16.249400599   344.2376   5   9   3.2070   1.5040   9.5911   0.7504   1.4127   4.5683   0.00    0.0
2018/03/11 10:28:29.000   78.254766889   16.249396925   343.0247   5   9   3.2069   1.5040   9.5892   0.7501   1.4122   4.5677   0.00    0.0
2018/03/11 10:28:30.000   78.254767789   16.249396931   342.5771   5   9   3.2067   1.5040   9.5873   0.7497   1.4116   4.5671   0.00    0.0
2018/03/11 10:28:31.000   78.254761074   16.249405259   340.0880   5   9   3.2066   1.5040   9.5854   0.7493   1.4111   4.5666   0.00    0.0
2018/03/11 10:28:32.000   78.254758730   16.249389648   339.7382   5   9   3.2065   1.5040   9.5834   0.7489   1.4106   4.5660   0.00    0.0
2018/03/11 10:28:33.000   78.254761886   16.249354827   341.3716   5   9   3.2064   1.5040   9.5815   0.7486   1.4100   4.5654   0.00    0.0
2018/03/11 10:28:34.000   78.254761898   16.249355768   340.1015   5   9   3.2062   1.5040   9.5796   0.7482   1.4095   4.5648   0.00    0.0
2018/03/11 10:28:35.000   78.254761589   16.249354673   341.1196   5   9   3.2061   1.5040   9.5777   0.7478   1.4089   4.5643   0.00    0.0
2018/03/11 10:28:36.000   78.254767466   16.249355082   340.8750   5   9   3.2060   1.5040   9.5757   0.7474   1.4084   4.5637   0.00    0.0
2018/03/11 10:28:37.000   78.254768034   16.249377271   341.9957   5   9   3.2059   1.5040   9.5738   0.7470   1.4079   4.5631   0.00    0.0
2018/03/11 10:28:38.000   78.254774254   16.249396573   342.8422   5   9   3.2057   1.5040   9.5719   0.7467   1.4073   4.5625   0.00    0.0
2018/03/11 10:28:39.000   78.254770636   16.249422281   342.5216   5   9   3.2056   1.5040   9.5699   0.7463   1.4068   4.5619   0.00    0.0
2018/03/11 10:28:40.000   78.254774880   16.249403149   344.5394   5   9   3.2055   1.5040   9.5680   0.7459   1.4062   4.5614   0.00    0.0
2018/03/11 10:28:41.000   78.254775482   16.249385470   345.4296   5   9   3.2053   1.5040   9.5660   0.7455   1.4057   4.5608   0.00    0.0
2018/03/11 10:28:42.000   78.254774763   16.249369470   344.6790   5   9   3.2052   1.5040   9.5641   0.7451   1.4052   4.5602   0.00    0.0
2018/03/11 10:28:43.000   78.254769942   16.249383997   342.2499   5   9   3.2051   1.5040   9.5622   0.7447   1.4046   4.5596   0.00    0.0
2018/03/11 10:28:44.000   78.254758325   16.249366973   337.4955   5   9   3.2050   1.5040   9.5602   0.7444   1.4041   4.5590   0.00    0.0
2018/03/11 10:28:45.000   78.254768081   16.249368380   341.2719   5   9   3.2048   1.5040   9.5583   0.7440   1.4035   4.5584   0.00    0.0
2018/03/11 10:28:46.000   78.254762692   16.249370168   338.5679   5   9   3.2047   1.5040   9.5563   0.7436   1.4030   4.5579   0.00    0.0
2018/03/11 10:28:47.000   78.254757957   16.249371776   338.8913   5   9   3.2046   1.5040   9.5544   0.7432   1.4024   4.5573   0.00    0.0
2018/03/11 10:28:48.000   78.254761372   16.249372189   340.0437   5   9   3.2044   1.5040   9.5524   0.7428   1.4019   4.5567   0.00    0.0
2018/03/11 10:28:49.000   78.254757546   16.249382789   340.6670   5   9   3.2043   1.5040   9.5505   0.7424   1.4013   4.5561   0.00    0.0
2018/03/11 10:28:50.000   78.254765743   16.249385262   344.8777   5   9   3.2042   1.5040   9.5485   0.7421   1.4008   4.5555   0.00    0.0
2018/03/11 10:28:51.000   78.254767803   16.249383019   344.1175   5   9   3.2040   1.5040   9.5466   0.7417   1.4003   4.5549   0.00    0.0
2018/03/11 10:28:52.000   78.254769919   16.249394246   343.0801   5   9   3.2039   1.5040   9.5446   0.7413   1.3997   4.5543   0.00    0.0
2018/03/11 10:28:53.000   78.254768529   16.249402843   343.5287   5   9   3.2038   1.5040   9.5427   0.7409   1.3992   4.5537   0.00    0.0
2018/03/11 10:28:54.000   78.254774687   16.249406245   345.4754   5   9   3.2036   1.5040   9.5407   0.7405   1.3986   4.5531   0.00    0.0
2018/03/11 10:28:55.000   78.254772945   16.249397292   344.8838   5   9   3.2035   1.5040   9.5388   0.7401   1.3981   4.5525   0.00    0.0
2018/03/11 10:28:56.000   78.254772573   16.249402273   344.4423   5   9   3.2034   1.5040   9.5368   0.7397   1.3975   4.5519   0.00    0.0
2018/03/11 10:28:57.000   78.254769356   16.249394664   343.0287   5   9   3.2032   1.5040   9.5348   0.7393   1.3970   4.5513   0.00    0.0
2018/03/11 10:28:58.000   78.254764941   16.249389228   341.5756   5   9   3.2031   1.5040   9.5329   0.7390   1.3964   4.5507   0.00    0.0
2018/03/11 10:28:59.000   78.254759276   16.249377432   340.3490   5   9   3.2030   1.5040   9.5309   0.7386   1.3959   4.5501   0.00    0.0
2018/03/11 10:29:00.000   78.254760612   16.249352897   341.8554   5   9   3.2028   1.5040   9.5289   0.7382   1.3953   4.5495   0.00    0.0
2018/03/11 10:29:01.000   78.254763962   16.249359009   341.3818   5   9   3.2027   1.5040   9.5270   0.7378   1.3948   4.5489   0.00    0.0
2018/03/11 10:29:02.000   78.254762138   16.249337475   340.6845   5   9   3.2025   1.5040   9.5250   0.7374   1.3942   4.5483   0.00    0.0
2018/03/11 10:29:03.000   78.254765901   16.249344423   341.1232   5   9   3.2024   1.5040   9.5230   0.7370   1.3937   4.5477   0.00    0.0
2018/03/11 10:29:04.000   78.254766807   16.249363402   340.4791   5   9   3.2023   1.5040   9.5211   0.7366   1.3931   4.5471   0.00    0.0
2018/03/11 10:29:05.000   78.254769045   16.249384244   341.7423   5   9   3.2021   1.5040   9.5191   0.7362   1.3925   4.5465   0.00    0.0
2018/03/11 10:29:06.000   78.254778652   16.249396691   344.4556   5   9   3.2020   1.5040   9.5171   0.7358   1.3920   4.5459   0.00    0.0
2018/03/11 10:29:07.000   78.254775959   16.249396193   344.3502   5   9   3.2018   1.5040   9.5151   0.7354   1.3914   4.5453   0.00    0.0
2018/03/11 10:29:08.000   78.254773438   16.249401001   343.1886   5   9   3.2017   1.5040   9.5132   0.7350   1.3909   4.5447   0.00    0.0
2018/03/11 10:29:09.000   78.254768351   16.249406157   342.2296   5   9   3.2016   1.5040   9.5112   0.7347   1.3903   4.5441   0.00    0.0
2018/03/11 10:29:10.000   78.254767767   16.249391230   342.5380   5   9   3.2014   1.5040   9.5092   0.7343   1.3898   4.5434   0.00    0.0
2018/03/11 10:29:11.000   78.254762355   16.249391538   341.2456   5   9   3.2013   1.5040   9.5072   0.7339   1.3892   4.5428   0.00    0.0
2018/03/11 10:29:12.000   78.254765220   16.249382620   341.9049   5   9   3.2011   1.5040   9.5052   0.7335   1.3887   4.5422   0.00    0.0
2018/03/11 10:29:13.000   78.254762343   16.249379325   342.2121   5   9   3.2010   1.5040   9.5033   0.7331   1.3881   4.5416   0.00    0.0
2018/03/11 10:29:14.000   78.254757274   16.249374012   342.4492   5   9   3.2008   1.5040   9.5013   0.7327   1.3875   4.5410   0.00    0.0
2018/03/11 10:29:15.000   78.254765078   16.249355960   345.0200   5   9   3.2007   1.5040   9.4993   0.7323   1.3870   4.5404   0.00    0.0
2018/03/11 10:29:16.000   78.254763318   16.249364768   345.2809   5   9   3.2006   1.5040   9.4973   0.7319   1.3864   4.5398   0.00    0.0
2018/03/11 10:29:17.000   78.254760351   16.249380557   342.6928   5   9   3.2004   1.5040   9.4953   0.7315   1.3859   4.5391   0.00    0.0
2018/03/11 10:29:18.000   78.254766906   16.249389080   341.3088   5   9   3.2003   1.5040   9.4933   0.7311   1.3853   4.5385   0.00    0.0
2018/03/11 10:29:19.000   78.254771041   16.249393162   342.1899   5   9   3.2001   1.5040   9.4913   0.7307   1.3847   4.5379   0.00    0.0
2018/03/11 10:29:20.000   78.254774324   16.249371396   342.6397   5   9   3.2000   1.5040   9.4893   0.7303   1.3842   4.5373   0.00    0.0
2018/03/11 10:29:21.000   78.254777378   16.249379356   343.0485   5   9   3.1998   1.5040   9.4873   0.7299   1.3836   4.5366   0.00    0.0
2018/03/11 10:29:22.000   78.254768981   16.249379751   340.4992   5   9   3.1997   1.5040   9.4853   0.7295   1.3831   4.5360   0.00    0.0
2018/03/11 10:29:23.000   78.254767233   16.249388099   340.1177   5   9   3.1995   1.5040   9.4833   0.7291   1.3825   4.5354   0.00    0.0
2018/03/11 10:29:24.000   78.254768606   16.249385325   341.4361   5   9   3.1994   1.5040   9.4813   0.7287   1.3819   4.5348   0.00    0.0
2018/03/11 10:29:25.000   78.254769939   16.249380320   343.2533   5   9   3.1992   1.5040   9.4793   0.7283   1.3814   4.5341   0.00    0.0
2018/03/11 10:29:26.000   78.254763796   16.249391448   342.0127   5   9   3.1991   1.5040   9.4773   0.7279   1.3808   4.5335   0.00    0.0
2018/03/11 10:29:27.000   78.254768046   16.249372746   343.9786   5   9   3.1989   1.5040   9.4753   0.7275   1.3802   4.5329   0.00    0.0
2018/03/11 10:29:28.000   78.254772087   16.249355312   345.1643   5   9   3.1988   1.5040   9.4733   0.7271   1.3797   4.5323   0.00    0.0
2018/03/11 10:29:29.000   78.254768985   16.249370349   344.6967   5   9   3.1986   1.5040   9.4713   0.7267   1.3791   4.5316   0.00    0.0
2018/03/11 10:29:30.000   78.254761721   16.249364746   341.7460   5   9   3.1985   1.5040   9.4693   0.7263   1.3785   4.5310   0.00    0.0
2018/03/11 10:29:31.000   78.254764310   16.249378556   342.9692   5   9   3.1983   1.5040   9.4673   0.7259   1.3780   4.5304   0.00    0.0
2018/03/11 10:29:32.000   78.254761865   16.249378131   342.6414   5   9   3.1982   1.5040   9.4653   0.7255   1.3774   4.5297   0.00    0.0
2018/03/11 10:29:33.000   78.254768629   16.249390390   345.6169   5   9   3.1980   1.5040   9.4633   0.7251   1.3768   4.5291   0.00    0.0
2018/03/11 10:29:34.000   78.254772677   16.249386714   346.1413   5   9   3.1979   1.5040   9.4613   0.7247   1.3763   4.5285   0.00    0.0
2018/03/11 10:29:35.000   78.254769562   16.249401485   343.9968   5   9   3.1977   1.5040   9.4593   0.7243   1.3757   4.5278   0.00    0.0
2018/03/11 10:29:36.000   78.254771646   16.249394008   343.0926   5   9   3.1976   1.5040   9.4573   0.7239   1.3751   4.5272   0.00    0.0
2018/03/11 10:29:37.000   78.254775776   16.249391434   345.0526   5   9   3.1974   1.5040   9.4552   0.7235   1.3746   4.5265   0.00    0.0
2018/03/11 10:29:38.000   78.254774437   16.249376969   343.3244   5   9   3.1973   1.5040   9.4532   0.7231   1.3740   4.5259   0.00    0.0
2018/03/11 10:29:39.000   78.254771172   16.249375197   342.6521   5   9   3.1971   1.5040   9.4512   0.7227   1.3734   4.5253   0.00    0.0
2018/03/11 10:29:40.000   78.254765015   16.249362674   341.0640   5   9   3.1970   1.5040   9.4492   0.7223   1.3729   4.5246   0.00    0.0
2018/03/11 10:29:41.000   78.254764462   16.249357103   341.1708   5   9   3.1968   1.5040   9.4472   0.7219   1.3723   4.5240   0.00    0.0
2018/03/11 10:29:42.000   78.254765312   16.249364267   341.4011   5   9   3.1966   1.5040   9.4452   0.7215   1.3717   4.5233   0.00    0.0
2018/03/11 10:29:43.000   78.254767045   16.249364857   340.9549   5   9   3.1965   1.5040   9.4431   0.7211   1.3711   4.5227   0.00    0.0
2018/03/11 10:29:44.000   78.254760513   16.249384585   339.3089   5   9   3.1963   1.5040   9.4411   0.7207   1.3706   4.5221   0.00    0.0
2018/03/11 10:29:45.000   78.254768593   16.249387785   342.3828   5   9   3.1962   1.5040   9.4391   0.7203   1.3700   4.5214   0.00    0.0
2018/03/11 10:29:46.000   78.254773150   16.249369222   344.7364   5   9   3.1960   1.5040   9.4371   0.7198   1.3694   4.5208   0.00    0.0
2018/03/11 10:29:47.000   78.254771960   16.249382337   345.2964   5   9   3.1959   1.5040   9.4350   0.7194   1.3689   4.5201   0.00    0.0
2018/03/11 10:29:48.000   78.254769529   16.249388978   343.3305   5   9   3.1957   1.5040   9.4330   0.7190   1.3683   4.5195   0.00    0.0
2018/03/11 10:29:49.000   78.254768842   16.249390770   343.8024   5   9   3.1955   1.5040   9.4310   0.7186   1.3677   4.5188   0.00    0.0
2018/03/11 10:29:50.000   78.254774357   16.249386172   345.4881   5   9   3.1954   1.5040   9.4289   0.7182   1.3671   4.5182   0.00    0.0
2018/03/11 10:29:51.000   78.254768475   16.249381923   343.3290   5   9   3.1952   1.5040   9.4269   0.7178   1.3666   4.5175   0.00    0.0
2018/03/11 10:29:52.000   78.254769156   16.249376629   344.0272   5   9   3.1951   1.5040   9.4249   0.7174   1.3660   4.5169   0.00    0.0
2018/03/11 10:29:53.000   78.254763207   16.249376746   340.0971   5   9   3.1949   1.5040   9.4228   0.7170   1.3654   4.5162   0.00    0.0
2018/03/11 10:29:54.000   78.254766958   16.249372942   343.1839   5   9   3.1947   1.5040   9.4208   0.7166   1.3648   4.5156   0.00    0.0
2018/03/11 10:29:55.000   78.254771746   16.249372394   343.8849   5   9   3.1946   1.5040   9.4188   0.7162   1.3643   4.5149   0.00    0.0
2018/03/11 10:29:56.000   78.254773088   16.249378483   343.9327   5   9   3.1944   1.5040   9.4167   0.7158   1.3637   4.5142   0.00    0.0
2018/03/11 10:29:57.000   78.254770413   16.249394010   342.6562   5   9   3.1943   1.5040   9.4147   0.7153   1.3631   4.5136   0.00    0.0
2018/03/11 10:29:58.000   78.254769058   16.249393663   343.1335   5   9   3.1941   1.5040   9.4126   0.7149   1.3625   4.5129   0.00    0.0
2018/03/11 10:29:59.000   78.254773581   16.249377508   345.0225   5   9   3.1939   1.5040   9.4106   0.7145   1.3619   4.5123   0.00    0.0
2018/03/11 10:30:00.000   78.254765695   16.249384880   342.2035   5   9   3.1938   1.5040   9.4086   0.7141   1.3614   4.5116   0.00    0.0
2018/03/11 10:30:01.000   78.254765689   16.249384915   343.1558   5   9   3.1936   1.5040   9.4065   0.7137   1.3608   4.5110   0.00    0.0
2018/03/11 10:30:02.000   78.254766132   16.249370541   342.7132   5   9   3.1934   1.5040   9.4045   0.7133   1.3602   4.5103   0.00    0.0
2018/03/11 10:30:03.000   78.254768390   16.249369818   340.8727   5   9   3.1933   1.5040   9.4024   0.7129   1.3596   4.5096   0.00    0.0
2018/03/11 10:30:04.000   78.254769306   16.249375623   341.3216   5   9   3.1931   1.5040   9.4004   0.7125   1.3590   4.5090   0.00    0.0
2018/03/11 10:30:05.000   78.254768978   16.249374317   341.2215   5   9   3.1930   1.5040   9.3983   0.7120   1.3585   4.5083   0.00    0.0
2018/03/11 10:30:06.000   78.254767637   16.249371405   340.6217   5   9   3.1928   1.5040   9.3963   0.7116   1.3579   4.5076   0.00    0.0
2018/03/11 10:30:07.000   78.254766172   16.249372636   339.8613   5   9   3.1926   1.5040   9.3942   0.7112   1.3573   4.5070   0.00    0.0
2018/03/11 10:30:08.000   78.254771412   16.249364575   343.4422   5   9   3.1925   1.5040   9.3922   0.7108   1.3567   4.5063   0.00    0.0
2018/03/11 10:30:09.000   78.254764759   16.249367879   341.9543   5   9   3.1923   1.5040   9.3901   0.7104   1.3561   4.5056   0.00    0.0
2018/03/11 10:30:10.000   78.254764743   16.249386491   341.0540   5   9   3.1921   1.5040   9.3881   0.7100   1.3555   4.5050   0.00    0.0
2018/03/11 10:30:11.000   78.254765929   16.249383550   341.8453   5   9   3.1920   1.5040   9.3860   0.7095   1.3550   4.5043   0.00    0.0
2018/03/11 10:30:12.000   78.254771596   16.249376403   344.3828   5   9   3.1918   1.5040   9.3840   0.7091   1.3544   4.5036   0.00    0.0
2018/03/11 10:30:13.000   78.254772129   16.249384310   344.3162   5   9   3.1916   1.5040   9.3819   0.7087   1.3538   4.5030   0.00    0.0
2018/03/11 10:30:14.000   78.254771614   16.249387989   344.8782   5   9   3.1914   1.5040   9.3798   0.7083   1.3532   4.5023   0.00    0.0
2018/03/11 10:30:15.000   78.254769937   16.249391830   344.7403   5   9   3.1913   1.5040   9.3778   0.7079   1.3526   4.5016   0.00    0.0
2018/03/11 10:30:16.000   78.254766990   16.249378071   344.0155   5   9   3.1911   1.5040   9.3757   0.7075   1.3520   4.5010   0.00    0.0
2018/03/11 10:30:17.000   78.254767459   16.249375951   343.0788   5   9   3.1909   1.5040   9.3737   0.7070   1.3514   4.5003   0.00    0.0
2018/03/11 10:30:18.000   78.254766648   16.249383967   342.3014   5   9   3.1908   1.5040   9.3716   0.7066   1.3509   4.4996   0.00    0.0
2018/03/11 10:30:19.000   78.254759305   16.249379277   338.0518   5   9   3.1906   1.5040   9.3695   0.7062   1.3503   4.4989   0.00    0.0
2018/03/11 10:30:20.000   78.254769260   16.249373948   340.3672   5   9   3.1904   1.5040   9.3675   0.7058   1.3497   4.4983   0.00    0.0
2018/03/11 10:30:21.000   78.254777813   16.249347825   345.4091   5   9   3.1903   1.5040   9.3654   0.7054   1.3491   4.4976   0.00    0.0
2018/03/11 10:30:22.000   78.254781261   16.249367742   346.7505   5   9   3.1901   1.5040   9.3633   0.7049   1.3485   4.4969   0.00    0.0
2018/03/11 10:30:23.000   78.254772528   16.249397666   343.1689   5   9   3.1899   1.5040   9.3613   0.7045   1.3479   4.4962   0.00    0.0
2018/03/11 10:30:24.000   78.254773326   16.249408948   343.9894   5   9   3.1897   1.5040   9.3592   0.7041   1.3473   4.4955   0.00    0.0
2018/03/11 10:30:25.000   78.254775844   16.249415116   344.7489   5   9   3.1896   1.5040   9.3571   0.7037   1.3467   4.4949   0.00    0.0
2018/03/11 10:30:26.000   78.254779135   16.249397329   345.6444   5   9   3.1894   1.5040   9.3551   0.7033   1.3461   4.4942   0.00    0.0
2018/03/11 10:30:27.000   78.254771961   16.249395272   344.1294   5   9   3.1892   1.5040   9.3530   0.7028   1.3456   4.4935   0.00    0.0
2018/03/11 10:30:28.000   78.254767050   16.249385215   341.9715   5   9   3.1890   1.5040   9.3509   0.7024   1.3450   4.4928   0.00    0.0
2018/03/11 10:30:29.000   78.254766558   16.249386583   342.2011   5   9   3.1889   1.5040   9.3488   0.7020   1.3444   4.4921   0.00    0.0
2018/03/11 10:30:30.000   78.254765809   16.249370119   342.8194   5   9   3.1887   1.5040   9.3468   0.7016   1.3438   4.4914   0.00    0.0
2018/03/11 10:30:31.000   78.254762177   16.249364495   341.8330   5   9   3.1885   1.5040   9.3447   0.7011   1.3432   4.4908   0.00    0.0
2018/03/11 10:30:32.000   78.254753122   16.249358704   338.7047   5   9   3.1883   1.5040   9.3426   0.7007   1.3426   4.4901   0.00    0.0
2018/03/11 10:30:33.000   78.254755959   16.249366069   338.4450   5   9   3.1882   1.5040   9.3405   0.7003   1.3420   4.4894   0.00    0.0
2018/03/11 10:30:34.000   78.254763858   16.249372166   341.0205   5   9   3.1880   1.5040   9.3385   0.6999   1.3414   4.4887   0.00    0.0
2018/03/11 10:30:35.000   78.254775445   16.249371801   343.0790   5   9   3.1878   1.5040   9.3364   0.6994   1.3408   4.4880   0.00    0.0
2018/03/11 10:30:36.000   78.254775288   16.249389506   342.1899   5   9   3.1876   1.5040   9.3343   0.6990   1.3402   4.4873   0.00    0.0
2018/03/11 10:30:37.000   78.254774671   16.249395761   341.5633   5   9   3.1875   1.5040   9.3322   0.6986   1.3396   4.4866   0.00    0.0
2018/03/11 10:30:38.000   78.254772891   16.249401385   342.3580   5   9   3.1873   1.5040   9.3301   0.6982   1.3390   4.4859   0.00    0.0
2018/03/11 10:30:39.000   78.254775502   16.249399917   343.2329   5   9   3.1871   1.5040   9.3280   0.6977   1.3384   4.4852   0.00    0.0
2018/03/11 10:30:40.000   78.254775148   16.249381392   346.2689   5   9   3.1869   1.5040   9.3260   0.6973   1.3378   4.4845   0.00    0.0
2018/03/11 10:30:41.000   78.254767082   16.249383882   342.3052   5   9   3.1867   1.5040   9.3239   0.6969   1.3372   4.4839   0.00    0.0
2018/03/11 10:30:42.000   78.254766789   16.249374484   341.4356   5   9   3.1866   1.5040   9.3218   0.6964   1.3366   4.4832   0.00    0.0
2018/03/11 10:30:43.000   78.254770036   16.249361939   343.6822   5   9   3.1864   1.5040   9.3197   0.6960   1.3360   4.4825   0.00    0.0
2018/03/11 10:30:44.000   78.254766343   16.249374684   341.7118   5   9   3.1862   1.5040   9.3176   0.6956   1.3354   4.4818   0.00    0.0
2018/03/11 10:30:45.000   78.254764179   16.249388048   340.9131   5   9   3.1860   1.5040   9.3155   0.6952   1.3348   4.4811   0.00    0.0
2018/03/11 10:30:46.000   78.254757672   16.249393176   340.5179   5   9   3.1858   1.5040   9.3134   0.6947   1.3342   4.4804   0.00    0.0
2018/03/11 10:30:47.000   78.254764817   16.249391134   341.8680   5   9   3.1857   1.5040   9.3113   0.6943   1.3336   4.4797   0.00    0.0
2018/03/11 10:30:48.000   78.254775774   16.249397443   345.5708   5   9   3.1855   1.5040   9.3092   0.6939   1.3330   4.4790   0.00    0.0
2018/03/11 10:30:49.000   78.254780875   16.249398046   346.5256   5   9   3.1853   1.5040   9.3071   0.6934   1.3324   4.4783   0.00    0.0
2018/03/11 10:30:50.000   78.254775889   16.249408057   342.9104   5   9   3.1851   1.5040   9.3050   0.6930   1.3318   4.4776   0.00    0.0
2018/03/11 10:30:51.000   78.254776002   16.249405597   342.0203   5   9   3.1849   1.5040   9.3029   0.6926   1.3312   4.4769   0.00    0.0
2018/03/11 10:30:52.000   78.254776644   16.249381223   343.3537   5   9   3.1847   1.5040   9.3008   0.6921   1.3306   4.4762   0.00    0.0
2018/03/11 10:30:53.000   78.254777095   16.249372999   343.8263   5   9   3.1846   1.5040   9.2987   0.6917   1.3300   4.4755   0.00    0.0
2018/03/11 10:30:54.000   78.254764702   16.249373366   340.1862   5   9   3.1844   1.5040   9.2967   0.6913   1.3294   4.4748   0.00    0.0
2018/03/11 10:30:55.000   78.254764986   16.249367650   341.2777   5   9   3.1842   1.5040   9.2945   0.6908   1.3288   4.4740   0.00    0.0
2018/03/11 10:30:56.000   78.254764561   16.249356971   341.2760   5   9   3.1840   1.5040   9.2924   0.6904   1.3282   4.4733   0.00    0.0
2018/03/11 10:30:57.000   78.254761109   16.249362968   340.9887   5   9   3.1838   1.5040   9.2903   0.6900   1.3276   4.4726   0.00    0.0
2018/03/11 10:30:58.000   78.254768445   16.249357984   342.7415   5   9   3.1836   1.5041   9.2882   0.6895   1.3270   4.4719   0.00    0.0
2018/03/11 10:30:59.000   78.254761188   16.249378713   340.5356   5   9   3.1834   1.5041   9.2861   0.6891   1.3264   4.4712   0.00    0.0
2018/03/11 10:31:00.000   78.254757173   16.249383290   338.1928   5   9   3.1833   1.5041   9.2840   0.6887   1.3258   4.4705   0.00    0.0
2018/03/11 10:31:01.000   78.254762395   16.249390577   341.2224   5   9   3.1831   1.5041   9.2819   0.6882   1.3252   4.4698   0.00    0.0
2018/03/11 10:31:02.000   78.254769623   16.249393299   343.5954   5   9   3.1829   1.5041   9.2798   0.6878   1.3246   4.4691   0.00    0.0
2018/03/11 10:31:03.000   78.254774832   16.249399290   344.7737   5   9   3.1827   1.5041   9.2777   0.6873   1.3240   4.4684   0.00    0.0
2018/03/11 10:31:04.000   78.254773635   16.249394795   344.2025   5   9   3.1825   1.5041   9.2756   0.6869   1.3234   4.4677   0.00    0.0
2018/03/11 10:31:05.000   78.254778262   16.249392076   346.1952   5   9   3.1823   1.5041   9.2735   0.6865   1.3228   4.4670   0.00    0.0
2018/03/11 10:31:06.000   78.254779739   16.249384916   345.3657   5   9   3.1821   1.5041   9.2714   0.6860   1.3222   4.4662   0.00    0.0
2018/03/11 10:31:07.000   78.254770593   16.249393679   342.7281   5   9   3.1819   1.5041   9.2693   0.6856   1.3216   4.4655   0.00    0.0
2018/03/11 10:31:08.000   78.254768953   16.249382234   343.4228   5   9   3.1817   1.5041   9.2672   0.6852   1.3210   4.4648   0.00    0.0
2018/03/11 10:31:09.000   78.254764731   16.249367102   341.2304   5   9   3.1816   1.5041   9.2651   0.6847   1.3203   4.4641   0.00    0.0
2018/03/11 10:31:10.000   78.254763531   16.249365681   341.6388   5   9   3.1814   1.5041   9.2629   0.6843   1.3197   4.4634   0.00    0.0
2018/03/11 10:31:11.000   78.254762951   16.249356650   341.9884   5   9   3.1812   1.5041   9.2608   0.6838   1.3191   4.4627   0.00    0.0
2018/03/11 10:31:12.000   78.254759823   16.249368899   340.7732   5   9   3.1810   1.5041   9.2587   0.6834   1.3185   4.4619   0.00    0.0
2018/03/11 10:31:13.000   78.254760686   16.249391965   339.5418   5   9   3.1808   1.5041   9.2566   0.6830   1.3179   4.4612   0.00    0.0
2018/03/11 10:31:14.000   78.254768258   16.249399479   341.1278   5   9   3.1806   1.5041   9.2545   0.6825   1.3173   4.4605   0.00    0.0
2018/03/11 10:31:15.000   78.254771275   16.249391223   343.1475   5   9   3.1804   1.5041   9.2524   0.6821   1.3167   4.4598   0.00    0.0
2018/03/11 10:31:16.000   78.254774992   16.249387455   343.3869   5   9   3.1802   1.5041   9.2502   0.6816   1.3161   4.4591   0.00    0.0
2018/03/11 10:31:17.000   78.254766332   16.249393054   341.5502   5   9   3.1800   1.5041   9.2481   0.6812   1.3155   4.4583   0.00    0.0
2018/03/11 10:31:18.000   78.254773521   16.249391618   343.1137   5   9   3.1798   1.5041   9.2460   0.6807   1.3149   4.4576   0.00    0.0
2018/03/11 10:31:19.000   78.254771346   16.249374879   342.4965   5   9   3.1796   1.5041   9.2439   0.6803   1.3142   4.4569   0.00    0.0
2018/03/11 10:31:20.000   78.254769070   16.249385098   341.9742   5   9   3.1794   1.5041   9.2418   0.6799   1.3136   4.4562   0.00    0.0
2018/03/11 10:31:21.000   78.254767260   16.249376197   342.3557   5   9   3.1793   1.5041   9.2396   0.6794   1.3130   4.4554   0.00    0.0
2018/03/11 10:31:22.000   78.254764135   16.249375069   341.0931   5   9   3.1791   1.5041   9.2375   0.6790   1.3124   4.4547   0.00    0.0
2018/03/11 10:31:23.000   78.254760470   16.249370503   340.2444   5   9   3.1789   1.5041   9.2354   0.6785   1.3118   4.4540   0.00    0.0
2018/03/11 10:31:24.000   78.254765693   16.249355675   343.0166   5   9   3.1787   1.5041   9.2333   0.6781   1.3112   4.4533   0.00    0.0
2018/03/11 10:31:25.000   78.254768381   16.249378260   343.9741   5   9   3.1785   1.5041   9.2311   0.6776   1.3106   4.4525   0.00    0.0
2018/03/11 10:31:26.000   78.254766025   16.249397063   340.6913   5   9   3.1783   1.5041   9.2290   0.6772   1.3099   4.4518   0.00    0.0
2018/03/11 10:31:27.000   78.254761670   16.249411254   341.7027   5   9   3.1781   1.5041   9.2269   0.6767   1.3093   4.4511   0.00    0.0
2018/03/11 10:31:28.000   78.254769857   16.249406981   344.1368   5   9   3.1779   1.5041   9.2247   0.6763   1.3087   4.4503   0.00    0.0
2018/03/11 10:31:29.000   78.254776688   16.249402131   346.2286   5   9   3.1777   1.5041   9.2226   0.6759   1.3081   4.4496   0.00    0.0
2018/03/11 10:31:30.000   78.254773681   16.249396117   344.6598   5   9   3.1775   1.5041   9.2205   0.6754   1.3075   4.4489   0.00    0.0
2018/03/11 10:31:31.000   78.254773608   16.249379953   343.9604   5   9   3.1773   1.5042   9.2184   0.6750   1.3069   4.4482   0.00    0.0
2018/03/11 10:31:32.000   78.254769489   16.249381606   342.1118   5   9   3.1771   1.5042   9.2162   0.6745   1.3062   4.4474   0.00    0.0
2018/03/11 10:31:33.000   78.254770274   16.249356943   342.4424   5   9   3.1769   1.5042   9.2141   0.6741   1.3056   4.4467   0.00    0.0
2018/03/11 10:31:34.000   78.254764958   16.249350838   340.1267   5   9   3.1767   1.5042   9.2120   0.6736   1.3050   4.4460   0.00    0.0
2018/03/11 10:31:35.000   78.254760462   16.249359460   338.0944   5   9   3.1765   1.5042   9.2098   0.6732   1.3044   4.4452   0.00    0.0
2018/03/11 10:31:36.000   78.254758098   16.249368092   338.0440   5   9   3.1763   1.5042   9.2077   0.6727   1.3038   4.4445   0.00    0.0
2018/03/11 10:31:37.000   78.254761862   16.249352378   340.6064   5   9   3.1761   1.5042   9.2055   0.6723   1.3032   4.4437   0.00    0.0
2018/03/11 10:31:38.000   78.254763881   16.249373661   342.4043   5   9   3.1759   1.5042   9.2034   0.6718   1.3025   4.4430   0.00    0.0
2018/03/11 10:31:39.000   78.254766788   16.249393673   343.3084   5   9   3.1757   1.5042   9.2013   0.6714   1.3019   4.4423   0.00    0.0
2018/03/11 10:31:40.000   78.254766248   16.249411309   343.2389   5   9   3.1755   1.5042   9.1991   0.6709   1.3013   4.4415   0.00    0.0
2018/03/11 10:31:41.000   78.254766459   16.249425758   342.4390   5   9   3.1753   1.5042   9.1970   0.6705   1.3007   4.4408   0.00    0.0
2018/03/11 10:31:42.000   78.254765932   16.249420129   342.3482   5   9   3.1751   1.5042   9.1949   0.6700   1.3001   4.4401   0.00    0.0
2018/03/11 10:31:43.000   78.254778054   16.249402224   345.8946   5   9   3.1749   1.5042   9.1927   0.6696   1.2994   4.4393   0.00    0.0
2018/03/11 10:31:44.000   78.254773354   16.249386396   344.8569   5   9   3.1747   1.5042   9.1906   0.6691   1.2988   4.4386   0.00    0.0
2018/03/11 10:31:45.000   78.254768270   16.249385145   342.8032   5   9   3.1745   1.5042   9.1884   0.6686   1.2982   4.4378   0.00    0.0
2018/03/11 10:31:46.000   78.254770416   16.249372198   344.2852   5   9   3.1743   1.5042   9.1863   0.6682   1.2976   4.4371   0.00    0.0
2018/03/11 10:31:47.000   78.254768571   16.249369343   343.9591   5   9   3.1741   1.5042   9.1841   0.6677   1.2969   4.4363   0.00    0.0
2018/03/11 10:31:48.000   78.254768513   16.249357578   341.9597   5   9   3.1739   1.5042   9.1820   0.6673   1.2963   4.4356   0.00    0.0
2018/03/11 10:31:49.000   78.254765033   16.249369610   339.9484   5   9   3.1737   1.5042   9.1799   0.6668   1.2957   4.4349   0.00    0.0
2018/03/11 10:31:50.000   78.254766319   16.249361782   338.9632   5   9   3.1735   1.5042   9.1777   0.6664   1.2951   4.4341   0.00    0.0
2018/03/11 10:31:51.000   78.254770837   16.249369532   339.8043   5   9   3.1733   1.5042   9.1756   0.6659   1.2944   4.4334   0.00    0.0
2018/03/11 10:31:52.000   78.254773918   16.249380066   341.3871   5   9   3.1730   1.5042   9.1734   0.6655   1.2938   4.4326   0.00    0.0
2018/03/11 10:31:53.000   78.254777564   16.249388659   343.5561   5   9   3.1728   1.5042   9.1713   0.6650   1.2932   4.4319   0.00    0.0
2018/03/11 10:31:54.000   78.254770657   16.249408034   343.2273   5   9   3.1726   1.5042   9.1691   0.6646   1.2926   4.4311   0.00    0.0
2018/03/11 10:31:55.000   78.254763672   16.249427420   342.3067   5   9   3.1724   1.5043   9.1670   0.6641   1.2919   4.4304   0.00    0.0
2018/03/11 10:31:56.000   78.254766633   16.249410005   343.2324   5   9   3.1722   1.5043   9.1648   0.6636   1.2913   4.4296   0.00    0.0
2018/03/11 10:31:57.000   78.254765164   16.249400314   342.4522   5   9   3.1720   1.5043   9.1627   0.6632   1.2907   4.4289   0.00    0.0
2018/03/11 10:31:58.000   78.254765316   16.249403062   341.6384   5   9   3.1718   1.5043   9.1605   0.6627   1.2901   4.4281   0.00    0.0
2018/03/11 10:31:59.000   78.254769246   16.249387442   344.5486   5   9   3.1716   1.5043   9.1584   0.6623   1.2894   4.4274   0.00    0.0
2018/03/11 10:32:00.000   78.254768500   16.249371601   343.6977   5   9   3.1714   1.5043   9.1562   0.6618   1.2888   4.4266   0.00    0.0
2018/03/11 10:32:01.000   78.254763453   16.249367723   342.4964   5   9   3.1712   1.5043   9.1541   0.6613   1.2882   4.4259   0.00    0.0
2018/03/11 10:32:02.000   78.254759401   16.249370654   341.3477   5   9   3.1710   1.5043   9.1519   0.6609   1.2876   4.4251   0.00    0.0
2018/03/11 10:32:03.000   78.254765168   16.249369374   342.0184   5   9   3.1708   1.5043   9.1497   0.6604   1.2869   4.4244   0.00    0.0
2018/03/11 10:32:04.000   78.254768592   16.249375796   341.9343   5   9   3.1706   1.5043   9.1476   0.6600   1.2863   4.4236   0.00    0.0
2018/03/11 10:32:05.000   78.254768540   16.249380269   341.0305   5   9   3.1704   1.5043   9.1454   0.6595   1.2857   4.4228   0.00    0.0
2018/03/11 10:32:06.000   78.254770232   16.249373423   341.7835   5   9   3.1701   1.5043   9.1433   0.6590   1.2850   4.4221   0.00    0.0
2018/03/11 10:32:07.000   78.254771860   16.249376325   342.7905   5   9   3.1699   1.5043   9.1411   0.6586   1.2844   4.4213   0.00    0.0
2018/03/11 10:32:08.000   78.254767379   16.249373440   341.4199   5   9   3.1697   1.5043   9.1390   0.6581   1.2838   4.4206   0.00    0.0
2018/03/11 10:32:09.000   78.254772872   16.249378909   343.1651   5   9   3.1695   1.5043   9.1368   0.6576   1.2831   4.4198   0.00    0.0
2018/03/11 10:32:10.000   78.254759839   16.249392128   341.6040   5   9   3.1693   1.5043   9.1346   0.6572   1.2825   4.4191   0.00    0.0
2018/03/11 10:32:11.000   78.254754887   16.249393571   340.6193   5   9   3.1691   1.5043   9.1325   0.6567   1.2819   4.4183   0.00    0.0
2018/03/11 10:32:12.000   78.254759040   16.249379455   340.6051   5   9   3.1689   1.5043   9.1303   0.6563   1.2813   4.4175   0.00    0.0
2018/03/11 10:32:13.000   78.254761851   16.249374939   341.2019   5   9   3.1687   1.5043   9.1282   0.6558   1.2806   4.4168   0.00    0.0
2018/03/11 10:32:14.000   78.254768458   16.249375079   342.3305   5   9   3.1685   1.5043   9.1260   0.6553   1.2800   4.4160   0.00    0.0
