% program   : RTKPOST ver.2.4.2
% inp file  : Z:\home\linda\Documents\Spring18\GitHub_Unis\data\processed_data\46250709.obs
% inp file  : Z:\home\linda\Documents\Spring18\GitHub_Unis\data\base_station_data\lyrs0700.18o
% inp file  : Z:\home\linda\Documents\Spring18\GitHub_Unis\data\processed_data\46250709.nav
% obs start : 2018/03/11 13:43:13.0 GPST (week1992  49393.0s)
% obs end   : 2018/03/11 13:58:41.0 GPST (week1992  50321.0s)
% pos mode  : static
% freqs     : L1+L2
% solution  : forward
% elev mask : 15.0 deg
% dynamics  : on
% tidecorr  : off
% ionos opt : broadcast
% tropo opt : saastamoinen
% ephemeris : broadcast
% navi sys  : gps glonass galileo qzss sbas
% amb res   : fix and hold
% amb glo   : on
% val thres : 3.0
% antenna1  :                       ( 0.0000  0.0000  0.0000)
% antenna2  :                       ( 0.0000  0.0000  0.0000)
% ref pos   : 78.228825638   15.397310064   495.6816
%
% (lat/lon/height=WGS84/ellipsoidal,Q=1:fix,2:float,3:sbas,4:dgps,5:single,6:ppp,ns=# of satellites)
%  GPST                  latitude(deg) longitude(deg)  height(m)   Q  ns   sdn(m)   sde(m)   sdu(m)  sdne(m)  sdeu(m)  sdun(m) age(s)  ratio
2018/03/11 13:43:13.000   78.251307185   16.154916342   566.2352   2  10   0.4692   0.4250   1.6416  -0.1976  -0.5082   0.7001   0.00    1.1
2018/03/11 13:43:14.000   78.251307040   16.154917867   565.7767   2  10   0.3336   0.3022   1.1676  -0.1400  -0.3610   0.4978   0.00    1.0
2018/03/11 13:43:15.000   78.251308195   16.154914154   566.1345   2  10   0.2729   0.2471   0.9548  -0.1143  -0.2951   0.4070   0.00    1.0
2018/03/11 13:43:16.000   78.251308524   16.154913019   566.3116   2  10   0.2365   0.2142   0.8272  -0.0989  -0.2556   0.3525   0.00    1.0
2018/03/11 13:43:17.000   78.251307834   16.154912006   566.2883   2  10   0.2115   0.1917   0.7396  -0.0884  -0.2286   0.3152   0.00    1.0
2018/03/11 13:43:18.000   78.251307319   16.154910898   566.1359   2  10   0.1930   0.1750   0.6747  -0.0805  -0.2085   0.2874   0.00    1.0
2018/03/11 13:43:19.000   78.251307546   16.154908199   566.2088   2  10   0.1786   0.1620   0.6240  -0.0744  -0.1928   0.2658   0.00    1.0
2018/03/11 13:43:20.000   78.251308221   16.154906149   566.4642   2  10   0.1670   0.1515   0.5829  -0.0695  -0.1801   0.2482   0.00    1.0
2018/03/11 13:43:21.000   78.251308167   16.154904397   566.5641   2  10   0.1573   0.1428   0.5487  -0.0653  -0.1696   0.2336   0.00    1.1
2018/03/11 13:43:22.000   78.251308020   16.154904384   566.5276   2  10   0.1491   0.1355   0.5196  -0.0618  -0.1606   0.2211   0.00    1.0
2018/03/11 13:43:23.000   78.251307678   16.154905352   566.3326   2  10   0.1420   0.1291   0.4944  -0.0588  -0.1528   0.2103   0.00    1.0
2018/03/11 13:43:24.000   78.251307575   16.154905717   566.2152   2  10   0.1357   0.1236   0.4722  -0.0561  -0.1459   0.2008   0.00    1.0
2018/03/11 13:43:25.000   78.251307565   16.154904819   566.2103   2  10   0.1302   0.1187   0.4525  -0.0536  -0.1398   0.1924   0.00    1.0
2018/03/11 13:43:26.000   78.251307496   16.154903466   566.1480   2  10   0.1253   0.1143   0.4349  -0.0515  -0.1344   0.1848   0.00    1.0
2018/03/11 13:43:27.000   78.251307311   16.154902474   566.0917   2  10   0.1208   0.1104   0.4189  -0.0495  -0.1294   0.1779   0.00    1.0
2018/03/11 13:43:28.000   78.251307000   16.154903588   565.9388   2  10   0.1168   0.1068   0.4043  -0.0477  -0.1249   0.1716   0.00    1.0
2018/03/11 13:43:29.000   78.251306678   16.154904319   565.8354   2  10   0.1131   0.1036   0.3909  -0.0461  -0.1208   0.1659   0.00    1.0
2018/03/11 13:43:30.000   78.251306305   16.154904605   565.7423   2  10   0.1097   0.1006   0.3786  -0.0445  -0.1170   0.1605   0.00    1.0
2018/03/11 13:43:31.000   78.251306048   16.154905002   565.6465   2  10   0.1066   0.0978   0.3671  -0.0431  -0.1134   0.1556   0.00    1.0
2018/03/11 13:43:32.000   78.251305584   16.154905212   565.4755   2  10   0.1036   0.0953   0.3564  -0.0417  -0.1101   0.1509   0.00    1.0
2018/03/11 13:43:33.000   78.251305188   16.154906634   565.3419   2  10   0.1009   0.0929   0.3464  -0.0405  -0.1070   0.1466   0.00    1.1
2018/03/11 13:43:34.000   78.251304779   16.154908331   565.1939   2  10   0.0984   0.0907   0.3370  -0.0393  -0.1041   0.1425   0.00    1.1
2018/03/11 13:43:35.000   78.251304306   16.154909395   565.0528   2  10   0.0960   0.0887   0.3281  -0.0382  -0.1014   0.1387   0.00    1.1
2018/03/11 13:43:36.000   78.251303621   16.154910249   564.8420   2  10   0.0937   0.0867   0.3197  -0.0371  -0.0988   0.1350   0.00    1.2
2018/03/11 13:43:37.000   78.251303077   16.154910891   564.6719   2  10   0.0916   0.0849   0.3118  -0.0361  -0.0963   0.1316   0.00    1.2
2018/03/11 13:43:38.000   78.251302592   16.154911908   564.4976   2  10   0.0895   0.0832   0.3042  -0.0351  -0.0940   0.1283   0.00    1.2
2018/03/11 13:43:39.000   78.251302101   16.154913705   564.3467   2  10   0.0876   0.0815   0.2970  -0.0342  -0.0917   0.1251   0.00    1.2
2018/03/11 13:43:40.000   78.251301619   16.154914868   564.1808   2  10   0.0858   0.0800   0.2902  -0.0333  -0.0896   0.1221   0.00    1.2
2018/03/11 13:43:41.000   78.251301002   16.154916284   563.9967   2  10   0.0841   0.0785   0.2836  -0.0324  -0.0876   0.1193   0.00    1.2
2018/03/11 13:43:42.000   78.251300445   16.154917079   563.8016   2  10   0.0824   0.0771   0.2773  -0.0316  -0.0856   0.1165   0.00    1.2
2018/03/11 13:43:43.000   78.251299925   16.154918543   563.6178   2  10   0.0808   0.0758   0.2713  -0.0308  -0.0838   0.1139   0.00    1.2
2018/03/11 13:43:44.000   78.251299501   16.154919304   563.4848   2  10   0.0793   0.0745   0.2655  -0.0300  -0.0820   0.1113   0.00    1.2
2018/03/11 13:43:45.000   78.251299053   16.154919797   563.3489   2  10   0.0779   0.0733   0.2599  -0.0293  -0.0802   0.1089   0.00    1.2
2018/03/11 13:43:46.000   78.251298579   16.154920373   563.1616   2  10   0.0765   0.0722   0.2546  -0.0286  -0.0786   0.1065   0.00    1.2
2018/03/11 13:43:47.000   78.251298246   16.154921008   563.0457   2  10   0.0751   0.0710   0.2494  -0.0279  -0.0770   0.1042   0.00    1.2
2018/03/11 13:43:48.000   78.251297854   16.154921858   562.9141   2  10   0.0739   0.0700   0.2444  -0.0272  -0.0754   0.1020   0.00    1.1
2018/03/11 13:43:49.000   78.251297403   16.154922531   562.8091   2  10   0.0726   0.0689   0.2396  -0.0266  -0.0739   0.0999   0.00    1.0
2018/03/11 13:43:50.000   78.251296917   16.154923349   562.6808   2  10   0.0714   0.0679   0.2349  -0.0259  -0.0725   0.0978   0.00    1.0
2018/03/11 13:43:51.000   78.251296516   16.154923951   562.5470   2  10   0.0703   0.0670   0.2304  -0.0253  -0.0711   0.0958   0.00    1.1
2018/03/11 13:43:52.000   78.251296103   16.154924845   562.4047   2  10   0.0691   0.0661   0.2260  -0.0247  -0.0697   0.0939   0.00    1.2
2018/03/11 13:43:53.000   78.251295763   16.154926134   562.2883   2  10   0.0681   0.0652   0.2218  -0.0241  -0.0684   0.0920   0.00    1.2
2018/03/11 13:43:54.000   78.251295484   16.154926978   562.2063   2  10   0.0670   0.0643   0.2177  -0.0235  -0.0671   0.0902   0.00    1.2
2018/03/11 13:43:55.000   78.251295236   16.154927373   562.1100   2  10   0.0660   0.0635   0.2137  -0.0230  -0.0659   0.0884   0.00    1.3
2018/03/11 13:43:56.000   78.251294908   16.154927864   562.0144   2  10   0.0650   0.0627   0.2098  -0.0224  -0.0647   0.0867   0.00    1.3
2018/03/11 13:43:57.000   78.251294555   16.154928587   561.8976   2  10   0.0641   0.0619   0.2061  -0.0219  -0.0635   0.0850   0.00    1.3
2018/03/11 13:43:58.000   78.251294309   16.154929365   561.8289   2  10   0.0632   0.0612   0.2024  -0.0214  -0.0624   0.0834   0.00    1.4
2018/03/11 13:43:59.000   78.251294078   16.154929767   561.7781   2  10   0.0623   0.0604   0.1989  -0.0209  -0.0613   0.0818   0.00    1.4
2018/03/11 13:44:00.000   78.251293816   16.154930073   561.7293   2  10   0.0614   0.0597   0.1954  -0.0204  -0.0602   0.0803   0.00    1.4
2018/03/11 13:44:01.000   78.251293585   16.154930020   561.6750   2  10   0.0606   0.0590   0.1920  -0.0199  -0.0592   0.0788   0.00    1.4
2018/03/11 13:44:02.000   78.251293446   16.154929733   561.6488   2  10   0.0597   0.0584   0.1888  -0.0194  -0.0582   0.0773   0.00    1.4
2018/03/11 13:44:03.000   78.251293395   16.154929446   561.6744   2  10   0.0590   0.0577   0.1856  -0.0190  -0.0572   0.0759   0.00    1.5
2018/03/11 13:44:04.000   78.251293305   16.154929132   561.6981   2  10   0.0582   0.0571   0.1825  -0.0185  -0.0562   0.0745   0.00    1.4
2018/03/11 13:44:05.000   78.251293218   16.154928534   561.7226   2  10   0.0574   0.0565   0.1795  -0.0181  -0.0553   0.0731   0.00    1.4
2018/03/11 13:44:06.000   78.251293079   16.154928022   561.7371   2  10   0.0567   0.0559   0.1765  -0.0176  -0.0543   0.0718   0.00    1.4
2018/03/11 13:44:07.000   78.251292949   16.154927563   561.7573   2  10   0.0560   0.0553   0.1736  -0.0172  -0.0535   0.0705   0.00    1.3
2018/03/11 13:44:08.000   78.251292935   16.154926956   561.8251   2  10   0.0553   0.0547   0.1708  -0.0168  -0.0526   0.0693   0.00    1.3
2018/03/11 13:44:09.000   78.251292944   16.154926253   561.8804   2  10   0.0546   0.0542   0.1681  -0.0163  -0.0517   0.0680   0.00    1.3
2018/03/11 13:44:10.000   78.251292928   16.154925670   561.9334   2  10   0.0539   0.0536   0.1654  -0.0159  -0.0509   0.0668   0.00    1.2
2018/03/11 13:44:11.000   78.251292842   16.154925394   561.9755   2  10   0.0533   0.0531   0.1628  -0.0155  -0.0501   0.0657   0.00    1.2
2018/03/11 13:44:12.000   78.251292806   16.154924906   562.0258   2  10   0.0527   0.0526   0.1603  -0.0151  -0.0493   0.0645   0.00    1.1
2018/03/11 13:44:13.000   78.251292742   16.154924289   562.0832   2  10   0.0521   0.0521   0.1578  -0.0147  -0.0485   0.0634   0.00    1.1
2018/03/11 13:44:14.000   78.251292683   16.154923692   562.1430   2  10   0.0515   0.0516   0.1554  -0.0144  -0.0478   0.0623   0.00    1.0
2018/03/11 13:44:15.000   78.251292673   16.154922809   562.2002   2  10   0.0509   0.0511   0.1530  -0.0140  -0.0470   0.0612   0.00    1.0
2018/03/11 13:44:16.000   78.251292650   16.154922239   562.2497   2  10   0.0503   0.0507   0.1507  -0.0136  -0.0463   0.0602   0.00    1.1
2018/03/11 13:44:17.000   78.251292657   16.154922047   562.3097   2  10   0.0497   0.0502   0.1484  -0.0132  -0.0456   0.0592   0.00    1.1
2018/03/11 13:44:18.000   78.251292680   16.154922089   562.3641   2  10   0.0492   0.0498   0.1462  -0.0129  -0.0449   0.0582   0.00    1.1
2018/03/11 13:44:19.000   78.251292708   16.154921677   562.4392   2  10   0.0487   0.0493   0.1441  -0.0125  -0.0443   0.0572   0.00    1.0
2018/03/11 13:44:20.000   78.251292668   16.154921399   562.5028   2  10   0.0481   0.0489   0.1420  -0.0122  -0.0436   0.0562   0.00    1.0
2018/03/11 13:44:21.000   78.251292578   16.154921064   562.5355   2  10   0.0476   0.0485   0.1399  -0.0118  -0.0430   0.0553   0.00    1.1
2018/03/11 13:44:22.000   78.251292513   16.154920679   562.5585   2  10   0.0471   0.0481   0.1379  -0.0115  -0.0423   0.0544   0.00    1.1
2018/03/11 13:44:23.000   78.251292465   16.154920485   562.5847   2  10   0.0467   0.0476   0.1359  -0.0111  -0.0417   0.0535   0.00    1.1
2018/03/11 13:44:24.000   78.251292412   16.154920275   562.6067   2  10   0.0462   0.0473   0.1340  -0.0108  -0.0411   0.0526   0.00    1.1
2018/03/11 13:44:25.000   78.251292395   16.154920078   562.6412   2  10   0.0457   0.0469   0.1321  -0.0105  -0.0405   0.0517   0.00    1.1
2018/03/11 13:44:26.000   78.251292422   16.154919610   562.7019   2  10   0.0452   0.0465   0.1302  -0.0101  -0.0400   0.0509   0.00    1.0
2018/03/11 13:44:27.000   78.251292433   16.154919063   562.7543   2  10   0.0448   0.0461   0.1284  -0.0098  -0.0394   0.0501   0.00    1.0
2018/03/11 13:44:28.000   78.251292501   16.154918460   562.8255   2  10   0.0444   0.0457   0.1266  -0.0095  -0.0389   0.0492   0.00    1.0
2018/03/11 13:44:29.000   78.251292557   16.154917772   562.8939   2  10   0.0439   0.0454   0.1249  -0.0091  -0.0383   0.0485   0.00    1.1
2018/03/11 13:44:30.000   78.251292617   16.154917218   562.9626   2  10   0.0435   0.0450   0.1232  -0.0088  -0.0378   0.0477   0.00    1.1
2018/03/11 13:44:31.000   78.251292695   16.154916588   563.0394   2  10   0.0431   0.0447   0.1216  -0.0085  -0.0373   0.0469   0.00    1.1
2018/03/11 13:44:32.000   78.251292806   16.154915868   563.1131   2  10   0.0427   0.0443   0.1199  -0.0082  -0.0368   0.0462   0.00    1.2
2018/03/11 13:44:33.000   78.251292908   16.154914985   563.1783   2  10   0.0423   0.0440   0.1183  -0.0078  -0.0363   0.0454   0.00    1.2
2018/03/11 13:44:34.000   78.251293012   16.154914451   563.2522   2  10   0.0419   0.0437   0.1168  -0.0075  -0.0358   0.0447   0.00    1.3
2018/03/11 13:44:35.000   78.251293155   16.154913726   563.3193   2  10   0.0415   0.0434   0.1152  -0.0072  -0.0353   0.0440   0.00    1.3
2018/03/11 13:44:36.000   78.251293295   16.154913038   563.3923   2  10   0.0411   0.0430   0.1137  -0.0069  -0.0348   0.0433   0.00    1.3
2018/03/11 13:44:37.000   78.251293440   16.154912556   563.4671   2  10   0.0408   0.0427   0.1123  -0.0065  -0.0344   0.0427   0.00    1.2
2018/03/11 13:44:38.000   78.251293607   16.154912165   563.5431   2  10   0.0404   0.0424   0.1108  -0.0062  -0.0339   0.0420   0.00    1.2
2018/03/11 13:44:39.000   78.251293752   16.154911710   563.6243   2  10   0.0401   0.0421   0.1094  -0.0058  -0.0335   0.0414   0.00    1.2
2018/03/11 13:44:40.000   78.251293861   16.154911145   563.6839   2  10   0.0397   0.0418   0.1080  -0.0055  -0.0331   0.0407   0.00    1.2
2018/03/11 13:44:41.000   78.251294014   16.154910610   563.7423   2  10   0.0394   0.0415   0.1067  -0.0051  -0.0327   0.0401   0.00    1.2
2018/03/11 13:44:42.000   78.251294163   16.154910266   563.7955   2  10   0.0390   0.0412   0.1053  -0.0048  -0.0322   0.0395   0.00    1.2
2018/03/11 13:44:43.000   78.251294331   16.154909836   563.8534   2  10   0.0387   0.0409   0.1040  -0.0044  -0.0318   0.0389   0.00    1.2
2018/03/11 13:44:44.000   78.251294504   16.154909359   563.9020   2  10   0.0384   0.0407   0.1027  -0.0040  -0.0314   0.0383   0.00    1.2
2018/03/11 13:44:45.000   78.251294680   16.154909095   563.9508   2  10   0.0381   0.0404   0.1015  -0.0035  -0.0311   0.0377   0.00    1.2
2018/03/11 13:44:46.000   78.251294846   16.154908721   563.9892   2  10   0.0377   0.0401   0.1002  -0.0030  -0.0307   0.0372   0.00    1.2
2018/03/11 13:44:47.000   78.251295050   16.154908284   564.0444   2  10   0.0374   0.0398   0.0990  -0.0025  -0.0303   0.0366   0.00    1.2
2018/03/11 13:44:48.000   78.251295229   16.154908033   564.0827   2  10   0.0371   0.0396   0.0979  -0.0018  -0.0299   0.0361   0.00    1.2
2018/03/11 13:44:49.000   78.251295392   16.154907596   564.1211   2  10   0.0368   0.0393   0.0967  -0.0007  -0.0296   0.0355   0.00    1.2
2018/03/11 13:44:50.000   78.251295568   16.154907380   564.1557   2  10   0.0365   0.0391   0.0955   0.0015  -0.0292   0.0350   0.00    1.2
2018/03/11 13:44:51.000   78.251295771   16.154907181   564.1801   2  10   0.0363   0.0388   0.0944   0.0022  -0.0289   0.0345   0.00    1.2
2018/03/11 13:44:52.000   78.251295964   16.154906985   564.2088   2  10   0.0360   0.0386   0.0933   0.0027  -0.0285   0.0340   0.00    1.2
2018/03/11 13:44:53.000   78.251296153   16.154906617   564.2337   2  10   0.0357   0.0383   0.0922   0.0031  -0.0282   0.0335   0.00    1.2
2018/03/11 13:44:54.000   78.251296355   16.154906137   564.2508   2  10   0.0354   0.0381   0.0912   0.0035  -0.0279   0.0330   0.00    1.2
2018/03/11 13:44:55.000   78.251296550   16.154905897   564.2613   2  10   0.0351   0.0378   0.0901   0.0038  -0.0276   0.0325   0.00    1.2
2018/03/11 13:44:56.000   78.251296762   16.154905834   564.2650   2  10   0.0349   0.0376   0.0891   0.0041  -0.0272   0.0320   0.00    1.2
2018/03/11 13:44:57.000   78.251296945   16.154905771   564.2712   2  10   0.0346   0.0374   0.0881   0.0043  -0.0269   0.0316   0.00    1.2
2018/03/11 13:44:58.000   78.251297137   16.154905719   564.2766   2  10   0.0344   0.0371   0.0871   0.0045  -0.0266   0.0311   0.00    1.2
2018/03/11 13:44:59.000   78.251297324   16.154905595   564.2736   2  10   0.0341   0.0369   0.0861   0.0047  -0.0263   0.0307   0.00    1.2
2018/03/11 13:45:00.000   78.251297533   16.154905362   564.2712   2  10   0.0339   0.0367   0.0852   0.0049  -0.0260   0.0302   0.00    1.2
2018/03/11 13:45:01.000   78.251297703   16.154905317   564.2611   2  10   0.0336   0.0365   0.0843   0.0051  -0.0257   0.0298   0.00    1.2
2018/03/11 13:45:02.000   78.251297896   16.154905689   564.2516   2  10   0.0334   0.0362   0.0833   0.0053  -0.0255   0.0294   0.00    1.2
2018/03/11 13:45:03.000   78.251298100   16.154905874   564.2460   2  10   0.0331   0.0360   0.0824   0.0054  -0.0252   0.0289   0.00    1.1
2018/03/11 13:45:04.000   78.251298271   16.154905735   564.2330   2  10   0.0329   0.0358   0.0815   0.0056  -0.0249   0.0285   0.00    1.1
2018/03/11 13:45:05.000   78.251298456   16.154905686   564.2301   2  10   0.0327   0.0356   0.0807   0.0057  -0.0246   0.0281   0.00    1.1
2018/03/11 13:45:06.000   78.251298646   16.154905800   564.2213   2  10   0.0324   0.0354   0.0798   0.0058  -0.0244   0.0277   0.00    1.1
2018/03/11 13:45:07.000   78.251298846   16.154905974   564.2248   2  10   0.0322   0.0352   0.0790   0.0059  -0.0241   0.0273   0.00    1.1
2018/03/11 13:45:08.000   78.251299017   16.154906106   564.2216   2  10   0.0320   0.0350   0.0781   0.0061  -0.0239   0.0269   0.00    1.1
2018/03/11 13:45:09.000   78.251299185   16.154906318   564.2169   2  10   0.0318   0.0348   0.0773   0.0062  -0.0236   0.0266   0.00    1.1
2018/03/11 13:45:10.000   78.251299362   16.154906546   564.2176   2  10   0.0315   0.0346   0.0765   0.0063  -0.0234   0.0262   0.00    1.1
2018/03/11 13:45:11.000   78.251299558   16.154906801   564.2198   2  10   0.0313   0.0344   0.0757   0.0064  -0.0231   0.0258   0.00    1.0
2018/03/11 13:45:12.000   78.251299748   16.154907092   564.2194   2  10   0.0311   0.0342   0.0750   0.0064  -0.0229   0.0255   0.00    1.0
2018/03/11 13:45:13.000   78.251299965   16.154907380   564.2117   2  10   0.0309   0.0340   0.0742   0.0065  -0.0227   0.0251   0.00    1.0
2018/03/11 13:45:14.000   78.251300200   16.154907666   564.1968   2  10   0.0307   0.0338   0.0734   0.0066  -0.0224   0.0248   0.00    1.0
2018/03/11 13:45:15.000   78.251300456   16.154908237   564.1792   2  10   0.0305   0.0336   0.0727   0.0067  -0.0222   0.0244   0.00    1.0
2018/03/11 13:45:16.000   78.251300721   16.154908926   564.1538   2  10   0.0303   0.0334   0.0720   0.0068  -0.0220   0.0241   0.00    1.0
2018/03/11 13:45:17.000   78.251300977   16.154909455   564.1285   2  10   0.0301   0.0333   0.0713   0.0068  -0.0218   0.0238   0.00    1.0
2018/03/11 13:45:18.000   78.251301234   16.154909958   564.1021   2  10   0.0299   0.0331   0.0706   0.0069  -0.0216   0.0234   0.00    1.0
2018/03/11 13:45:19.000   78.251301509   16.154910557   564.0689   2  10   0.0297   0.0329   0.0699   0.0070  -0.0213   0.0231   0.00    1.0
2018/03/11 13:45:20.000   78.251301813   16.154911103   564.0430   2  10   0.0295   0.0327   0.0692   0.0070  -0.0211   0.0228   0.00    1.1
2018/03/11 13:45:21.000   78.251302106   16.154911699   564.0095   2  10   0.0293   0.0325   0.0685   0.0071  -0.0209   0.0225   0.00    1.1
2018/03/11 13:45:22.000   78.251302438   16.154912320   563.9820   2  10   0.0291   0.0324   0.0678   0.0071  -0.0207   0.0222   0.00    1.1
2018/03/11 13:45:23.000   78.251302778   16.154913005   563.9561   2  10   0.0290   0.0322   0.0672   0.0072  -0.0205   0.0219   0.00    1.1
2018/03/11 13:45:24.000   78.251303131   16.154913592   563.9400   2  10   0.0288   0.0320   0.0666   0.0072  -0.0203   0.0216   0.00    1.1
2018/03/11 13:45:25.000   78.251303451   16.154914022   563.9408   2  10   0.0286   0.0319   0.0660   0.0073  -0.0202   0.0213   0.00    1.0
2018/03/11 13:45:26.000   78.251303745   16.154914489   563.9480   2  10   0.0284   0.0317   0.0654   0.0073  -0.0200   0.0210   0.00    1.0
2018/03/11 13:45:27.000   78.251304012   16.154914713   563.9591   2  10   0.0283   0.0315   0.0648   0.0073  -0.0198   0.0207   0.00    1.0
2018/03/11 13:45:28.000   78.251304285   16.154914898   563.9750   2  10   0.0281   0.0314   0.0642   0.0074  -0.0197   0.0204   0.00    1.0
2018/03/11 13:45:29.000   78.251304544   16.154915082   563.9897   2  10   0.0279   0.0312   0.0637   0.0074  -0.0195   0.0201   0.00    1.0
2018/03/11 13:45:30.000   78.251304818   16.154915321   564.0119   2  10   0.0278   0.0311   0.0631   0.0074  -0.0193   0.0198   0.00    1.0
2018/03/11 13:45:31.000   78.251305080   16.154915458   564.0309   2  10   0.0276   0.0309   0.0626   0.0075  -0.0192   0.0195   0.00    1.0
2018/03/11 13:45:32.000   78.251305360   16.154915521   564.0549   2  10   0.0274   0.0307   0.0620   0.0075  -0.0190   0.0193   0.00    1.0
2018/03/11 13:45:33.000   78.251305664   16.154915693   564.0767   2  10   0.0273   0.0306   0.0615   0.0076  -0.0189   0.0190   0.00    1.0
2018/03/11 13:45:34.000   78.251306001   16.154915910   564.1028   2  10   0.0271   0.0304   0.0609   0.0076  -0.0187   0.0187   0.00    1.0
2018/03/11 13:45:35.000   78.251306354   16.154916180   564.1322   2  10   0.0269   0.0303   0.0604   0.0076  -0.0186   0.0185   0.00    1.0
2018/03/11 13:45:36.000   78.251306691   16.154916450   564.1584   2  10   0.0268   0.0301   0.0599   0.0076  -0.0184   0.0182   0.00    1.0
2018/03/11 13:45:37.000   78.251307031   16.154916815   564.1792   2  10   0.0266   0.0300   0.0594   0.0077  -0.0183   0.0180   0.00    1.0
2018/03/11 13:45:38.000   78.251307386   16.154917011   564.2092   2  10   0.0265   0.0298   0.0589   0.0077  -0.0181   0.0177   0.00    1.0
2018/03/11 13:45:39.000   78.251307708   16.154917268   564.2347   2  10   0.0263   0.0297   0.0584   0.0077  -0.0180   0.0175   0.00    1.0
2018/03/11 13:45:40.000   78.251308041   16.154917515   564.2619   2  10   0.0262   0.0295   0.0579   0.0077  -0.0178   0.0172   0.00    1.0
2018/03/11 13:45:41.000   78.251308356   16.154917587   564.2880   2  10   0.0260   0.0294   0.0575   0.0078  -0.0177   0.0170   0.00    1.0
2018/03/11 13:45:42.000   78.251308677   16.154917755   564.3160   2  10   0.0259   0.0293   0.0570   0.0078  -0.0176   0.0168   0.00    1.0
2018/03/11 13:45:43.000   78.251308977   16.154917997   564.3441   2   9   0.0257   0.0291   0.0565   0.0078  -0.0174   0.0165   0.00    1.0
2018/03/11 13:45:44.000   78.251309282   16.154918076   564.3728   2   9   0.0256   0.0290   0.0561   0.0078  -0.0173   0.0163   0.00    1.0
2018/03/11 13:45:45.000   78.251309562   16.154918105   564.4000   2   9   0.0255   0.0288   0.0556   0.0078  -0.0171   0.0160   0.00    1.0
2018/03/11 13:45:46.000   78.251309849   16.154918239   564.4285   2   9   0.0253   0.0287   0.0552   0.0078  -0.0170   0.0158   0.00    1.0
2018/03/11 13:45:47.000   78.251310139   16.154918289   564.4569   2  10   0.0252   0.0286   0.0547   0.0078  -0.0169   0.0156   0.00    1.0
2018/03/11 13:45:48.000   78.251310421   16.154918300   564.4899   2  10   0.0251   0.0284   0.0543   0.0078  -0.0168   0.0154   0.00    1.0
2018/03/11 13:45:49.000   78.251310693   16.154918384   564.5206   2  10   0.0249   0.0283   0.0539   0.0079  -0.0166   0.0151   0.00    1.0
2018/03/11 13:45:50.000   78.251310943   16.154918525   564.5471   2  10   0.0248   0.0282   0.0534   0.0079  -0.0165   0.0149   0.00    1.0
2018/03/11 13:45:51.000   78.251311189   16.154918639   564.5735   2  10   0.0247   0.0280   0.0530   0.0079  -0.0164   0.0147   0.00    1.0
2018/03/11 13:45:52.000   78.251311431   16.154918775   564.6060   2  10   0.0245   0.0279   0.0526   0.0079  -0.0163   0.0145   0.00    1.0
2018/03/11 13:45:53.000   78.251311671   16.154918785   564.6361   2  10   0.0244   0.0278   0.0522   0.0079  -0.0162   0.0143   0.00    1.0
2018/03/11 13:45:54.000   78.251311909   16.154918788   564.6723   2  10   0.0243   0.0276   0.0518   0.0079  -0.0160   0.0141   0.00    1.0
2018/03/11 13:45:55.000   78.251312118   16.154918800   564.7043   2  10   0.0241   0.0275   0.0514   0.0079  -0.0159   0.0139   0.00    1.0
2018/03/11 13:45:56.000   78.251312324   16.154919036   564.7342   2  10   0.0240   0.0274   0.0510   0.0079  -0.0158   0.0137   0.00    1.1
2018/03/11 13:45:57.000   78.251312526   16.154919334   564.7642   2  10   0.0239   0.0273   0.0506   0.0079  -0.0157   0.0135   0.00    1.1
2018/03/11 13:45:58.000   78.251312730   16.154919620   564.7917   2  10   0.0238   0.0271   0.0502   0.0080  -0.0156   0.0133   0.00    1.1
2018/03/11 13:45:59.000   78.251312929   16.154919817   564.8166   2  10   0.0236   0.0270   0.0498   0.0080  -0.0155   0.0131   0.00    1.1
2018/03/11 13:46:00.000   78.251313123   16.154920012   564.8399   2   9   0.0235   0.0269   0.0495   0.0080  -0.0154   0.0129   0.00    1.1
2018/03/11 13:46:01.000   78.251313312   16.154920137   564.8628   2   9   0.0234   0.0268   0.0491   0.0080  -0.0153   0.0127   0.00    1.1
2018/03/11 13:46:02.000   78.251313512   16.154920164   564.8931   2  10   0.0233   0.0267   0.0487   0.0080  -0.0152   0.0125   0.00    1.0
2018/03/11 13:46:03.000   78.251313696   16.154920277   564.9196   2  10   0.0232   0.0265   0.0484   0.0080  -0.0151   0.0124   0.00    1.0
2018/03/11 13:46:04.000   78.251313870   16.154920452   564.9438   2  10   0.0230   0.0264   0.0480   0.0080  -0.0150   0.0122   0.00    1.0
2018/03/11 13:46:05.000   78.251314030   16.154920517   564.9669   2  10   0.0229   0.0263   0.0477   0.0080  -0.0149   0.0120   0.00    1.0
2018/03/11 13:46:06.000   78.251314178   16.154920379   564.9963   2  10   0.0228   0.0262   0.0473   0.0080  -0.0148   0.0118   0.00    1.0
2018/03/11 13:46:07.000   78.251314307   16.154920272   565.0189   2  10   0.0227   0.0261   0.0470   0.0080  -0.0147   0.0116   0.00    1.0
2018/03/11 13:46:08.000   78.251314425   16.154920040   565.0428   2  10   0.0226   0.0260   0.0466   0.0080  -0.0146   0.0115   0.00    1.0
2018/03/11 13:46:09.000   78.251314529   16.154919949   565.0718   2  10   0.0225   0.0258   0.0463   0.0080  -0.0145   0.0113   0.00    1.0
2018/03/11 13:46:10.000   78.251314611   16.154919956   565.0986   2  10   0.0224   0.0257   0.0460   0.0080  -0.0144   0.0111   0.00    1.0
2018/03/11 13:46:11.000   78.251314692   16.154919711   565.1265   2  10   0.0222   0.0256   0.0456   0.0080  -0.0143   0.0110   0.00    1.0
2018/03/11 13:46:12.000   78.251314768   16.154919385   565.1530   2  10   0.0221   0.0255   0.0453   0.0080  -0.0142   0.0108   0.00    1.1
2018/03/11 13:46:13.000   78.251314833   16.154919152   565.1816   2  10   0.0220   0.0254   0.0450   0.0080  -0.0141   0.0106   0.00    1.1
2018/03/11 13:46:14.000   78.251314903   16.154918965   565.2136   2  10   0.0219   0.0253   0.0447   0.0080  -0.0140   0.0105   0.00    1.1
2018/03/11 13:46:15.000   78.251314966   16.154918681   565.2507   2  10   0.0218   0.0252   0.0443   0.0080  -0.0139   0.0103   0.00    1.1
2018/03/11 13:46:16.000   78.251314993   16.154918379   565.2815   2  10   0.0217   0.0251   0.0440   0.0080  -0.0138   0.0101   0.00    1.1
2018/03/11 13:46:17.000   78.251315019   16.154918144   565.3053   2  10   0.0216   0.0250   0.0437   0.0080  -0.0138   0.0100   0.00    1.1
2018/03/11 13:46:18.000   78.251315053   16.154917879   565.3340   2  10   0.0215   0.0249   0.0434   0.0080  -0.0137   0.0098   0.00    1.0
2018/03/11 13:46:19.000   78.251315061   16.154917584   565.3632   2  10   0.0214   0.0247   0.0431   0.0079  -0.0136   0.0097   0.00    1.0
2018/03/11 13:46:20.000   78.251315076   16.154917357   565.3917   2  10   0.0213   0.0246   0.0428   0.0079  -0.0135   0.0095   0.00    1.0
2018/03/11 13:46:21.000   78.251315073   16.154917059   565.4152   2  10   0.0212   0.0245   0.0425   0.0079  -0.0134   0.0093   0.00    1.0
2018/03/11 13:46:22.000   78.251315069   16.154916687   565.4419   2  10   0.0211   0.0244   0.0423   0.0079  -0.0133   0.0092   0.00    1.0
2018/03/11 13:46:23.000   78.251315060   16.154916516   565.4727   2  10   0.0210   0.0243   0.0420   0.0079  -0.0132   0.0090   0.00    1.0
2018/03/11 13:46:24.000   78.251315039   16.154916297   565.4983   2  10   0.0209   0.0242   0.0417   0.0079  -0.0132   0.0089   0.00    1.0
2018/03/11 13:46:25.000   78.251314997   16.154915937   565.5248   2  10   0.0208   0.0241   0.0414   0.0079  -0.0131   0.0087   0.00    1.0
2018/03/11 13:46:26.000   78.251314940   16.154915664   565.5477   2  10   0.0207   0.0240   0.0411   0.0079  -0.0130   0.0086   0.00    1.0
2018/03/11 13:46:27.000   78.251314889   16.154915436   565.5698   2  10   0.0206   0.0239   0.0409   0.0079  -0.0129   0.0084   0.00    1.0
2018/03/11 13:46:28.000   78.251314837   16.154915250   565.5889   2  10   0.0205   0.0238   0.0406   0.0079  -0.0129   0.0083   0.00    1.0
2018/03/11 13:46:29.000   78.251314763   16.154915032   565.6089   2  10   0.0204   0.0237   0.0403   0.0079  -0.0128   0.0082   0.00    1.0
2018/03/11 13:46:30.000   78.251314687   16.154914792   565.6307   2  10   0.0203   0.0236   0.0401   0.0079  -0.0127   0.0080   0.00    1.0
2018/03/11 13:46:31.000   78.251314599   16.154914573   565.6507   2  10   0.0202   0.0235   0.0398   0.0079  -0.0126   0.0079   0.00    1.0
2018/03/11 13:46:32.000   78.251314489   16.154914282   565.6735   2  10   0.0202   0.0234   0.0395   0.0079  -0.0126   0.0077   0.00    1.0
2018/03/11 13:46:33.000   78.251314380   16.154913914   565.6986   2  10   0.0201   0.0233   0.0393   0.0079  -0.0125   0.0076   0.00    1.0
2018/03/11 13:46:34.000   78.251314257   16.154913556   565.7164   2  10   0.0200   0.0233   0.0390   0.0078  -0.0124   0.0075   0.00    1.1
2018/03/11 13:46:35.000   78.251314133   16.154913121   565.7374   2  10   0.0199   0.0232   0.0388   0.0078  -0.0123   0.0073   0.00    1.0
2018/03/11 13:46:36.000   78.251314018   16.154912738   565.7599   2  10   0.0198   0.0231   0.0385   0.0078  -0.0123   0.0072   0.00    1.0
2018/03/11 13:46:37.000   78.251313908   16.154912424   565.7788   2  10   0.0197   0.0230   0.0383   0.0078  -0.0122   0.0071   0.00    1.0
2018/03/11 13:46:38.000   78.251313796   16.154912088   565.7965   2  10   0.0196   0.0229   0.0381   0.0078  -0.0121   0.0069   0.00    1.0
2018/03/11 13:46:39.000   78.251313669   16.154911623   565.8136   2  10   0.0195   0.0228   0.0378   0.0078  -0.0121   0.0068   0.00    1.0
2018/03/11 13:46:40.000   78.251313543   16.154911173   565.8285   2  10   0.0194   0.0227   0.0376   0.0078  -0.0120   0.0067   0.00    1.0
2018/03/11 13:46:41.000   78.251313427   16.154910776   565.8419   2  10   0.0194   0.0226   0.0373   0.0078  -0.0119   0.0065   0.00    1.1
2018/03/11 13:46:42.000   78.251313321   16.154910486   565.8598   2  10   0.0193   0.0225   0.0371   0.0078  -0.0119   0.0064   0.00    1.1
2018/03/11 13:46:43.000   78.251313212   16.154910257   565.8750   2  10   0.0192   0.0224   0.0369   0.0078  -0.0118   0.0063   0.00    1.1
2018/03/11 13:46:44.000   78.251313107   16.154910032   565.8873   2  10   0.0191   0.0223   0.0366   0.0078  -0.0118   0.0061   0.00    1.1
2018/03/11 13:46:45.000   78.251312997   16.154909693   565.9009   2  10   0.0190   0.0222   0.0364   0.0078  -0.0117   0.0060   0.00    1.1
2018/03/11 13:46:46.000   78.251312873   16.154909415   565.9153   2  10   0.0189   0.0222   0.0362   0.0077  -0.0116   0.0059   0.00    1.1
2018/03/11 13:46:47.000   78.251312753   16.154909206   565.9269   2  10   0.0189   0.0221   0.0360   0.0077  -0.0116   0.0058   0.00    1.1
2018/03/11 13:46:48.000   78.251312640   16.154908980   565.9369   2  10   0.0188   0.0220   0.0358   0.0077  -0.0115   0.0056   0.00    1.2
2018/03/11 13:46:49.000   78.251312521   16.154908622   565.9466   2  10   0.0187   0.0219   0.0355   0.0077  -0.0114   0.0055   0.00    1.2
2018/03/11 13:46:50.000   78.251312400   16.154908444   565.9574   2  10   0.0186   0.0218   0.0353   0.0077  -0.0114   0.0054   0.00    1.2
2018/03/11 13:46:51.000   78.251312282   16.154908290   565.9714   2  10   0.0185   0.0217   0.0351   0.0077  -0.0113   0.0052   0.00    1.2
2018/03/11 13:46:52.000   78.251312147   16.154908008   565.9822   2  10   0.0185   0.0216   0.0349   0.0077  -0.0113   0.0051   0.00    1.2
2018/03/11 13:46:53.000   78.251311999   16.154907577   565.9929   2  10   0.0184   0.0216   0.0347   0.0077  -0.0112   0.0050   0.00    1.2
2018/03/11 13:46:54.000   78.251311860   16.154907205   565.9993   2  10   0.0183   0.0215   0.0345   0.0077  -0.0112   0.0049   0.00    1.2
2018/03/11 13:46:55.000   78.251311725   16.154906872   566.0053   2  10   0.0182   0.0214   0.0343   0.0076  -0.0111   0.0047   0.00    1.3
2018/03/11 13:46:56.000   78.251311604   16.154906729   566.0124   2  10   0.0181   0.0213   0.0341   0.0076  -0.0110   0.0046   0.00    1.3
2018/03/11 13:46:57.000   78.251311494   16.154906552   566.0166   2  10   0.0181   0.0212   0.0339   0.0076  -0.0110   0.0045   0.00    1.3
2018/03/11 13:46:58.000   78.251311373   16.154906343   566.0163   2  10   0.0180   0.0211   0.0337   0.0076  -0.0109   0.0044   0.00    1.3
2018/03/11 13:46:59.000   78.251311260   16.154906051   566.0162   2  10   0.0179   0.0211   0.0335   0.0076  -0.0109   0.0042   0.00    1.3
2018/03/11 13:47:00.000   78.251311150   16.154905877   566.0144   2  10   0.0178   0.0210   0.0333   0.0076  -0.0108   0.0041   0.00    1.4
2018/03/11 13:47:01.000   78.251311044   16.154905730   566.0136   2  10   0.0178   0.0209   0.0331   0.0076  -0.0108   0.0040   0.00    1.4
2018/03/11 13:47:02.000   78.251310936   16.154905421   566.0168   2  10   0.0177   0.0208   0.0329   0.0076  -0.0107   0.0038   0.00    1.4
2018/03/11 13:47:03.000   78.251310814   16.154905187   566.0144   2  10   0.0176   0.0207   0.0327   0.0075  -0.0107   0.0037   0.00    1.4
2018/03/11 13:47:04.000   78.251310707   16.154905049   566.0101   2  10   0.0176   0.0207   0.0325   0.0075  -0.0106   0.0036   0.00    1.5
2018/03/11 13:47:05.000   78.251310602   16.154904917   566.0062   2  10   0.0175   0.0206   0.0324   0.0075  -0.0106   0.0034   0.00    1.5
2018/03/11 13:47:06.000   78.251310491   16.154904774   565.9999   2  10   0.0174   0.0205   0.0322   0.0075  -0.0105   0.0033   0.00    1.5
2018/03/11 13:47:07.000   78.251310388   16.154904510   565.9922   2  10   0.0173   0.0204   0.0320   0.0075  -0.0105   0.0032   0.00    1.5
2018/03/11 13:47:08.000   78.251310287   16.154904181   565.9830   2  10   0.0173   0.0204   0.0318   0.0075  -0.0104   0.0030   0.00    1.5
2018/03/11 13:47:09.000   78.251310201   16.154903865   565.9781   2  10   0.0172   0.0203   0.0316   0.0075  -0.0104   0.0029   0.00    1.5
2018/03/11 13:47:10.000   78.251310118   16.154903775   565.9752   2  10   0.0171   0.0202   0.0315   0.0075  -0.0103   0.0027   0.00    1.6
2018/03/11 13:47:11.000   78.251310037   16.154903648   565.9733   2  10   0.0171   0.0201   0.0313   0.0074  -0.0103   0.0026   0.00    1.6
2018/03/11 13:47:12.000   78.251309943   16.154903390   565.9709   2  10   0.0170   0.0201   0.0311   0.0074  -0.0102   0.0024   0.00    1.6
2018/03/11 13:47:13.000   78.251309846   16.154903172   565.9674   2  10   0.0169   0.0200   0.0309   0.0074  -0.0102   0.0023   0.00    1.6
2018/03/11 13:47:14.000   78.251309777   16.154903004   565.9635   2  10   0.0169   0.0199   0.0308   0.0074  -0.0101   0.0021   0.00    1.6
2018/03/11 13:47:15.000   78.251309715   16.154902909   565.9606   2  10   0.0168   0.0198   0.0306   0.0074  -0.0101   0.0019   0.00    1.6
2018/03/11 13:47:16.000   78.251309657   16.154902808   565.9588   2  10   0.0167   0.0198   0.0304   0.0074  -0.0100   0.0017   0.00    1.0
2018/03/11 13:47:17.000   78.251309600   16.154902700   565.9557   2  10   0.0167   0.0197   0.0303   0.0074  -0.0100   0.0015   0.00    1.0
2018/03/11 13:47:18.000   78.251309547   16.154902565   565.9522   2  10   0.0166   0.0196   0.0301   0.0074  -0.0099   0.0012   0.00    1.1
2018/03/11 13:47:19.000   78.251309493   16.154902357   565.9514   2  10   0.0165   0.0195   0.0300   0.0073  -0.0099   0.0009   0.00    1.1
2018/03/11 13:47:20.000   78.251309446   16.154902221   565.9496   2  10   0.0165   0.0195   0.0298   0.0073  -0.0098   0.0005   0.00    1.1
2018/03/11 13:47:21.000   78.251309405   16.154902095   565.9480   2  10   0.0164   0.0194   0.0296   0.0073  -0.0098  -0.0006   0.00    1.1
2018/03/11 13:47:22.000   78.251309365   16.154901895   565.9480   2  10   0.0163   0.0193   0.0295   0.0073  -0.0098  -0.0010   0.00    1.1
2018/03/11 13:47:23.000   78.251309324   16.154901726   565.9488   2  10   0.0163   0.0193   0.0293   0.0073  -0.0097  -0.0013   0.00    1.1
2018/03/11 13:47:24.000   78.251309279   16.154901604   565.9494   2  10   0.0162   0.0192   0.0292   0.0073  -0.0097  -0.0015   0.00    1.1
2018/03/11 13:47:25.000   78.251309243   16.154901398   565.9517   2  10   0.0161   0.0191   0.0290   0.0073  -0.0096  -0.0017   0.00    1.2
2018/03/11 13:47:26.000   78.251309199   16.154901226   565.9545   2  10   0.0161   0.0191   0.0289   0.0072  -0.0096  -0.0018   0.00    1.2
2018/03/11 13:47:27.000   78.251309174   16.154901040   565.9583   2  10   0.0160   0.0190   0.0287   0.0072  -0.0095  -0.0020   0.00    1.2
2018/03/11 13:47:28.000   78.251309156   16.154900887   565.9606   2  10   0.0160   0.0189   0.0286   0.0072  -0.0095  -0.0021   0.00    1.2
2018/03/11 13:47:29.000   78.251309138   16.154900722   565.9630   2  10   0.0159   0.0189   0.0284   0.0072  -0.0095  -0.0022   0.00    1.2
2018/03/11 13:47:30.000   78.251309126   16.154900607   565.9650   2  10   0.0158   0.0188   0.0283   0.0072  -0.0094  -0.0023   0.00    1.3
2018/03/11 13:47:31.000   78.251309108   16.154900493   565.9665   2  10   0.0158   0.0187   0.0281   0.0072  -0.0094  -0.0024   0.00    1.3
2018/03/11 13:47:32.000   78.251309090   16.154900252   565.9694   2  10   0.0157   0.0187   0.0280   0.0072  -0.0093  -0.0025   0.00    1.3
2018/03/11 13:47:33.000   78.251309082   16.154900085   565.9736   2  10   0.0157   0.0186   0.0278   0.0071  -0.0093  -0.0026   0.00    1.3
2018/03/11 13:47:34.000   78.251309085   16.154899995   565.9758   2  10   0.0156   0.0185   0.0277   0.0071  -0.0093  -0.0027   0.00    1.0
2018/03/11 13:47:35.000   78.251309085   16.154899840   565.9801   2  10   0.0155   0.0185   0.0276   0.0071  -0.0092  -0.0028   0.00    1.0
2018/03/11 13:47:36.000   78.251309087   16.154899678   565.9870   2  10   0.0155   0.0184   0.0274   0.0071  -0.0092  -0.0028   0.00    1.0
2018/03/11 13:47:37.000   78.251309099   16.154899580   565.9934   2  10   0.0154   0.0183   0.0273   0.0071  -0.0091  -0.0029   0.00    1.0
2018/03/11 13:47:38.000   78.251309120   16.154899545   566.0011   2  10   0.0154   0.0183   0.0271   0.0071  -0.0091  -0.0030   0.00    1.0
2018/03/11 13:47:39.000   78.251309135   16.154899459   566.0100   2  10   0.0153   0.0182   0.0270   0.0071  -0.0091  -0.0030   0.00    1.0
2018/03/11 13:47:40.000   78.251309143   16.154899343   566.0196   2  10   0.0152   0.0181   0.0269   0.0070  -0.0090  -0.0031   0.00    1.1
2018/03/11 13:47:41.000   78.251309168   16.154899218   566.0291   2  10   0.0152   0.0181   0.0267   0.0070  -0.0090  -0.0032   0.00    1.1
2018/03/11 13:47:42.000   78.251309190   16.154899015   566.0389   2  10   0.0151   0.0180   0.0266   0.0070  -0.0090  -0.0032   0.00    1.1
2018/03/11 13:47:43.000   78.251309218   16.154898914   566.0493   2  10   0.0151   0.0179   0.0265   0.0070  -0.0089  -0.0033   0.00    1.1
2018/03/11 13:47:44.000   78.251309242   16.154898782   566.0608   2  10   0.0150   0.0179   0.0263   0.0070  -0.0089  -0.0033   0.00    1.1
2018/03/11 13:47:45.000   78.251309260   16.154898601   566.0715   2  10   0.0150   0.0178   0.0262   0.0070  -0.0088  -0.0034   0.00    1.1
2018/03/11 13:47:46.000   78.251309277   16.154898342   566.0827   2  10   0.0149   0.0178   0.0261   0.0070  -0.0088  -0.0034   0.00    1.2
2018/03/11 13:47:47.000   78.251309306   16.154898199   566.0927   2  10   0.0149   0.0177   0.0260   0.0069  -0.0088  -0.0035   0.00    1.2
2018/03/11 13:47:48.000   78.251309322   16.154898101   566.1020   2  10   0.0148   0.0176   0.0258   0.0069  -0.0087  -0.0035   0.00    1.2
2018/03/11 13:47:49.000   78.251309335   16.154897966   566.1135   2  10   0.0148   0.0176   0.0257   0.0069  -0.0087  -0.0036   0.00    1.2
2018/03/11 13:47:50.000   78.251309342   16.154897799   566.1231   2  10   0.0147   0.0175   0.0256   0.0069  -0.0087  -0.0036   0.00    1.2
2018/03/11 13:47:51.000   78.251309354   16.154897656   566.1303   2  10   0.0146   0.0175   0.0255   0.0069  -0.0086  -0.0036   0.00    1.3
2018/03/11 13:47:52.000   78.251309366   16.154897474   566.1376   2  10   0.0146   0.0174   0.0253   0.0069  -0.0086  -0.0037   0.00    1.0
2018/03/11 13:47:53.000   78.251309364   16.154897323   566.1444   2  10   0.0145   0.0173   0.0252   0.0069  -0.0086  -0.0037   0.00    1.0
2018/03/11 13:47:54.000   78.251309356   16.154897164   566.1514   2  10   0.0145   0.0173   0.0251   0.0068  -0.0085  -0.0037   0.00    1.0
2018/03/11 13:47:55.000   78.251309343   16.154896941   566.1583   2  10   0.0144   0.0172   0.0250   0.0068  -0.0085  -0.0038   0.00    1.0
2018/03/11 13:47:56.000   78.251309322   16.154896729   566.1637   2  10   0.0144   0.0172   0.0249   0.0068  -0.0085  -0.0038   0.00    1.0
2018/03/11 13:47:57.000   78.251309315   16.154896599   566.1692   2  10   0.0143   0.0171   0.0248   0.0068  -0.0084  -0.0038   0.00    1.1
2018/03/11 13:47:58.000   78.251309306   16.154896480   566.1747   2  10   0.0143   0.0171   0.0246   0.0068  -0.0084  -0.0039   0.00    1.1
2018/03/11 13:47:59.000   78.251309293   16.154896221   566.1819   2  10   0.0142   0.0170   0.0245   0.0068  -0.0084  -0.0039   0.00    1.1
2018/03/11 13:48:00.000   78.251309284   16.154895971   566.1886   2  10   0.0142   0.0169   0.0244   0.0068  -0.0083  -0.0039   0.00    1.1
2018/03/11 13:48:01.000   78.251309285   16.154895783   566.1949   2  10   0.0141   0.0169   0.0243   0.0067  -0.0083  -0.0039   0.00    1.1
2018/03/11 13:48:02.000   78.251309277   16.154895549   566.2017   2  10   0.0141   0.0168   0.0242   0.0067  -0.0083  -0.0040   0.00    1.2
2018/03/11 13:48:03.000   78.251309262   16.154895288   566.2085   2  10   0.0140   0.0168   0.0241   0.0067  -0.0082  -0.0040   0.00    1.2
2018/03/11 13:48:04.000   78.251309257   16.154895063   566.2142   2  10   0.0140   0.0167   0.0240   0.0067  -0.0082  -0.0040   0.00    1.2
2018/03/11 13:48:05.000   78.251309241   16.154894810   566.2215   2  10   0.0139   0.0167   0.0239   0.0067  -0.0082  -0.0040   0.00    1.2
2018/03/11 13:48:06.000   78.251309231   16.154894595   566.2297   2  10   0.0139   0.0166   0.0237   0.0067  -0.0081  -0.0041   0.00    1.2
2018/03/11 13:48:07.000   78.251309219   16.154894377   566.2359   2  10   0.0138   0.0166   0.0236   0.0066  -0.0081  -0.0041   0.00    1.2
2018/03/11 13:48:08.000   78.251309206   16.154894133   566.2412   2  10   0.0138   0.0165   0.0235   0.0066  -0.0081  -0.0041   0.00    1.3
2018/03/11 13:48:09.000   78.251309181   16.154893868   566.2477   2  10   0.0137   0.0164   0.0234   0.0066  -0.0081  -0.0041   0.00    1.3
2018/03/11 13:48:10.000   78.251309155   16.154893604   566.2546   2  10   0.0137   0.0164   0.0233   0.0066  -0.0080  -0.0041   0.00    1.3
2018/03/11 13:48:11.000   78.251309128   16.154893373   566.2602   2  10   0.0136   0.0163   0.0232   0.0066  -0.0080  -0.0042   0.00    1.3
2018/03/11 13:48:12.000   78.251309090   16.154893082   566.2673   2  10   0.0136   0.0163   0.0231   0.0066  -0.0080  -0.0042   0.00    1.3
2018/03/11 13:48:13.000   78.251309058   16.154892815   566.2739   2  10   0.0136   0.0162   0.0230   0.0066  -0.0079  -0.0042   0.00    1.3
2018/03/11 13:48:14.000   78.251309024   16.154892603   566.2790   2  10   0.0135   0.0162   0.0229   0.0065  -0.0079  -0.0042   0.00    1.3
2018/03/11 13:48:15.000   78.251308990   16.154892403   566.2842   2  10   0.0135   0.0161   0.0228   0.0065  -0.0079  -0.0042   0.00    1.4
2018/03/11 13:48:16.000   78.251308946   16.154892213   566.2899   2  10   0.0134   0.0161   0.0227   0.0065  -0.0078  -0.0042   0.00    1.4
2018/03/11 13:48:17.000   78.251308918   16.154892041   566.2947   2  10   0.0134   0.0160   0.0226   0.0065  -0.0078  -0.0042   0.00    1.4
2018/03/11 13:48:18.000   78.251308886   16.154891790   566.2986   2  10   0.0133   0.0160   0.0225   0.0065  -0.0078  -0.0043   0.00    1.4
2018/03/11 13:48:19.000   78.251308834   16.154891501   566.3010   2  10   0.0133   0.0159   0.0224   0.0065  -0.0078  -0.0043   0.00    1.4
2018/03/11 13:48:20.000   78.251308792   16.154891230   566.3054   2  10   0.0132   0.0159   0.0223   0.0065  -0.0077  -0.0043   0.00    1.4
2018/03/11 13:48:21.000   78.251308751   16.154890978   566.3114   2  10   0.0132   0.0158   0.0222   0.0064  -0.0077  -0.0043   0.00    1.4
2018/03/11 13:48:22.000   78.251308706   16.154890684   566.3165   2  10   0.0131   0.0158   0.0221   0.0064  -0.0077  -0.0043   0.00    1.5
2018/03/11 13:48:23.000   78.251308666   16.154890444   566.3201   2  10   0.0131   0.0157   0.0220   0.0064  -0.0076  -0.0043   0.00    1.5
2018/03/11 13:48:24.000   78.251308629   16.154890228   566.3225   2  10   0.0131   0.0157   0.0219   0.0064  -0.0076  -0.0043   0.00    1.5
2018/03/11 13:48:25.000   78.251308586   16.154889956   566.3271   2  10   0.0130   0.0156   0.0218   0.0064  -0.0076  -0.0043   0.00    1.5
2018/03/11 13:48:26.000   78.251308544   16.154889728   566.3319   2  10   0.0130   0.0156   0.0217   0.0064  -0.0076  -0.0044   0.00    1.5
2018/03/11 13:48:27.000   78.251308512   16.154889533   566.3352   2  10   0.0129   0.0155   0.0216   0.0064  -0.0075  -0.0044   0.00    1.6
2018/03/11 13:48:28.000   78.251308483   16.154889272   566.3383   2  10   0.0129   0.0155   0.0216   0.0063  -0.0075  -0.0044   0.00    1.6
2018/03/11 13:48:29.000   78.251308448   16.154889085   566.3415   2  10   0.0128   0.0154   0.0215   0.0063  -0.0075  -0.0044   0.00    1.6
2018/03/11 13:48:30.000   78.251308410   16.154888929   566.3429   2  10   0.0128   0.0154   0.0214   0.0063  -0.0075  -0.0044   0.00    1.6
2018/03/11 13:48:31.000   78.251308384   16.154888770   566.3444   2  10   0.0128   0.0153   0.0213   0.0063  -0.0074  -0.0044   0.00    1.6
2018/03/11 13:48:32.000   78.251308348   16.154888559   566.3465   2  10   0.0127   0.0153   0.0212   0.0063  -0.0074  -0.0044   0.00    1.6
2018/03/11 13:48:33.000   78.251308318   16.154888316   566.3468   2  10   0.0127   0.0152   0.0211   0.0063  -0.0074  -0.0044   0.00    1.6
2018/03/11 13:48:34.000   78.251308284   16.154888112   566.3455   2  10   0.0126   0.0152   0.0210   0.0063  -0.0074  -0.0044   0.00    1.7
2018/03/11 13:48:35.000   78.251308256   16.154888026   566.3469   2  10   0.0126   0.0151   0.0209   0.0062  -0.0073  -0.0044   0.00    1.7
2018/03/11 13:48:36.000   78.251308234   16.154887948   566.3480   2  10   0.0125   0.0151   0.0208   0.0062  -0.0073  -0.0044   0.00    1.7
2018/03/11 13:48:37.000   78.251308214   16.154887849   566.3466   2  10   0.0125   0.0150   0.0208   0.0062  -0.0073  -0.0044   0.00    1.7
2018/03/11 13:48:38.000   78.251308200   16.154887740   566.3438   2  10   0.0125   0.0150   0.0207   0.0062  -0.0073  -0.0044   0.00    1.7
2018/03/11 13:48:39.000   78.251308185   16.154887671   566.3403   2  10   0.0124   0.0150   0.0206   0.0062  -0.0072  -0.0044   0.00    1.7
2018/03/11 13:48:40.000   78.251308174   16.154887619   566.3372   2  10   0.0124   0.0149   0.0205   0.0062  -0.0072  -0.0044   0.00    1.8
2018/03/11 13:48:41.000   78.251308165   16.154887575   566.3334   2  10   0.0123   0.0149   0.0204   0.0062  -0.0072  -0.0044   0.00    1.8
2018/03/11 13:48:42.000   78.251308148   16.154887511   566.3290   2  10   0.0123   0.0148   0.0203   0.0061  -0.0072  -0.0044   0.00    1.8
2018/03/11 13:48:43.000   78.251308141   16.154887472   566.3243   2  10   0.0123   0.0148   0.0202   0.0061  -0.0071  -0.0045   0.00    1.8
2018/03/11 13:48:44.000   78.251308148   16.154887491   566.3191   2  10   0.0122   0.0147   0.0202   0.0061  -0.0071  -0.0045   0.00    1.8
2018/03/11 13:48:45.000   78.251308155   16.154887484   566.3138   2  10   0.0122   0.0147   0.0201   0.0061  -0.0071  -0.0045   0.00    1.9
2018/03/11 13:48:46.000   78.251308162   16.154887437   566.3086   2  10   0.0121   0.0146   0.0200   0.0061  -0.0071  -0.0045   0.00    1.9
2018/03/11 13:48:47.000   78.251308177   16.154887417   566.3035   2  10   0.0121   0.0146   0.0199   0.0061  -0.0070  -0.0045   0.00    1.9
2018/03/11 13:48:48.000   78.251308189   16.154887385   566.2990   2  10   0.0121   0.0146   0.0198   0.0061  -0.0070  -0.0045   0.00    1.9
2018/03/11 13:48:49.000   78.251308197   16.154887404   566.2959   2  10   0.0120   0.0145   0.0198   0.0061  -0.0070  -0.0045   0.00    1.9
2018/03/11 13:48:50.000   78.251308199   16.154887418   566.2918   2  10   0.0120   0.0145   0.0197   0.0060  -0.0070  -0.0045   0.00    1.9
2018/03/11 13:48:51.000   78.251308204   16.154887400   566.2875   2  10   0.0120   0.0144   0.0196   0.0060  -0.0069  -0.0045   0.00    1.9
2018/03/11 13:48:52.000   78.251308204   16.154887426   566.2830   2  10   0.0119   0.0144   0.0195   0.0060  -0.0069  -0.0045   0.00    2.0
2018/03/11 13:48:53.000   78.251308210   16.154887469   566.2796   2  10   0.0119   0.0143   0.0195   0.0060  -0.0069  -0.0045   0.00    2.0
2018/03/11 13:48:54.000   78.251308211   16.154887535   566.2748   2  10   0.0118   0.0143   0.0194   0.0060  -0.0069  -0.0045   0.00    2.0
2018/03/11 13:48:55.000   78.251308206   16.154887577   566.2697   2  10   0.0118   0.0143   0.0193   0.0060  -0.0069  -0.0045   0.00    2.0
2018/03/11 13:48:56.000   78.251308204   16.154887613   566.2636   2  10   0.0118   0.0142   0.0192   0.0060  -0.0068  -0.0045   0.00    2.0
2018/03/11 13:48:57.000   78.251308203   16.154887714   566.2576   2  10   0.0117   0.0142   0.0191   0.0059  -0.0068  -0.0045   0.00    2.0
2018/03/11 13:48:58.000   78.251308200   16.154887822   566.2517   2  10   0.0117   0.0141   0.0191   0.0059  -0.0068  -0.0045   0.00    2.1
2018/03/11 13:48:59.000   78.251308195   16.154887885   566.2465   2  10   0.0117   0.0141   0.0190   0.0059  -0.0068  -0.0045   0.00    2.1
2018/03/11 13:49:00.000   78.251308186   16.154887922   566.2395   2  10   0.0116   0.0140   0.0189   0.0059  -0.0067  -0.0045   0.00    2.1
2018/03/11 13:49:01.000   78.251308179   16.154887962   566.2329   2  10   0.0116   0.0140   0.0189   0.0059  -0.0067  -0.0045   0.00    2.1
2018/03/11 13:49:02.000   78.251308173   16.154888015   566.2265   2  10   0.0116   0.0140   0.0188   0.0059  -0.0067  -0.0045   0.00    2.2
2018/03/11 13:49:03.000   78.251308168   16.154888122   566.2212   2  10   0.0115   0.0139   0.0187   0.0059  -0.0067  -0.0045   0.00    2.2
2018/03/11 13:49:04.000   78.251308160   16.154888197   566.2151   2  10   0.0115   0.0139   0.0186   0.0058  -0.0067  -0.0045   0.00    2.2
2018/03/11 13:49:05.000   78.251308146   16.154888256   566.2074   2  10   0.0114   0.0138   0.0186   0.0058  -0.0066  -0.0045   0.00    2.2
2018/03/11 13:49:06.000   78.251308140   16.154888327   566.1999   2  10   0.0114   0.0138   0.0185   0.0058  -0.0066  -0.0045   0.00    2.2
2018/03/11 13:49:07.000   78.251308140   16.154888400   566.1939   2  10   0.0114   0.0138   0.0184   0.0058  -0.0066  -0.0045   0.00    2.3
2018/03/11 13:49:08.000   78.251308138   16.154888437   566.1881   2  10   0.0113   0.0137   0.0184   0.0058  -0.0066  -0.0045   0.00    2.3
2018/03/11 13:49:09.000   78.251308131   16.154888434   566.1825   2  10   0.0113   0.0137   0.0183   0.0058  -0.0066  -0.0045   0.00    2.3
2018/03/11 13:49:10.000   78.251308123   16.154888396   566.1769   2  10   0.0113   0.0136   0.0182   0.0058  -0.0065  -0.0045   0.00    2.3
2018/03/11 13:49:11.000   78.251308114   16.154888331   566.1714   2  10   0.0112   0.0136   0.0181   0.0058  -0.0065  -0.0045   0.00    2.3
2018/03/11 13:49:12.000   78.251308108   16.154888305   566.1659   2  10   0.0112   0.0136   0.0181   0.0057  -0.0065  -0.0045   0.00    2.4
2018/03/11 13:49:13.000   78.251308109   16.154888260   566.1606   2  10   0.0112   0.0135   0.0180   0.0057  -0.0065  -0.0045   0.00    2.4
2018/03/11 13:49:14.000   78.251308111   16.154888217   566.1543   2  10   0.0111   0.0135   0.0179   0.0057  -0.0065  -0.0045   0.00    2.4
2018/03/11 13:49:15.000   78.251308113   16.154888115   566.1492   2  10   0.0111   0.0134   0.0179   0.0057  -0.0064  -0.0044   0.00    2.4
2018/03/11 13:49:16.000   78.251308118   16.154888039   566.1433   2  10   0.0111   0.0134   0.0178   0.0057  -0.0064  -0.0044   0.00    2.5
2018/03/11 13:49:17.000   78.251308124   16.154887969   566.1390   2  10   0.0110   0.0134   0.0177   0.0057  -0.0064  -0.0044   0.00    2.5
2018/03/11 13:49:18.000   78.251308128   16.154887886   566.1360   2  10   0.0110   0.0133   0.0177   0.0057  -0.0064  -0.0044   0.00    2.5
2018/03/11 13:49:19.000   78.251308127   16.154887757   566.1331   2  10   0.0110   0.0133   0.0176   0.0056  -0.0064  -0.0044   0.00    2.5
2018/03/11 13:49:20.000   78.251308121   16.154887635   566.1295   2  10   0.0109   0.0133   0.0176   0.0056  -0.0063  -0.0044   0.00    2.5
2018/03/11 13:49:21.000   78.251308123   16.154887548   566.1256   2  10   0.0109   0.0132   0.0175   0.0056  -0.0063  -0.0044   0.00    2.6
2018/03/11 13:49:22.000   78.251308121   16.154887471   566.1225   2  10   0.0109   0.0132   0.0174   0.0056  -0.0063  -0.0044   0.00    2.6
2018/03/11 13:49:23.000   78.251308121   16.154887424   566.1187   2  10   0.0108   0.0131   0.0174   0.0056  -0.0063  -0.0044   0.00    2.6
2018/03/11 13:49:24.000   78.251308117   16.154887333   566.1155   2  10   0.0108   0.0131   0.0173   0.0056  -0.0063  -0.0044   0.00    2.6
2018/03/11 13:49:25.000   78.251308116   16.154887218   566.1131   2  10   0.0108   0.0131   0.0172   0.0056  -0.0062  -0.0044   0.00    2.7
2018/03/11 13:49:26.000   78.251308112   16.154887101   566.1111   2  10   0.0107   0.0130   0.0172   0.0056  -0.0062  -0.0044   0.00    2.7
2018/03/11 13:49:27.000   78.251308110   16.154887038   566.1073   2  10   0.0107   0.0130   0.0171   0.0055  -0.0062  -0.0044   0.00    2.7
2018/03/11 13:49:28.000   78.251308106   16.154886992   566.1045   2  10   0.0107   0.0130   0.0170   0.0055  -0.0062  -0.0044   0.00    2.7
2018/03/11 13:49:29.000   78.251308104   16.154886979   566.1025   2  10   0.0106   0.0129   0.0170   0.0055  -0.0062  -0.0044   0.00    2.8
2018/03/11 13:49:30.000   78.251308108   16.154886993   566.0991   2  10   0.0106   0.0129   0.0169   0.0055  -0.0061  -0.0044   0.00    2.8
2018/03/11 13:49:31.000   78.251308105   16.154887017   566.0947   2  10   0.0106   0.0129   0.0169   0.0055  -0.0061  -0.0044   0.00    2.8
2018/03/11 13:49:32.000   78.251308096   16.154887078   566.0902   2  10   0.0106   0.0128   0.0168   0.0055  -0.0061  -0.0044   0.00    2.8
2018/03/11 13:49:33.000   78.251308087   16.154887151   566.0860   2  10   0.0105   0.0128   0.0167   0.0055  -0.0061  -0.0044   0.00    2.9
2018/03/11 13:49:34.000   78.251308079   16.154887261   566.0786   2  10   0.0105   0.0127   0.0167   0.0055  -0.0061  -0.0044   0.00    2.9
2018/03/11 13:49:35.000   78.251308064   16.154887381   566.0709   2  10   0.0105   0.0127   0.0166   0.0054  -0.0061  -0.0044   0.00    3.0
2018/03/11 13:49:36.000   78.251308048   16.154887568   566.0623   2  10   0.0104   0.0127   0.0166   0.0054  -0.0060  -0.0044   0.00    3.0
2018/03/11 13:49:37.000   78.251307418   16.154900598   565.5254   1  10   0.0003   0.0003   0.0010  -0.0001  -0.0003   0.0004   0.00    3.0
2018/03/11 13:49:38.000   78.251307418   16.154900596   565.5258   1  10   0.0003   0.0003   0.0010  -0.0001  -0.0003   0.0004   0.00    3.1
2018/03/11 13:49:39.000   78.251307418   16.154900594   565.5262   1  10   0.0003   0.0003   0.0010  -0.0001  -0.0003   0.0004   0.00    3.1
2018/03/11 13:49:40.000   78.251307419   16.154900591   565.5267   1  10   0.0003   0.0003   0.0010  -0.0001  -0.0003   0.0004   0.00    3.1
2018/03/11 13:49:41.000   78.251307419   16.154900587   565.5271   1  10   0.0003   0.0003   0.0010  -0.0001  -0.0003   0.0004   0.00    3.2
2018/03/11 13:49:42.000   78.251307419   16.154900584   565.5277   1  10   0.0003   0.0003   0.0010  -0.0001  -0.0003   0.0004   0.00    3.2
2018/03/11 13:49:43.000   78.251307419   16.154900580   565.5282   1  10   0.0003   0.0003   0.0010  -0.0001  -0.0003   0.0004   0.00    3.3
2018/03/11 13:49:44.000   78.251307419   16.154900576   565.5288   1  10   0.0003   0.0003   0.0010  -0.0001  -0.0003   0.0004   0.00    3.3
2018/03/11 13:49:45.000   78.251307419   16.154900571   565.5294   1  10   0.0003   0.0003   0.0010  -0.0001  -0.0003   0.0004   0.00    3.3
2018/03/11 13:49:46.000   78.251307419   16.154900567   565.5301   1  10   0.0003   0.0003   0.0010  -0.0001  -0.0003   0.0004   0.00    3.3
2018/03/11 13:49:47.000   78.251307419   16.154900562   565.5307   1  10   0.0003   0.0003   0.0010  -0.0001  -0.0003   0.0004   0.00    3.9
2018/03/11 13:49:48.000   78.251307419   16.154900557   565.5314   1  10   0.0003   0.0003   0.0010  -0.0001  -0.0003   0.0004   0.00    4.1
2018/03/11 13:49:49.000   78.251307419   16.154900553   565.5320   1  10   0.0003   0.0003   0.0010  -0.0001  -0.0003   0.0004   0.00    4.4
2018/03/11 13:49:50.000   78.251307419   16.154900548   565.5327   1  10   0.0003   0.0003   0.0010  -0.0001  -0.0003   0.0004   0.00    4.6
2018/03/11 13:49:51.000   78.251307419   16.154900543   565.5333   1  10   0.0003   0.0003   0.0010  -0.0001  -0.0003   0.0004   0.00    4.8
2018/03/11 13:49:52.000   78.251307419   16.154900540   565.5338   1  10   0.0003   0.0003   0.0010  -0.0001  -0.0003   0.0004   0.00    5.0
2018/03/11 13:49:53.000   78.251307419   16.154900536   565.5343   1  10   0.0003   0.0003   0.0010  -0.0001  -0.0003   0.0004   0.00    5.2
2018/03/11 13:49:54.000   78.251307419   16.154900533   565.5348   1  10   0.0003   0.0003   0.0010  -0.0001  -0.0003   0.0004   0.00    5.4
2018/03/11 13:49:55.000   78.251307419   16.154900531   565.5351   1  10   0.0003   0.0003   0.0010  -0.0001  -0.0003   0.0004   0.00    5.6
2018/03/11 13:49:56.000   78.251307418   16.154900529   565.5355   1  10   0.0003   0.0003   0.0010  -0.0001  -0.0003   0.0004   0.00    5.8
2018/03/11 13:49:57.000   78.251307418   16.154900528   565.5358   1  10   0.0003   0.0003   0.0010  -0.0001  -0.0003   0.0004   0.00    6.0
2018/03/11 13:49:58.000   78.251307418   16.154900526   565.5360   1  10   0.0003   0.0003   0.0010  -0.0001  -0.0003   0.0004   0.00    6.3
2018/03/11 13:49:59.000   78.251307418   16.154900525   565.5361   1  10   0.0003   0.0003   0.0010  -0.0001  -0.0003   0.0004   0.00    6.5
2018/03/11 13:50:00.000   78.251307418   16.154900524   565.5363   1  10   0.0003   0.0003   0.0010  -0.0001  -0.0003   0.0004   0.00    6.7
2018/03/11 13:50:01.000   78.251307418   16.154900523   565.5364   1  10   0.0003   0.0003   0.0010  -0.0001  -0.0003   0.0004   0.00    6.9
2018/03/11 13:50:02.000   78.251307418   16.154900522   565.5365   1  10   0.0003   0.0003   0.0010  -0.0001  -0.0003   0.0004   0.00    7.2
2018/03/11 13:50:03.000   78.251307417   16.154900522   565.5366   1  10   0.0003   0.0003   0.0010  -0.0001  -0.0003   0.0004   0.00    7.4
2018/03/11 13:50:04.000   78.251307417   16.154900522   565.5367   1  10   0.0003   0.0003   0.0010  -0.0001  -0.0003   0.0004   0.00    7.6
2018/03/11 13:50:05.000   78.251307417   16.154900521   565.5368   1  10   0.0003   0.0003   0.0010  -0.0001  -0.0003   0.0004   0.00    7.9
2018/03/11 13:50:06.000   78.251307417   16.154900521   565.5368   1  10   0.0003   0.0003   0.0010  -0.0001  -0.0003   0.0004   0.00    8.2
