% program   : RTKPOST ver.2.4.2
% inp file  : Z:\home\linda\Documents\Spring18\GitHub_Unis\data\processed_data\4625074H.obs
% inp file  : Z:\home\linda\Documents\Spring18\GitHub_Unis\data\base_station_data\lyrs0740.18o
% inp file  : Z:\home\linda\Documents\Spring18\GitHub_Unis\data\processed_data\4625074H.nav
% obs start : 2018/03/15 13:41:43.0 GPST (week1992 394903.0s)
% obs end   : 2018/03/15 13:57:08.0 GPST (week1992 395828.0s)
% pos mode  : static
% freqs     : L1+L2
% solution  : forward
% elev mask : 15.0 deg
% dynamics  : on
% tidecorr  : off
% ionos opt : iono-free
% tropo opt : saastamoinen
% ephemeris : broadcast
% navi sys  : gps glonass galileo qzss sbas
% amb res   : fix and hold
% amb glo   : on
% val thres : 3.0
% antenna1  :                       ( 0.0000  0.0000  0.0000)
% antenna2  :                       ( 0.0000  0.0000  0.0000)
% ref pos   : 78.228825638   15.397310064   495.6816
%
% (lat/lon/height=WGS84/ellipsoidal,Q=1:fix,2:float,3:sbas,4:dgps,5:single,6:ppp,ns=# of satellites)
%  GPST                  latitude(deg) longitude(deg)  height(m)   Q  ns   sdn(m)   sde(m)   sdu(m)  sdne(m)  sdeu(m)  sdun(m) age(s)  ratio
2018/03/15 13:41:43.000   78.253599213   16.174421310   543.5291   2   6   1.3270   1.2066   7.2303  -0.6144  -1.9656   2.3452   0.00    2.8
2018/03/15 13:41:44.000   78.253594826   16.174450885   536.4637   2   5   1.0431   0.9925   5.3561  -0.6465  -1.6296   1.8503   0.00    2.4
2018/03/15 13:41:45.000   78.253587284   16.174509951   534.1723   2   6   0.8192   0.7654   4.3346  -0.4650  -1.2625   1.4602   0.00    1.1
2018/03/15 13:41:46.000   78.253587270   16.174498063   534.4057   2   6   0.6976   0.6465   3.7382  -0.3785  -1.0682   1.2456   0.00    1.2
2018/03/15 13:41:47.000   78.253587972   16.174493237   534.8698   2   6   0.6179   0.5701   3.3326  -0.3259  -0.9420   1.1035   0.00    1.3
2018/03/15 13:41:48.000   78.253586232   16.174499878   532.7743   2   5   0.5789   0.5412   3.0638  -0.3285  -0.8925   1.0313   0.00    1.4
2018/03/15 13:41:49.000   78.253585860   16.174499090   533.7494   2   5   0.5472   0.5170   2.8508  -0.3266  -0.8506   0.9724   0.00    1.5
2018/03/15 13:41:50.000   78.253585843   16.174505621   533.8439   2   5   0.5207   0.4962   2.6754  -0.3224  -0.8140   0.9226   0.00    1.7
2018/03/15 13:41:51.000   78.253586673   16.174497171   534.5923   2   4   0.5077   0.4793   2.5878  -0.3121  -0.7711   0.9102   0.00    1.1
2018/03/15 13:41:52.000   78.253587115   16.174499597   534.6774   2   4   0.4956   0.4642   2.5097  -0.3020  -0.7329   0.8967   0.00    1.0
2018/03/15 13:41:53.000   78.253588568   16.174506989   534.8524   2   5   0.4751   0.4492   2.3864  -0.2976  -0.7108   0.8556   0.00    1.1
2018/03/15 13:41:54.000   78.253589058   16.174504645   535.1017   2   4   0.4632   0.4356   2.2823  -0.2938  -0.6890   0.8141   0.00    1.2
2018/03/15 13:41:55.000   78.253589149   16.174505616   535.0606   5   3   0.4571   0.4243   2.2316  -0.2864  -0.6579   0.7944   0.00    0.0
2018/03/15 13:41:56.000   78.253580699   16.174557731   533.4345   2   4   0.4409   0.3987   2.1789  -0.2598  -0.6160   0.7664   0.00    1.0
2018/03/15 13:41:57.000   78.253576901   16.174580559   532.8552   2   4   0.4272   0.3775   2.1311  -0.2373  -0.5805   0.7425   0.00    1.1
2018/03/15 13:41:58.000   78.253576742   16.174585449   533.0367   2   4   0.4152   0.3595   2.0866  -0.2179  -0.5497   0.7213   0.00    1.1
2018/03/15 13:41:59.000   78.253577883   16.174581815   533.5718   5   3   0.4067   0.3463   2.0660  -0.2010  -0.5332   0.7057   0.00    0.0
2018/03/15 13:42:00.000   78.253579320   16.174581365   533.7059   2   4   0.3988   0.3332   2.0383  -0.1877  -0.5131   0.6943   0.00    1.6
2018/03/15 13:42:01.000   78.253579494   16.174584844   533.6168   2   4   0.3916   0.3216   2.0123  -0.1758  -0.4950   0.6841   0.00    1.6
2018/03/15 13:42:02.000   78.253579432   16.174584919   533.6194   2   4   0.3850   0.3112   1.9873  -0.1651  -0.4787   0.6746   0.00    1.6
2018/03/15 13:42:03.000   78.253579878   16.174584036   533.9046   5   3   0.3823   0.3069   1.9635  -0.1640  -0.4656   0.6670   0.00    0.0
2018/03/15 13:42:04.000   78.253580128   16.174581610   534.2186   5   3   0.3795   0.3027   1.9401  -0.1630  -0.4529   0.6594   0.00    0.0
2018/03/15 13:42:05.000   78.253580401   16.174582379   534.2857   5   3   0.3768   0.2988   1.9170  -0.1619  -0.4406   0.6516   0.00    0.0
2018/03/15 13:42:06.000   78.253580731   16.174580306   534.5906   5   3   0.3740   0.2951   1.8940  -0.1608  -0.4287   0.6438   0.00    0.0
2018/03/15 13:42:07.000   78.253586564   16.174567818   537.3250   1   4   0.0082   0.0078   0.0483  -0.0054   0.0119  -0.0079   0.00    3.1
2018/03/15 13:42:08.000   78.253586543   16.174568079   537.3923   1   6   0.0065   0.0058   0.0357  -0.0033   0.0033   0.0065   0.00    7.9
2018/03/15 13:42:09.000   78.253586557   16.174568132   537.4259   1   6   0.0057   0.0051   0.0311  -0.0027  -0.0037   0.0074   0.00    4.5
2018/03/15 13:42:10.000   78.253586569   16.174568123   537.4457   1   6   0.0052   0.0046   0.0283  -0.0023  -0.0046   0.0074   0.00    3.4
2018/03/15 13:42:11.000   78.253586576   16.174568116   537.4540   1   6   0.0049   0.0043   0.0263  -0.0021  -0.0049   0.0073   0.00    3.3
2018/03/15 13:42:12.000   78.253586586   16.174568117   537.4529   1   6   0.0046   0.0040   0.0247  -0.0020  -0.0050   0.0070   0.00    3.8
2018/03/15 13:42:13.000   78.253586587   16.174568137   537.4522   1   6   0.0043   0.0038   0.0234  -0.0019  -0.0049   0.0068   0.00    4.1
2018/03/15 13:42:14.000   78.253586599   16.174568087   537.4534   1   6   0.0041   0.0036   0.0223  -0.0018  -0.0049   0.0066   0.00    3.7
2018/03/15 13:42:15.000   78.253586603   16.174568064   537.4584   1   6   0.0039   0.0035   0.0214  -0.0017  -0.0048   0.0064   0.00    3.7
2018/03/15 13:42:16.000   78.253586609   16.174568045   537.4650   1   6   0.0038   0.0033   0.0206  -0.0017  -0.0047   0.0062   0.00    3.6
2018/03/15 13:42:17.000   78.253586609   16.174568050   537.4727   1   6   0.0036   0.0032   0.0198  -0.0016  -0.0046   0.0060   0.00  121.8
2018/03/15 13:42:18.000   78.253586615   16.174568067   537.4753   1   6   0.0035   0.0031   0.0192  -0.0016  -0.0045   0.0059   0.00  227.0
2018/03/15 13:42:19.000   78.253586620   16.174568084   537.4772   1   6   0.0034   0.0030   0.0186  -0.0015  -0.0045   0.0057   0.00  335.7
2018/03/15 13:42:20.000   78.253586619   16.174568102   537.4793   1   6   0.0033   0.0029   0.0181  -0.0015  -0.0044   0.0056   0.00  427.6
2018/03/15 13:42:21.000   78.253586613   16.174568110   537.4802   1   6   0.0032   0.0028   0.0176  -0.0014  -0.0043   0.0055   0.00  532.3
2018/03/15 13:42:22.000   78.253586611   16.174568082   537.4826   1   6   0.0031   0.0028   0.0171  -0.0014  -0.0042   0.0053   0.00  588.7
2018/03/15 13:42:23.000   78.253586608   16.174568060   537.4876   1   6   0.0030   0.0027   0.0167  -0.0014  -0.0041   0.0052   0.00  594.1
2018/03/15 13:42:24.000   78.253586612   16.174568047   537.4903   1   6   0.0030   0.0026   0.0163  -0.0013  -0.0041   0.0051   0.00  627.0
2018/03/15 13:42:25.000   78.253586615   16.174568035   537.4933   1   6   0.0029   0.0026   0.0160  -0.0013  -0.0040   0.0050   0.00  646.1
2018/03/15 13:42:26.000   78.253586619   16.174568038   537.4955   1   6   0.0028   0.0025   0.0156  -0.0013  -0.0039   0.0049   0.00  652.1
2018/03/15 13:42:27.000   78.253586620   16.174568051   537.4944   1   6   0.0028   0.0025   0.0153  -0.0013  -0.0039   0.0048   0.00  679.4
2018/03/15 13:42:28.000   78.253586621   16.174568066   537.4924   1   6   0.0027   0.0024   0.0150  -0.0012  -0.0038   0.0047   0.00  731.8
2018/03/15 13:42:29.000   78.253586624   16.174568076   537.4903   1   6   0.0027   0.0024   0.0148  -0.0012  -0.0038   0.0047   0.00  763.5
2018/03/15 13:42:30.000   78.253586625   16.174568074   537.4908   1   6   0.0026   0.0023   0.0145  -0.0012  -0.0037   0.0046   0.00  754.1
2018/03/15 13:42:31.000   78.253586628   16.174568069   537.4921   1   6   0.0026   0.0023   0.0143  -0.0012  -0.0036   0.0045   0.00  758.4
2018/03/15 13:42:32.000   78.253586631   16.174568063   537.4924   1   6   0.0025   0.0023   0.0140  -0.0012  -0.0036   0.0045   0.00  777.1
2018/03/15 13:42:33.000   78.253586631   16.174568066   537.4933   1   6   0.0025   0.0022   0.0138  -0.0012  -0.0035   0.0044   0.00  784.5
2018/03/15 13:42:34.000   78.253586630   16.174568062   537.4953   1   6   0.0025   0.0022   0.0136  -0.0011  -0.0035   0.0043   0.00  774.2
2018/03/15 13:42:35.000   78.253586628   16.174568056   537.4961   1   6   0.0024   0.0022   0.0134  -0.0011  -0.0035   0.0043   0.00  745.4
2018/03/15 13:42:36.000   78.253586626   16.174568056   537.4956   1   6   0.0024   0.0021   0.0132  -0.0011  -0.0034   0.0042   0.00  739.6
2018/03/15 13:42:37.000   78.253586624   16.174568059   537.4944   1   6   0.0023   0.0021   0.0130  -0.0011  -0.0034   0.0042   0.00  748.4
2018/03/15 13:42:38.000   78.253586624   16.174568059   537.4926   1   6   0.0023   0.0021   0.0129  -0.0011  -0.0033   0.0041   0.00  763.2
2018/03/15 13:42:39.000   78.253586627   16.174568058   537.4909   1   6   0.0023   0.0020   0.0127  -0.0011  -0.0033   0.0041   0.00  788.4
2018/03/15 13:42:40.000   78.253586633   16.174568056   537.4906   1   6   0.0023   0.0020   0.0125  -0.0011  -0.0033   0.0040   0.00  804.2
2018/03/15 13:42:41.000   78.253586638   16.174568054   537.4910   1   6   0.0022   0.0020   0.0124  -0.0010  -0.0032   0.0040   0.00  811.4
2018/03/15 13:42:42.000   78.253586641   16.174568057   537.4917   1   6   0.0022   0.0020   0.0122  -0.0010  -0.0032   0.0039   0.00  824.8
2018/03/15 13:42:43.000   78.253586641   16.174568053   537.4935   1   6   0.0022   0.0019   0.0121  -0.0010  -0.0032   0.0039   0.00  809.0
2018/03/15 13:42:44.000   78.253586639   16.174568045   537.4962   1   6   0.0021   0.0019   0.0120  -0.0010  -0.0031   0.0038   0.00  793.6
2018/03/15 13:42:45.000   78.253586638   16.174568038   537.4987   1   6   0.0021   0.0019   0.0118  -0.0010  -0.0031   0.0038   0.00  783.2
2018/03/15 13:42:46.000   78.253586636   16.174568026   537.5013   1   6   0.0021   0.0019   0.0117  -0.0010  -0.0031   0.0038   0.00  748.8
2018/03/15 13:42:47.000   78.253586651   16.174568058   537.4957   1   6   0.0022   0.0019   0.0120  -0.0009  -0.0032   0.0035   0.00   34.1
2018/03/15 13:42:48.000   78.253586651   16.174568052   537.4987   1   6   0.0021   0.0019   0.0119  -0.0009  -0.0032   0.0034   0.00  127.4
2018/03/15 13:42:49.000   78.253586653   16.174568058   537.5001   1   6   0.0021   0.0018   0.0117  -0.0009  -0.0031   0.0034   0.00  224.0
2018/03/15 13:42:50.000   78.253586655   16.174568065   537.5011   1   6   0.0021   0.0018   0.0116  -0.0009  -0.0031   0.0034   0.00  325.8
2018/03/15 13:42:51.000   78.253586656   16.174568063   537.5028   1   6   0.0021   0.0018   0.0115  -0.0009  -0.0031   0.0034   0.00  407.8
2018/03/15 13:42:52.000   78.253586656   16.174568054   537.5038   1   6   0.0020   0.0018   0.0114  -0.0009  -0.0030   0.0034   0.00  485.0
2018/03/15 13:42:53.000   78.253586658   16.174568043   537.5076   1   6   0.0020   0.0018   0.0113  -0.0008  -0.0030   0.0033   0.00  537.1
2018/03/15 13:42:54.000   78.253586659   16.174568032   537.5115   1   6   0.0020   0.0018   0.0112  -0.0008  -0.0030   0.0033   0.00  578.8
2018/03/15 13:42:55.000   78.253586659   16.174568028   537.5128   1   6   0.0020   0.0017   0.0111  -0.0008  -0.0030   0.0033   0.00  634.1
2018/03/15 13:42:56.000   78.253586658   16.174568027   537.5140   1   6   0.0020   0.0017   0.0110  -0.0008  -0.0029   0.0033   0.00  658.0
2018/03/15 13:42:57.000   78.253586660   16.174568025   537.5159   1   6   0.0019   0.0017   0.0109  -0.0008  -0.0029   0.0032   0.00  662.7
2018/03/15 13:42:58.000   78.253586659   16.174568023   537.5163   1   6   0.0019   0.0017   0.0108  -0.0008  -0.0029   0.0032   0.00  667.9
2018/03/15 13:42:59.000   78.253586661   16.174568026   537.5160   1   6   0.0019   0.0017   0.0107  -0.0008  -0.0029   0.0032   0.00  689.1
2018/03/15 13:43:00.000   78.253586663   16.174568023   537.5161   1   6   0.0019   0.0017   0.0106  -0.0008  -0.0028   0.0032   0.00  704.0
2018/03/15 13:43:01.000   78.253586664   16.174568024   537.5166   1   6   0.0019   0.0017   0.0105  -0.0008  -0.0028   0.0032   0.00  720.6
2018/03/15 13:43:02.000   78.253586664   16.174568026   537.5170   1   6   0.0019   0.0016   0.0104  -0.0008  -0.0028   0.0032   0.00  729.9
2018/03/15 13:43:03.000   78.253586664   16.174568023   537.5182   1   6   0.0018   0.0016   0.0103  -0.0008  -0.0028   0.0031   0.00  725.1
2018/03/15 13:43:04.000   78.253586663   16.174568022   537.5182   1   6   0.0018   0.0016   0.0103  -0.0008  -0.0028   0.0031   0.00  735.0
2018/03/15 13:43:05.000   78.253586663   16.174568017   537.5193   1   6   0.0018   0.0016   0.0102  -0.0008  -0.0027   0.0031   0.00  734.7
2018/03/15 13:43:06.000   78.253586663   16.174568014   537.5205   1   6   0.0018   0.0016   0.0101  -0.0008  -0.0027   0.0031   0.00  740.2
2018/03/15 13:43:07.000   78.253586661   16.174568015   537.5206   1   6   0.0018   0.0016   0.0101  -0.0008  -0.0027   0.0031   0.00  742.8
2018/03/15 13:43:08.000   78.253586660   16.174568017   537.5212   1   6   0.0018   0.0016   0.0100  -0.0008  -0.0027   0.0031   0.00  757.4
2018/03/15 13:43:09.000   78.253586661   16.174568015   537.5219   1   6   0.0018   0.0016   0.0099  -0.0008  -0.0027   0.0030   0.00  780.7
2018/03/15 13:43:10.000   78.253586662   16.174568012   537.5244   1   6   0.0018   0.0016   0.0099  -0.0008  -0.0027   0.0030   0.00  773.3
2018/03/15 13:43:11.000   78.253586665   16.174568013   537.5276   1   6   0.0017   0.0015   0.0098  -0.0008  -0.0026   0.0030   0.00  755.4
2018/03/15 13:43:12.000   78.253586667   16.174568012   537.5303   1   6   0.0017   0.0015   0.0097  -0.0008  -0.0026   0.0030   0.00  739.5
2018/03/15 13:43:13.000   78.253586670   16.174568021   537.5320   1   6   0.0017   0.0015   0.0097  -0.0008  -0.0026   0.0030   0.00  736.4
2018/03/15 13:43:14.000   78.253586682   16.174568049   537.5290   1   6   0.0017   0.0015   0.0098  -0.0007  -0.0027   0.0029   0.00   28.3
2018/03/15 13:43:15.000   78.253586685   16.174568050   537.5310   1   6   0.0017   0.0015   0.0097  -0.0007  -0.0026   0.0029   0.00   98.6
2018/03/15 13:43:16.000   78.253586687   16.174568049   537.5332   1   6   0.0017   0.0015   0.0096  -0.0007  -0.0026   0.0029   0.00  167.5
2018/03/15 13:43:17.000   78.253586690   16.174568047   537.5349   1   6   0.0017   0.0015   0.0096  -0.0007  -0.0026   0.0028   0.00  236.0
2018/03/15 13:43:18.000   78.253586692   16.174568040   537.5380   1   6   0.0017   0.0015   0.0095  -0.0007  -0.0026   0.0028   0.00  297.7
2018/03/15 13:43:19.000   78.253586693   16.174568029   537.5412   1   6   0.0017   0.0015   0.0095  -0.0007  -0.0026   0.0028   0.00  352.1
2018/03/15 13:43:20.000   78.253586693   16.174568024   537.5438   1   6   0.0017   0.0015   0.0094  -0.0007  -0.0026   0.0028   0.00  399.0
2018/03/15 13:43:21.000   78.253586696   16.174568018   537.5462   1   6   0.0017   0.0015   0.0094  -0.0007  -0.0025   0.0028   0.00  440.5
2018/03/15 13:43:22.000   78.253586700   16.174568016   537.5483   1   6   0.0016   0.0015   0.0093  -0.0007  -0.0025   0.0028   0.00  479.4
2018/03/15 13:43:23.000   78.253586703   16.174568017   537.5501   1   5   0.0016   0.0015   0.0093  -0.0007  -0.0025   0.0028   0.00  496.5
2018/03/15 13:43:24.000   78.253586704   16.174568018   537.5509   1   5   0.0016   0.0015   0.0092  -0.0007  -0.0025   0.0028   0.00  519.0
2018/03/15 13:43:25.000   78.253586707   16.174568014   537.5525   1   5   0.0016   0.0014   0.0092  -0.0007  -0.0025   0.0027   0.00  538.6
2018/03/15 13:43:26.000   78.253586710   16.174568017   537.5545   1   5   0.0016   0.0014   0.0092  -0.0007  -0.0025   0.0027   0.00  559.5
2018/03/15 13:43:27.000   78.253586712   16.174568020   537.5562   1   5   0.0016   0.0014   0.0091  -0.0007  -0.0025   0.0027   0.00  583.9
2018/03/15 13:43:28.000   78.253586716   16.174568026   537.5566   1   5   0.0016   0.0014   0.0091  -0.0007  -0.0025   0.0027   0.00  644.4
2018/03/15 13:43:29.000   78.253586718   16.174568030   537.5580   1   5   0.0016   0.0014   0.0091  -0.0007  -0.0025   0.0027   0.00  666.3
2018/03/15 13:43:30.000   78.253586721   16.174568032   537.5590   1   5   0.0016   0.0014   0.0091  -0.0007  -0.0025   0.0026   0.00  687.7
2018/03/15 13:43:31.000   78.253586723   16.174568035   537.5602   1   5   0.0016   0.0014   0.0090  -0.0007  -0.0025   0.0026   0.00  705.8
2018/03/15 13:43:32.000   78.253586725   16.174568037   537.5613   1   5   0.0016   0.0014   0.0090  -0.0007  -0.0025   0.0026   0.00  701.9
2018/03/15 13:43:33.000   78.253586728   16.174568039   537.5626   1   5   0.0016   0.0014   0.0090  -0.0007  -0.0025   0.0026   0.00  698.2
2018/03/15 13:43:34.000   78.253586730   16.174568042   537.5636   1   5   0.0016   0.0014   0.0090  -0.0007  -0.0025   0.0026   0.00  693.0
2018/03/15 13:43:35.000   78.253586733   16.174568043   537.5648   1   5   0.0016   0.0014   0.0089  -0.0007  -0.0025   0.0026   0.00  691.2
2018/03/15 13:43:36.000   78.253586735   16.174568044   537.5657   1   5   0.0016   0.0014   0.0089  -0.0006  -0.0024   0.0026   0.00  686.2
2018/03/15 13:43:37.000   78.253586737   16.174568045   537.5665   1   5   0.0016   0.0014   0.0089  -0.0006  -0.0024   0.0026   0.00  686.7
2018/03/15 13:43:38.000   78.253586738   16.174568049   537.5672   1   5   0.0016   0.0014   0.0088  -0.0006  -0.0024   0.0025   0.00  686.2
2018/03/15 13:43:39.000   78.253586740   16.174568050   537.5677   1   5   0.0015   0.0014   0.0088  -0.0006  -0.0024   0.0025   0.00  688.3
2018/03/15 13:43:40.000   78.253586741   16.174568053   537.5685   1   5   0.0015   0.0014   0.0088  -0.0006  -0.0024   0.0025   0.00  696.5
2018/03/15 13:43:41.000   78.253586742   16.174568055   537.5690   1   5   0.0015   0.0014   0.0088  -0.0006  -0.0024   0.0025   0.00  696.7
2018/03/15 13:43:42.000   78.253586743   16.174568060   537.5695   1   5   0.0015   0.0014   0.0087  -0.0006  -0.0024   0.0025   0.00  697.2
2018/03/15 13:43:43.000   78.253586744   16.174568064   537.5698   1   5   0.0015   0.0014   0.0087  -0.0006  -0.0024   0.0025   0.00  695.9
2018/03/15 13:43:44.000   78.253586745   16.174568061   537.5705   1   5   0.0015   0.0013   0.0087  -0.0006  -0.0024   0.0025   0.00  696.5
2018/03/15 13:43:45.000   78.253586746   16.174568056   537.5711   1   5   0.0015   0.0013   0.0087  -0.0006  -0.0024   0.0025   0.00  699.7
2018/03/15 13:43:46.000   78.253586747   16.174568051   537.5720   1   5   0.0015   0.0013   0.0087  -0.0006  -0.0024   0.0024   0.00  706.3
2018/03/15 13:43:47.000   78.253586749   16.174568046   537.5731   1   5   0.0015   0.0013   0.0086  -0.0006  -0.0024   0.0024   0.00  713.6
2018/03/15 13:43:48.000   78.253586750   16.174568042   537.5742   1   5   0.0015   0.0013   0.0086  -0.0006  -0.0024   0.0024   0.00  722.2
2018/03/15 13:43:49.000   78.253586752   16.174568043   537.5750   1   5   0.0015   0.0013   0.0086  -0.0006  -0.0024   0.0024   0.00  726.9
2018/03/15 13:43:50.000   78.253586753   16.174568041   537.5760   1   5   0.0015   0.0013   0.0086  -0.0006  -0.0024   0.0024   0.00  734.1
2018/03/15 13:43:51.000   78.253586754   16.174568039   537.5769   1   5   0.0015   0.0013   0.0085  -0.0006  -0.0024   0.0024   0.00  739.8
2018/03/15 13:43:52.000   78.253586755   16.174568035   537.5776   1   5   0.0015   0.0013   0.0085  -0.0006  -0.0024   0.0024   0.00  749.4
2018/03/15 13:43:53.000   78.253586755   16.174568027   537.5786   1   5   0.0015   0.0013   0.0085  -0.0006  -0.0024   0.0024   0.00  766.1
2018/03/15 13:43:54.000   78.253586756   16.174568027   537.5793   1   5   0.0015   0.0013   0.0085  -0.0006  -0.0024   0.0024   0.00  774.6
2018/03/15 13:43:55.000   78.253586758   16.174568026   537.5800   1   5   0.0015   0.0013   0.0085  -0.0006  -0.0024   0.0024   0.00  777.1
2018/03/15 13:43:56.000   78.253586759   16.174568022   537.5810   1   5   0.0015   0.0013   0.0085  -0.0006  -0.0023   0.0024   0.00  790.3
2018/03/15 13:43:57.000   78.253586760   16.174568019   537.5819   1   5   0.0015   0.0013   0.0084  -0.0006  -0.0023   0.0023   0.00  792.6
2018/03/15 13:43:58.000   78.253586761   16.174568016   537.5825   1   5   0.0015   0.0013   0.0084  -0.0006  -0.0023   0.0023   0.00  798.9
2018/03/15 13:43:59.000   78.253586761   16.174568013   537.5832   1   5   0.0015   0.0013   0.0084  -0.0006  -0.0023   0.0023   0.00  802.5
2018/03/15 13:44:00.000   78.253586762   16.174568010   537.5836   1   5   0.0015   0.0013   0.0084  -0.0006  -0.0023   0.0023   0.00  806.1
2018/03/15 13:44:01.000   78.253586762   16.174568009   537.5840   1   5   0.0015   0.0013   0.0084  -0.0006  -0.0023   0.0023   0.00  803.6
2018/03/15 13:44:02.000   78.253586763   16.174568007   537.5847   1   5   0.0014   0.0013   0.0083  -0.0006  -0.0023   0.0023   0.00  803.8
2018/03/15 13:44:03.000   78.253586764   16.174568006   537.5853   1   5   0.0014   0.0013   0.0083  -0.0006  -0.0023   0.0023   0.00  802.6
2018/03/15 13:44:04.000   78.253586764   16.174568004   537.5859   1   5   0.0014   0.0013   0.0083  -0.0006  -0.0023   0.0023   0.00  806.4
2018/03/15 13:44:05.000   78.253586765   16.174568004   537.5868   1   5   0.0014   0.0013   0.0083  -0.0006  -0.0023   0.0023   0.00  806.0
2018/03/15 13:44:06.000   78.253586766   16.174568003   537.5874   1   5   0.0014   0.0013   0.0083  -0.0006  -0.0023   0.0023   0.00  807.8
2018/03/15 13:44:07.000   78.253586766   16.174568003   537.5877   1   5   0.0014   0.0013   0.0083  -0.0006  -0.0023   0.0023   0.00  807.6
2018/03/15 13:44:08.000   78.253586766   16.174568002   537.5882   1   5   0.0014   0.0013   0.0083  -0.0006  -0.0023   0.0023   0.00  809.0
2018/03/15 13:44:09.000   78.253586767   16.174568001   537.5886   1   5   0.0014   0.0013   0.0082  -0.0006  -0.0023   0.0023   0.00  810.8
2018/03/15 13:44:10.000   78.253586767   16.174568000   537.5892   1   5   0.0014   0.0013   0.0082  -0.0006  -0.0023   0.0022   0.00  806.7
2018/03/15 13:44:11.000   78.253586768   16.174567998   537.5900   1   5   0.0014   0.0013   0.0082  -0.0006  -0.0023   0.0022   0.00  807.8
2018/03/15 13:44:12.000   78.253586770   16.174567998   537.5908   1   5   0.0014   0.0013   0.0082  -0.0006  -0.0023   0.0022   0.00  809.1
2018/03/15 13:44:13.000   78.253586770   16.174567995   537.5915   1   5   0.0014   0.0013   0.0082  -0.0006  -0.0023   0.0022   0.00  810.0
2018/03/15 13:44:14.000   78.253586771   16.174567992   537.5924   1   5   0.0014   0.0013   0.0082  -0.0006  -0.0023   0.0022   0.00  813.1
2018/03/15 13:44:15.000   78.253586772   16.174567990   537.5928   1   5   0.0014   0.0012   0.0082  -0.0005  -0.0023   0.0022   0.00  813.3
2018/03/15 13:44:16.000   78.253586772   16.174567988   537.5935   1   5   0.0014   0.0012   0.0081  -0.0005  -0.0023   0.0022   0.00  813.2
2018/03/15 13:44:17.000   78.253586773   16.174567984   537.5944   1   5   0.0014   0.0012   0.0081  -0.0005  -0.0023   0.0022   0.00  815.4
2018/03/15 13:44:18.000   78.253586773   16.174567980   537.5952   1   5   0.0014   0.0012   0.0081  -0.0005  -0.0023   0.0022   0.00  816.3
2018/03/15 13:44:19.000   78.253586774   16.174567980   537.5959   1   5   0.0014   0.0012   0.0081  -0.0005  -0.0023   0.0022   0.00  813.5
2018/03/15 13:44:20.000   78.253586775   16.174567977   537.5967   1   5   0.0014   0.0012   0.0081  -0.0005  -0.0023   0.0022   0.00  811.7
2018/03/15 13:44:21.000   78.253586775   16.174567973   537.5971   1   5   0.0014   0.0012   0.0081  -0.0005  -0.0023   0.0022   0.00  808.4
2018/03/15 13:44:22.000   78.253586776   16.174567973   537.5972   1   5   0.0014   0.0012   0.0081  -0.0005  -0.0023   0.0022   0.00  804.9
2018/03/15 13:44:23.000   78.253586776   16.174567970   537.5977   1   5   0.0014   0.0012   0.0081  -0.0005  -0.0023   0.0022   0.00  801.5
2018/03/15 13:44:24.000   78.253586776   16.174567969   537.5983   1   5   0.0014   0.0012   0.0081  -0.0005  -0.0023   0.0022   0.00  798.8
2018/03/15 13:44:25.000   78.253586777   16.174567964   537.5991   1   5   0.0014   0.0012   0.0080  -0.0005  -0.0023   0.0021   0.00  801.2
2018/03/15 13:44:26.000   78.253586778   16.174567960   537.5998   1   5   0.0014   0.0012   0.0080  -0.0005  -0.0023   0.0021   0.00  800.1
2018/03/15 13:44:27.000   78.253586778   16.174567957   537.6004   1   5   0.0014   0.0012   0.0080  -0.0005  -0.0023   0.0021   0.00  802.1
2018/03/15 13:44:28.000   78.253586779   16.174567950   537.6013   1   5   0.0014   0.0012   0.0080  -0.0005  -0.0023   0.0021   0.00  803.6
2018/03/15 13:44:29.000   78.253586780   16.174567946   537.6019   1   5   0.0014   0.0012   0.0080  -0.0005  -0.0022   0.0021   0.00  803.7
2018/03/15 13:44:30.000   78.253586780   16.174567941   537.6022   1   5   0.0014   0.0012   0.0080  -0.0005  -0.0022   0.0021   0.00  805.1
2018/03/15 13:44:31.000   78.253586781   16.174567938   537.6025   1   5   0.0014   0.0012   0.0080  -0.0005  -0.0022   0.0021   0.00  806.7
2018/03/15 13:44:32.000   78.253586781   16.174567937   537.6031   1   5   0.0014   0.0012   0.0080  -0.0005  -0.0022   0.0021   0.00  805.8
2018/03/15 13:44:33.000   78.253586781   16.174567940   537.6031   1   5   0.0014   0.0012   0.0080  -0.0005  -0.0022   0.0021   0.00  804.7
2018/03/15 13:44:34.000   78.253586781   16.174567941   537.6034   1   5   0.0014   0.0012   0.0079  -0.0005  -0.0022   0.0021   0.00  798.1
2018/03/15 13:44:35.000   78.253586781   16.174567941   537.6037   1   5   0.0014   0.0012   0.0079  -0.0005  -0.0022   0.0021   0.00  790.4
2018/03/15 13:44:36.000   78.253586782   16.174567939   537.6041   1   5   0.0013   0.0012   0.0079  -0.0005  -0.0022   0.0021   0.00  788.8
2018/03/15 13:44:37.000   78.253586782   16.174567936   537.6047   1   5   0.0013   0.0012   0.0079  -0.0005  -0.0022   0.0021   0.00  789.3
2018/03/15 13:44:38.000   78.253586783   16.174567933   537.6050   1   5   0.0013   0.0012   0.0079  -0.0005  -0.0022   0.0021   0.00  794.5
2018/03/15 13:44:39.000   78.253586784   16.174567930   537.6055   1   5   0.0013   0.0012   0.0079  -0.0005  -0.0022   0.0021   0.00  800.6
2018/03/15 13:44:40.000   78.253586784   16.174567930   537.6056   1   5   0.0013   0.0012   0.0079  -0.0005  -0.0022   0.0021   0.00  799.7
2018/03/15 13:44:41.000   78.253586785   16.174567927   537.6060   1   5   0.0013   0.0012   0.0079  -0.0005  -0.0022   0.0021   0.00  801.5
2018/03/15 13:44:42.000   78.253586785   16.174567927   537.6063   1   5   0.0013   0.0012   0.0079  -0.0005  -0.0022   0.0021   0.00  798.1
2018/03/15 13:44:43.000   78.253586786   16.174567927   537.6068   1   5   0.0013   0.0012   0.0079  -0.0005  -0.0022   0.0021   0.00  796.8
2018/03/15 13:44:44.000   78.253586788   16.174567925   537.6074   1   5   0.0013   0.0012   0.0079  -0.0005  -0.0022   0.0021   0.00  796.5
2018/03/15 13:44:45.000   78.253586789   16.174567924   537.6079   1   5   0.0013   0.0012   0.0078  -0.0005  -0.0022   0.0020   0.00  796.0
2018/03/15 13:44:46.000   78.253586789   16.174567925   537.6084   1   5   0.0013   0.0012   0.0078  -0.0005  -0.0022   0.0020   0.00  794.0
2018/03/15 13:44:47.000   78.253586791   16.174567926   537.6092   1   5   0.0013   0.0012   0.0078  -0.0005  -0.0022   0.0020   0.00  793.8
2018/03/15 13:44:48.000   78.253586792   16.174567925   537.6101   1   5   0.0013   0.0012   0.0078  -0.0005  -0.0022   0.0020   0.00  791.5
2018/03/15 13:44:49.000   78.253586794   16.174567930   537.6106   1   5   0.0013   0.0012   0.0078  -0.0005  -0.0022   0.0020   0.00  789.5
2018/03/15 13:44:50.000   78.253586796   16.174567929   537.6116   1   5   0.0013   0.0012   0.0078  -0.0005  -0.0022   0.0020   0.00  790.0
2018/03/15 13:44:51.000   78.253586797   16.174567929   537.6127   1   5   0.0013   0.0012   0.0078  -0.0005  -0.0022   0.0020   0.00  793.6
2018/03/15 13:44:52.000   78.253586799   16.174567929   537.6135   1   5   0.0013   0.0012   0.0078  -0.0005  -0.0022   0.0020   0.00  804.0
2018/03/15 13:44:53.000   78.253586800   16.174567926   537.6144   1   5   0.0013   0.0012   0.0078  -0.0005  -0.0022   0.0020   0.00  809.6
2018/03/15 13:44:54.000   78.253586801   16.174567926   537.6151   1   5   0.0013   0.0012   0.0078  -0.0005  -0.0022   0.0020   0.00  813.3
2018/03/15 13:44:55.000   78.253586802   16.174567926   537.6157   1   5   0.0013   0.0012   0.0078  -0.0005  -0.0022   0.0020   0.00  813.1
2018/03/15 13:44:56.000   78.253586803   16.174567927   537.6172   1   5   0.0013   0.0012   0.0078  -0.0005  -0.0022   0.0020   0.00  807.6
2018/03/15 13:44:57.000   78.253586806   16.174567925   537.6191   1   5   0.0013   0.0012   0.0078  -0.0005  -0.0022   0.0020   0.00  802.1
2018/03/15 13:44:58.000   78.253586806   16.174567922   537.6193   1   4   0.0013   0.0012   0.0078  -0.0005  -0.0022   0.0020   0.00  806.8
2018/03/15 13:44:59.000   78.253586740   16.174567747   537.6140   1   4   0.0016   0.0014   0.0105   0.0004  -0.0030   0.0022   0.00   22.6
2018/03/15 13:45:00.000   78.253586742   16.174567739   537.6165   1   5   0.0016   0.0014   0.0105   0.0004  -0.0029   0.0022   0.00   31.8
2018/03/15 13:45:01.000   78.253586745   16.174567722   537.6207   1   5   0.0016   0.0014   0.0104   0.0004  -0.0029   0.0022   0.00   63.2
2018/03/15 13:45:02.000   78.253586745   16.174567707   537.6224   1   5   0.0016   0.0014   0.0104   0.0004  -0.0029   0.0022   0.00   20.1
2018/03/15 13:45:03.000   78.253586749   16.174567707   537.6240   1   5   0.0016   0.0014   0.0104   0.0004  -0.0029   0.0022   0.00   60.5
2018/03/15 13:45:04.000   78.253586753   16.174567710   537.6257   1   5   0.0016   0.0014   0.0103   0.0004  -0.0029   0.0022   0.00   98.1
2018/03/15 13:45:05.000   78.253586758   16.174567738   537.6237   1   4   0.0016   0.0014   0.0104   0.0004  -0.0029   0.0021   0.00  128.6
2018/03/15 13:45:06.000   78.253586762   16.174567745   537.6254   1   4   0.0016   0.0014   0.0104   0.0004  -0.0030   0.0021   0.00  154.4
2018/03/15 13:45:07.000   78.253586764   16.174567753   537.6255   1   5   0.0015   0.0014   0.0104   0.0004  -0.0029   0.0021   0.00   27.4
2018/03/15 13:45:08.000   78.253586766   16.174567761   537.6255   1   5   0.0015   0.0014   0.0103   0.0004  -0.0029   0.0021   0.00   57.8
2018/03/15 13:45:09.000   78.253586767   16.174567765   537.6245   1   5   0.0015   0.0014   0.0103   0.0004  -0.0029   0.0021   0.00   88.2
2018/03/15 13:45:10.000   78.253586768   16.174567766   537.6253   1   5   0.0015   0.0014   0.0102   0.0003  -0.0029   0.0021   0.00  118.5
2018/03/15 13:45:11.000   78.253586771   16.174567763   537.6270   1   5   0.0015   0.0014   0.0102   0.0003  -0.0029   0.0021   0.00  146.1
2018/03/15 13:45:12.000   78.253586773   16.174567763   537.6285   1   5   0.0015   0.0014   0.0101   0.0003  -0.0029   0.0021   0.00  170.9
2018/03/15 13:45:13.000   78.253586775   16.174567769   537.6285   1   5   0.0015   0.0014   0.0101   0.0003  -0.0029   0.0021   0.00  191.8
2018/03/15 13:45:14.000   78.253586777   16.174567772   537.6297   1   5   0.0015   0.0013   0.0100   0.0003  -0.0029   0.0021   0.00  212.5
2018/03/15 13:45:15.000   78.253586780   16.174567779   537.6299   1   5   0.0015   0.0013   0.0100   0.0003  -0.0028   0.0020   0.00  231.0
2018/03/15 13:45:16.000   78.253586781   16.174567783   537.6299   1   5   0.0015   0.0013   0.0099   0.0003  -0.0028   0.0020   0.00  248.8
2018/03/15 13:45:17.000   78.253586782   16.174567786   537.6297   1   5   0.0015   0.0013   0.0099   0.0003  -0.0028   0.0020   0.00  268.2
2018/03/15 13:45:18.000   78.253586783   16.174567789   537.6294   1   5   0.0015   0.0013   0.0099   0.0003  -0.0028   0.0020   0.00  286.4
2018/03/15 13:45:19.000   78.253586784   16.174567786   537.6305   1   5   0.0015   0.0013   0.0098   0.0003  -0.0028   0.0020   0.00  305.9
2018/03/15 13:45:20.000   78.253586786   16.174567782   537.6322   1   5   0.0015   0.0013   0.0098   0.0002  -0.0028   0.0020   0.00  324.2
2018/03/15 13:45:21.000   78.253586787   16.174567778   537.6333   1   5   0.0015   0.0013   0.0097   0.0002  -0.0028   0.0020   0.00  344.7
2018/03/15 13:45:22.000   78.253586789   16.174567775   537.6346   1   5   0.0015   0.0013   0.0097   0.0002  -0.0028   0.0020   0.00  361.6
2018/03/15 13:45:23.000   78.253586790   16.174567777   537.6348   1   5   0.0015   0.0013   0.0097   0.0002  -0.0028   0.0020   0.00  378.4
2018/03/15 13:45:24.000   78.253586792   16.174567780   537.6349   1   5   0.0014   0.0013   0.0096   0.0002  -0.0027   0.0020   0.00  388.7
2018/03/15 13:45:25.000   78.253586794   16.174567781   537.6356   1   5   0.0014   0.0013   0.0096   0.0002  -0.0027   0.0020   0.00  402.5
2018/03/15 13:45:26.000   78.253586796   16.174567781   537.6368   1   5   0.0014   0.0013   0.0095   0.0002  -0.0027   0.0020   0.00  415.1
2018/03/15 13:45:27.000   78.253586797   16.174567778   537.6381   1   5   0.0014   0.0013   0.0095   0.0002  -0.0027   0.0020   0.00  424.8
2018/03/15 13:45:28.000   78.253586799   16.174567778   537.6390   1   5   0.0014   0.0013   0.0095   0.0001  -0.0027   0.0020   0.00  434.4
2018/03/15 13:45:29.000   78.253586800   16.174567775   537.6399   1   5   0.0014   0.0013   0.0094   0.0001  -0.0027   0.0020   0.00  448.5
2018/03/15 13:45:30.000   78.253586801   16.174567771   537.6411   1   5   0.0014   0.0013   0.0094   0.0001  -0.0027   0.0020   0.00  463.1
2018/03/15 13:45:31.000   78.253586802   16.174567766   537.6426   1   5   0.0014   0.0013   0.0094   0.0001  -0.0027   0.0020   0.00  475.4
2018/03/15 13:45:32.000   78.253586804   16.174567766   537.6439   1   5   0.0014   0.0013   0.0093   0.0000  -0.0027   0.0019   0.00  487.4
2018/03/15 13:45:33.000   78.253586806   16.174567763   537.6455   1   5   0.0014   0.0013   0.0093  -0.0001  -0.0027   0.0019   0.00  496.3
2018/03/15 13:45:34.000   78.253586807   16.174567757   537.6476   1   5   0.0014   0.0013   0.0093  -0.0001  -0.0027   0.0019   0.00  506.9
2018/03/15 13:45:35.000   78.253586809   16.174567750   537.6495   1   5   0.0014   0.0013   0.0092  -0.0001  -0.0026   0.0019   0.00  518.2
2018/03/15 13:45:36.000   78.253586811   16.174567747   537.6509   1   5   0.0014   0.0013   0.0092  -0.0001  -0.0026   0.0019   0.00  525.9
2018/03/15 13:45:37.000   78.253586813   16.174567741   537.6528   1   5   0.0014   0.0013   0.0092  -0.0001  -0.0026   0.0019   0.00  534.8
2018/03/15 13:45:38.000   78.253586815   16.174567738   537.6541   1   5   0.0014   0.0013   0.0091  -0.0002  -0.0026   0.0019   0.00  544.0
2018/03/15 13:45:39.000   78.253586817   16.174567731   537.6558   1   5   0.0014   0.0013   0.0091  -0.0002  -0.0026   0.0019   0.00  552.6
2018/03/15 13:45:40.000   78.253586818   16.174567728   537.6568   1   5   0.0014   0.0013   0.0091  -0.0002  -0.0026   0.0019   0.00  563.2
2018/03/15 13:45:41.000   78.253586819   16.174567723   537.6581   1   5   0.0014   0.0012   0.0090  -0.0002  -0.0026   0.0019   0.00  576.9
2018/03/15 13:45:42.000   78.253586820   16.174567719   537.6590   1   5   0.0014   0.0012   0.0090  -0.0002  -0.0026   0.0019   0.00  589.2
2018/03/15 13:45:43.000   78.253586821   16.174567715   537.6602   1   5   0.0014   0.0012   0.0090  -0.0002  -0.0026   0.0019   0.00  593.6
2018/03/15 13:45:44.000   78.253586823   16.174567712   537.6613   1   5   0.0014   0.0012   0.0090  -0.0002  -0.0026   0.0019   0.00  592.9
2018/03/15 13:45:45.000   78.253586825   16.174567711   537.6623   1   5   0.0014   0.0012   0.0089  -0.0002  -0.0026   0.0019   0.00  588.2
2018/03/15 13:45:46.000   78.253586826   16.174567707   537.6635   1   5   0.0014   0.0012   0.0089  -0.0002  -0.0026   0.0019   0.00  581.2
2018/03/15 13:45:47.000   78.253586827   16.174567707   537.6644   1   5   0.0014   0.0012   0.0089  -0.0002  -0.0026   0.0019   0.00  573.5
2018/03/15 13:45:48.000   78.253586828   16.174567709   537.6651   1   5   0.0013   0.0012   0.0089  -0.0002  -0.0025   0.0019   0.00  566.2
2018/03/15 13:45:49.000   78.253586829   16.174567708   537.6661   1   5   0.0013   0.0012   0.0088  -0.0002  -0.0025   0.0019   0.00  558.7
2018/03/15 13:45:50.000   78.253586830   16.174567707   537.6670   1   5   0.0013   0.0012   0.0088  -0.0002  -0.0025   0.0019   0.00  553.2
2018/03/15 13:45:51.000   78.253586831   16.174567705   537.6681   1   5   0.0013   0.0012   0.0088  -0.0003  -0.0025   0.0019   0.00  549.2
2018/03/15 13:45:52.000   78.253586833   16.174567701   537.6697   1   5   0.0013   0.0012   0.0088  -0.0003  -0.0025   0.0019   0.00  546.6
2018/03/15 13:45:53.000   78.253586834   16.174567696   537.6711   1   5   0.0013   0.0012   0.0087  -0.0003  -0.0025   0.0019   0.00  547.0
2018/03/15 13:45:54.000   78.253586836   16.174567693   537.6725   1   5   0.0013   0.0012   0.0087  -0.0003  -0.0025   0.0018   0.00  545.4
2018/03/15 13:45:55.000   78.253586837   16.174567689   537.6740   1   5   0.0013   0.0012   0.0087  -0.0003  -0.0025   0.0018   0.00  545.1
2018/03/15 13:45:56.000   78.253586839   16.174567685   537.6754   1   5   0.0013   0.0012   0.0087  -0.0003  -0.0025   0.0018   0.00  546.1
2018/03/15 13:45:57.000   78.253586840   16.174567681   537.6767   1   5   0.0013   0.0012   0.0086  -0.0003  -0.0025   0.0018   0.00  543.8
2018/03/15 13:45:58.000   78.253586841   16.174567679   537.6778   1   5   0.0013   0.0012   0.0086  -0.0003  -0.0025   0.0018   0.00  541.8
2018/03/15 13:45:59.000   78.253586843   16.174567676   537.6791   1   5   0.0013   0.0012   0.0086  -0.0003  -0.0025   0.0018   0.00  545.1
2018/03/15 13:46:00.000   78.253586845   16.174567673   537.6807   1   5   0.0013   0.0012   0.0086  -0.0003  -0.0025   0.0018   0.00  547.6
2018/03/15 13:46:01.000   78.253586846   16.174567670   537.6820   1   5   0.0013   0.0012   0.0085  -0.0003  -0.0025   0.0018   0.00  550.7
2018/03/15 13:46:02.000   78.253586848   16.174567664   537.6836   1   5   0.0013   0.0012   0.0085  -0.0003  -0.0025   0.0018   0.00  550.0
2018/03/15 13:46:03.000   78.253586850   16.174567658   537.6853   1   5   0.0013   0.0012   0.0085  -0.0003  -0.0025   0.0018   0.00  551.0
2018/03/15 13:46:04.000   78.253586852   16.174567653   537.6870   1   5   0.0013   0.0012   0.0085  -0.0003  -0.0025   0.0018   0.00  551.7
2018/03/15 13:46:05.000   78.253586854   16.174567646   537.6888   1   5   0.0013   0.0012   0.0085  -0.0003  -0.0025   0.0018   0.00  555.5
2018/03/15 13:46:06.000   78.253586856   16.174567640   537.6905   1   5   0.0013   0.0012   0.0084  -0.0003  -0.0024   0.0018   0.00  561.8
2018/03/15 13:46:07.000   78.253586859   16.174567640   537.6919   1   5   0.0013   0.0012   0.0084  -0.0003  -0.0024   0.0018   0.00  564.0
2018/03/15 13:46:08.000   78.253586861   16.174567641   537.6929   1   5   0.0013   0.0012   0.0084  -0.0003  -0.0024   0.0018   0.00  566.5
2018/03/15 13:46:09.000   78.253586862   16.174567642   537.6939   1   5   0.0013   0.0012   0.0084  -0.0003  -0.0024   0.0018   0.00  568.1
2018/03/15 13:46:10.000   78.253586862   16.174567642   537.6949   1   5   0.0013   0.0012   0.0084  -0.0003  -0.0024   0.0018   0.00  566.1
2018/03/15 13:46:11.000   78.253586862   16.174567638   537.6961   1   5   0.0013   0.0012   0.0084  -0.0003  -0.0024   0.0018   0.00  564.6
2018/03/15 13:46:12.000   78.253586863   16.174567634   537.6975   1   5   0.0013   0.0012   0.0083  -0.0003  -0.0024   0.0018   0.00  559.9
2018/03/15 13:46:13.000   78.253586864   16.174567632   537.6989   1   5   0.0013   0.0012   0.0083  -0.0003  -0.0024   0.0018   0.00  557.4
2018/03/15 13:46:14.000   78.253586865   16.174567626   537.7006   1   5   0.0013   0.0012   0.0083  -0.0003  -0.0024   0.0018   0.00  552.5
2018/03/15 13:46:15.000   78.253586866   16.174567623   537.7024   1   5   0.0013   0.0012   0.0083  -0.0003  -0.0024   0.0018   0.00  544.7
2018/03/15 13:46:16.000   78.253586867   16.174567621   537.7040   1   5   0.0013   0.0012   0.0083  -0.0003  -0.0024   0.0018   0.00  536.9
2018/03/15 13:46:17.000   78.253586869   16.174567619   537.7060   1   5   0.0013   0.0012   0.0082  -0.0003  -0.0024   0.0018   0.00  532.2
2018/03/15 13:46:18.000   78.253586870   16.174567612   537.7078   1   5   0.0013   0.0012   0.0082  -0.0003  -0.0024   0.0018   0.00  531.8
2018/03/15 13:46:19.000   78.253586870   16.174567605   537.7097   1   5   0.0013   0.0012   0.0082  -0.0004  -0.0024   0.0018   0.00  533.9
2018/03/15 13:46:20.000   78.253586871   16.174567597   537.7113   1   5   0.0013   0.0012   0.0082  -0.0004  -0.0024   0.0018   0.00  536.0
2018/03/15 13:46:21.000   78.253586871   16.174567590   537.7129   1   5   0.0013   0.0012   0.0082  -0.0004  -0.0024   0.0018   0.00  535.2
2018/03/15 13:46:22.000   78.253586872   16.174567584   537.7146   1   5   0.0013   0.0012   0.0082  -0.0004  -0.0024   0.0018   0.00  531.0
2018/03/15 13:46:23.000   78.253586873   16.174567578   537.7163   1   5   0.0013   0.0012   0.0082  -0.0004  -0.0024   0.0018   0.00  524.7
2018/03/15 13:46:24.000   78.253586873   16.174567568   537.7182   1   5   0.0012   0.0012   0.0081  -0.0004  -0.0024   0.0017   0.00  522.3
2018/03/15 13:46:25.000   78.253586875   16.174567562   537.7203   1   5   0.0012   0.0012   0.0081  -0.0004  -0.0024   0.0017   0.00  516.6
2018/03/15 13:46:26.000   78.253586876   16.174567553   537.7225   1   5   0.0012   0.0012   0.0081  -0.0004  -0.0024   0.0017   0.00  514.4
2018/03/15 13:46:27.000   78.253586877   16.174567549   537.7235   1   5   0.0012   0.0012   0.0081  -0.0004  -0.0024   0.0017   0.00  513.4
2018/03/15 13:46:28.000   78.253586876   16.174567534   537.7244   1   5   0.0012   0.0012   0.0081  -0.0004  -0.0024   0.0017   0.00  513.7
2018/03/15 13:46:29.000   78.253586876   16.174567509   537.7265   1   4   0.0012   0.0012   0.0081  -0.0004  -0.0024   0.0017   0.00  512.0
2018/03/15 13:46:30.000   78.253586876   16.174567482   537.7286   1   4   0.0012   0.0011   0.0081  -0.0004  -0.0024   0.0017   0.00  508.0
2018/03/15 13:46:31.000   78.253586896   16.174567683   537.7192   5   3   0.0017   0.0020   0.0103  -0.0011  -0.0036   0.0026   0.00    0.0
2018/03/15 13:46:32.000   78.253586896   16.174567678   537.7196   5   3   0.0017   0.0020   0.0103  -0.0011  -0.0036   0.0026   0.00    0.0
2018/03/15 13:46:33.000   78.253586896   16.174567674   537.7198   5   3   0.0017   0.0020   0.0103  -0.0011  -0.0036   0.0026   0.00    0.0
2018/03/15 13:46:34.000   78.253586895   16.174567670   537.7202   5   3   0.0017   0.0020   0.0103  -0.0011  -0.0036   0.0026   0.00    0.0
2018/03/15 13:46:35.000   78.253586895   16.174567667   537.7205   5   3   0.0017   0.0020   0.0103  -0.0011  -0.0036   0.0026   0.00    0.0
2018/03/15 13:46:36.000   78.253586895   16.174567663   537.7208   5   3   0.0017   0.0020   0.0103  -0.0011  -0.0036   0.0026   0.00    0.0
2018/03/15 13:46:37.000   78.253586895   16.174567658   537.7211   5   3   0.0017   0.0020   0.0103  -0.0011  -0.0036   0.0026   0.00    0.0
2018/03/15 13:46:38.000   78.253586894   16.174567654   537.7214   5   3   0.0017   0.0020   0.0103  -0.0011  -0.0036   0.0026   0.00    0.0
2018/03/15 13:46:39.000   78.253586894   16.174567649   537.7217   5   3   0.0017   0.0020   0.0103  -0.0011  -0.0036   0.0026   0.00    0.0
2018/03/15 13:46:40.000   78.253586895   16.174567643   537.7222   5   3   0.0017   0.0020   0.0103  -0.0011  -0.0036   0.0026   0.00    0.0
2018/03/15 13:46:41.000   78.253586878   16.174566875   537.7623   1   4   0.0014   0.0013   0.0096  -0.0008  -0.0029   0.0026   0.00    3.1
2018/03/15 13:46:42.000   78.253586858   16.174566901   537.7476   1   4   0.0014   0.0013   0.0095  -0.0008  -0.0029   0.0026   0.00    3.3
2018/03/15 13:46:43.000   78.253586837   16.174566928   537.7331   1   4   0.0014   0.0013   0.0095  -0.0008  -0.0029   0.0026   0.00    3.4
2018/03/15 13:46:44.000   78.253586819   16.174566942   537.7199   1   5   0.0014   0.0013   0.0095  -0.0007  -0.0029   0.0026   0.00    3.3
2018/03/15 13:46:45.000   78.253586894   16.174567637   537.7225   2   4   0.0017   0.0020   0.0103  -0.0011  -0.0036   0.0026   0.00    2.9
2018/03/15 13:46:46.000   78.253586894   16.174567636   537.7225   2   4   0.0017   0.0020   0.0103  -0.0011  -0.0036   0.0026   0.00    2.6
2018/03/15 13:46:47.000   78.253586894   16.174567636   537.7226   2   4   0.0017   0.0020   0.0103  -0.0011  -0.0036   0.0026   0.00    2.4
2018/03/15 13:46:48.000   78.253586894   16.174567634   537.7227   2   5   0.0017   0.0020   0.0103  -0.0011  -0.0036   0.0026   0.00    2.2
2018/03/15 13:46:49.000   78.253586894   16.174567633   537.7227   2   4   0.0017   0.0020   0.0103  -0.0011  -0.0036   0.0026   0.00    2.1
2018/03/15 13:46:50.000   78.253586894   16.174567631   537.7229   2   5   0.0017   0.0020   0.0103  -0.0011  -0.0036   0.0026   0.00    1.8
2018/03/15 13:46:51.000   78.253586894   16.174567629   537.7230   2   4   0.0017   0.0020   0.0103  -0.0011  -0.0036   0.0026   0.00    1.7
2018/03/15 13:46:52.000   78.253586894   16.174567628   537.7231   2   4   0.0017   0.0020   0.0103  -0.0011  -0.0036   0.0026   0.00    1.7
2018/03/15 13:46:53.000   78.253586894   16.174567627   537.7231   2   4   0.0017   0.0020   0.0103  -0.0011  -0.0036   0.0026   0.00    1.6
2018/03/15 13:46:54.000   78.253586894   16.174567626   537.7232   2   5   0.0017   0.0020   0.0103  -0.0011  -0.0036   0.0026   0.00    1.6
2018/03/15 13:46:55.000   78.253586894   16.174567626   537.7232   2   5   0.0017   0.0020   0.0103  -0.0011  -0.0036   0.0026   0.00    2.1
2018/03/15 13:46:56.000   78.253586893   16.174567626   537.7232   2   5   0.0017   0.0020   0.0103  -0.0011  -0.0036   0.0026   0.00    2.6
2018/03/15 13:46:57.000   78.253586893   16.174567626   537.7232   2   5   0.0017   0.0020   0.0103  -0.0011  -0.0036   0.0026   0.00    3.0
2018/03/15 13:46:58.000   78.253586582   16.174567080   537.5595   1   5   0.0014   0.0013   0.0091  -0.0007  -0.0028   0.0024   0.00    3.3
2018/03/15 13:46:59.000   78.253586569   16.174567071   537.5511   1   5   0.0014   0.0013   0.0090  -0.0007  -0.0028   0.0024   0.00    3.3
2018/03/15 13:47:00.000   78.253586556   16.174567062   537.5431   1   5   0.0013   0.0013   0.0090  -0.0007  -0.0028   0.0024   0.00    3.3
2018/03/15 13:47:01.000   78.253586544   16.174567057   537.5348   1   5   0.0013   0.0013   0.0090  -0.0007  -0.0028   0.0024   0.00    3.3
2018/03/15 13:47:02.000   78.253586531   16.174567053   537.5267   1   5   0.0013   0.0013   0.0090  -0.0007  -0.0028   0.0024   0.00    3.4
2018/03/15 13:47:03.000   78.253586519   16.174567047   537.5190   1   5   0.0013   0.0013   0.0089  -0.0007  -0.0028   0.0024   0.00    3.4
2018/03/15 13:47:04.000   78.253586507   16.174567040   537.5118   1   5   0.0013   0.0013   0.0089  -0.0007  -0.0028   0.0023   0.00    3.4
2018/03/15 13:47:05.000   78.253586496   16.174567027   537.5054   1   5   0.0013   0.0013   0.0089  -0.0007  -0.0027   0.0023   0.00    3.4
2018/03/15 13:47:06.000   78.253586484   16.174567018   537.4985   1   5   0.0013   0.0013   0.0088  -0.0007  -0.0027   0.0023   0.00    3.4
2018/03/15 13:47:07.000   78.253586473   16.174567010   537.4915   1   5   0.0013   0.0013   0.0088  -0.0007  -0.0027   0.0023   0.00    3.4
2018/03/15 13:47:08.000   78.253586462   16.174567004   537.4842   1   5   0.0013   0.0013   0.0088  -0.0007  -0.0027   0.0023   0.00    3.9
2018/03/15 13:47:09.000   78.253586451   16.174566993   537.4776   1   5   0.0013   0.0013   0.0088  -0.0007  -0.0027   0.0023   0.00    4.4
2018/03/15 13:47:10.000   78.253586441   16.174566982   537.4714   1   5   0.0013   0.0013   0.0087  -0.0007  -0.0027   0.0023   0.00    4.8
2018/03/15 13:47:11.000   78.253586431   16.174566970   537.4653   1   5   0.0013   0.0013   0.0087  -0.0007  -0.0027   0.0023   0.00    5.3
2018/03/15 13:47:12.000   78.253586420   16.174566961   537.4591   1   5   0.0013   0.0013   0.0087  -0.0007  -0.0027   0.0022   0.00    5.8
2018/03/15 13:47:13.000   78.253586410   16.174566949   537.4532   1   5   0.0013   0.0013   0.0087  -0.0007  -0.0027   0.0022   0.00    6.3
2018/03/15 13:47:14.000   78.253586401   16.174566941   537.4473   1   5   0.0013   0.0013   0.0086  -0.0007  -0.0027   0.0022   0.00    6.7
2018/03/15 13:47:15.000   78.253586391   16.174566934   537.4413   1   5   0.0013   0.0013   0.0086  -0.0007  -0.0027   0.0022   0.00    7.2
2018/03/15 13:47:16.000   78.253586381   16.174566927   537.4351   1   5   0.0013   0.0013   0.0086  -0.0007  -0.0027   0.0022   0.00    7.6
2018/03/15 13:47:17.000   78.253586372   16.174566920   537.4295   1   5   0.0013   0.0013   0.0086  -0.0007  -0.0026   0.0022   0.00    8.1
2018/03/15 13:47:18.000   78.253586362   16.174566911   537.4238   1   5   0.0013   0.0012   0.0086  -0.0006  -0.0026   0.0022   0.00    8.6
2018/03/15 13:47:19.000   78.253586354   16.174566902   537.4182   1   5   0.0013   0.0012   0.0085  -0.0006  -0.0026   0.0022   0.00    9.0
2018/03/15 13:47:20.000   78.253586345   16.174566893   537.4129   1   5   0.0013   0.0012   0.0085  -0.0006  -0.0026   0.0022   0.00    9.4
2018/03/15 13:47:21.000   78.253586336   16.174566883   537.4077   1   5   0.0013   0.0012   0.0085  -0.0006  -0.0026   0.0022   0.00    9.9
2018/03/15 13:47:22.000   78.253586328   16.174566875   537.4029   1   5   0.0013   0.0012   0.0085  -0.0006  -0.0026   0.0021   0.00   10.3
2018/03/15 13:47:23.000   78.253586320   16.174566868   537.3979   1   5   0.0013   0.0012   0.0085  -0.0006  -0.0026   0.0021   0.00   10.7
2018/03/15 13:47:24.000   78.253586313   16.174566862   537.3928   1   5   0.0013   0.0012   0.0084  -0.0006  -0.0026   0.0021   0.00   11.2
2018/03/15 13:47:25.000   78.253586305   16.174566853   537.3878   1   5   0.0013   0.0012   0.0084  -0.0006  -0.0026   0.0021   0.00   11.6
2018/03/15 13:47:26.000   78.253586298   16.174566843   537.3833   1   5   0.0013   0.0012   0.0084  -0.0006  -0.0026   0.0021   0.00   12.0
2018/03/15 13:47:27.000   78.253586290   16.174566838   537.3785   1   5   0.0013   0.0012   0.0084  -0.0006  -0.0026   0.0021   0.00   12.4
2018/03/15 13:47:28.000   78.253586282   16.174566830   537.3737   1   5   0.0013   0.0012   0.0084  -0.0006  -0.0026   0.0021   0.00   12.8
2018/03/15 13:47:29.000   78.253586274   16.174566822   537.3688   1   5   0.0012   0.0012   0.0083  -0.0006  -0.0026   0.0021   0.00   13.2
2018/03/15 13:47:30.000   78.253586266   16.174566821   537.3627   1   5   0.0012   0.0012   0.0083  -0.0006  -0.0026   0.0021   0.00   13.5
2018/03/15 13:47:31.000   78.253586258   16.174566818   537.3575   1   5   0.0012   0.0012   0.0083  -0.0006  -0.0026   0.0021   0.00   13.9
2018/03/15 13:47:32.000   78.253586251   16.174566814   537.3523   1   5   0.0012   0.0012   0.0083  -0.0006  -0.0026   0.0020   0.00   14.3
2018/03/15 13:47:33.000   78.253586244   16.174566807   537.3474   1   5   0.0012   0.0012   0.0083  -0.0006  -0.0025   0.0020   0.00   14.6
2018/03/15 13:47:34.000   78.253586238   16.174566802   537.3426   1   5   0.0012   0.0012   0.0082  -0.0006  -0.0025   0.0020   0.00   15.0
2018/03/15 13:47:35.000   78.253586232   16.174566790   537.3386   1   5   0.0012   0.0012   0.0082  -0.0006  -0.0025   0.0020   0.00   15.3
2018/03/15 13:47:36.000   78.253586225   16.174566781   537.3346   1   5   0.0012   0.0012   0.0082  -0.0006  -0.0025   0.0020   0.00   15.7
2018/03/15 13:47:37.000   78.253586219   16.174566773   537.3304   1   5   0.0012   0.0012   0.0082  -0.0006  -0.0025   0.0020   0.00   16.1
2018/03/15 13:47:38.000   78.253586213   16.174566764   537.3263   1   5   0.0012   0.0012   0.0082  -0.0006  -0.0025   0.0020   0.00   16.4
2018/03/15 13:47:39.000   78.253586207   16.174566753   537.3225   1   5   0.0012   0.0012   0.0082  -0.0006  -0.0025   0.0020   0.00   16.8
2018/03/15 13:47:40.000   78.253586200   16.174566743   537.3187   1   5   0.0012   0.0012   0.0081  -0.0006  -0.0025   0.0020   0.00   17.1
2018/03/15 13:47:41.000   78.253586576   16.174566596   537.5933   1   4   0.0013   0.0012   0.0086  -0.0006  -0.0025   0.0022   0.00  729.0
2018/03/15 13:47:42.000   78.253586566   16.174566591   537.5868   1   5   0.0013   0.0012   0.0085  -0.0006  -0.0025   0.0022   0.00    5.1
2018/03/15 13:47:43.000   78.253586557   16.174566585   537.5807   1   5   0.0013   0.0012   0.0085  -0.0006  -0.0025   0.0022   0.00   14.7
2018/03/15 13:47:44.000   78.253586547   16.174566578   537.5743   1   5   0.0013   0.0012   0.0085  -0.0006  -0.0025   0.0022   0.00   20.5
2018/03/15 13:47:45.000   78.253586537   16.174566570   537.5679   1   5   0.0013   0.0012   0.0085  -0.0006  -0.0025   0.0022   0.00   24.2
2018/03/15 13:47:46.000   78.253586526   16.174566563   537.5613   1   5   0.0013   0.0012   0.0085  -0.0006  -0.0025   0.0022   0.00   26.5
2018/03/15 13:47:47.000   78.253586517   16.174566557   537.5551   1   5   0.0013   0.0012   0.0084  -0.0006  -0.0025   0.0022   0.00   28.9
2018/03/15 13:47:48.000   78.253586508   16.174566550   537.5495   1   5   0.0013   0.0012   0.0084  -0.0006  -0.0025   0.0022   0.00   31.2
2018/03/15 13:47:49.000   78.253586500   16.174566546   537.5436   1   5   0.0013   0.0012   0.0084  -0.0006  -0.0025   0.0022   0.00   33.2
2018/03/15 13:47:50.000   78.253586491   16.174566541   537.5377   1   5   0.0013   0.0012   0.0084  -0.0006  -0.0025   0.0021   0.00   34.7
2018/03/15 13:47:51.000   78.253586482   16.174566537   537.5311   1   5   0.0013   0.0012   0.0084  -0.0006  -0.0025   0.0021   0.00   35.3
2018/03/15 13:47:52.000   78.253586472   16.174566531   537.5239   1   5   0.0013   0.0012   0.0083  -0.0006  -0.0025   0.0021   0.00   35.0
2018/03/15 13:47:53.000   78.253586462   16.174566526   537.5170   1   5   0.0012   0.0012   0.0083  -0.0006  -0.0025   0.0021   0.00   35.0
2018/03/15 13:47:54.000   78.253586453   16.174566521   537.5109   1   5   0.0012   0.0012   0.0083  -0.0006  -0.0025   0.0021   0.00   35.6
2018/03/15 13:47:55.000   78.253586444   16.174566515   537.5046   1   5   0.0012   0.0012   0.0083  -0.0006  -0.0024   0.0021   0.00   35.9
2018/03/15 13:47:56.000   78.253586436   16.174566509   537.4986   1   5   0.0012   0.0012   0.0083  -0.0006  -0.0024   0.0021   0.00   36.4
2018/03/15 13:47:57.000   78.253586427   16.174566504   537.4926   1   5   0.0012   0.0012   0.0083  -0.0006  -0.0024   0.0021   0.00   36.9
2018/03/15 13:47:58.000   78.253586419   16.174566497   537.4868   1   5   0.0012   0.0012   0.0082  -0.0006  -0.0024   0.0021   0.00   37.3
2018/03/15 13:47:59.000   78.253586411   16.174566491   537.4813   1   5   0.0012   0.0012   0.0082  -0.0006  -0.0024   0.0021   0.00   37.7
2018/03/15 13:48:00.000   78.253586402   16.174566485   537.4755   1   5   0.0012   0.0012   0.0082  -0.0006  -0.0024   0.0021   0.00   38.0
2018/03/15 13:48:01.000   78.253586393   16.174566479   537.4694   1   5   0.0012   0.0012   0.0082  -0.0006  -0.0024   0.0020   0.00   37.9
2018/03/15 13:48:02.000   78.253586385   16.174566474   537.4633   1   5   0.0012   0.0012   0.0082  -0.0006  -0.0024   0.0020   0.00   38.0
2018/03/15 13:48:03.000   78.253586376   16.174566467   537.4573   1   5   0.0012   0.0012   0.0082  -0.0006  -0.0024   0.0020   0.00   38.0
2018/03/15 13:48:04.000   78.253586368   16.174566461   537.4518   1   5   0.0012   0.0011   0.0082  -0.0006  -0.0024   0.0020   0.00   38.2
2018/03/15 13:48:05.000   78.253586360   16.174566455   537.4464   1   5   0.0012   0.0011   0.0081  -0.0006  -0.0024   0.0020   0.00   38.5
2018/03/15 13:48:06.000   78.253586352   16.174566448   537.4413   1   5   0.0012   0.0011   0.0081  -0.0006  -0.0024   0.0020   0.00   38.8
2018/03/15 13:48:07.000   78.253586345   16.174566443   537.4365   1   5   0.0012   0.0011   0.0081  -0.0006  -0.0024   0.0020   0.00   39.2
2018/03/15 13:48:08.000   78.253586338   16.174566438   537.4320   1   5   0.0012   0.0011   0.0081  -0.0006  -0.0024   0.0020   0.00   39.6
2018/03/15 13:48:09.000   78.253586331   16.174566433   537.4272   1   5   0.0012   0.0011   0.0081  -0.0005  -0.0024   0.0020   0.00   40.0
2018/03/15 13:48:10.000   78.253586324   16.174566428   537.4224   1   5   0.0012   0.0011   0.0081  -0.0005  -0.0024   0.0020   0.00   40.4
2018/03/15 13:48:11.000   78.253586316   16.174566423   537.4174   1   5   0.0012   0.0011   0.0080  -0.0005  -0.0024   0.0020   0.00   40.7
2018/03/15 13:48:12.000   78.253586310   16.174566418   537.4128   1   5   0.0012   0.0011   0.0080  -0.0005  -0.0024   0.0020   0.00   41.0
2018/03/15 13:48:13.000   78.253586303   16.174566410   537.4084   1   5   0.0012   0.0011   0.0080  -0.0005  -0.0024   0.0019   0.00   41.3
2018/03/15 13:48:14.000   78.253586297   16.174566401   537.4039   1   5   0.0012   0.0011   0.0080  -0.0005  -0.0024   0.0019   0.00   41.5
2018/03/15 13:48:15.000   78.253586291   16.174566392   537.3997   1   5   0.0012   0.0011   0.0080  -0.0005  -0.0024   0.0019   0.00   41.8
2018/03/15 13:48:16.000   78.253586285   16.174566384   537.3953   1   5   0.0012   0.0011   0.0080  -0.0005  -0.0024   0.0019   0.00   42.1
2018/03/15 13:48:17.000   78.253586278   16.174566377   537.3908   1   5   0.0012   0.0011   0.0080  -0.0005  -0.0024   0.0019   0.00   42.3
2018/03/15 13:48:18.000   78.253586272   16.174566369   537.3865   1   5   0.0012   0.0011   0.0080  -0.0005  -0.0024   0.0019   0.00   42.5
2018/03/15 13:48:19.000   78.253586266   16.174566362   537.3824   1   5   0.0012   0.0011   0.0079  -0.0005  -0.0024   0.0019   0.00   42.8
2018/03/15 13:48:20.000   78.253586260   16.174566354   537.3784   1   5   0.0012   0.0011   0.0079  -0.0005  -0.0024   0.0019   0.00   43.1
2018/03/15 13:48:21.000   78.253586254   16.174566348   537.3743   1   5   0.0012   0.0011   0.0079  -0.0005  -0.0024   0.0019   0.00   43.3
2018/03/15 13:48:22.000   78.253586248   16.174566341   537.3702   1   5   0.0012   0.0011   0.0079  -0.0005  -0.0024   0.0019   0.00   43.6
2018/03/15 13:48:23.000   78.253586242   16.174566334   537.3661   1   5   0.0012   0.0011   0.0079  -0.0005  -0.0024   0.0019   0.00   43.8
2018/03/15 13:48:24.000   78.253586236   16.174566328   537.3622   1   5   0.0012   0.0011   0.0079  -0.0005  -0.0023   0.0019   0.00   44.1
2018/03/15 13:48:25.000   78.253586231   16.174566322   537.3583   1   5   0.0012   0.0011   0.0079  -0.0005  -0.0023   0.0019   0.00   44.4
2018/03/15 13:48:26.000   78.253586225   16.174566317   537.3544   1   5   0.0012   0.0011   0.0079  -0.0005  -0.0023   0.0019   0.00   44.4
2018/03/15 13:48:27.000   78.253586219   16.174566312   537.3504   1   5   0.0012   0.0011   0.0079  -0.0005  -0.0023   0.0019   0.00   43.9
2018/03/15 13:48:28.000   78.253586214   16.174566307   537.3467   1   5   0.0012   0.0011   0.0078  -0.0005  -0.0023   0.0018   0.00   43.5
2018/03/15 13:48:29.000   78.253586208   16.174566302   537.3428   1   5   0.0012   0.0011   0.0078  -0.0005  -0.0023   0.0018   0.00   43.1
2018/03/15 13:48:30.000   78.253586203   16.174566295   537.3391   1   5   0.0012   0.0011   0.0078  -0.0005  -0.0023   0.0018   0.00   42.6
2018/03/15 13:48:31.000   78.253586197   16.174566290   537.3351   1   5   0.0012   0.0011   0.0078  -0.0005  -0.0023   0.0018   0.00   42.2
2018/03/15 13:48:32.000   78.253586192   16.174566284   537.3316   1   5   0.0012   0.0011   0.0078  -0.0005  -0.0023   0.0018   0.00   41.8
2018/03/15 13:48:33.000   78.253586187   16.174566277   537.3281   1   5   0.0012   0.0011   0.0078  -0.0005  -0.0023   0.0018   0.00   41.5
2018/03/15 13:48:34.000   78.253586183   16.174566271   537.3248   1   5   0.0012   0.0011   0.0078  -0.0005  -0.0023   0.0018   0.00   41.2
2018/03/15 13:48:35.000   78.253586178   16.174566266   537.3215   1   5   0.0012   0.0011   0.0078  -0.0005  -0.0023   0.0018   0.00   40.9
2018/03/15 13:48:36.000   78.253586173   16.174566262   537.3179   1   5   0.0012   0.0011   0.0078  -0.0005  -0.0023   0.0018   0.00   40.6
