% program   : RTKPOST ver.2.4.2
% inp file  : Z:\home\linda\Documents\Spring18\GitHub_Unis\data\processed_data\46250706.obs
% inp file  : Z:\home\linda\Documents\Spring18\GitHub_Unis\data\base_station_data\lyrs0700.18o
% inp file  : Z:\home\linda\Documents\Spring18\GitHub_Unis\data\processed_data\46250706.nav
% obs start : 2018/03/11 12:52:14.0 GPST (week1992  46334.0s)
% obs end   : 2018/03/11 13:07:15.0 GPST (week1992  47235.0s)
% pos mode  : static
% freqs     : L1+L2
% solution  : forward
% elev mask : 15.0 deg
% dynamics  : on
% tidecorr  : off
% ionos opt : broadcast
% tropo opt : saastamoinen
% ephemeris : broadcast
% navi sys  : gps glonass galileo qzss sbas
% amb res   : fix and hold
% amb glo   : on
% val thres : 3.0
% antenna1  :                       ( 0.0000  0.0000  0.0000)
% antenna2  :                       ( 0.0000  0.0000  0.0000)
% ref pos   : 78.228825638   15.397310064   495.6816
%
% (lat/lon/height=WGS84/ellipsoidal,Q=1:fix,2:float,3:sbas,4:dgps,5:single,6:ppp,ns=# of satellites)
%  GPST                  latitude(deg) longitude(deg)  height(m)   Q  ns   sdn(m)   sde(m)   sdu(m)  sdne(m)  sdeu(m)  sdun(m) age(s)  ratio
2018/03/11 12:52:14.000   78.255309476   16.193741117   491.3878   2   8   0.4341   0.4307   2.0725  -0.1887   0.6512  -0.1838   0.00    1.1
2018/03/11 12:52:15.000   78.255307918   16.193740588   491.0902   2   8   0.3088   0.3060   1.4741  -0.1338   0.4633  -0.1251   0.00    1.1
2018/03/11 12:52:16.000   78.255307582   16.193741988   490.8884   2   8   0.2526   0.2502   1.2049  -0.1093   0.3787  -0.1007   0.00    1.3
2018/03/11 12:52:17.000   78.255307023   16.193743559   491.1947   2   8   0.2190   0.2168   1.0432  -0.0947   0.3278  -0.0864   0.00    1.3
2018/03/11 12:52:18.000   78.255307962   16.193743545   491.0892   2   8   0.1960   0.1939   0.9320  -0.0847   0.2929  -0.0769   0.00    1.3
2018/03/11 12:52:19.000   78.255308491   16.193742986   491.0615   2   8   0.1789   0.1770   0.8493  -0.0773   0.2669  -0.0699   0.00    1.3
2018/03/11 12:52:20.000   78.255308643   16.193744669   491.0404   2   8   0.1657   0.1638   0.7846  -0.0716   0.2465  -0.0645   0.00    1.2
2018/03/11 12:52:21.000   78.255309161   16.193745064   491.0593   2   8   0.1550   0.1531   0.7320  -0.0669   0.2299  -0.0602   0.00    1.2
2018/03/11 12:52:22.000   78.255309471   16.193745852   491.0223   2   8   0.1461   0.1443   0.6880  -0.0631   0.2161  -0.0566   0.00    1.2
2018/03/11 12:52:23.000   78.255309534   16.193746325   491.0158   2   8   0.1386   0.1367   0.6505  -0.0598   0.2043  -0.0536   0.00    1.1
2018/03/11 12:52:24.000   78.255308888   16.193747401   491.2248   2   8   0.1322   0.1303   0.6178  -0.0570   0.1940  -0.0511   0.00    1.2
2018/03/11 12:52:25.000   78.255308939   16.193747568   491.3516   2   8   0.1265   0.1246   0.5891  -0.0545   0.1849  -0.0488   0.00    1.2
2018/03/11 12:52:26.000   78.255309002   16.193747308   491.3964   2   8   0.1216   0.1195   0.5635  -0.0524   0.1769  -0.0469   0.00    1.2
2018/03/11 12:52:27.000   78.255309222   16.193746482   491.3025   2   8   0.1171   0.1151   0.5404  -0.0504   0.1696  -0.0452   0.00    1.2
2018/03/11 12:52:28.000   78.255309290   16.193747886   491.4019   2   8   0.1131   0.1110   0.5194  -0.0487   0.1629  -0.0436   0.00    1.2
2018/03/11 12:52:29.000   78.255309408   16.193748209   491.3369   2   8   0.1095   0.1073   0.5002  -0.0471   0.1569  -0.0422   0.00    1.2
2018/03/11 12:52:30.000   78.255309580   16.193747843   491.2138   2   8   0.1062   0.1040   0.4825  -0.0457   0.1513  -0.0409   0.00    1.2
2018/03/11 12:52:31.000   78.255309517   16.193746288   491.0123   2   8   0.1032   0.1009   0.4662  -0.0443   0.1461  -0.0398   0.00    1.2
2018/03/11 12:52:32.000   78.255309360   16.193745873   490.8516   2   8   0.1004   0.0980   0.4509  -0.0431   0.1413  -0.0387   0.00    1.2
2018/03/11 12:52:33.000   78.255309276   16.193745244   490.6662   2   8   0.0978   0.0954   0.4367  -0.0420   0.1368  -0.0378   0.00    1.2
2018/03/11 12:52:34.000   78.255309168   16.193744110   490.5342   2   8   0.0954   0.0929   0.4233  -0.0409   0.1325  -0.0369   0.00    1.2
2018/03/11 12:52:35.000   78.255309170   16.193742885   490.3491   2   8   0.0932   0.0906   0.4107  -0.0400   0.1285  -0.0360   0.00    1.2
2018/03/11 12:52:36.000   78.255309105   16.193741925   490.2102   2   8   0.0911   0.0885   0.3988  -0.0390   0.1248  -0.0353   0.00    1.3
2018/03/11 12:52:37.000   78.255308931   16.193741435   490.0812   2   8   0.0892   0.0865   0.3876  -0.0382   0.1212  -0.0346   0.00    1.3
2018/03/11 12:52:38.000   78.255308846   16.193741012   489.9487   2   8   0.0874   0.0846   0.3769  -0.0374   0.1178  -0.0339   0.00    1.3
2018/03/11 12:52:39.000   78.255308856   16.193740363   489.7804   2   8   0.0856   0.0828   0.3667  -0.0366   0.1146  -0.0333   0.00    1.3
2018/03/11 12:52:40.000   78.255308775   16.193739785   489.6188   2   8   0.0840   0.0810   0.3570  -0.0359   0.1115  -0.0327   0.00    1.3
2018/03/11 12:52:41.000   78.255308650   16.193739366   489.4542   2   8   0.0824   0.0794   0.3477  -0.0352   0.1086  -0.0321   0.00    1.3
2018/03/11 12:52:42.000   78.255308523   16.193738948   489.3229   2   8   0.0810   0.0779   0.3389  -0.0345   0.1057  -0.0316   0.00    1.3
2018/03/11 12:52:43.000   78.255308390   16.193738565   489.1983   2   8   0.0796   0.0764   0.3304  -0.0339   0.1030  -0.0311   0.00    1.4
2018/03/11 12:52:44.000   78.255308203   16.193737947   489.0868   2   8   0.0782   0.0750   0.3223  -0.0333   0.1005  -0.0306   0.00    1.4
2018/03/11 12:52:45.000   78.255308044   16.193737501   488.9837   2   8   0.0770   0.0737   0.3145  -0.0327   0.0980  -0.0302   0.00    1.4
2018/03/11 12:52:46.000   78.255307943   16.193737307   488.8523   2   8   0.0757   0.0724   0.3070  -0.0322   0.0956  -0.0297   0.00    1.4
2018/03/11 12:52:47.000   78.255307995   16.193736979   488.7442   2   8   0.0746   0.0712   0.2998  -0.0317   0.0933  -0.0293   0.00    1.4
2018/03/11 12:52:48.000   78.255307955   16.193736463   488.6073   2   8   0.0735   0.0700   0.2928  -0.0312   0.0911  -0.0289   0.00    1.4
2018/03/11 12:52:49.000   78.255307857   16.193735980   488.4811   2   8   0.0724   0.0689   0.2861  -0.0307   0.0889  -0.0286   0.00    1.4
2018/03/11 12:52:50.000   78.255307757   16.193735435   488.3434   2   8   0.0714   0.0678   0.2797  -0.0302   0.0869  -0.0282   0.00    1.4
2018/03/11 12:52:51.000   78.255307569   16.193734935   488.2076   2   8   0.0704   0.0668   0.2734  -0.0298   0.0849  -0.0279   0.00    1.5
2018/03/11 12:52:52.000   78.255307443   16.193734108   488.0739   2   8   0.0694   0.0658   0.2674  -0.0293   0.0829  -0.0276   0.00    1.5
2018/03/11 12:52:53.000   78.255307329   16.193733584   487.9681   2   8   0.0685   0.0648   0.2616  -0.0289   0.0811  -0.0272   0.00    1.5
2018/03/11 12:52:54.000   78.255307209   16.193733387   487.9054   2   8   0.0676   0.0639   0.2560  -0.0285   0.0793  -0.0269   0.00    1.4
2018/03/11 12:52:55.000   78.255307140   16.193733226   487.8344   2   8   0.0668   0.0630   0.2505  -0.0281   0.0775  -0.0267   0.00    1.4
2018/03/11 12:52:56.000   78.255307100   16.193732847   487.7856   2   8   0.0660   0.0621   0.2452  -0.0277   0.0758  -0.0264   0.00    1.4
2018/03/11 12:52:57.000   78.255307093   16.193732621   487.7533   2   8   0.0652   0.0613   0.2401  -0.0274   0.0742  -0.0261   0.00    1.3
2018/03/11 12:52:58.000   78.255307070   16.193732686   487.7504   2   8   0.0644   0.0605   0.2352  -0.0270   0.0726  -0.0259   0.00    1.3
2018/03/11 12:52:59.000   78.255306962   16.193732769   487.7392   2   8   0.0636   0.0597   0.2304  -0.0267   0.0711  -0.0256   0.00    1.3
2018/03/11 12:53:00.000   78.255306920   16.193732676   487.7212   2   8   0.0629   0.0589   0.2258  -0.0263   0.0696  -0.0254   0.00    1.3
2018/03/11 12:53:01.000   78.255306809   16.193732692   487.7377   2   8   0.0622   0.0582   0.2213  -0.0260   0.0681  -0.0251   0.00    1.3
2018/03/11 12:53:02.000   78.255306702   16.193732997   487.7948   2   8   0.0615   0.0574   0.2169  -0.0257   0.0667  -0.0249   0.00    1.2
2018/03/11 12:53:03.000   78.255306650   16.193732986   487.8151   2   8   0.0609   0.0567   0.2127  -0.0253   0.0654  -0.0247   0.00    1.2
2018/03/11 12:53:04.000   78.255306617   16.193733054   487.8088   2   8   0.0602   0.0561   0.2085  -0.0250   0.0641  -0.0245   0.00    1.2
2018/03/11 12:53:05.000   78.255306569   16.193733245   487.8225   2   8   0.0596   0.0554   0.2045  -0.0247   0.0628  -0.0242   0.00    1.2
2018/03/11 12:53:06.000   78.255306501   16.193733669   487.8603   2   8   0.0590   0.0548   0.2007  -0.0245   0.0615  -0.0240   0.00    1.2
2018/03/11 12:53:07.000   78.255306457   16.193733809   487.8862   2   8   0.0584   0.0542   0.1969  -0.0242   0.0603  -0.0238   0.00    1.1
2018/03/11 12:53:08.000   78.255306413   16.193733896   487.9138   2   8   0.0578   0.0536   0.1932  -0.0239   0.0591  -0.0237   0.00    1.1
2018/03/11 12:53:09.000   78.255306356   16.193734260   487.9771   2   8   0.0572   0.0530   0.1897  -0.0236   0.0580  -0.0235   0.00    1.1
2018/03/11 12:53:10.000   78.255306361   16.193734813   488.0765   2   8   0.0567   0.0524   0.1862  -0.0233   0.0569  -0.0233   0.00    1.1
2018/03/11 12:53:11.000   78.255306374   16.193735589   488.1990   2   8   0.0561   0.0518   0.1828  -0.0231   0.0558  -0.0231   0.00    1.1
2018/03/11 12:53:12.000   78.255306444   16.193736079   488.3022   2   8   0.0556   0.0513   0.1796  -0.0228   0.0547  -0.0229   0.00    1.1
2018/03/11 12:53:13.000   78.255306518   16.193737034   488.4396   2   8   0.0551   0.0508   0.1764  -0.0226   0.0537  -0.0228   0.00    1.1
2018/03/11 12:53:14.000   78.255306601   16.193737656   488.5589   2   8   0.0546   0.0502   0.1733  -0.0223   0.0527  -0.0226   0.00    1.1
2018/03/11 12:53:15.000   78.255306689   16.193738416   488.6721   2   8   0.0541   0.0497   0.1703  -0.0221   0.0517  -0.0224   0.00    1.1
2018/03/11 12:53:16.000   78.255306799   16.193739121   488.8076   2   8   0.0536   0.0492   0.1673  -0.0218   0.0508  -0.0223   0.00    1.1
2018/03/11 12:53:17.000   78.255306880   16.193740042   488.9716   2   8   0.0531   0.0488   0.1644  -0.0216   0.0498  -0.0221   0.00    1.1
2018/03/11 12:53:18.000   78.255306996   16.193740886   489.1356   2   8   0.0527   0.0483   0.1617  -0.0214   0.0489  -0.0219   0.00    1.1
2018/03/11 12:53:19.000   78.255307143   16.193741796   489.3238   2   8   0.0522   0.0478   0.1589  -0.0212   0.0481  -0.0218   0.00    1.1
2018/03/11 12:53:20.000   78.255307332   16.193742701   489.4990   2   8   0.0518   0.0474   0.1563  -0.0209   0.0472  -0.0216   0.00    1.1
2018/03/11 12:53:21.000   78.255307574   16.193743822   489.6835   2   8   0.0513   0.0469   0.1537  -0.0207   0.0464  -0.0215   0.00    1.1
2018/03/11 12:53:22.000   78.255307805   16.193744851   489.8833   2   8   0.0509   0.0465   0.1512  -0.0205   0.0455  -0.0214   0.00    1.1
2018/03/11 12:53:23.000   78.255308057   16.193745881   490.0473   2   8   0.0505   0.0461   0.1487  -0.0203   0.0447  -0.0212   0.00    1.1
2018/03/11 12:53:24.000   78.255308342   16.193746758   490.2144   2   8   0.0501   0.0457   0.1463  -0.0201   0.0440  -0.0211   0.00    1.1
2018/03/11 12:53:25.000   78.255308619   16.193747644   490.3946   2   8   0.0497   0.0453   0.1440  -0.0199   0.0432  -0.0209   0.00    1.1
2018/03/11 12:53:26.000   78.255308861   16.193748512   490.5508   2   8   0.0493   0.0449   0.1417  -0.0197   0.0425  -0.0208   0.00    1.1
2018/03/11 12:53:27.000   78.255309123   16.193749155   490.7069   2   8   0.0489   0.0445   0.1395  -0.0195   0.0417  -0.0207   0.00    1.1
2018/03/11 12:53:28.000   78.255309391   16.193750051   490.8839   2   8   0.0485   0.0441   0.1373  -0.0193   0.0410  -0.0206   0.00    1.1
2018/03/11 12:53:29.000   78.255309687   16.193750808   491.0481   2   8   0.0482   0.0437   0.1352  -0.0191   0.0404  -0.0204   0.00    1.1
2018/03/11 12:53:30.000   78.255309968   16.193751546   491.2169   2   8   0.0478   0.0434   0.1332  -0.0189   0.0397  -0.0203   0.00    1.0
2018/03/11 12:53:31.000   78.255310234   16.193752193   491.3843   2   8   0.0474   0.0430   0.1311  -0.0187   0.0390  -0.0202   0.00    1.0
2018/03/11 12:53:32.000   78.255310500   16.193752869   491.5487   2   8   0.0471   0.0426   0.1292  -0.0185   0.0384  -0.0201   0.00    1.0
2018/03/11 12:53:33.000   78.255310778   16.193753627   491.7169   2   8   0.0467   0.0423   0.1272  -0.0184   0.0378  -0.0199   0.00    1.0
2018/03/11 12:53:34.000   78.255311080   16.193754210   491.8849   2   8   0.0464   0.0420   0.1254  -0.0182   0.0371  -0.0198   0.00    1.0
2018/03/11 12:53:35.000   78.255311415   16.193754797   492.0611   2   8   0.0460   0.0416   0.1235  -0.0180   0.0365  -0.0197   0.00    1.1
2018/03/11 12:53:36.000   78.255311710   16.193755319   492.2148   2   8   0.0457   0.0413   0.1217  -0.0178   0.0360  -0.0196   0.00    1.1
2018/03/11 12:53:37.000   78.255311985   16.193755912   492.3793   2   8   0.0454   0.0410   0.1200  -0.0176   0.0354  -0.0195   0.00    1.1
2018/03/11 12:53:38.000   78.255312239   16.193756424   492.5188   2   8   0.0451   0.0407   0.1183  -0.0175   0.0348  -0.0194   0.00    1.1
2018/03/11 12:53:39.000   78.255312476   16.193756825   492.6326   2   8   0.0448   0.0403   0.1166  -0.0173   0.0343  -0.0193   0.00    1.1
2018/03/11 12:53:40.000   78.255312715   16.193757165   492.7300   2   8   0.0444   0.0400   0.1149  -0.0171   0.0337  -0.0192   0.00    1.1
2018/03/11 12:53:41.000   78.255312900   16.193757183   492.7970   2   8   0.0441   0.0397   0.1133  -0.0170   0.0332  -0.0190   0.00    1.1
2018/03/11 12:53:42.000   78.255313085   16.193757200   492.8497   2   8   0.0438   0.0394   0.1118  -0.0168   0.0327  -0.0189   0.00    1.0
2018/03/11 12:53:43.000   78.255313266   16.193757132   492.8796   2   8   0.0435   0.0391   0.1102  -0.0166   0.0322  -0.0188   0.00    1.0
2018/03/11 12:53:44.000   78.255313394   16.193757048   492.8852   2   8   0.0432   0.0389   0.1087  -0.0165   0.0317  -0.0187   0.00    1.0
2018/03/11 12:53:45.000   78.255313508   16.193756921   492.8624   2   8   0.0430   0.0386   0.1073  -0.0163   0.0312  -0.0186   0.00    1.0
2018/03/11 12:53:46.000   78.255313565   16.193756759   492.8315   2   8   0.0427   0.0383   0.1058  -0.0162   0.0307  -0.0185   0.00    1.0
2018/03/11 12:53:47.000   78.255313616   16.193756425   492.7652   2   8   0.0424   0.0380   0.1044  -0.0160   0.0303  -0.0184   0.00    1.0
2018/03/11 12:53:48.000   78.255313646   16.193756061   492.6820   2   8   0.0421   0.0378   0.1030  -0.0159   0.0298  -0.0183   0.00    1.0
2018/03/11 12:53:49.000   78.255313614   16.193755448   492.5889   2   8   0.0418   0.0375   0.1017  -0.0157   0.0294  -0.0182   0.00    1.0
2018/03/11 12:53:50.000   78.255313591   16.193754801   492.4760   2   8   0.0416   0.0372   0.1004  -0.0156   0.0289  -0.0182   0.00    1.1
2018/03/11 12:53:51.000   78.255313513   16.193754188   492.3601   2   8   0.0413   0.0370   0.0991  -0.0154   0.0285  -0.0181   0.00    1.1
2018/03/11 12:53:52.000   78.255313436   16.193753281   492.2257   2   8   0.0410   0.0367   0.0978  -0.0153   0.0281  -0.0180   0.00    1.1
2018/03/11 12:53:53.000   78.255313311   16.193752475   492.0912   2   8   0.0408   0.0365   0.0966  -0.0151   0.0277  -0.0179   0.00    1.1
2018/03/11 12:53:54.000   78.255313161   16.193751743   491.9417   2   8   0.0405   0.0362   0.0954  -0.0150   0.0273  -0.0178   0.00    1.1
2018/03/11 12:53:55.000   78.255313024   16.193751018   491.7868   2   8   0.0403   0.0360   0.0942  -0.0148   0.0269  -0.0177   0.00    1.1
2018/03/11 12:53:56.000   78.255312853   16.193750267   491.6299   2   8   0.0400   0.0357   0.0930  -0.0147   0.0265  -0.0176   0.00    1.1
2018/03/11 12:53:57.000   78.255312631   16.193749516   491.4708   2   8   0.0398   0.0355   0.0918  -0.0145   0.0261  -0.0175   0.00    1.2
2018/03/11 12:53:58.000   78.255312418   16.193748587   491.3060   2   8   0.0395   0.0353   0.0907  -0.0144   0.0258  -0.0174   0.00    1.1
2018/03/11 12:53:59.000   78.255312180   16.193747703   491.1394   2   8   0.0393   0.0350   0.0896  -0.0143   0.0254  -0.0173   0.00    1.1
2018/03/11 12:54:00.000   78.255311909   16.193746949   490.9791   2   8   0.0390   0.0348   0.0885  -0.0141   0.0250  -0.0173   0.00    1.1
2018/03/11 12:54:01.000   78.255311645   16.193746132   490.8176   2   8   0.0388   0.0346   0.0875  -0.0140   0.0247  -0.0172   0.00    1.1
2018/03/11 12:54:02.000   78.255311387   16.193745248   490.6605   2   8   0.0386   0.0344   0.0864  -0.0139   0.0243  -0.0171   0.00    1.1
2018/03/11 12:54:03.000   78.255311112   16.193744351   490.5031   2   8   0.0383   0.0342   0.0854  -0.0137   0.0240  -0.0170   0.00    1.1
2018/03/11 12:54:04.000   78.255310818   16.193743425   490.3399   2   8   0.0381   0.0339   0.0844  -0.0136   0.0237  -0.0169   0.00    1.1
2018/03/11 12:54:05.000   78.255310512   16.193742445   490.1789   2   8   0.0379   0.0337   0.0834  -0.0135   0.0233  -0.0168   0.00    1.0
2018/03/11 12:54:06.000   78.255310241   16.193741493   490.0117   2   8   0.0377   0.0335   0.0825  -0.0133   0.0230  -0.0168   0.00    1.0
2018/03/11 12:54:07.000   78.255309937   16.193740473   489.8427   2   8   0.0375   0.0333   0.0815  -0.0132   0.0227  -0.0167   0.00    1.0
2018/03/11 12:54:08.000   78.255309639   16.193739437   489.6841   2   8   0.0372   0.0331   0.0806  -0.0131   0.0224  -0.0166   0.00    1.0
2018/03/11 12:54:09.000   78.255309312   16.193738388   489.5404   2   8   0.0370   0.0329   0.0797  -0.0130   0.0221  -0.0165   0.00    1.1
2018/03/11 12:54:10.000   78.255309029   16.193737319   489.3978   2   8   0.0368   0.0327   0.0788  -0.0128   0.0218  -0.0165   0.00    1.1
2018/03/11 12:54:11.000   78.255308747   16.193736180   489.2605   2   8   0.0366   0.0325   0.0779  -0.0127   0.0215  -0.0164   0.00    1.1
2018/03/11 12:54:12.000   78.255308467   16.193735111   489.1264   2   8   0.0364   0.0323   0.0771  -0.0126   0.0212  -0.0163   0.00    1.1
2018/03/11 12:54:13.000   78.255308166   16.193734303   489.0082   2   8   0.0362   0.0321   0.0762  -0.0125   0.0209  -0.0162   0.00    1.0
2018/03/11 12:54:14.000   78.255307898   16.193733511   488.8970   2   8   0.0360   0.0319   0.0754  -0.0123   0.0207  -0.0162   0.00    1.0
2018/03/11 12:54:15.000   78.255307607   16.193732719   488.8000   2   8   0.0358   0.0317   0.0746  -0.0122   0.0204  -0.0161   0.00    1.0
2018/03/11 12:54:16.000   78.255307320   16.193731917   488.7009   2   8   0.0356   0.0316   0.0738  -0.0121   0.0201  -0.0160   0.00    1.0
2018/03/11 12:54:17.000   78.255307030   16.193731145   488.6079   2   8   0.0354   0.0314   0.0730  -0.0120   0.0198  -0.0159   0.00    1.0
2018/03/11 12:54:18.000   78.255306760   16.193730346   488.5269   2   8   0.0352   0.0312   0.0722  -0.0119   0.0196  -0.0159   0.00    1.0
2018/03/11 12:54:19.000   78.255306509   16.193729612   488.4518   2   8   0.0350   0.0310   0.0714  -0.0117   0.0193  -0.0158   0.00    1.1
2018/03/11 12:54:20.000   78.255306245   16.193728892   488.3819   2   8   0.0348   0.0308   0.0707  -0.0116   0.0191  -0.0157   0.00    1.1
2018/03/11 12:54:21.000   78.255305998   16.193728246   488.3112   2   8   0.0346   0.0307   0.0700  -0.0115   0.0188  -0.0157   0.00    1.1
2018/03/11 12:54:22.000   78.255305767   16.193727571   488.2499   2   8   0.0344   0.0305   0.0692  -0.0114   0.0186  -0.0156   0.00    1.1
2018/03/11 12:54:23.000   78.255305510   16.193726899   488.1954   2   8   0.0343   0.0303   0.0685  -0.0113   0.0184  -0.0155   0.00    1.1
2018/03/11 12:54:24.000   78.255305266   16.193726159   488.1331   2   8   0.0341   0.0301   0.0678  -0.0112   0.0181  -0.0155   0.00    1.1
2018/03/11 12:54:25.000   78.255305003   16.193725326   488.0766   2   8   0.0339   0.0300   0.0671  -0.0111   0.0179  -0.0154   0.00    1.1
2018/03/11 12:54:26.000   78.255304773   16.193724594   488.0261   2   8   0.0337   0.0298   0.0665  -0.0109   0.0177  -0.0153   0.00    1.1
2018/03/11 12:54:27.000   78.255304549   16.193723850   487.9820   2   8   0.0335   0.0296   0.0658  -0.0108   0.0174  -0.0153   0.00    1.1
2018/03/11 12:54:28.000   78.255304318   16.193723060   487.9332   2   8   0.0334   0.0295   0.0651  -0.0107   0.0172  -0.0152   0.00    1.1
2018/03/11 12:54:29.000   78.255304083   16.193722333   487.8907   2   8   0.0332   0.0293   0.0645  -0.0106   0.0170  -0.0151   0.00    1.1
2018/03/11 12:54:30.000   78.255303863   16.193721743   487.8581   2   8   0.0330   0.0292   0.0639  -0.0105   0.0168  -0.0151   0.00    1.1
2018/03/11 12:54:31.000   78.255303681   16.193721102   487.8220   2   8   0.0328   0.0290   0.0632  -0.0104   0.0166  -0.0150   0.00    1.1
2018/03/11 12:54:32.000   78.255303476   16.193720437   487.7930   2   8   0.0327   0.0289   0.0626  -0.0103   0.0164  -0.0149   0.00    1.1
2018/03/11 12:54:33.000   78.255303266   16.193719838   487.7666   2   8   0.0325   0.0287   0.0620  -0.0102   0.0162  -0.0149   0.00    1.1
2018/03/11 12:54:34.000   78.255303058   16.193719332   487.7509   2   8   0.0323   0.0285   0.0614  -0.0101   0.0160  -0.0148   0.00    1.1
2018/03/11 12:54:35.000   78.255302859   16.193718808   487.7417   2   8   0.0322   0.0284   0.0609  -0.0100   0.0158  -0.0148   0.00    1.1
2018/03/11 12:54:36.000   78.255302678   16.193718343   487.7311   2   8   0.0320   0.0282   0.0603  -0.0099   0.0156  -0.0147   0.00    1.0
2018/03/11 12:54:37.000   78.255302506   16.193717776   487.7225   2   8   0.0319   0.0281   0.0597  -0.0098   0.0154  -0.0146   0.00    1.0
2018/03/11 12:54:38.000   78.255302322   16.193717452   487.7167   2   8   0.0317   0.0279   0.0592  -0.0097   0.0152  -0.0146   0.00    1.0
2018/03/11 12:54:39.000   78.255302155   16.193717013   487.7198   2   8   0.0315   0.0278   0.0586  -0.0096   0.0150  -0.0145   0.00    1.0
2018/03/11 12:54:40.000   78.255301989   16.193716582   487.7234   2   8   0.0314   0.0277   0.0581  -0.0095   0.0148  -0.0145   0.00    1.1
2018/03/11 12:54:41.000   78.255301821   16.193716121   487.7264   2   8   0.0312   0.0275   0.0575  -0.0094   0.0146  -0.0144   0.00    1.1
2018/03/11 12:54:42.000   78.255301669   16.193715745   487.7292   2   8   0.0311   0.0274   0.0570  -0.0093   0.0144  -0.0143   0.00    1.1
2018/03/11 12:54:43.000   78.255301531   16.193715282   487.7318   2   8   0.0309   0.0272   0.0565  -0.0092   0.0143  -0.0143   0.00    1.1
2018/03/11 12:54:44.000   78.255301391   16.193714840   487.7342   2   8   0.0308   0.0271   0.0560  -0.0091   0.0141  -0.0142   0.00    1.2
2018/03/11 12:54:45.000   78.255301246   16.193714559   487.7398   2   8   0.0306   0.0270   0.0555  -0.0090   0.0139  -0.0142   0.00    1.2
2018/03/11 12:54:46.000   78.255301096   16.193714292   487.7448   2   8   0.0305   0.0268   0.0550  -0.0089   0.0138  -0.0141   0.00    1.2
2018/03/11 12:54:47.000   78.255300955   16.193713982   487.7499   2   8   0.0303   0.0267   0.0545  -0.0088   0.0136  -0.0141   0.00    1.2
2018/03/11 12:54:48.000   78.255300824   16.193713649   487.7503   2   8   0.0302   0.0265   0.0540  -0.0087   0.0134  -0.0140   0.00    1.2
2018/03/11 12:54:49.000   78.255300682   16.193713347   487.7455   2   8   0.0300   0.0264   0.0536  -0.0086   0.0133  -0.0139   0.00    1.3
2018/03/11 12:54:50.000   78.255300547   16.193713123   487.7443   2   8   0.0299   0.0263   0.0531  -0.0085   0.0131  -0.0139   0.00    1.3
2018/03/11 12:54:51.000   78.255300400   16.193712880   487.7429   2   8   0.0297   0.0262   0.0526  -0.0084   0.0129  -0.0138   0.00    1.3
2018/03/11 12:54:52.000   78.255300254   16.193712613   487.7366   2   8   0.0296   0.0260   0.0522  -0.0083   0.0128  -0.0138   0.00    1.3
2018/03/11 12:54:53.000   78.255300102   16.193712353   487.7292   2   8   0.0295   0.0259   0.0517  -0.0082   0.0126  -0.0137   0.00    1.3
2018/03/11 12:54:54.000   78.255299944   16.193712127   487.7261   2   8   0.0293   0.0258   0.0513  -0.0081   0.0125  -0.0137   0.00    1.2
2018/03/11 12:54:55.000   78.255299793   16.193711861   487.7239   2   8   0.0292   0.0256   0.0509  -0.0080   0.0123  -0.0136   0.00    1.2
2018/03/11 12:54:56.000   78.255299636   16.193711581   487.7139   2   8   0.0290   0.0255   0.0504  -0.0079   0.0122  -0.0136   0.00    1.2
2018/03/11 12:54:57.000   78.255299468   16.193711377   487.7060   2   8   0.0289   0.0254   0.0500  -0.0078   0.0120  -0.0135   0.00    1.2
2018/03/11 12:54:58.000   78.255299315   16.193711226   487.6999   2   8   0.0288   0.0253   0.0496  -0.0077   0.0119  -0.0135   0.00    1.2
2018/03/11 12:54:59.000   78.255299181   16.193711041   487.6953   2   8   0.0286   0.0252   0.0492  -0.0076   0.0117  -0.0134   0.00    1.2
2018/03/11 12:55:00.000   78.255299055   16.193710856   487.6882   2   8   0.0285   0.0250   0.0488  -0.0075   0.0116  -0.0134   0.00    1.1
2018/03/11 12:55:01.000   78.255298915   16.193710712   487.6856   2   8   0.0284   0.0249   0.0484  -0.0074   0.0115  -0.0133   0.00    1.1
2018/03/11 12:55:02.000   78.255298800   16.193710577   487.6858   2   8   0.0282   0.0248   0.0480  -0.0073   0.0113  -0.0133   0.00    1.1
2018/03/11 12:55:03.000   78.255298704   16.193710457   487.6838   2   8   0.0281   0.0247   0.0476  -0.0073   0.0112  -0.0132   0.00    1.1
2018/03/11 12:55:04.000   78.255298597   16.193710337   487.6807   2   8   0.0280   0.0246   0.0472  -0.0072   0.0111  -0.0132   0.00    1.1
2018/03/11 12:55:05.000   78.255298481   16.193710212   487.6815   2   8   0.0279   0.0244   0.0468  -0.0071   0.0109  -0.0131   0.00    1.1
2018/03/11 12:55:06.000   78.255298363   16.193710148   487.6861   2   8   0.0277   0.0243   0.0465  -0.0070   0.0108  -0.0131   0.00    1.1
2018/03/11 12:55:07.000   78.255298260   16.193709958   487.6890   2   8   0.0276   0.0242   0.0461  -0.0069   0.0107  -0.0130   0.00    1.1
2018/03/11 12:55:08.000   78.255298156   16.193709848   487.6862   2   8   0.0275   0.0241   0.0457  -0.0068   0.0105  -0.0130   0.00    1.0
2018/03/11 12:55:09.000   78.255298049   16.193709692   487.6866   2   8   0.0274   0.0240   0.0454  -0.0067   0.0104  -0.0129   0.00    1.0
2018/03/11 12:55:10.000   78.255297960   16.193709591   487.6874   2   8   0.0272   0.0239   0.0450  -0.0066   0.0103  -0.0129   0.00    1.0
2018/03/11 12:55:11.000   78.255297865   16.193709488   487.6870   2   8   0.0271   0.0238   0.0447  -0.0065   0.0102  -0.0128   0.00    1.0
2018/03/11 12:55:12.000   78.255297757   16.193709373   487.6846   2   8   0.0270   0.0237   0.0443  -0.0065   0.0100  -0.0128   0.00    1.0
2018/03/11 12:55:13.000   78.255297651   16.193709189   487.6830   2   8   0.0269   0.0236   0.0440  -0.0064   0.0099  -0.0127   0.00    1.0
2018/03/11 12:55:14.000   78.255297546   16.193709004   487.6828   2   8   0.0267   0.0234   0.0437  -0.0063   0.0098  -0.0127   0.00    1.0
2018/03/11 12:55:15.000   78.255297432   16.193708875   487.6844   2   8   0.0266   0.0233   0.0433  -0.0062   0.0097  -0.0126   0.00    1.0
2018/03/11 12:55:16.000   78.255297336   16.193708706   487.6851   2   8   0.0265   0.0232   0.0430  -0.0061   0.0096  -0.0126   0.00    1.1
2018/03/11 12:55:17.000   78.255297243   16.193708464   487.6876   2   8   0.0264   0.0231   0.0427  -0.0060   0.0095  -0.0126   0.00    1.1
2018/03/11 12:55:18.000   78.255297155   16.193708307   487.6944   2   8   0.0263   0.0230   0.0424  -0.0059   0.0093  -0.0125   0.00    1.1
2018/03/11 12:55:19.000   78.255297062   16.193708132   487.6997   2   8   0.0262   0.0229   0.0421  -0.0058   0.0092  -0.0125   0.00    1.1
2018/03/11 12:55:20.000   78.255296974   16.193707938   487.7053   2   8   0.0261   0.0228   0.0417  -0.0058   0.0091  -0.0124   0.00    1.1
2018/03/11 12:55:21.000   78.255296898   16.193707697   487.7067   2   8   0.0259   0.0227   0.0414  -0.0057   0.0090  -0.0124   0.00    1.1
2018/03/11 12:55:22.000   78.255296839   16.193707483   487.7066   2   8   0.0258   0.0226   0.0411  -0.0056   0.0089  -0.0123   0.00    1.1
2018/03/11 12:55:23.000   78.255296785   16.193707321   487.7091   2   8   0.0257   0.0225   0.0408  -0.0055   0.0088  -0.0123   0.00    1.1
2018/03/11 12:55:24.000   78.255296721   16.193707125   487.7131   2   8   0.0256   0.0224   0.0405  -0.0054   0.0087  -0.0122   0.00    1.2
2018/03/11 12:55:25.000   78.255296667   16.193706976   487.7201   2   8   0.0255   0.0223   0.0403  -0.0053   0.0086  -0.0122   0.00    1.2
2018/03/11 12:55:26.000   78.255296616   16.193706856   487.7316   2   8   0.0254   0.0222   0.0400  -0.0052   0.0085  -0.0122   0.00    1.2
2018/03/11 12:55:27.000   78.255296570   16.193706758   487.7434   2   8   0.0253   0.0221   0.0397  -0.0052   0.0084  -0.0121   0.00    1.2
2018/03/11 12:55:28.000   78.255296543   16.193706713   487.7536   2   8   0.0252   0.0220   0.0394  -0.0051   0.0083  -0.0121   0.00    1.2
2018/03/11 12:55:29.000   78.255296508   16.193706646   487.7664   2   8   0.0251   0.0219   0.0391  -0.0050   0.0082  -0.0120   0.00    1.2
2018/03/11 12:55:30.000   78.255296488   16.193706686   487.7827   2   8   0.0250   0.0218   0.0388  -0.0049   0.0081  -0.0120   0.00    1.2
2018/03/11 12:55:31.000   78.255296456   16.193706698   487.7975   2   8   0.0249   0.0217   0.0386  -0.0048   0.0080  -0.0119   0.00    1.2
2018/03/11 12:55:32.000   78.255296408   16.193706766   487.8119   2   8   0.0248   0.0216   0.0383  -0.0047   0.0079  -0.0119   0.00    1.2
2018/03/11 12:55:33.000   78.255296366   16.193706723   487.8268   2   8   0.0247   0.0216   0.0380  -0.0046   0.0078  -0.0119   0.00    1.2
2018/03/11 12:55:34.000   78.255296331   16.193706680   487.8435   2   8   0.0245   0.0215   0.0378  -0.0046   0.0077  -0.0118   0.00    1.2
2018/03/11 12:55:35.000   78.255296307   16.193706654   487.8621   2   8   0.0244   0.0214   0.0375  -0.0045   0.0076  -0.0118   0.00    1.2
2018/03/11 12:55:36.000   78.255296296   16.193706664   487.8818   2   8   0.0243   0.0213   0.0373  -0.0044   0.0075  -0.0117   0.00    1.3
2018/03/11 12:55:37.000   78.255296280   16.193706765   487.9029   2   8   0.0242   0.0212   0.0370  -0.0043   0.0074  -0.0117   0.00    1.3
2018/03/11 12:55:38.000   78.255296274   16.193706870   487.9246   2   8   0.0241   0.0211   0.0368  -0.0042   0.0073  -0.0117   0.00    1.3
2018/03/11 12:55:39.000   78.255296256   16.193707017   487.9455   2   8   0.0240   0.0210   0.0365  -0.0041   0.0072  -0.0116   0.00    1.3
2018/03/11 12:55:40.000   78.255296226   16.193707115   487.9638   2   8   0.0239   0.0209   0.0363  -0.0040   0.0071  -0.0116   0.00    1.3
2018/03/11 12:55:41.000   78.255296201   16.193707215   487.9821   2   8   0.0238   0.0208   0.0360  -0.0040   0.0071  -0.0115   0.00    1.3
2018/03/11 12:55:42.000   78.255296177   16.193707326   488.0037   2   8   0.0238   0.0208   0.0358  -0.0039   0.0070  -0.0115   0.00    1.3
2018/03/11 12:55:43.000   78.255296152   16.193707429   488.0236   2   8   0.0237   0.0207   0.0356  -0.0038   0.0069  -0.0115   0.00    1.3
2018/03/11 12:55:44.000   78.255296133   16.193707571   488.0408   2   8   0.0236   0.0206   0.0353  -0.0037   0.0068  -0.0114   0.00    1.3
2018/03/11 12:55:45.000   78.255296115   16.193707755   488.0607   2   8   0.0235   0.0205   0.0351  -0.0036   0.0067  -0.0114   0.00    1.3
2018/03/11 12:55:46.000   78.255296094   16.193707967   488.0815   2   8   0.0234   0.0204   0.0349  -0.0035   0.0066  -0.0114   0.00    1.3
2018/03/11 12:55:47.000   78.255296080   16.193708109   488.1010   2   8   0.0233   0.0203   0.0346  -0.0034   0.0065  -0.0113   0.00    1.3
2018/03/11 12:55:48.000   78.255296063   16.193708292   488.1176   2   8   0.0232   0.0202   0.0344  -0.0033   0.0065  -0.0113   0.00    1.3
2018/03/11 12:55:49.000   78.255296048   16.193708465   488.1317   2   8   0.0231   0.0202   0.0342  -0.0032   0.0064  -0.0112   0.00    1.3
2018/03/11 12:55:50.000   78.255296022   16.193708700   488.1484   2   8   0.0230   0.0201   0.0340  -0.0031   0.0063  -0.0112   0.00    1.3
2018/03/11 12:55:51.000   78.255295995   16.193708907   488.1646   2   8   0.0229   0.0200   0.0338  -0.0030   0.0062  -0.0112   0.00    1.3
2018/03/11 12:55:52.000   78.255295960   16.193709183   488.1817   2   8   0.0228   0.0199   0.0335  -0.0029   0.0061  -0.0111   0.00    1.3
2018/03/11 12:55:53.000   78.255295925   16.193709389   488.2002   2   8   0.0227   0.0198   0.0333  -0.0028   0.0060  -0.0111   0.00    1.3
2018/03/11 12:55:54.000   78.255295887   16.193709642   488.2153   2   8   0.0226   0.0198   0.0331  -0.0027   0.0060  -0.0111   0.00    1.3
2018/03/11 12:55:55.000   78.255295857   16.193709870   488.2314   2   8   0.0225   0.0197   0.0329  -0.0026   0.0059  -0.0110   0.00    1.3
2018/03/11 12:55:56.000   78.255295835   16.193710098   488.2463   2   8   0.0225   0.0196   0.0327  -0.0025   0.0058  -0.0110   0.00    1.3
2018/03/11 12:55:57.000   78.255295812   16.193710340   488.2613   2   8   0.0224   0.0195   0.0325  -0.0024   0.0057  -0.0110   0.00    1.3
2018/03/11 12:55:58.000   78.255295797   16.193710575   488.2748   2   8   0.0223   0.0194   0.0323  -0.0023   0.0057  -0.0109   0.00    1.3
2018/03/11 12:55:59.000   78.255295780   16.193710835   488.2889   2   8   0.0222   0.0194   0.0321  -0.0022   0.0056  -0.0109   0.00    1.3
2018/03/11 12:56:00.000   78.255295766   16.193711044   488.3009   2   8   0.0221   0.0193   0.0319  -0.0021   0.0055  -0.0108   0.00    1.3
2018/03/11 12:56:01.000   78.255295756   16.193711336   488.3140   2   8   0.0220   0.0192   0.0317  -0.0020   0.0054  -0.0108   0.00    1.3
2018/03/11 12:56:02.000   78.255295740   16.193711550   488.3287   2   8   0.0219   0.0191   0.0315  -0.0018   0.0054  -0.0108   0.00    1.3
2018/03/11 12:56:03.000   78.255295725   16.193711832   488.3461   2   8   0.0219   0.0191   0.0313  -0.0017   0.0053  -0.0107   0.00    1.3
2018/03/11 12:56:04.000   78.255295715   16.193712054   488.3606   2   8   0.0218   0.0190   0.0312  -0.0016   0.0052  -0.0107   0.00    1.3
2018/03/11 12:56:05.000   78.255295707   16.193712237   488.3757   2   8   0.0217   0.0189   0.0310  -0.0014   0.0051  -0.0107   0.00    1.3
2018/03/11 12:56:06.000   78.255295719   16.193712428   488.3918   2   8   0.0216   0.0188   0.0308  -0.0012   0.0051  -0.0106   0.00    1.3
2018/03/11 12:56:07.000   78.255295736   16.193712600   488.4094   2   8   0.0215   0.0188   0.0306  -0.0010   0.0050  -0.0106   0.00    1.3
2018/03/11 12:56:08.000   78.255295762   16.193712793   488.4262   2   8   0.0214   0.0187   0.0304  -0.0008   0.0049  -0.0106   0.00    1.3
2018/03/11 12:56:09.000   78.255295795   16.193712902   488.4429   2   8   0.0214   0.0186   0.0302  -0.0004   0.0049  -0.0105   0.00    1.3
2018/03/11 12:56:10.000   78.255295826   16.193713080   488.4616   2   8   0.0213   0.0185   0.0301   0.0005   0.0048  -0.0105   0.00    1.3
2018/03/11 12:56:11.000   78.255295865   16.193713227   488.4820   2   8   0.0212   0.0185   0.0299   0.0008   0.0047  -0.0105   0.00    1.3
2018/03/11 12:56:12.000   78.255295907   16.193713413   488.4998   2   8   0.0211   0.0184   0.0297   0.0010   0.0046  -0.0104   0.00    1.3
2018/03/11 12:56:13.000   78.255295959   16.193713556   488.5179   2   8   0.0210   0.0183   0.0295   0.0012   0.0046  -0.0104   0.00    1.3
2018/03/11 12:56:14.000   78.255296017   16.193713706   488.5386   2   8   0.0210   0.0183   0.0294   0.0014   0.0045  -0.0104   0.00    1.2
2018/03/11 12:56:15.000   78.255296072   16.193713857   488.5581   2   8   0.0209   0.0182   0.0292   0.0015   0.0044  -0.0103   0.00    1.2
2018/03/11 12:56:16.000   78.255296129   16.193714048   488.5813   2   8   0.0208   0.0181   0.0290   0.0016   0.0044  -0.0103   0.00    1.2
2018/03/11 12:56:17.000   78.255296192   16.193714266   488.6031   2   8   0.0207   0.0181   0.0289   0.0017   0.0043  -0.0103   0.00    1.2
2018/03/11 12:56:18.000   78.255296247   16.193714481   488.6261   2   8   0.0207   0.0180   0.0287   0.0018   0.0042  -0.0102   0.00    1.2
2018/03/11 12:56:19.000   78.255296303   16.193714656   488.6495   2   8   0.0206   0.0179   0.0286   0.0019   0.0042  -0.0102   0.00    1.2
2018/03/11 12:56:20.000   78.255296372   16.193714827   488.6718   2   8   0.0205   0.0179   0.0284   0.0020   0.0041  -0.0102   0.00    1.2
2018/03/11 12:56:21.000   78.255296442   16.193715024   488.6930   2   8   0.0204   0.0178   0.0282   0.0021   0.0040  -0.0102   0.00    1.2
2018/03/11 12:56:22.000   78.255296500   16.193715202   488.7180   2   8   0.0204   0.0177   0.0281   0.0022   0.0040  -0.0101   0.00    1.2
2018/03/11 12:56:23.000   78.255296555   16.193715374   488.7427   2   8   0.0203   0.0177   0.0279   0.0023   0.0039  -0.0101   0.00    1.2
2018/03/11 12:56:24.000   78.255296623   16.193715489   488.7668   2   8   0.0202   0.0176   0.0278   0.0023   0.0038  -0.0101   0.00    1.1
2018/03/11 12:56:25.000   78.255296687   16.193715644   488.7926   2   8   0.0201   0.0175   0.0276   0.0024   0.0038  -0.0100   0.00    1.1
2018/03/11 12:56:26.000   78.255296775   16.193715793   488.8164   2   9   0.0201   0.0175   0.0275   0.0025   0.0037  -0.0100   0.00    1.0
2018/03/11 12:56:27.000   78.255296870   16.193715956   488.8420   2   9   0.0200   0.0174   0.0273   0.0025   0.0036  -0.0100   0.00    1.0
2018/03/11 12:56:28.000   78.255296960   16.193716159   488.8677   2   9   0.0199   0.0173   0.0272   0.0026   0.0036  -0.0099   0.00    1.0
2018/03/11 12:56:29.000   78.255297050   16.193716401   488.8910   2   9   0.0198   0.0173   0.0270   0.0027   0.0035  -0.0099   0.00    1.0
2018/03/11 12:56:30.000   78.255297140   16.193716653   488.9172   2   9   0.0198   0.0172   0.0269   0.0027   0.0034  -0.0099   0.00    1.0
2018/03/11 12:56:31.000   78.255297223   16.193716974   488.9447   2   9   0.0197   0.0171   0.0267   0.0028   0.0034  -0.0098   0.00    1.0
2018/03/11 12:56:32.000   78.255297313   16.193717257   488.9724   2   9   0.0196   0.0171   0.0266   0.0028   0.0033  -0.0098   0.00    1.0
2018/03/11 12:56:33.000   78.255297405   16.193717543   488.9981   2   9   0.0196   0.0170   0.0264   0.0029   0.0032  -0.0098   0.00    1.0
2018/03/11 12:56:34.000   78.255297502   16.193717871   489.0259   2   9   0.0195   0.0169   0.0263   0.0029   0.0031  -0.0097   0.00    1.1
2018/03/11 12:56:35.000   78.255297609   16.193718235   489.0557   2   9   0.0194   0.0169   0.0262   0.0030   0.0031  -0.0097   0.00    1.1
2018/03/11 12:56:36.000   78.255297706   16.193718561   489.0847   2   9   0.0193   0.0168   0.0260   0.0030   0.0030  -0.0097   0.00    1.0
2018/03/11 12:56:37.000   78.255297811   16.193718920   489.1129   2   9   0.0193   0.0168   0.0259   0.0031   0.0029  -0.0097   0.00    1.0
2018/03/11 12:56:38.000   78.255297925   16.193719289   489.1422   2   9   0.0192   0.0167   0.0257   0.0031   0.0029  -0.0096   0.00    1.0
2018/03/11 12:56:39.000   78.255298026   16.193719671   489.1710   2   9   0.0191   0.0166   0.0256   0.0032   0.0028  -0.0096   0.00    1.1
2018/03/11 12:56:40.000   78.255298123   16.193720059   489.1942   2   9   0.0191   0.0166   0.0255   0.0032   0.0027  -0.0096   0.00    1.1
2018/03/11 12:56:41.000   78.255298212   16.193720431   489.2196   2   9   0.0190   0.0165   0.0253   0.0032   0.0027  -0.0095   0.00    1.1
2018/03/11 12:56:42.000   78.255298306   16.193720811   489.2461   2   9   0.0189   0.0165   0.0252   0.0033   0.0026  -0.0095   0.00    1.1
2018/03/11 12:56:43.000   78.255298388   16.193721178   489.2714   2   9   0.0189   0.0164   0.0251   0.0033   0.0025  -0.0095   0.00    1.1
2018/03/11 12:56:44.000   78.255298459   16.193721543   489.2961   2   9   0.0188   0.0163   0.0250   0.0034   0.0025  -0.0094   0.00    1.1
2018/03/11 12:56:45.000   78.255298529   16.193721927   489.3215   2   9   0.0187   0.0163   0.0248   0.0034   0.0024  -0.0094   0.00    1.1
2018/03/11 12:56:46.000   78.255298604   16.193722317   489.3475   2   9   0.0187   0.0162   0.0247   0.0034   0.0023  -0.0094   0.00    1.2
2018/03/11 12:56:47.000   78.255298687   16.193722698   489.3728   2   9   0.0186   0.0162   0.0246   0.0035   0.0022  -0.0094   0.00    1.2
2018/03/11 12:56:48.000   78.255298755   16.193723102   489.3958   2   9   0.0185   0.0161   0.0245   0.0035   0.0022  -0.0093   0.00    1.2
2018/03/11 12:56:49.000   78.255298825   16.193723503   489.4171   2   9   0.0185   0.0161   0.0243   0.0035   0.0021  -0.0093   0.00    1.2
2018/03/11 12:56:50.000   78.255298896   16.193723889   489.4392   2   9   0.0184   0.0160   0.0242   0.0036   0.0020  -0.0093   0.00    1.2
2018/03/11 12:56:51.000   78.255298958   16.193724223   489.4610   2   9   0.0183   0.0160   0.0241   0.0036   0.0019  -0.0093   0.00    1.3
2018/03/11 12:56:52.000   78.255299016   16.193724563   489.4829   2   9   0.0183   0.0159   0.0240   0.0036   0.0019  -0.0092   0.00    1.3
2018/03/11 12:56:53.000   78.255299072   16.193724879   489.5039   2   9   0.0182   0.0158   0.0239   0.0036   0.0018  -0.0092   0.00    1.3
2018/03/11 12:56:54.000   78.255299137   16.193725248   489.5258   2   9   0.0182   0.0158   0.0237   0.0037   0.0017  -0.0092   0.00    1.3
2018/03/11 12:56:55.000   78.255299203   16.193725536   489.5475   2   9   0.0181   0.0157   0.0236   0.0037   0.0016  -0.0091   0.00    1.3
2018/03/11 12:56:56.000   78.255299265   16.193725846   489.5694   2   9   0.0180   0.0157   0.0235   0.0037   0.0015  -0.0091   0.00    1.4
2018/03/11 12:56:57.000   78.255299329   16.193726160   489.5910   2   9   0.0180   0.0156   0.0234   0.0037   0.0014  -0.0091   0.00    1.4
2018/03/11 12:56:58.000   78.255299390   16.193726514   489.6137   2   9   0.0179   0.0156   0.0233   0.0038   0.0014  -0.0091   0.00    1.4
2018/03/11 12:56:59.000   78.255299451   16.193726846   489.6339   2   9   0.0179   0.0155   0.0232   0.0038   0.0013  -0.0090   0.00    1.4
2018/03/11 12:57:00.000   78.255299506   16.193727191   489.6540   2   9   0.0178   0.0155   0.0231   0.0038   0.0011  -0.0090   0.00    1.4
2018/03/11 12:57:01.000   78.255299554   16.193727542   489.6746   2   9   0.0177   0.0154   0.0229   0.0038   0.0010  -0.0090   0.00    1.5
2018/03/11 12:57:02.000   78.255299596   16.193727884   489.6957   2   9   0.0177   0.0154   0.0228   0.0038   0.0009  -0.0090   0.00    1.5
2018/03/11 12:57:03.000   78.255299630   16.193728221   489.7161   2   9   0.0176   0.0153   0.0227   0.0039   0.0008  -0.0089   0.00    1.5
2018/03/11 12:57:04.000   78.255299669   16.193728560   489.7356   2   9   0.0176   0.0153   0.0226   0.0039   0.0006  -0.0089   0.00    1.5
2018/03/11 12:57:05.000   78.255299701   16.193728925   489.7561   2   9   0.0175   0.0152   0.0225   0.0039   0.0004  -0.0089   0.00    1.6
2018/03/11 12:57:06.000   78.255299731   16.193729303   489.7747   2   9   0.0174   0.0152   0.0224   0.0039  -0.0003  -0.0089   0.00    1.6
2018/03/11 12:57:07.000   78.255299766   16.193729640   489.7930   2   9   0.0174   0.0151   0.0223   0.0039  -0.0005  -0.0088   0.00    1.6
2018/03/11 12:57:08.000   78.255299789   16.193729960   489.8105   2   9   0.0173   0.0150   0.0222   0.0040  -0.0007  -0.0088   0.00    1.6
2018/03/11 12:57:09.000   78.255299808   16.193730310   489.8295   2   9   0.0173   0.0150   0.0221   0.0040  -0.0008  -0.0088   0.00    1.7
2018/03/11 12:57:10.000   78.255299822   16.193730639   489.8478   2   9   0.0172   0.0149   0.0220   0.0040  -0.0009  -0.0088   0.00    1.7
2018/03/11 12:57:11.000   78.255299847   16.193731001   489.8658   2   9   0.0172   0.0149   0.0219   0.0040  -0.0010  -0.0087   0.00    1.7
2018/03/11 12:57:12.000   78.255299873   16.193731339   489.8826   2   9   0.0171   0.0149   0.0218   0.0040  -0.0011  -0.0087   0.00    1.7
2018/03/11 12:57:13.000   78.255299898   16.193731731   489.9000   2   9   0.0170   0.0148   0.0217   0.0040  -0.0012  -0.0087   0.00    1.8
2018/03/11 12:57:14.000   78.255299930   16.193732099   489.9167   2   9   0.0170   0.0148   0.0216   0.0041  -0.0013  -0.0087   0.00    1.8
2018/03/11 12:57:15.000   78.255299951   16.193732427   489.9336   2   9   0.0169   0.0147   0.0215   0.0041  -0.0014  -0.0086   0.00    1.8
2018/03/11 12:57:16.000   78.255299971   16.193732813   489.9503   2   9   0.0169   0.0147   0.0214   0.0041  -0.0014  -0.0086   0.00    1.0
2018/03/11 12:57:17.000   78.255299990   16.193733181   489.9675   2   9   0.0168   0.0146   0.0213   0.0041  -0.0015  -0.0086   0.00    1.1
2018/03/11 12:57:18.000   78.255300009   16.193733512   489.9840   2   9   0.0168   0.0146   0.0212   0.0041  -0.0015  -0.0086   0.00    1.1
2018/03/11 12:57:19.000   78.255300022   16.193733855   490.0006   2   9   0.0167   0.0145   0.0211   0.0041  -0.0016  -0.0085   0.00    1.2
2018/03/11 12:57:20.000   78.255300043   16.193734191   490.0165   2   9   0.0167   0.0145   0.0210   0.0041  -0.0017  -0.0085   0.00    1.2
2018/03/11 12:57:21.000   78.255300060   16.193734542   490.0312   2   9   0.0166   0.0144   0.0209   0.0042  -0.0017  -0.0085   0.00    1.3
2018/03/11 12:57:22.000   78.255300086   16.193734910   490.0455   2   9   0.0165   0.0144   0.0208   0.0042  -0.0018  -0.0085   0.00    1.3
2018/03/11 12:57:23.000   78.255300107   16.193735271   490.0591   2   9   0.0165   0.0143   0.0207   0.0042  -0.0018  -0.0084   0.00    1.4
2018/03/11 12:57:24.000   78.255300126   16.193735618   490.0723   2   9   0.0164   0.0143   0.0206   0.0042  -0.0018  -0.0084   0.00    1.4
2018/03/11 12:57:25.000   78.255300151   16.193735964   490.0855   2   9   0.0164   0.0142   0.0205   0.0042  -0.0019  -0.0084   0.00    1.5
2018/03/11 12:57:26.000   78.255300172   16.193736306   490.0993   2   9   0.0163   0.0142   0.0204   0.0042  -0.0019  -0.0084   0.00    1.5
2018/03/11 12:57:27.000   78.255300195   16.193736606   490.1118   2   9   0.0163   0.0141   0.0204   0.0042  -0.0020  -0.0083   0.00    1.5
2018/03/11 12:57:28.000   78.255300220   16.193736899   490.1235   2   9   0.0162   0.0141   0.0203   0.0042  -0.0020  -0.0083   0.00    1.6
2018/03/11 12:57:29.000   78.255300248   16.193737204   490.1352   2   9   0.0162   0.0140   0.0202   0.0043  -0.0020  -0.0083   0.00    1.6
2018/03/11 12:57:30.000   78.255300268   16.193737533   490.1480   2   9   0.0161   0.0140   0.0201   0.0043  -0.0021  -0.0083   0.00    1.7
2018/03/11 12:57:31.000   78.255300297   16.193737813   490.1598   2   9   0.0161   0.0140   0.0200   0.0043  -0.0021  -0.0082   0.00    1.7
2018/03/11 12:57:32.000   78.255300317   16.193738120   490.1725   2   9   0.0160   0.0139   0.0199   0.0043  -0.0021  -0.0082   0.00    1.7
2018/03/11 12:57:33.000   78.255300346   16.193738418   490.1860   2   9   0.0160   0.0139   0.0198   0.0043  -0.0022  -0.0082   0.00    1.8
2018/03/11 12:57:34.000   78.255300384   16.193738716   490.1988   2   9   0.0159   0.0138   0.0197   0.0043  -0.0022  -0.0082   0.00    1.8
2018/03/11 12:57:35.000   78.255300427   16.193739026   490.2112   2   9   0.0159   0.0138   0.0197   0.0043  -0.0022  -0.0082   0.00    1.9
2018/03/11 12:57:36.000   78.255300481   16.193739348   490.2251   2   9   0.0158   0.0137   0.0196   0.0043  -0.0022  -0.0081   0.00    1.9
2018/03/11 12:57:37.000   78.255300543   16.193739666   490.2393   2   9   0.0158   0.0137   0.0195   0.0043  -0.0023  -0.0081   0.00    1.9
2018/03/11 12:57:38.000   78.255300609   16.193739974   490.2539   2   9   0.0157   0.0137   0.0194   0.0043  -0.0023  -0.0081   0.00    2.0
2018/03/11 12:57:39.000   78.255300676   16.193740341   490.2671   2   9   0.0157   0.0136   0.0193   0.0043  -0.0023  -0.0081   0.00    2.0
2018/03/11 12:57:40.000   78.255300758   16.193740695   490.2817   2   9   0.0156   0.0136   0.0192   0.0044  -0.0023  -0.0080   0.00    2.0
2018/03/11 12:57:41.000   78.255300845   16.193741054   490.2968   2   9   0.0156   0.0135   0.0192   0.0044  -0.0024  -0.0080   0.00    2.1
2018/03/11 12:57:42.000   78.255300942   16.193741417   490.3114   2   9   0.0155   0.0135   0.0191   0.0044  -0.0024  -0.0080   0.00    2.1
2018/03/11 12:57:43.000   78.255301033   16.193741827   490.3251   2   9   0.0155   0.0134   0.0190   0.0044  -0.0024  -0.0080   0.00    2.1
2018/03/11 12:57:44.000   78.255301132   16.193742256   490.3388   2   9   0.0154   0.0134   0.0189   0.0044  -0.0024  -0.0080   0.00    2.1
2018/03/11 12:57:45.000   78.255301230   16.193742686   490.3539   2   9   0.0154   0.0134   0.0188   0.0044  -0.0024  -0.0079   0.00    2.2
2018/03/11 12:57:46.000   78.255301334   16.193743123   490.3676   2   9   0.0153   0.0133   0.0188   0.0044  -0.0025  -0.0079   0.00    2.2
2018/03/11 12:57:47.000   78.255301442   16.193743516   490.3817   2   9   0.0153   0.0133   0.0187   0.0044  -0.0025  -0.0079   0.00    2.2
2018/03/11 12:57:48.000   78.255301554   16.193743942   490.3965   2   9   0.0153   0.0132   0.0186   0.0044  -0.0025  -0.0079   0.00    2.2
2018/03/11 12:57:49.000   78.255301678   16.193744405   490.4111   2   9   0.0152   0.0132   0.0185   0.0044  -0.0025  -0.0079   0.00    2.2
2018/03/11 12:57:50.000   78.255301809   16.193744894   490.4257   2   9   0.0152   0.0132   0.0185   0.0044  -0.0025  -0.0078   0.00    2.2
2018/03/11 12:57:51.000   78.255301936   16.193745397   490.4414   2   9   0.0151   0.0131   0.0184   0.0044  -0.0025  -0.0078   0.00    2.2
2018/03/11 12:57:52.000   78.255302068   16.193745912   490.4563   2   9   0.0151   0.0131   0.0183   0.0044  -0.0026  -0.0078   0.00    2.2
2018/03/11 12:57:53.000   78.255302196   16.193746458   490.4719   2   9   0.0150   0.0130   0.0182   0.0044  -0.0026  -0.0078   0.00    2.2
2018/03/11 12:57:54.000   78.255302333   16.193746932   490.4875   2   9   0.0150   0.0130   0.0182   0.0044  -0.0026  -0.0077   0.00    2.2
2018/03/11 12:57:55.000   78.255302474   16.193747425   490.5021   2   9   0.0149   0.0130   0.0181   0.0044  -0.0026  -0.0077   0.00    2.2
2018/03/11 12:57:56.000   78.255302613   16.193747898   490.5163   2   9   0.0149   0.0129   0.0180   0.0044  -0.0026  -0.0077   0.00    2.1
2018/03/11 12:57:57.000   78.255302754   16.193748381   490.5305   2   9   0.0148   0.0129   0.0179   0.0044  -0.0026  -0.0077   0.00    2.1
2018/03/11 12:57:58.000   78.255302886   16.193748853   490.5446   2   9   0.0148   0.0128   0.0179   0.0044  -0.0026  -0.0077   0.00    2.1
2018/03/11 12:57:59.000   78.255303014   16.193749304   490.5562   2   9   0.0148   0.0128   0.0178   0.0044  -0.0027  -0.0076   0.00    2.1
2018/03/11 12:58:00.000   78.255303144   16.193749738   490.5678   2   9   0.0147   0.0128   0.0177   0.0045  -0.0027  -0.0076   0.00    2.0
2018/03/11 12:58:01.000   78.255303270   16.193750197   490.5803   2   9   0.0147   0.0127   0.0177   0.0045  -0.0027  -0.0076   0.00    2.0
2018/03/11 12:58:02.000   78.255303402   16.193750656   490.5922   2   9   0.0146   0.0127   0.0176   0.0045  -0.0027  -0.0076   0.00    2.0
2018/03/11 12:58:03.000   78.255303531   16.193751099   490.6031   2   9   0.0146   0.0127   0.0175   0.0045  -0.0027  -0.0076   0.00    1.9
2018/03/11 12:58:04.000   78.255303646   16.193751546   490.6139   2   9   0.0145   0.0126   0.0175   0.0045  -0.0027  -0.0075   0.00    1.9
2018/03/11 12:58:05.000   78.255303753   16.193751970   490.6259   2   9   0.0145   0.0126   0.0174   0.0045  -0.0027  -0.0075   0.00    1.9
2018/03/11 12:58:06.000   78.255303849   16.193752371   490.6358   2   9   0.0145   0.0125   0.0173   0.0045  -0.0027  -0.0075   0.00    1.8
2018/03/11 12:58:07.000   78.255303943   16.193752747   490.6444   2   9   0.0144   0.0125   0.0173   0.0045  -0.0028  -0.0075   0.00    1.8
2018/03/11 12:58:08.000   78.255304030   16.193753113   490.6526   2   9   0.0144   0.0125   0.0172   0.0045  -0.0028  -0.0075   0.00    1.8
2018/03/11 12:58:09.000   78.255304119   16.193753438   490.6596   2   9   0.0143   0.0124   0.0171   0.0045  -0.0028  -0.0075   0.00    1.7
2018/03/11 12:58:10.000   78.255304201   16.193753743   490.6666   2   9   0.0143   0.0124   0.0171   0.0045  -0.0028  -0.0074   0.00    1.7
2018/03/11 12:58:11.000   78.255304276   16.193754053   490.6745   2   9   0.0142   0.0124   0.0170   0.0045  -0.0028  -0.0074   0.00    1.7
2018/03/11 12:58:12.000   78.255304348   16.193754291   490.6804   2   9   0.0142   0.0123   0.0169   0.0045  -0.0028  -0.0074   0.00    1.7
2018/03/11 12:58:13.000   78.255304422   16.193754518   490.6866   2   9   0.0142   0.0123   0.0169   0.0045  -0.0028  -0.0074   0.00    1.7
2018/03/11 12:58:14.000   78.255304486   16.193754706   490.6920   2   9   0.0141   0.0123   0.0168   0.0045  -0.0028  -0.0074   0.00    1.7
2018/03/11 12:58:15.000   78.255304539   16.193754898   490.6975   2   9   0.0141   0.0122   0.0167   0.0045  -0.0028  -0.0073   0.00    1.6
2018/03/11 12:58:16.000   78.255304589   16.193755072   490.7022   2   9   0.0140   0.0122   0.0167   0.0045  -0.0028  -0.0073   0.00    1.6
2018/03/11 12:58:17.000   78.255304632   16.193755248   490.7060   2   9   0.0140   0.0121   0.0166   0.0045  -0.0028  -0.0073   0.00    1.6
2018/03/11 12:58:18.000   78.255304666   16.193755382   490.7102   2   9   0.0140   0.0121   0.0165   0.0045  -0.0028  -0.0073   0.00    1.6
2018/03/11 12:58:19.000   78.255304698   16.193755517   490.7129   2   9   0.0139   0.0121   0.0165   0.0045  -0.0028  -0.0073   0.00    1.6
2018/03/11 12:58:20.000   78.255304722   16.193755636   490.7141   2   9   0.0139   0.0120   0.0164   0.0045  -0.0029  -0.0072   0.00    1.6
2018/03/11 12:58:21.000   78.255304748   16.193755765   490.7165   2   9   0.0138   0.0120   0.0164   0.0045  -0.0029  -0.0072   0.00    1.6
2018/03/11 12:58:22.000   78.255304772   16.193755880   490.7190   2   9   0.0138   0.0120   0.0163   0.0045  -0.0029  -0.0072   0.00    1.6
2018/03/11 12:58:23.000   78.255304792   16.193755960   490.7204   2   9   0.0138   0.0119   0.0162   0.0045  -0.0029  -0.0072   0.00    1.6
2018/03/11 12:58:24.000   78.255304812   16.193756018   490.7210   2   9   0.0137   0.0119   0.0162   0.0045  -0.0029  -0.0072   0.00    1.6
2018/03/11 12:58:25.000   78.255304831   16.193756074   490.7226   2   9   0.0137   0.0119   0.0161   0.0045  -0.0029  -0.0072   0.00    1.6
2018/03/11 12:58:26.000   78.255304851   16.193756125   490.7230   2   9   0.0137   0.0118   0.0161   0.0045  -0.0029  -0.0071   0.00    1.5
2018/03/11 12:58:27.000   78.255304877   16.193756188   490.7242   2   9   0.0136   0.0118   0.0160   0.0045  -0.0029  -0.0071   0.00    1.5
2018/03/11 12:58:28.000   78.255304901   16.193756261   490.7254   2   9   0.0136   0.0118   0.0159   0.0045  -0.0029  -0.0071   0.00    1.5
2018/03/11 12:58:29.000   78.255304928   16.193756345   490.7263   2   9   0.0135   0.0117   0.0159   0.0045  -0.0029  -0.0071   0.00    1.5
2018/03/11 12:58:30.000   78.255304960   16.193756424   490.7271   2   9   0.0135   0.0117   0.0158   0.0045  -0.0029  -0.0071   0.00    1.5
2018/03/11 12:58:31.000   78.255304986   16.193756488   490.7275   2   9   0.0135   0.0117   0.0158   0.0045  -0.0029  -0.0071   0.00    1.5
2018/03/11 12:58:32.000   78.255305001   16.193756524   490.7278   2   9   0.0134   0.0116   0.0157   0.0045  -0.0029  -0.0070   0.00    1.5
2018/03/11 12:58:33.000   78.255305020   16.193756573   490.7294   2   9   0.0134   0.0116   0.0157   0.0045  -0.0029  -0.0070   0.00    1.5
2018/03/11 12:58:34.000   78.255305042   16.193756593   490.7302   2   9   0.0134   0.0116   0.0156   0.0045  -0.0029  -0.0070   0.00    1.5
2018/03/11 12:58:35.000   78.255305064   16.193756615   490.7301   2   9   0.0133   0.0115   0.0155   0.0045  -0.0029  -0.0070   0.00    1.5
2018/03/11 12:58:36.000   78.255305082   16.193756621   490.7300   2   9   0.0133   0.0115   0.0155   0.0045  -0.0029  -0.0070   0.00    1.5
2018/03/11 12:58:37.000   78.255305098   16.193756646   490.7307   2   9   0.0132   0.0115   0.0154   0.0045  -0.0029  -0.0069   0.00    1.5
2018/03/11 12:58:38.000   78.255305121   16.193756657   490.7311   2   9   0.0132   0.0115   0.0154   0.0045  -0.0029  -0.0069   0.00    1.5
2018/03/11 12:58:39.000   78.255305141   16.193756668   490.7319   2   9   0.0132   0.0114   0.0153   0.0045  -0.0029  -0.0069   0.00    1.5
2018/03/11 12:58:40.000   78.255305156   16.193756654   490.7322   2   9   0.0131   0.0114   0.0153   0.0045  -0.0029  -0.0069   0.00    1.5
2018/03/11 12:58:41.000   78.255305175   16.193756696   490.7326   2   9   0.0131   0.0114   0.0152   0.0045  -0.0029  -0.0069   0.00    1.5
2018/03/11 12:58:42.000   78.255305199   16.193756712   490.7332   2   9   0.0131   0.0113   0.0152   0.0045  -0.0029  -0.0069   0.00    1.5
2018/03/11 12:58:43.000   78.255305216   16.193756724   490.7334   2   9   0.0130   0.0113   0.0151   0.0045  -0.0029  -0.0068   0.00    1.5
2018/03/11 12:58:44.000   78.255305235   16.193756728   490.7335   2   9   0.0130   0.0113   0.0151   0.0045  -0.0030  -0.0068   0.00    1.5
2018/03/11 12:58:45.000   78.255305259   16.193756731   490.7338   2   9   0.0130   0.0112   0.0150   0.0045  -0.0030  -0.0068   0.00    1.5
2018/03/11 12:58:46.000   78.255305278   16.193756749   490.7350   2   9   0.0129   0.0112   0.0150   0.0045  -0.0030  -0.0068   0.00    1.5
2018/03/11 12:58:47.000   78.255305294   16.193756739   490.7354   2   9   0.0129   0.0112   0.0149   0.0045  -0.0030  -0.0068   0.00    1.5
2018/03/11 12:58:48.000   78.255305310   16.193756711   490.7352   2   9   0.0129   0.0111   0.0148   0.0045  -0.0030  -0.0068   0.00    1.5
2018/03/11 12:58:49.000   78.255305327   16.193756687   490.7354   2   9   0.0128   0.0111   0.0148   0.0045  -0.0030  -0.0067   0.00    1.5
2018/03/11 12:58:50.000   78.255305347   16.193756653   490.7349   2   9   0.0128   0.0111   0.0147   0.0044  -0.0030  -0.0067   0.00    1.5
2018/03/11 12:58:51.000   78.255305357   16.193756598   490.7342   2   9   0.0127   0.0111   0.0147   0.0044  -0.0030  -0.0067   0.00    1.4
2018/03/11 12:58:52.000   78.255305374   16.193756580   490.7347   2   9   0.0127   0.0110   0.0146   0.0044  -0.0030  -0.0067   0.00    1.4
2018/03/11 12:58:53.000   78.255305391   16.193756554   490.7354   2   9   0.0127   0.0110   0.0146   0.0044  -0.0030  -0.0067   0.00    1.4
2018/03/11 12:58:54.000   78.255305409   16.193756536   490.7353   2   9   0.0126   0.0110   0.0145   0.0044  -0.0030  -0.0067   0.00    1.4
2018/03/11 12:58:55.000   78.255305427   16.193756550   490.7350   2   9   0.0126   0.0109   0.0145   0.0044  -0.0030  -0.0067   0.00    1.4
2018/03/11 12:58:56.000   78.255305442   16.193756554   490.7354   2   9   0.0126   0.0109   0.0144   0.0044  -0.0030  -0.0066   0.00    1.4
2018/03/11 12:58:57.000   78.255305457   16.193756536   490.7356   2   9   0.0125   0.0109   0.0144   0.0044  -0.0030  -0.0066   0.00    1.4
2018/03/11 12:58:58.000   78.255305478   16.193756526   490.7354   2   9   0.0125   0.0109   0.0144   0.0044  -0.0030  -0.0066   0.00    1.4
2018/03/11 12:58:59.000   78.255305491   16.193756495   490.7354   2   9   0.0125   0.0108   0.0143   0.0044  -0.0030  -0.0066   0.00    1.4
2018/03/11 12:59:00.000   78.255305507   16.193756450   490.7354   2   9   0.0125   0.0108   0.0143   0.0044  -0.0030  -0.0066   0.00    1.4
2018/03/11 12:59:01.000   78.255305515   16.193756410   490.7358   2   9   0.0124   0.0108   0.0142   0.0044  -0.0030  -0.0066   0.00    1.4
2018/03/11 12:59:02.000   78.255305521   16.193756400   490.7350   2   9   0.0124   0.0107   0.0142   0.0044  -0.0030  -0.0065   0.00    1.4
2018/03/11 12:59:03.000   78.255305524   16.193756391   490.7349   2   9   0.0124   0.0107   0.0141   0.0044  -0.0030  -0.0065   0.00    1.4
2018/03/11 12:59:04.000   78.255305529   16.193756377   490.7348   2   9   0.0123   0.0107   0.0141   0.0044  -0.0030  -0.0065   0.00    1.4
2018/03/11 12:59:05.000   78.255305534   16.193756344   490.7345   2   9   0.0123   0.0107   0.0140   0.0044  -0.0030  -0.0065   0.00    1.4
2018/03/11 12:59:06.000   78.255305531   16.193756349   490.7339   2   9   0.0123   0.0106   0.0140   0.0044  -0.0030  -0.0065   0.00    1.4
2018/03/11 12:59:07.000   78.255305536   16.193756326   490.7325   2   9   0.0122   0.0106   0.0139   0.0044  -0.0030  -0.0065   0.00    1.4
