     2.11           OBSERVATION DATA    M (MIXED)           RINEX VERSION / TYPE
teqc  2018Mar15                         20180319 14:17:31UTCPGM / RUN BY / DATE
Linux 2.6.32-573.12.1.x86_64|x86_64|gcc -static|Linux 64|=+ COMMENT
END OF STATIC MODE OBSERVATION                              COMMENT
BIT 2 OF LLI FLAGS DATA COLLECTED UNDER A/S CONDITION       COMMENT
-Unknown-                                                   MARKER NAME
4625                                                        MARKER NUMBER
-Unknown-           -Unknown-                               OBSERVER / AGENCY
5127468778          TRIMBLE             4.63                REC # / TYPE / VERS
47477114                            NONE                    ANT # / TYPE
  -423755.2408   139337.2356  6341186.6938                  APPROX POSITION XYZ
        0.0000        0.0000        0.0000                  ANTENNA: DELTA H/E/N
     1     1                                                WAVELENGTH FACT L1/2
     7    L1    L2    C1    P1    P2    S1    S2            # / TYPES OF OBSERV
    18                                                      LEAP SECONDS
 SNR is mapped to RINEX snr flag value [0-9]                COMMENT
  L1 & L2: min(max(int(snr_dBHz/6), 0), 9)                  COMMENT
  2018     3    11    10    25   17.0000000     GPS         TIME OF FIRST OBS
                                                            END OF HEADER
 18  3 11 10 25 17.0000000  0 17R02G20R03R11R12R13R20R21R04G27G07G21
                                G30G28G08G15G13
                  94797688.963 6  22840776.227                    22840778.977
                        39.300
 114811659.243 7  89463706.33445  21847950.055                    21847951.551
        47.100          31.900
                  82761100.031 7  19877748.570                    19877749.754
                        43.100
                  90997213.204 7  21894283.492                    21894286.609
                        43.300
                                  19490980.664

                  89285933.815 6  21497641.867                    21497640.645
                        37.500
                  87327044.221 7  20996500.414                    20996504.578
                        43.500
                  89229603.408 7  21438881.516                    21438882.559
                        43.400
                  86973207.637 7  20882102.188                    20882103.797
                        43.800
 119583888.699 7  93182272.22945  22756058.055                    22756064.410
        44.700          32.600
 120104183.079 8  93587688.48445  22855068.016                    22855070.953
        49.800          33.900
 125970152.211 7  98158572.57744  23971323.633                    23971326.609
        42.700          26.200
 112639736.769 8  87771247.56246  21434630.156                    21434635.426
        50.800          37.600
 117235971.815 7  91352708.83444  22309262.961                    22309266.309
        43.400          26.800
 117428493.639 8  91502742.85645  22345899.266                    22345904.180
        48.400          35.500
 114468047.383 8  89195893.31945  21782545.633                    21782548.844
        48.000          34.900
 109588382.633 8  85393558.08046  20853976.320                    20853980.031
        48.800          37.200
 18  3 11 10 25 18.0000000  0 17R02G20R03R11R12R13R20R21R04G27G07G21
                                G30G28G08G15G13
                  94801455.552 6  22841682.484                    22841686.367
                        39.000
 114813312.880 7  89464994.91545  21848264.250                    21848266.250
        47.000          32.100
                  82762542.524 7  19878094.828                    19878096.012
                        42.300
                  91000531.816 7  21895081.602                    21895085.133
                        43.000
                                  19491170.359

                  89283193.111 6  21496981.781                    21496980.590
                        37.700
                  87328507.775 7  20996852.867                    20996856.605
                        42.600
                  89227679.093 7  21438418.820                    21438420.711
                        42.800
                  86971170.707 7  20881613.648                    20881614.402
                        43.400
 119586239.814 7  93184104.27645  22756505.281                    22756511.496
        44.600          31.400
 120107560.539 8  93590320.28845  22855709.766                    22855713.688
        48.600          33.600
 125972384.049 7  98160311.67944  23971748.141                    23971751.406
        42.100          26.100
 112641874.358 8  87772913.21846  21435036.531                    21435042.285
        50.200          37.200
 117234075.035 7  91351230.83844  22308902.633                    22308905.219
        43.500          26.800
 117428112.073 8  91502445.53045  22345826.281                    22345831.879
        48.300          35.300
 114466461.427 8  89194657.50345  21782243.734                    21782246.695
        48.200          34.400
 109588467.426 8  85393624.15746  20853992.680                    20853996.293
        48.800          36.900
 18  3 11 10 25 19.0000000  0 17R02G20R03R11R12R13R20R21R04G27G07G21
                                G30G28G08G15G13
                  94805222.382 6  22842591.445                    22842593.785
                        38.600
 114814967.245 7  89466284.04745  21848578.688                    21848581.344
        46.900          31.700
                  82763985.763 7  19878440.531                    19878442.742
                        42.200
                  91003850.825 7  21895879.383                    21895883.891
                        42.500
                                  19491359.789

                  89280452.788 6  21496321.414                    21496320.582
                        38.200
                  87329972.127 7  20997205.539                    20997207.930
                        42.400
                  89225755.388 7  21437955.992                    21437959.043
                        42.600
                  86969134.270 7  20881124.656                    20881125.707
                        42.700
 119588591.584 7  93185936.82445  22756952.617                    22756959.332
        44.300          31.400
 120110938.427 7  93592952.41345  22856352.000                    22856356.543
        47.300          32.900
 125974616.385 7  98162051.17144  23972173.016                    23972176.230
        42.400          26.700
 112644012.597 8  87774579.38046  21435443.375                    21435449.020
        49.900          37.700
 117232178.782 7  91349753.24344  22308541.766                    22308544.684
        43.900          27.300
 117427731.246 8  91502148.77545  22345754.242                    22345759.285
        48.400          34.600
 114464876.125 8  89193422.20145  21781942.039                    21781944.879
        48.500          34.600
 109588552.985 8  85393690.83146  20854009.055                    20854012.383
        48.300          36.500
 18  3 11 10 25 20.0000000  0 17R02G20R03R11R12R13R20R21R04G27G07G21
                                G30G28G08G15G13
                  94808989.451 6  22843497.648                    22843501.113
                        40.100
 114816622.313 7  89467573.72545  21848892.820                    21848896.289
        45.800          32.700
                  82765429.719 7  19878786.914                    19878789.305
                        42.400
                  91007170.167 7  21896678.422                    21896682.492
                        43.100
                                  19491550.414

                  89277712.850 6  21495659.828                    21495662.109
                        39.100
                  87331437.260 7  20997557.117                    20997560.770
                        43.100
                  89223832.296 7  21437494.422                    21437496.410
                        43.300
                  86967098.375 7  20880636.227                    20880636.762
                        43.500
 119590944.021 7  93187769.88945  22757400.750                    22757407.094
        43.600          31.900
 120114316.759 8  93595584.86745  22856995.648                    22856999.176
        48.200          33.800
 125976849.218 6  98163791.03744  23972598.188                    23972601.090
        41.600          27.600
 112646151.425 8  87776245.99946  21435850.375                    21435855.984
        49.800          37.900
 117230283.049 7  91348276.04644  22308181.188                    22308183.738
        43.800          27.500
 117427351.156 8  91501852.60446  22345681.555                    22345686.730
        48.700          36.200
 114463291.464 8  89192187.39745  21781640.523                    21781643.598
        48.400          34.800
 109588639.283 8  85393758.07846  20854025.563                    20854028.934
        48.100          37.500
 18  3 11 10 25 21.0000000  0 17R02G20R03R11R12R13R20R21R04G27G07G21
                                G30G28G08G15G13
                  94812756.766 6  22844405.508                    22844409.254
                        40.700
 114818278.106 7  89468863.94745  21849207.359                    21849211.234
        44.900          31.800
                  82766874.387 7  19879135.359                    19879136.090
                        43.100
                  91010489.870 7  21897478.328                    21897481.219
                        43.200
                                  19491740.703

                  89274973.360 6  21494999.945                    21495003.469
                        39.600
                  87332903.116 7  20997911.078                    20997913.297
                        43.400
                  89221909.834 7  21437032.266                    21437034.582
                        43.400
                  86965063.025 7  20880146.945                    20880148.723
                        43.900
 119593297.131 7  93189603.47845  22757848.273                    22757854.148
        44.200          32.500
 120117695.459 8  93598217.60145  22857639.063                    22857642.512
        48.600          33.200
 125979082.602 6  98165531.34544  23973023.156                    23973025.816
        40.900          27.300
 112648290.930 8  87777913.13946  21436257.594                    21436263.105
        49.800          38.100
 117228387.828 7  91346799.25044  22307819.609                    22307823.301
        43.200          28.600
 117426971.831 8  91501557.02446  22345609.391                    22345614.797
        48.600          36.200
 114461707.488 8  89190953.13045  21781339.219                    21781342.410
        48.500          35.800
 109588726.341 7  85393825.92146  20854042.117                    20854045.352
        47.900          37.800
 18  3 11 10 25 22.0000000  0 17R02G20R03R11R12R13R20R21R04G27G07G21
                                G30G28G08G15G13
                  94816524.276 6  22845312.992                    22845316.879
                        41.200
 114819934.645 7  89470154.75445  21849522.688                    21849526.121
        44.100          32.100
                  82768319.756 7  19879483.039                    19879483.516
                        43.500
                  91013809.893 7  21898277.266                    21898279.859
                        43.300
                                  19491931.242

                  89272234.280 6  21494340.016                    21494344.047
                        39.700
                  87334369.747 7  20998263.063                    20998265.762
                        43.900
                  89219987.959 7  21436570.828                    21436572.645
                        43.000
                  86963028.228 7  20879658.578                    20879659.480
                        43.800
 119595650.869 7  93191437.55645  22758296.891                    22758302.246
        44.900          32.300
 120121074.591 7  93600850.68745  22858281.383                    22858285.590
        47.700          33.600
 125981316.454 6  98167272.01544  23973447.961                    23973451.434
        41.300          28.200
 112650431.023 8  87779580.74546  21436664.711                    21436670.551
        49.900          37.900
 117226493.142 7  91345322.87744  22307459.563                    22307462.621
        43.500          28.600
 117426593.254 8  91501262.03046  22345537.273                    22345543.090
        48.700          36.300
 114460124.116 8  89189719.32645  21781037.742                    21781041.039
        48.400          35.500
 109588814.159 8  85393894.34646  20854058.734                    20854061.801
        48.100          37.900
 18  3 11 10 25 23.0000000  0 17R02G20R03R11R12R13R20R21R04G27G07G21
                                G30G28G08G15G13
                  94820291.976 6  22846220.648                    22846224.547
                        41.200
 114821591.845 7  89471446.05645  21849838.406                    21849841.711
        43.500          32.000
                  82769765.782 7  19879829.406                    19879831.063
                        43.600
                  91017130.236 7  21899076.922                    21899079.152
                        43.500
                                  19492122.250

                  89269495.594 6  21493681.031                    21493685.117
                        39.800
                  87335837.049 7  20998615.734                    20998619.352
                        44.000
                  89218066.683 7  21436109.016                    21436110.793
                        43.000
                  86960993.957 7  20879170.742                    20879171.441
                        44.100
 119598005.268 7  93193272.16045  22758744.813                    22758749.855
        43.700          32.500
 120124454.072 7  93603484.06145  22858924.250                    22858928.582
        47.500          33.000
 125983550.762 6  98169013.03144  23973873.422                    23973876.281
        40.800          27.400
 112652571.714 8  87781248.81646  21437072.391                    21437078.031
        49.800          38.000
 117224598.895 7  91343846.83944  22307098.820                    22307102.223
        42.500          27.800
 117426215.364 8  91500967.57246  22345465.484                    22345471.023
        48.700          36.200
 114458541.378 7  89188486.02745  21780736.477                    21780739.820
        47.800          35.200
 109588902.647 8  85393963.29946  20854075.430                    20854078.609
        48.400          37.500
 18  3 11 10 25 24.0000000  0 17R02G20R03R11R12R13R20R21R04G27G07G21
                                G30G28G08G15G13
                  94824059.907 6  22847128.711                    22847132.895
                        41.100
 114823249.692 7  89472737.86445  21850154.352                    21850156.926
        43.700          31.400
                  82771212.486 7  19880175.617                    19880178.527
                        43.400
                  91020450.898 7  21899876.438                    21899878.078
                        43.200
                                  19492312.914

                  89266757.228 6  21493022.922                    21493025.082
                        39.600
                  87337305.088 7  20998968.852                    20998971.539
                        43.500
                  89216146.010 7  21435647.758                    21435648.848
                        42.800
                  86958960.157 7  20878682.047                    20878682.977
                        44.000
 119600360.266 7  93195107.22745  22759193.836                    22759198.281
        44.100          33.100
 120127833.967 8  93606117.73445  22859568.055                    22859571.516
        48.700          33.700
 125985785.483 6  98170754.37544  23974298.977                    23974302.066
        40.700          28.200
 112654712.955 8  87782917.32646  21437479.328                    21437485.352
        49.600          38.500
 117222705.143 7  91342371.19344  22306738.492                    22306741.781
        42.900          28.100
 117425838.189 8  91500673.66745  22345393.688                    22345399.195
        48.700          35.500
 114456959.236 8  89187253.17945  21780435.531                    21780438.668
        48.200          35.900
 109588991.881 8  85394032.83346  20854092.719                    20854095.543
        48.200          37.700
 18  3 11 10 25 25.0000000  0 17R02G20R03R11R12R13R20R21R04G27G07G21
                                G30G28G08G15G13
                  94827828.025 6  22848037.828                    22848040.582
                        41.400
 114824908.231 7  89474030.21745  21850470.438                    21850472.398
        44.600          32.600
                  82772659.868 7  19880524.609                    19880525.727
                        43.600
                  91023771.911 7  21900674.961                    21900676.652
                        43.200
                                  19492503.281

                  89264019.223 6  21492363.883                    21492365.629
                        38.900
                  87338773.865 7  20999322.313                    20999324.863
                        43.800
                  89214225.920 7  21435186.820                    21435187.191
                        43.500
                  86956926.953 7  20878193.719                    20878194.508
                        44.500
 119602715.884 7  93196942.78045  22759640.758                    22759646.453
        43.400          32.000
 120131214.189 8  93608751.67045  22860211.836                    22860214.777
        48.800          34.000
 125988020.678 6  98172496.08144  23974723.953                    23974727.105
        40.000          27.800
 112656854.837 8  87784586.32746  21437887.094                    21437892.820
        49.700          38.300
 117220811.902 7  91340895.94544  22306378.422                    22306381.418
        43.000          28.900
 117425461.741 8  91500380.33045  22345322.094                    22345327.617
        48.100          35.400
 114455377.727 7  89186020.83345  21780134.609                    21780137.887
        47.900          35.700
 109589081.829 8  85394102.92646  20854109.977                    20854112.660
        48.500          37.700
 18  3 11 10 25 26.0000000  0 17R02G20R03R11R12R13R20R21R04G27G07G21
                                G30G28G08G15G13
                  94831596.354 6  22848946.188                    22848948.297
                        41.100
 114826567.464 7  89475323.11845  21850786.094                    21850788.070
        44.700          32.800
                  82774107.890 7  19880873.523                    19880873.617
                        43.600
                  91027093.272 7  21901473.969                    21901475.684
                        43.200
                                  19492694.828

                  89261281.542 6  21491705.016                    21491706.406
                        37.500
                  87340243.372 7  20999676.102                    20999677.844
                        43.400
                  89212306.424 7  21434725.719                    21434726.332
                        43.000
                  86954894.240 7  20877704.555                    20877706.914
                        44.100
 119605072.189 7  93198778.86045  22760089.031                    22760094.707
        43.400          30.900
 120134594.828 8  93611385.94245  22860853.906                    22860858.148
        48.100          33.600
 125990256.367 6  98174238.17744  23975149.195                    23975152.281
        39.200          27.300
 112658997.286 8  87786255.77046  21438294.797                    21438300.879
        49.800          38.300
 117218919.103 7  91339421.04244  22306018.023                    22306021.160
        43.000          28.100
 117425086.014 8  91500087.55945  22345250.320                    22345255.734
        48.100          35.700
 114453796.852 7  89184788.97445  21779834.039                    21779836.777
        47.800          35.500
 109589172.523 8  85394173.59346  20854127.430                    20854130.148
        48.800          37.600
 18  3 11 10 25 27.0000000  0 17R02G20R03R11R12R13R20R21R04G27G07G21
                                G30G28G08G15G13
                  94835364.921 6  22849855.625                    22849856.680
                        40.900
 114828227.399 7  89476616.57545  21851101.969                    21851104.363
        44.700          32.400
                  82775556.619 7  19881221.344                    19881221.945
                        43.400
                  91030415.004 7  21902271.602                    21902274.832
                        42.400
                                  19492886.531

                  89258544.235 6  21491046.438                    21491046.449
                        37.600
                  87341713.564 7  21000029.156                    21000031.551
                        43.600
                  89210387.495 7  21434263.938                    21434265.375
                        43.300
                  86952862.102 7  20877218.398                    20877219.070
                        44.400
 119607429.132 7  93200615.44645  22760537.578                    22760543.301
        43.000          31.000
 120137975.918 7  93614020.56345  22861496.914                    22861501.375
        47.200          34.200
 125992492.604 6  98175980.69144  23975574.578                    23975577.828
        38.600          26.700
 112661140.376 8  87787925.71146  21438702.508                    21438708.238
        50.000          37.900
 117217026.854 7  91337946.55744  22305657.609                    22305661.063
        42.500          27.400
 117424711.070 7  91499795.39345  22345178.617                    22345184.344
        47.600          35.700
 114452216.616 8  89183557.62145  21779532.719                    21779536.176
        48.100          34.800
 109589263.954 8  85394244.84146  20854144.672                    20854147.449
        49.200          37.700
 18  3 11 10 25 28.0000000  0 17R02G20R03R11R12R13R20R21R04G27G07G21
                                G30G28G08G15G13
                  94839133.653 6  22850763.906                    22850764.313
                        39.600
 114829888.050 7  89477910.60045  21851417.883                    21851420.352
        46.000          33.800
                  82777006.064 7  19881567.906                    19881570.363
                        43.600
                  91033737.053 6  21903071.930                    21903073.980
                        41.600
                                  19493077.445

                  89255807.271 6  21490386.492                    21490387.238
                        38.100
                  87343184.562 7  21000381.758                    21000384.879
                        43.700
                  89208469.200 7  21433802.773                    21433804.367
                        43.500
                  86950830.521 7  20876729.992                    20876731.059
                        43.700
 119609786.717 7  93202452.52145  22760985.852                    22760991.586
        42.600          30.800
 120141357.374 8  93616655.45745  22862142.336                    22862144.527
        48.400          32.500
 125994729.282 6  98177723.53744  23976001.125                    23976003.699
        38.300          26.000
 112663284.099 8  87789596.14446  21439110.531                    21439116.453
        48.800          37.300
 117215135.141 7  91336472.50144  22305298.141                    22305301.160
        44.200          29.400
 117424336.805 7  91499503.75546  22345107.047                    22345113.480
        47.500          36.100
 114450637.007 8  89182326.75945  21779232.453                    21779235.789
        48.300          34.500
 109589356.123 8  85394316.65546  20854162.188                    20854165.016
        49.200          37.500
 18  3 11 10 25 29.0000000  0 17R02G20R03R11R12R13R20R21R04G27G07G21
                                G30G28G08G15G13
                  94842902.639 6  22851672.094                    22851672.504
                        40.200
 114831549.391 7  89479205.15045  21851734.391                    21851736.168
        45.600          32.600
                  82778456.256 7  19881916.555                    19881918.379
                        43.300
                  91037059.469 7  21903870.406                    21903873.246
                        42.300
                                  19493269.266

                  89253070.747 6  21489726.133                    21489727.230
                        38.300
                  87344656.244 7  21000734.977                    21000738.332
                        43.400
                  89206551.562 7  21433341.992                    21433343.840
                        43.800
                  86948799.516 7  20876242.703                    20876243.344
                        44.100
 119612144.973 6  93204290.12445  22761435.281                    22761439.965
        41.800          31.800
 120144739.213 8  93619290.64645  22862785.906                    22862788.148
        49.500          34.100
 125996966.450 6  98179466.77044  23976426.469                    23976429.063
        39.300          26.500
 112665428.438 8  87791267.05246  21439518.992                    21439524.461
        49.600          38.100
 117213243.881 7  91334998.80244  22304938.555                    22304941.066
        43.500          29.500
 117423963.321 7  91499212.73145  22345036.320                    22345042.379
        47.200          35.700
 114449058.062 8  89181096.41145  21778931.891                    21778935.000
        48.000          34.700
 109589449.052 8  85394389.06546  20854179.695                    20854183.129
        49.300          37.500
 18  3 11 10 25 30.0000000  0 17R02G20R03R11R12R13R20R21R04G27G07G21
                                G30G28G08G15G13
                  94846671.840 6  22852580.117                    22852580.426
                        39.800
 114833211.478 7  89480500.28945  21852050.102                    21852052.805
        45.500          32.600
                  82779907.183 7  19882265.391                    19882266.496
                        43.400
                  91040382.266 7  21904670.102                    21904672.656
                        42.300
                                  19493461.188

                  89250334.675 6  21489066.836                    21489068.844
                        38.500
                  87346128.724 7  21001090.586                    21001092.707
                        43.600
                  89204634.540 7  21432881.602                    21432883.539
                        43.800
                  86946769.038 7  20875755.516                    20875756.238
                        44.200
 119614503.929 7  93206128.27745  22761883.688                    22761889.313
        42.300          31.200
 120148121.519 8  93621926.22545  22863428.617                    22863431.754
        49.300          33.400
 125999204.145 6  98181210.42444  23976853.047                    23976855.227
        40.100          28.600
 112667573.412 8  87792938.45346  21439926.789                    21439932.188
        49.800          37.800
 117211353.250 7  91333525.57744  22304578.484                    22304581.586
        43.100          29.200
 117423590.604 7  91498922.30545  22344965.563                    22344971.516
        46.800          35.300
 114447479.786 7  89179866.59245  21778631.500                    21778634.578
        47.800          34.800
 109589542.764 8  85394462.08046  20854197.531                    20854200.418
        49.200          37.600
 18  3 11 10 25 31.0000000  0 17R02G20R03R11R12R13R20R21R04G27G07G21
                                G30G28G08G15G13
                  94850441.300 6  22853487.641                    22853488.387
                        39.600
 114834874.294 7  89481795.98645  21852366.820                    21852368.965
        45.600          32.300
                  82781358.789 7  19882613.406                    19882615.688
                        43.400
                  91043705.409 7  21905470.250                    21905472.215
                        42.400
                                  19493653.375

                  89247598.955 6  21488409.445                    21488410.457
                        39.300
                  87347601.949 7  21001444.648                    21001447.512
                        43.400
                  89202718.138 7  21432420.805                    21432423.180
                        44.100
                  86944739.112 7  20875267.234                    20875268.523
                        44.200
 119616863.605 7  93207966.99745  22762332.789                    22762338.355
        42.500          30.800
 120151504.227 7  93624562.11245  22864071.641                    22864075.676
        47.800          34.200
 126001442.386 6  98182954.52444  23977278.109                    23977281.172
        39.700          27.500
 112669719.027 8  87794610.36046  21440335.039                    21440340.773
        49.900          38.400
 117209463.054 7  91332052.68844  22304218.539                    22304221.477
        43.200          28.500
 117423218.636 7  91498632.45645  22344894.711                    22344900.789
        46.500          35.000
 114445902.173 8  89178637.28045  21778331.336                    21778334.598
        48.400          34.900
 109589637.228 8  85394535.68946  20854215.313                    20854218.520
        48.700          37.700
 18  3 11 10 25 32.0000000  0 17R02G20R03R11R12R13R20R21R04G27G07G21
                                G30G28G08G15G13
                  94854210.991 6  22854396.078                    22854396.711
                        39.300
 114836537.825 7  89483092.24245  21852683.250                    21852685.980
        45.600          32.000
                  82782811.126 7  19882962.078                    19882964.469
                        43.400
                  91047028.882 7  21906269.430                    21906271.910
                        43.500
                                  19493845.367

                  89244863.660 6  21487752.289                    21487753.227
                        40.000
                  87349075.941 7  21001798.281                    21001801.805
                        43.900
                  89200802.346 7  21431960.930                    21431963.328
                        43.700
                  86942709.723 7  20874780.250                    20874780.859
                        44.300
 119619223.863 7  93209806.16945  22762782.633                    22762787.336
        42.600          31.300
 120154887.382 7  93627198.34745  22864714.734                    22864719.227
        46.800          33.700
 126003681.066 6  98184698.96444  23977704.844                    23977707.148
        39.900          26.900
 112671865.283 8  87796282.76846  21440743.547                    21440749.039
        49.500          38.500
 117207573.409 7  91330580.24044  22303859.813                    22303861.910
        44.000          28.500
 117422847.405 7  91498343.18445  22344824.211                    22344829.957
        46.700          35.500
 114444325.195 8  89177408.46245  21778031.320                    21778034.449
        48.300          35.200
 109589732.429 8  85394609.87346  20854233.492                    20854236.570
        48.100          37.500
 18  3 11 10 25 33.0000000  0 17R02G20R03R11R12R13R20R21R04G27G07G21
                                G30G28G08G15G13
                  94857980.942 6  22855303.891                    22855304.875
                        38.900
 114838202.057 7  89484389.04245  21852999.742                    21853002.234
        45.600          32.900
                  82784264.139 7  19883311.680                    19883312.586
                        43.500
                  91050352.667 7  21907070.539                    21907071.914
                        42.900
                                  19494037.953

                  89242128.716 6  21487094.250                    21487095.234
                        40.100
                  87350550.649 7  21002153.313                    21002156.285
                        43.600
                  89198887.188 7  21431500.820                    21431502.887
                        43.800
                  86940680.900 7  20874293.313                    20874293.914
                        44.400
 119621584.791 7  93211645.86245  22763231.070                    22763236.500
        42.900          31.300
 120158270.946 7  93629834.88045  22865360.063                    22865362.855
        47.600          33.800
 126005920.266 6  98186443.81044  23978130.594                    23978133.719
        40.200          27.100
 112674012.135 8  87797955.63646  21441152.203                    21441157.957
        49.100          38.000
 117205684.269 7  91329108.18344  22303499.219                    22303502.402
        43.400          28.600
 117422476.917 7  91498054.48845  22344754.031                    22344759.438
        47.100          35.300
 114442748.856 8  89176180.14745  21777731.289                    21777734.723
        48.400          34.700
 109589828.396 7  85394684.65346  20854252.133                    20854255.453
        47.900          37.300
 18  3 11 10 25 34.0000000  0 17R02G20R03R11R12R13R20R21R04G27G07G21
                                G30G28G08G15G13
                  94861751.109 6  22856212.031                    22856212.730
                        38.900
 114839867.011 7  89485686.40045  21853316.727                    21853319.477
        44.900          33.000
                  82785717.810 7  19883661.164                    19883662.836
                        43.600
                  91053676.852 7  21907869.711                    21907871.652
                        43.300
                                  19494230.328

                  89239394.170 6  21486436.078                    21486437.301
                        40.400
                  87352026.146 7  21002508.188                    21002511.023
                        43.800
                  89196972.633 7  21431039.680                    21431043.566
                        43.500
                  86938652.657 7  20873806.383                    20873807.363
                        44.400
 119623946.425 7  93213486.09245  22763680.219                    22763686.051
        42.300          32.200
 120161654.898 8  93632471.71045  22866004.078                    22866007.227
        48.600          34.000
 126008159.957 6  98188189.02444  23978556.578                    23978560.031
        40.200          26.400
 112676159.619 8  87799628.99646  21441560.500                    21441566.621
        48.800          38.100
 117203795.657 7  91327636.53844  22303140.406                    22303143.258
        43.300          28.500
 117422107.168 7  91497766.37346  22344684.109                    22344689.375
        46.900          36.300
 114441173.166 8  89174952.34045  21777431.578                    21777434.762
        48.300          34.700
 109589925.097 8  85394760.00646  20854269.992                    20854273.145
        48.000          38.100
 18  3 11 10 25 35.0000000  0 17R02G20R03R11R12R13R20R21R04G27G07G21
                                G30G28G08G15G13
                  94865521.545 6  22857118.945                    22857120.969
                        39.600
 114841532.667 7  89486984.31845  21853633.219                    21853636.359
        44.800          32.500
                  82787172.216 7  19884009.281                    19884011.563
                        43.900
                  91057001.383 7  21908669.313                    21908671.832
                        43.500
                                  19494423.336

                  89236659.972 6  21485777.898                    21485779.867
                        40.500
                  87353502.358 7  21002862.234                    21002866.070
                        43.800
                  89195058.675 7  21430580.336                    21430582.941
                        43.900
                  86936624.930 7  20873319.148                    20873320.348
                        44.700
 119626308.698 7  93215326.82545  22764130.023                    22764135.805
        42.800          32.100
 120165039.254 8  93635108.86145  22866648.109                    22866651.070
        48.400          33.700
 126010400.150 6  98189934.61244  23978982.734                    23978985.883
        39.900          27.000
 112678307.724 8  87801302.85046  21441969.477                    21441975.277
        48.400          37.600
 117201907.535 7  91326165.28344  22302780.859                    22302784.031
        43.300          28.500
 117421738.165 7  91497478.84045  22344613.219                    22344619.273
        46.700          35.800
 114439598.131 8  89173725.03345  21777131.984                    21777135.191
        48.300          35.200
 109590022.548 7  85394835.94046  20854288.945                    20854292.246
        47.900          37.700
 18  3 11 10 25 36.0000000  0 17R02G20R03R11R12R13R20R21R04G27G07G21
                                G30G28G08G15G13
                  94869292.157 6  22858027.305                    22858030.531
                        39.800
 114843199.050 7  89488282.79345  21853950.539                    21853953.367
        44.500          32.300
                  82788627.354 7  19884358.617                    19884361.031
                        43.600
                  91060326.263 7  21909469.203                    21909472.082
                        43.500
                                  19494616.281

                  89233926.182 6  21485118.555                    21485121.563
                        39.900
                  87354979.339 7  21003217.844                    21003221.520
                        43.500
                  89193145.348 7  21430121.094                    21430123.492
                        43.800
                  86934597.745 7  20872833.164                    20872833.758
                        44.500
 119628671.648 7  93217168.08845  22764579.188                    22764585.348
        42.700          32.400
 120168424.033 8  93637746.35145  22867292.297                    22867295.148
        48.800          33.700
 126012640.847 6  98191680.59844  23979408.984                    23979412.266
        40.500          26.400
 112680456.467 8  87802977.19346  21442378.305                    21442384.078
        48.800          37.500
 117200019.941 7  91324694.42644  22302422.031                    22302424.496
        43.900          27.700
 117421369.899 7  91497191.88546  22344543.313                    22344549.027
        46.200          36.200
 114438023.752 8  89172498.24645  21776832.328                    21776835.461
        48.200          34.900
 109590120.751 8  85394912.46446  20854307.102                    20854310.711
        48.300          38.000
 18  3 11 10 25 37.0000000  0 17R02G20R03R11R12R13R20R21R04G27G07G21
                                G30G28G08G15G13
                  94873062.958 6  22858935.844                    22858938.887
                        40.500
 114844866.108 7  89489581.79345  21854267.742                    21854270.742
        44.500          32.200
                  82790083.178 7  19884708.930                    19884710.570
                        43.800
                  91063651.491 7  21910269.031                    21910272.289
                        43.000
                                  19494808.750

                  89231192.736 6  21484459.508                    21484462.766
                        38.900
                  87356457.063 7  21003573.391                    21003576.891
                        43.900
                  89191232.604 7  21429660.984                    21429663.535
                        43.900
                  86932571.075 7  20872346.023                    20872346.387
                        44.800
 119631035.196 6  93219009.81345  22765029.453                    22765035.016
        41.700          31.900
 120171809.175 8  93640384.12045  22867936.906                    22867939.738
        49.500          34.600
 126014881.990 6  98193426.94844  23979835.391                    23979838.734
        41.100          26.200
 112682605.800 8  87804651.99146  21442787.258                    21442793.152
        48.100          37.200
 117198132.873 7  91323223.98644  22302062.977                    22302065.492
        43.500          27.800
 117421002.351 7  91496905.48145  22344473.875                    22344479.051
        46.500          35.800
 114436450.000 7  89171271.94445  21776532.703                    21776535.676
        47.900          35.200
 109590219.678 8  85394989.55346  20854326.352                    20854329.539
        48.300          37.900
 18  3 11 10 25 38.0000000  0 17R02G20R03R11R12R13R20R21R04G27G07G21
                                G30G28G08G15G13
                  94876833.908 6  22859844.633                    22859847.234
                        40.100
 114846533.892 7  89490881.36245  21854584.898                    21854588.141
        43.900          32.500
                  82791539.692 7  19885060.719                    19885060.348
                        43.500
                  91066977.049 7  21911068.211                    21911071.855
                        43.000
                                  19495002.773

                  89228459.726 6  21483799.344                    21483803.473
                        38.100
                  87357935.541 7  21003928.242                    21003932.594
                        43.700
                  89189320.479 7  21429202.359                    21429204.180
                        43.700
                  86930544.935 7  20871859.289                    20871860.133
                        44.400
 119633399.452 7  93220852.09745  22765479.336                    22765485.172
        42.000          30.700
 120175194.711 8  93643022.21545  22868580.617                    22868583.758
        49.200          34.100
 126017123.648 7  98195173.70944  23980262.891                    23980265.566
        42.100          27.300
 112684755.759 8  87806327.28146  21443196.969                    21443202.090
        48.600          37.600
 117196246.274 7  91321753.90544  22301703.477                    22301706.824
        43.400          26.700
 117420635.553 7  91496619.66646  22344403.445                    22344409.207
        46.500          36.000
 114434876.887 7  89170046.13545  21776233.414                    21776236.340
        47.500          34.900
 109590319.357 7  85395067.23146  20854345.313                    20854348.395
        47.800          38.100
 18  3 11 10 25 39.0000000  0 17R02G20R03R11R12R13R20R21R04G27G07G21
                                G30G28G08G15G13
                  94880605.123 6  22860752.758                    22860756.535
                        40.600
 114848202.372 7  89492181.46545  21854903.094                    21854905.480
        44.300          32.600
                  82792996.895 7  19885410.227                    19885410.742
                        43.400
                  91070302.958 7  21911869.898                    21911872.195
                        43.000
                                  19495196.203

                  89225727.091 6  21483143.070                    21483144.438
                        37.200
                  87359414.704 7  21004284.648                    21004287.496
                        43.500
                  89187408.956 7  21428743.680                    21428745.035
                        43.900
                  86928519.375 7  20871373.375                    20871373.695
                        44.400
 119635764.359 7  93222694.87445  22765929.570                    22765934.879
        42.000          32.700
 120178580.686 8  93645660.65045  22869224.258                    22869228.305
        48.700          33.700
 126019365.764 7  98196920.82044  23980689.578                    23980692.055
        42.100          25.800
 112686906.327 8  87808003.04846  21443605.938                    21443611.402
        49.100          37.500
 117194360.206 7  91320284.23744  22301345.734                    22301347.430
        43.700          27.400
 117420269.505 7  91496334.43045  22344333.773                    22344339.348
        46.000          35.500
 114433304.423 7  89168820.83845  21775934.063                    21775937.633
        47.800          35.300
 109590419.789 8  85395145.49046  20854364.516                    20854367.316
        48.300          37.700
 18  3 11 10 25 40.0000000  0 17R02G20R03R11R12R13R20R21R04G27G07G21
                                G30G28G08G15G13
                  94884376.535 6  22861661.422                    22861665.375
                        40.900
 114849871.526 7  89493482.10045  21855220.875                    21855223.195
        45.200          32.000
                  82794454.780 7  19885759.813                    19885761.156
                        43.300
                  91073629.171 7  21912669.719                    21912671.965
                        43.400
                                  19495389.969

                  89222994.790 6  21482486.148                    21482485.922
                        37.100
                  87360894.627 7  21004639.805                    21004643.313
                        43.700
                  89185498.021 7  21428283.563                    21428286.363
                        43.000
                  86926494.344 7  20870886.742                    20870888.371
                        44.400
 119638129.850 7  93224538.10445  22766380.383                    22766385.051
        42.400          32.100
 120181967.047 8  93648299.37345  22869868.984                    22869873.125
        48.600          33.500
 126021608.367 7  98198668.30844  23981115.172                    23981118.668
        42.300          27.300
 112689057.472 8  87809679.25546  21444015.141                    21444020.457
        49.600          37.300
 117192474.625 7  91318814.94044  22300985.758                    22300988.836
        42.700          28.200
 117419904.138 7  91496049.72946  22344264.336                    22344269.590
        45.800          36.200
 114431732.556 8  89167596.00645  21775635.188                    21775638.184
        48.000          35.100
 109590520.928 8  85395224.30146  20854384.328                    20854386.832
        48.600          37.500
 18  3 11 10 25 41.0000000  0 17R02G20R03R11R12R13R20R21R04G27G07G21
                                G30G28G08G15G13
                  94888148.190 6  22862570.133                    22862574.281
                        41.300
 114851541.333 7  89494783.24345  21855539.633                    21855541.441
        45.600          33.500
                  82795913.346 7  19886109.328                    19886111.309
                        43.300
                  91076955.719 7  21913471.133                    21913472.816
                        43.300
                                  19495584.141

                  89220262.818 6  21481830.016                    21481827.250
                        37.300
                  87362375.250 7  21004996.672                    21004999.137
                        44.000
                  89183587.715 7  21427825.281                    21427825.945
                        43.100
                  86924469.797 7  20870400.961                    20870402.465
                        43.900
 119640496.021 7  93226381.87045  22766830.305                    22766835.832
        42.800          32.100
 120185353.753 8  93650938.35745  22870513.383                    22870517.398
        48.700          33.500
 126023851.385 7  98200416.10744  23981541.961                    23981545.555
        42.500          26.400
 112691209.218 8  87811355.94546  21444424.914                    21444430.395
        50.200          37.500
 117190589.495 7  91317346.00344  22300626.758                    22300629.598
        43.400          27.800
 117419539.495 7  91495765.59146  22344194.813                    22344200.449
        45.600          36.000
 114430161.313 8  89166371.66345  21775336.156                    21775339.340
        48.100          34.800
 109590622.775 8  85395303.65546  20854403.625                    20854406.121
        49.200          37.600
 18  3 11 10 25 42.0000000  0 17R02G20R03R11R12R13R20R21R04G27G07G21
                                G30G28G08G15G13
                  94891920.034 6  22863480.586                    22863483.762
                        41.000
 114853211.829 7  89496084.93045  21855857.141                    21855858.613
        45.900          32.500
                  82797372.589 7  19886459.531                    19886461.551
                        43.300
                  91080282.553 7  21914271.719                    21914272.883
                        43.600
                                  19495777.047

                  89217531.204 6  21481172.641                    21481169.527
                        38.100
                  87363856.596 7  21005352.578                    21005355.609
                        43.700
                  89181677.952 7  21427366.563                    21427367.699
                        43.100
                  86922445.787 7  20869914.703                    20869915.918
                        43.800
 119642862.742 7  93228226.06445  22767280.289                    22767286.012
        42.800          31.200
 120188740.824 8  93653577.62445  22871158.602                    22871162.309
        48.900          33.600
 126026094.894 6  98202164.28744  23981968.500                    23981972.477
        41.300          28.100
 112693361.522 8  87813033.06846  21444833.984                    21444839.871
        48.500          37.800
 117188704.890 7  91315877.48244  22300268.734                    22300271.465
        43.000          26.700
 117419175.558 7  91495482.00945  22344126.094                    22344131.508
        45.800          35.400
 114428590.674 8  89165147.78945  21775037.031                    21775040.383
        48.200          34.900
 109590725.323 8  85395383.56146  20854422.758                    20854425.602
        48.200          37.600
 18  3 11 10 25 43.0000000  0 17R02G20R03R11R12R13R20R21R04G27G07G21
                                G30G28G08G15G13
                  94895692.106 6  22864388.617                    22864392.727
                        41.300
 114854883.006 7  89497387.14845  21856175.141                    21856176.887
        46.300          32.500
                  82798832.531 7  19886810.352                    19886812.375
                        43.500
                  91083609.778 7  21915072.297                    21915073.594
                        43.600
                                  19495970.766

                  89214799.961 6  21480514.969                    21480513.395
                        39.100
                  87365338.672 7  21005708.836                    21005711.684
                        43.900
                  89179768.797 7  21426907.586                    21426908.297
                        42.800
                  86920422.351 7  20869429.695                    20869430.395
                        43.900
 119645230.165 7  93230070.82145  22767731.000                    22767736.770
        43.300          31.900
 120192128.312 8  93656217.22745  22871802.297                    22871806.586
        48.200          34.200
 126028338.910 6  98203912.86244  23982395.680                    23982399.590
        40.600          26.500
 112695514.469 8  87814710.69146  21445243.695                    21445249.602
        48.700          37.600
 117186820.761 7  91314409.33544  22299909.578                    22299912.711
        42.500          27.700
 117418812.329 7  91495198.97345  22344056.922                    22344061.980
        45.900          35.900
 114427020.670 8  89163924.40945  21774738.297                    21774741.781
        48.600          35.000
 109590828.646 8  85395464.06346  20854442.555                    20854445.500
        48.700          38.100
 18  3 11 10 25 44.0000000  0 17R02G20R03R11R12R13R20R21R04G27G07G21
                                G30G28G08G15G13
                  94899464.433 6  22865298.695                    22865301.945
                        41.100
 114856554.897 7  89498689.93845  21856492.813                    21856495.207
        46.500          31.800
                  82800293.182 7  19887161.398                    19887163.176
                        43.600
                  91086937.342 7  21915872.430                    21915874.414
                        43.700
                                  19496166.094

                  89212069.129 6  21479857.094                    21479857.016
                        40.100
                  87366821.531 7  21006065.180                    21006068.883
                        44.200
                  89177860.263 7  21426448.883                    21426450.184
                        43.100
                  86918399.436 7  20868944.188                    20868944.152
                        44.100
 119647598.251 7  93231916.09245  22768181.805                    22768187.266
        43.000          32.300
 120195516.234 7  93658857.16745  22872446.508                    22872451.266
        47.600          33.500
 126030583.380 6  98205661.79444  23982823.047                    23982826.898
        40.200          27.000
 112697668.049 8  87816388.80646  21445653.445                    21445659.316
        49.300          38.100
 117184937.158 7  91312941.59744  22299551.469                    22299554.465
        42.900          27.500
 117418449.875 7  91494916.54045  22343988.219                    22343993.203
        45.900          35.700
 114425451.342 8  89162701.55745  21774439.578                    21774442.855
        48.500          34.900
 109590932.676 8  85395545.12346  20854461.828                    20854465.266
        49.000          37.300
 18  3 11 10 25 45.0000000  0 17R02G20R03R11R12R13R20R21R04G27G07G21
                                G30G28G08G15G13
                  94903236.912 6  22866207.727                    22866210.508
                        40.900
 114858227.473 7  89499993.25745  21856810.414                    21856813.555
        45.900          32.200
                  82801754.504 7  19887512.734                    19887514.246
                        43.800
                  91090265.231 7  21916673.148                    21916675.438
                        43.800
                                  19496360.313

                  89209338.669 6  21479197.828                    21479201.289
                        40.500
                  87368305.097 7  21006421.602                    21006425.043
                        44.100
                  89175952.324 7  21425990.211                    21425991.551
                        43.400
                  86916377.042 7  20868458.008                    20868459.262
                        44.200
 119649966.933 7  93233761.81345  22768632.508                    22768638.348
        43.700          32.200
 120198904.523 8  93661497.37645  22873092.586                    22873096.023
        48.300          34.200
 126032828.364 6  98207411.12244  23983250.078                    23983253.395
        39.500          28.200
 112699822.203 8  87818067.36646  21446063.336                    21446069.441
        49.500          38.400
 117183054.028 7  91311474.21644  22299192.984                    22299196.258
        42.900          27.900
 117418088.128 7  91494634.66245  22343919.016                    22343924.320
        45.700          35.500
 114423882.625 8  89161479.18045  21774141.008                    21774144.313
        48.400          34.900
 109591037.474 8  85395626.77946  20854481.609                    20854485.387
        48.300          37.900
 18  3 11 10 25 46.0000000  0 17R02G20R03R11R12R13R20R21R04G27G07G21
                                G30G28G08G15G13
                  94907009.596 6  22867116.828                    22867119.609
                        41.000
 114859900.820 7  89501297.17645  21857127.992                    21857131.688
        45.400          33.000
                  82803216.570 7  19887863.336                    19887865.219
                        43.700
                  91093593.486 7  21917473.055                    21917476.336
                        44.300
                                  19496554.609

                  89206608.633 6  21478538.258                    21478544.000
                        40.900
                  87369789.416 7  21006778.156                    21006781.926
                        43.600
                  89174045.047 7  21425532.961                    21425533.441
                        43.200
                  86914355.223 7  20867972.781                    20867973.785
                        44.200
 119652336.342 7  93235608.10545  22769083.273                    22769089.645
        44.400          32.400
 120202293.259 7  93664137.93945  22873736.805                    22873740.867
        47.800          34.400
 126035073.893 6  98209160.85544  23983677.773                    23983680.965
        38.900          27.900
 112701977.011 8  87819746.43346  21446473.867                    21446479.242
        50.200          37.900
 117181171.486 7  91310007.30544  22298835.398                    22298837.734
        43.800          27.600
 117417727.191 7  91494353.41946  22343850.883                    22343855.934
        45.900          36.000
 114422314.580 8  89160257.32045  21773842.352                    21773845.938
        48.600          34.600
 109591143.023 8  85395709.02446  20854501.453                    20854505.008
        48.300          37.900
 18  3 11 10 25 47.0000000  0 17R02G20R03R11R12R13R20R21R04G27G07G21
                                G30G28G08G15G13
                  94910782.470 6  22868024.680                    22868028.020
                        40.700
 114861574.869 7  89502601.63145  21857446.234                    21857450.398
        44.400          32.500
                  82804679.353 7  19888214.000                    19888216.746
                        43.800
                  91096922.090 7  21918274.156                    21918277.332
                        43.800
                                  19496749.656

                  89203879.052 6  21477882.453                    21477886.602
                        40.600
                  87371274.487 7  21007135.367                    21007138.770
                        43.900
