% program   : RTKPOST ver.2.4.2
% inp file  : Z:\home\linda\Documents\Spring18\GitHub_Unis\data\processed_data\46250703.obs
% inp file  : Z:\home\linda\Documents\Spring18\GitHub_Unis\data\base_station_data\lyrs0700.18o
% inp file  : Z:\home\linda\Documents\Spring18\GitHub_Unis\data\processed_data\46250703.nav
% obs start : 2018/03/11 11:29:01.0 GPST (week1992  41341.0s)
% obs end   : 2018/03/11 11:52:36.0 GPST (week1992  42756.0s)
% pos mode  : static
% freqs     : L1+L2
% solution  : forward
% elev mask : 15.0 deg
% dynamics  : on
% tidecorr  : off
% ionos opt : broadcast
% tropo opt : saastamoinen
% ephemeris : broadcast
% navi sys  : gps glonass galileo qzss sbas
% amb res   : fix and hold
% amb glo   : on
% val thres : 3.0
% antenna1  :                       ( 0.0000  0.0000  0.0000)
% antenna2  :                       ( 0.0000  0.0000  0.0000)
% ref pos   : 78.228825638   15.397310064   495.6816
%
% (lat/lon/height=WGS84/ellipsoidal,Q=1:fix,2:float,3:sbas,4:dgps,5:single,6:ppp,ns=# of satellites)
%  GPST                  latitude(deg) longitude(deg)  height(m)   Q  ns   sdn(m)   sde(m)   sdu(m)  sdne(m)  sdeu(m)  sdun(m) age(s)  ratio
2018/03/11 11:29:01.000   78.256791747   16.230322746   399.7817   2   9   0.4848   0.4089   1.3416  -0.2109  -0.2784   0.5588   0.00    1.2
2018/03/11 11:29:02.000   78.256789345   16.230328309   399.2498   2   9   0.3450   0.2913   0.9555  -0.1498  -0.1980   0.3986   0.00    1.1
2018/03/11 11:29:03.000   78.256788844   16.230329123   398.9575   2   9   0.2822   0.2384   0.7818  -0.1225  -0.1619   0.3263   0.00    1.0
2018/03/11 11:29:04.000   78.256787574   16.230334211   398.5026   2   9   0.2446   0.2067   0.6775  -0.1061  -0.1402   0.2828   0.00    1.1
2018/03/11 11:29:05.000   78.256787816   16.230333845   398.6795   2   9   0.2188   0.1850   0.6060  -0.0949  -0.1253   0.2529   0.00    1.1
2018/03/11 11:29:06.000   78.256788018   16.230333574   398.8013   2   9   0.1997   0.1690   0.5530  -0.0866  -0.1143   0.2307   0.00    1.2
2018/03/11 11:29:07.000   78.256788097   16.230331529   398.8594   2   9   0.1849   0.1565   0.5117  -0.0801  -0.1056   0.2134   0.00    1.2
2018/03/11 11:29:08.000   78.256788034   16.230331260   398.8861   2   9   0.1729   0.1464   0.4782  -0.0749  -0.0986   0.1994   0.00    1.2
2018/03/11 11:29:09.000   78.256788180   16.230330819   398.9102   2   9   0.1629   0.1380   0.4503  -0.0705  -0.0928   0.1877   0.00    1.2
2018/03/11 11:29:10.000   78.256787961   16.230331210   398.8520   2   9   0.1544   0.1310   0.4267  -0.0668  -0.0878   0.1777   0.00    1.2
2018/03/11 11:29:11.000   78.256788098   16.230332009   398.8594   2   9   0.1471   0.1249   0.4062  -0.0636  -0.0835   0.1691   0.00    1.2
2018/03/11 11:29:12.000   78.256788169   16.230332275   398.9665   2   9   0.1407   0.1195   0.3883  -0.0608  -0.0797   0.1615   0.00    1.2
2018/03/11 11:29:13.000   78.256788267   16.230332309   399.0114   2   9   0.1351   0.1148   0.3723  -0.0583  -0.0763   0.1548   0.00    1.2
2018/03/11 11:29:14.000   78.256788426   16.230332960   399.0702   2   9   0.1300   0.1106   0.3581  -0.0561  -0.0733   0.1488   0.00    1.2
2018/03/11 11:29:15.000   78.256788509   16.230334285   399.1735   2   9   0.1255   0.1069   0.3452  -0.0541  -0.0705   0.1433   0.00    1.2
2018/03/11 11:29:16.000   78.256788500   16.230334971   399.2767   2   9   0.1214   0.1035   0.3335  -0.0523  -0.0680   0.1383   0.00    1.1
2018/03/11 11:29:17.000   78.256788803   16.230336108   399.3138   2   9   0.1176   0.1003   0.3227  -0.0506  -0.0657   0.1338   0.00    1.1
2018/03/11 11:29:18.000   78.256788913   16.230335434   399.4032   2   9   0.1141   0.0975   0.3128  -0.0491  -0.0635   0.1295   0.00    1.1
2018/03/11 11:29:19.000   78.256789293   16.230334117   399.5232   2   9   0.1109   0.0949   0.3037  -0.0476  -0.0615   0.1256   0.00    1.1
2018/03/11 11:29:20.000   78.256789676   16.230333389   399.6123   2   9   0.1080   0.0924   0.2951  -0.0463  -0.0596   0.1220   0.00    1.1
2018/03/11 11:29:21.000   78.256790008   16.230333036   399.6504   2   9   0.1052   0.0902   0.2871  -0.0451  -0.0579   0.1185   0.00    1.1
2018/03/11 11:29:22.000   78.256790260   16.230332492   399.7103   2   9   0.1026   0.0881   0.2797  -0.0439  -0.0562   0.1153   0.00    1.1
2018/03/11 11:29:23.000   78.256790624   16.230331689   399.7584   2   9   0.1002   0.0861   0.2726  -0.0428  -0.0546   0.1123   0.00    1.1
2018/03/11 11:29:24.000   78.256790949   16.230330347   399.7742   2   9   0.0979   0.0843   0.2660  -0.0418  -0.0531   0.1094   0.00    1.1
2018/03/11 11:29:25.000   78.256791196   16.230329088   399.8224   2   9   0.0958   0.0825   0.2597  -0.0408  -0.0517   0.1067   0.00    1.1
2018/03/11 11:29:26.000   78.256791389   16.230328802   399.8760   2   9   0.0937   0.0809   0.2538  -0.0399  -0.0504   0.1041   0.00    1.2
2018/03/11 11:29:27.000   78.256791579   16.230328168   399.8939   2   9   0.0918   0.0794   0.2481  -0.0390  -0.0491   0.1016   0.00    1.1
2018/03/11 11:29:28.000   78.256791680   16.230327666   399.9566   2   9   0.0900   0.0779   0.2427  -0.0382  -0.0478   0.0993   0.00    1.1
2018/03/11 11:29:29.000   78.256791839   16.230326868   400.0150   2   9   0.0882   0.0765   0.2375  -0.0374  -0.0466   0.0970   0.00    1.1
2018/03/11 11:29:30.000   78.256791984   16.230326254   400.0498   2   9   0.0866   0.0752   0.2326  -0.0366  -0.0455   0.0949   0.00    1.0
2018/03/11 11:29:31.000   78.256792113   16.230325834   400.1002   2   9   0.0850   0.0739   0.2279  -0.0359  -0.0444   0.0928   0.00    1.0
2018/03/11 11:29:32.000   78.256792128   16.230325574   400.1103   2   9   0.0835   0.0727   0.2233  -0.0352  -0.0433   0.0908   0.00    1.0
2018/03/11 11:29:33.000   78.256792210   16.230325972   400.1051   2   9   0.0820   0.0716   0.2190  -0.0345  -0.0423   0.0889   0.00    1.0
2018/03/11 11:29:34.000   78.256792268   16.230326220   400.1237   2   9   0.0806   0.0705   0.2148  -0.0338  -0.0413   0.0870   0.00    1.1
2018/03/11 11:29:35.000   78.256792185   16.230326257   400.1392   2   9   0.0793   0.0694   0.2107  -0.0332  -0.0403   0.0852   0.00    1.1
2018/03/11 11:29:36.000   78.256792077   16.230326335   400.1244   2   9   0.0780   0.0684   0.2068  -0.0326  -0.0394   0.0835   0.00    1.1
2018/03/11 11:29:37.000   78.256792017   16.230326396   400.1310   2   9   0.0767   0.0675   0.2031  -0.0320  -0.0385   0.0818   0.00    1.1
2018/03/11 11:29:38.000   78.256791913   16.230326614   400.1330   2   9   0.0755   0.0665   0.1994  -0.0315  -0.0376   0.0802   0.00    1.1
2018/03/11 11:29:39.000   78.256791762   16.230326791   400.1228   2   9   0.0744   0.0656   0.1959  -0.0309  -0.0367   0.0786   0.00    1.1
2018/03/11 11:29:40.000   78.256791635   16.230326869   400.1056   2   9   0.0733   0.0648   0.1925  -0.0304  -0.0359   0.0771   0.00    1.1
2018/03/11 11:29:41.000   78.256791521   16.230326811   400.0830   2   9   0.0722   0.0639   0.1892  -0.0299  -0.0351   0.0756   0.00    1.1
2018/03/11 11:29:42.000   78.256791454   16.230326817   400.0552   2   9   0.0712   0.0631   0.1860  -0.0294  -0.0343   0.0742   0.00    1.1
2018/03/11 11:29:43.000   78.256791397   16.230326522   400.0638   2   9   0.0701   0.0624   0.1828  -0.0289  -0.0335   0.0728   0.00    1.1
2018/03/11 11:29:44.000   78.256791338   16.230326454   400.0719   2   9   0.0692   0.0616   0.1800  -0.0284  -0.0325   0.0716   0.00    1.1
2018/03/11 11:29:45.000   78.256791256   16.230326515   400.0804   2   9   0.0683   0.0609   0.1773  -0.0279  -0.0315   0.0704   0.00    1.1
2018/03/11 11:29:46.000   78.256791230   16.230326811   400.0810   2   9   0.0674   0.0603   0.1747  -0.0274  -0.0306   0.0692   0.00    1.1
2018/03/11 11:29:47.000   78.256791243   16.230326893   400.1050   2   9   0.0665   0.0596   0.1721  -0.0269  -0.0297   0.0680   0.00    1.1
2018/03/11 11:29:48.000   78.256791254   16.230326730   400.1301   2   9   0.0657   0.0590   0.1695  -0.0264  -0.0288   0.0669   0.00    1.1
2018/03/11 11:29:49.000   78.256791180   16.230326960   400.1402   2   9   0.0648   0.0584   0.1670  -0.0260  -0.0279   0.0658   0.00    1.1
2018/03/11 11:29:50.000   78.256791236   16.230326675   400.1604   2   9   0.0640   0.0578   0.1646  -0.0255  -0.0271   0.0647   0.00    1.1
2018/03/11 11:29:51.000   78.256791261   16.230326544   400.1648   2   9   0.0633   0.0572   0.1622  -0.0251  -0.0263   0.0636   0.00    1.1
2018/03/11 11:29:52.000   78.256791255   16.230326135   400.1544   2   9   0.0625   0.0566   0.1598  -0.0247  -0.0257   0.0626   0.00    1.0
2018/03/11 11:29:53.000   78.256791283   16.230325589   400.1464   2   9   0.0617   0.0560   0.1575  -0.0244  -0.0251   0.0615   0.00    1.0
2018/03/11 11:29:54.000   78.256791352   16.230325302   400.1574   2   9   0.0610   0.0554   0.1552  -0.0240  -0.0245   0.0605   0.00    1.0
2018/03/11 11:29:55.000   78.256791414   16.230325138   400.1525   2   9   0.0603   0.0549   0.1530  -0.0237  -0.0239   0.0595   0.00    1.1
2018/03/11 11:29:56.000   78.256791439   16.230325078   400.1375   2   9   0.0596   0.0544   0.1510  -0.0233  -0.0231   0.0585   0.00    1.1
2018/03/11 11:29:57.000   78.256791430   16.230324952   400.1133   2   9   0.0589   0.0539   0.1488  -0.0230  -0.0226   0.0576   0.00    1.0
2018/03/11 11:29:58.000   78.256791445   16.230324517   400.0969   2   9   0.0582   0.0534   0.1468  -0.0227  -0.0220   0.0566   0.00    1.0
2018/03/11 11:29:59.000   78.256791440   16.230324118   400.0610   2   9   0.0576   0.0529   0.1448  -0.0223  -0.0213   0.0557   0.00    1.0
2018/03/11 11:30:00.000   78.256791426   16.230323711   400.0192   2   9   0.0570   0.0524   0.1429  -0.0219  -0.0206   0.0549   0.00    1.0
2018/03/11 11:30:01.000   78.256791434   16.230323362   399.9886   2   9   0.0564   0.0520   0.1411  -0.0216  -0.0199   0.0540   0.00    1.0
2018/03/11 11:30:02.000   78.256791447   16.230323098   399.9627   2   9   0.0558   0.0515   0.1392  -0.0213  -0.0192   0.0532   0.00    1.0
2018/03/11 11:30:03.000   78.256791498   16.230322528   399.9553   2   9   0.0552   0.0511   0.1374  -0.0210  -0.0185   0.0524   0.00    1.0
2018/03/11 11:30:04.000   78.256791522   16.230322309   399.9384   2   9   0.0546   0.0507   0.1357  -0.0206  -0.0178   0.0516   0.00    1.2
2018/03/11 11:30:05.000   78.256791536   16.230322021   399.9143   2   9   0.0541   0.0503   0.1339  -0.0203  -0.0171   0.0508   0.00    1.2
2018/03/11 11:30:06.000   78.256791564   16.230321986   399.8973   2   9   0.0535   0.0499   0.1322  -0.0200  -0.0164   0.0500   0.00    1.2
2018/03/11 11:30:07.000   78.256791544   16.230321996   399.8741   2   9   0.0530   0.0495   0.1306  -0.0197  -0.0158   0.0493   0.00    1.2
2018/03/11 11:30:08.000   78.256791468   16.230321554   399.8207   2   9   0.0524   0.0491   0.1289  -0.0195  -0.0153   0.0485   0.00    1.0
2018/03/11 11:30:09.000   78.256791347   16.230321074   399.7713   2   9   0.0519   0.0487   0.1272  -0.0192  -0.0148   0.0477   0.00    1.0
2018/03/11 11:30:10.000   78.256791272   16.230320579   399.7267   2   9   0.0514   0.0483   0.1256  -0.0190  -0.0143   0.0470   0.00    1.0
2018/03/11 11:30:11.000   78.256791164   16.230320441   399.6840   2   9   0.0509   0.0479   0.1240  -0.0187  -0.0138   0.0462   0.00    1.1
2018/03/11 11:30:12.000   78.256791107   16.230320165   399.6545   2   9   0.0504   0.0475   0.1224  -0.0185  -0.0133   0.0455   0.00    1.1
2018/03/11 11:30:13.000   78.256791043   16.230319703   399.6135   2   9   0.0499   0.0472   0.1209  -0.0182  -0.0128   0.0448   0.00    1.1
2018/03/11 11:30:14.000   78.256790959   16.230319253   399.5602   2   9   0.0494   0.0468   0.1194  -0.0180  -0.0123   0.0441   0.00    1.1
2018/03/11 11:30:15.000   78.256790893   16.230318961   399.5247   2   9   0.0489   0.0465   0.1179  -0.0178  -0.0118   0.0434   0.00    1.1
2018/03/11 11:30:16.000   78.256790855   16.230318529   399.4867   2   9   0.0485   0.0461   0.1164  -0.0175  -0.0113   0.0427   0.00    1.1
2018/03/11 11:30:17.000   78.256790816   16.230318013   399.4417   2   9   0.0480   0.0458   0.1150  -0.0173  -0.0108   0.0421   0.00    1.1
2018/03/11 11:30:18.000   78.256790759   16.230317508   399.3951   2   9   0.0476   0.0454   0.1137  -0.0171  -0.0101   0.0414   0.00    1.0
2018/03/11 11:30:19.000   78.256790753   16.230317071   399.3509   2   9   0.0472   0.0451   0.1123  -0.0169  -0.0096   0.0408   0.00    1.0
2018/03/11 11:30:20.000   78.256790740   16.230316876   399.3230   2   9   0.0467   0.0448   0.1110  -0.0167  -0.0091   0.0402   0.00    1.0
2018/03/11 11:30:21.000   78.256790716   16.230316747   399.2912   2   9   0.0463   0.0445   0.1096  -0.0164  -0.0085   0.0396   0.00    1.0
2018/03/11 11:30:22.000   78.256790704   16.230316598   399.2691   2   9   0.0459   0.0442   0.1084  -0.0162  -0.0080   0.0390   0.00    1.0
2018/03/11 11:30:23.000   78.256790734   16.230316320   399.2433   2   9   0.0455   0.0439   0.1071  -0.0160  -0.0074   0.0384   0.00    1.0
2018/03/11 11:30:24.000   78.256790781   16.230316172   399.2275   2   9   0.0451   0.0436   0.1058  -0.0158  -0.0068   0.0378   0.00    1.0
2018/03/11 11:30:25.000   78.256790806   16.230315862   399.1973   2   9   0.0447   0.0433   0.1046  -0.0156  -0.0062   0.0372   0.00    1.0
2018/03/11 11:30:26.000   78.256790826   16.230315568   399.1731   2   9   0.0443   0.0430   0.1034  -0.0154  -0.0055   0.0366   0.00    1.0
2018/03/11 11:30:27.000   78.256790852   16.230315191   399.1582   2   9   0.0439   0.0427   0.1022  -0.0152  -0.0047   0.0361   0.00    1.0
2018/03/11 11:30:28.000   78.256790903   16.230314958   399.1233   2   9   0.0436   0.0424   0.1011  -0.0151  -0.0039   0.0355   0.00    1.0
2018/03/11 11:30:29.000   78.256790957   16.230314718   399.0984   2   9   0.0432   0.0422   0.0999  -0.0149  -0.0028   0.0350   0.00    1.0
2018/03/11 11:30:30.000   78.256790997   16.230314510   399.0783   2   9   0.0428   0.0419   0.0988  -0.0147  -0.0010   0.0345   0.00    1.1
2018/03/11 11:30:31.000   78.256791021   16.230314209   399.0600   2   9   0.0425   0.0416   0.0977  -0.0145   0.0024   0.0340   0.00    1.1
2018/03/11 11:30:32.000   78.256791033   16.230313790   399.0368   2   9   0.0421   0.0413   0.0966  -0.0143   0.0034   0.0335   0.00    1.1
2018/03/11 11:30:33.000   78.256791077   16.230313477   399.0212   2   9   0.0418   0.0411   0.0955  -0.0142   0.0042   0.0330   0.00    1.1
2018/03/11 11:30:34.000   78.256791124   16.230312831   398.9944   2   9   0.0414   0.0408   0.0945  -0.0140   0.0049   0.0325   0.00    1.1
2018/03/11 11:30:35.000   78.256791170   16.230312115   398.9698   2   9   0.0411   0.0406   0.0935  -0.0138   0.0054   0.0320   0.00    1.1
2018/03/11 11:30:36.000   78.256791200   16.230311465   398.9429   2   9   0.0408   0.0403   0.0925  -0.0136   0.0059   0.0315   0.00    1.1
2018/03/11 11:30:37.000   78.256791266   16.230310738   398.9282   2   9   0.0404   0.0401   0.0915  -0.0135   0.0063   0.0311   0.00    1.1
2018/03/11 11:30:38.000   78.256791307   16.230310236   398.9157   2   9   0.0401   0.0399   0.0905  -0.0133   0.0067   0.0306   0.00    1.1
2018/03/11 11:30:39.000   78.256791356   16.230309780   398.9063   2   9   0.0398   0.0396   0.0895  -0.0131   0.0071   0.0301   0.00    1.1
2018/03/11 11:30:40.000   78.256791408   16.230309216   398.8996   2   9   0.0395   0.0394   0.0886  -0.0130   0.0074   0.0297   0.00    1.1
2018/03/11 11:30:41.000   78.256791461   16.230308822   398.8873   2   9   0.0392   0.0392   0.0876  -0.0128   0.0077   0.0293   0.00    1.1
2018/03/11 11:30:42.000   78.256791493   16.230308339   398.8766   2   9   0.0389   0.0389   0.0867  -0.0127   0.0080   0.0288   0.00    1.1
2018/03/11 11:30:43.000   78.256791528   16.230307909   398.8532   2   9   0.0386   0.0387   0.0858  -0.0125   0.0082   0.0284   0.00    1.0
2018/03/11 11:30:44.000   78.256791548   16.230307584   398.8419   2   9   0.0383   0.0385   0.0849  -0.0124   0.0085   0.0280   0.00    1.0
2018/03/11 11:30:45.000   78.256791596   16.230307043   398.8260   2   9   0.0380   0.0383   0.0841  -0.0122   0.0087   0.0276   0.00    1.0
2018/03/11 11:30:46.000   78.256791627   16.230306584   398.8027   2   9   0.0377   0.0380   0.0832  -0.0121   0.0089   0.0272   0.00    1.0
2018/03/11 11:30:47.000   78.256791641   16.230306212   398.7744   2   9   0.0375   0.0378   0.0824  -0.0119   0.0091   0.0268   0.00    1.0
2018/03/11 11:30:48.000   78.256791647   16.230305910   398.7433   2   9   0.0372   0.0376   0.0815  -0.0118   0.0093   0.0264   0.00    1.0
2018/03/11 11:30:49.000   78.256791682   16.230305611   398.7123   2   9   0.0369   0.0374   0.0807  -0.0116   0.0094   0.0260   0.00    1.1
2018/03/11 11:30:50.000   78.256791721   16.230305437   398.6850   2   9   0.0366   0.0372   0.0799  -0.0115   0.0096   0.0256   0.00    1.0
2018/03/11 11:30:51.000   78.256791767   16.230305169   398.6630   2   9   0.0364   0.0370   0.0791  -0.0113   0.0097   0.0253   0.00    1.0
2018/03/11 11:30:52.000   78.256791808   16.230304824   398.6414   2   9   0.0361   0.0368   0.0783  -0.0112   0.0099   0.0249   0.00    1.0
2018/03/11 11:30:53.000   78.256791831   16.230304374   398.6079   2   9   0.0358   0.0366   0.0776  -0.0111   0.0100   0.0245   0.00    1.0
2018/03/11 11:30:54.000   78.256791862   16.230304040   398.5817   2   9   0.0356   0.0364   0.0768  -0.0109   0.0101   0.0242   0.00    1.0
2018/03/11 11:30:55.000   78.256791897   16.230303668   398.5641   2   9   0.0353   0.0362   0.0761  -0.0108   0.0103   0.0238   0.00    1.0
2018/03/11 11:30:56.000   78.256791930   16.230303384   398.5389   2   9   0.0351   0.0360   0.0753  -0.0107   0.0104   0.0235   0.00    1.0
2018/03/11 11:30:57.000   78.256791969   16.230303159   398.5240   2   9   0.0348   0.0359   0.0746  -0.0105   0.0105   0.0231   0.00    1.0
2018/03/11 11:30:58.000   78.256792013   16.230302986   398.5062   2   9   0.0346   0.0357   0.0739  -0.0104   0.0106   0.0228   0.00    1.0
2018/03/11 11:30:59.000   78.256792039   16.230302791   398.4910   2   9   0.0344   0.0355   0.0732  -0.0103   0.0107   0.0225   0.00    1.1
2018/03/11 11:31:00.000   78.256792046   16.230302664   398.4798   2   9   0.0341   0.0353   0.0725  -0.0101   0.0108   0.0222   0.00    1.1
2018/03/11 11:31:01.000   78.256792078   16.230302427   398.4751   2   9   0.0339   0.0351   0.0718  -0.0100   0.0109   0.0218   0.00    1.1
2018/03/11 11:31:02.000   78.256792098   16.230302130   398.4691   2   9   0.0337   0.0349   0.0711  -0.0099   0.0109   0.0215   0.00    1.1
2018/03/11 11:31:03.000   78.256792123   16.230301830   398.4570   2   9   0.0334   0.0348   0.0705  -0.0098   0.0110   0.0212   0.00    1.1
2018/03/11 11:31:04.000   78.256792140   16.230301455   398.4498   2   9   0.0332   0.0346   0.0698  -0.0096   0.0111   0.0209   0.00    1.1
2018/03/11 11:31:05.000   78.256792147   16.230300959   398.4433   2   9   0.0330   0.0344   0.0692  -0.0095   0.0112   0.0206   0.00    1.1
2018/03/11 11:31:06.000   78.256792189   16.230300429   398.4389   2   9   0.0328   0.0343   0.0686  -0.0094   0.0112   0.0203   0.00    1.1
2018/03/11 11:31:07.000   78.256792252   16.230299938   398.4444   2   9   0.0326   0.0341   0.0679  -0.0093   0.0113   0.0200   0.00    1.1
2018/03/11 11:31:08.000   78.256792302   16.230299461   398.4402   2   9   0.0323   0.0339   0.0673  -0.0092   0.0113   0.0197   0.00    1.2
2018/03/11 11:31:09.000   78.256792328   16.230298951   398.4347   2   9   0.0321   0.0338   0.0667  -0.0090   0.0114   0.0195   0.00    1.2
2018/03/11 11:31:10.000   78.256792345   16.230298433   398.4257   2   9   0.0319   0.0336   0.0661  -0.0089   0.0114   0.0192   0.00    1.2
2018/03/11 11:31:11.000   78.256792393   16.230297897   398.4294   2   9   0.0317   0.0334   0.0655  -0.0088   0.0115   0.0189   0.00    1.2
2018/03/11 11:31:12.000   78.256792423   16.230297335   398.4280   2   9   0.0315   0.0333   0.0649  -0.0087   0.0115   0.0186   0.00    1.2
2018/03/11 11:31:13.000   78.256792458   16.230296777   398.4249   2   9   0.0313   0.0331   0.0644  -0.0086   0.0116   0.0184   0.00    1.2
2018/03/11 11:31:14.000   78.256792491   16.230296268   398.4139   2   9   0.0311   0.0330   0.0638  -0.0085   0.0116   0.0181   0.00    1.2
2018/03/11 11:31:15.000   78.256792520   16.230295851   398.4116   2   9   0.0309   0.0328   0.0633  -0.0084   0.0116   0.0178   0.00    1.2
2018/03/11 11:31:16.000   78.256792555   16.230295437   398.4146   2   9   0.0307   0.0327   0.0627  -0.0083   0.0117   0.0176   0.00    1.2
2018/03/11 11:31:17.000   78.256792584   16.230295054   398.4167   2   9   0.0305   0.0325   0.0622  -0.0082   0.0117   0.0173   0.00    1.2
2018/03/11 11:31:18.000   78.256792602   16.230294722   398.4166   2   9   0.0303   0.0324   0.0616  -0.0080   0.0117   0.0171   0.00    1.2
2018/03/11 11:31:19.000   78.256792635   16.230294405   398.4100   2   9   0.0301   0.0322   0.0611  -0.0079   0.0118   0.0168   0.00    1.2
2018/03/11 11:31:20.000   78.256792651   16.230294253   398.4028   2   9   0.0300   0.0321   0.0606  -0.0078   0.0118   0.0166   0.00    1.2
2018/03/11 11:31:21.000   78.256792669   16.230294128   398.3985   2   9   0.0298   0.0319   0.0601  -0.0077   0.0118   0.0164   0.00    1.2
2018/03/11 11:31:22.000   78.256792693   16.230293999   398.3926   2   9   0.0296   0.0318   0.0596  -0.0076   0.0118   0.0161   0.00    1.2
2018/03/11 11:31:23.000   78.256792720   16.230293897   398.3808   2   9   0.0294   0.0316   0.0591  -0.0075   0.0119   0.0159   0.00    1.2
2018/03/11 11:31:24.000   78.256792741   16.230293983   398.3680   2   9   0.0292   0.0315   0.0586  -0.0074   0.0119   0.0157   0.00    1.2
2018/03/11 11:31:25.000   78.256792755   16.230294069   398.3489   2   9   0.0290   0.0313   0.0581  -0.0073   0.0119   0.0154   0.00    1.2
2018/03/11 11:31:26.000   78.256792776   16.230294203   398.3333   2   9   0.0289   0.0312   0.0576  -0.0072   0.0119   0.0152   0.00    1.2
2018/03/11 11:31:27.000   78.256792782   16.230294373   398.3189   2   9   0.0287   0.0311   0.0571  -0.0071   0.0119   0.0150   0.00    1.2
2018/03/11 11:31:28.000   78.256792813   16.230294481   398.3055   2   9   0.0285   0.0309   0.0567  -0.0070   0.0119   0.0148   0.00    1.2
2018/03/11 11:31:29.000   78.256792842   16.230294611   398.2917   2   9   0.0284   0.0308   0.0562  -0.0069   0.0119   0.0146   0.00    1.2
2018/03/11 11:31:30.000   78.256792851   16.230294809   398.2738   2   9   0.0282   0.0307   0.0557  -0.0068   0.0119   0.0144   0.00    1.2
2018/03/11 11:31:31.000   78.256792877   16.230294911   398.2566   2   9   0.0280   0.0305   0.0553  -0.0067   0.0119   0.0142   0.00    1.3
2018/03/11 11:31:32.000   78.256792922   16.230295066   398.2428   2   9   0.0279   0.0304   0.0549  -0.0066   0.0119   0.0139   0.00    1.3
2018/03/11 11:31:33.000   78.256792968   16.230295117   398.2321   2   9   0.0277   0.0303   0.0544  -0.0065   0.0120   0.0137   0.00    1.3
2018/03/11 11:31:34.000   78.256793006   16.230295068   398.2216   2   9   0.0275   0.0301   0.0540  -0.0064   0.0120   0.0135   0.00    1.3
2018/03/11 11:31:35.000   78.256793076   16.230295034   398.2125   2   9   0.0274   0.0300   0.0536  -0.0063   0.0120   0.0134   0.00    1.3
2018/03/11 11:31:36.000   78.256793135   16.230295039   398.2128   2   9   0.0272   0.0299   0.0531  -0.0063   0.0120   0.0132   0.00    1.3
2018/03/11 11:31:37.000   78.256793165   16.230295011   398.2118   2   9   0.0271   0.0298   0.0527  -0.0062   0.0120   0.0130   0.00    1.3
2018/03/11 11:31:38.000   78.256793204   16.230294841   398.2100   2   9   0.0269   0.0296   0.0523  -0.0061   0.0120   0.0128   0.00    1.3
2018/03/11 11:31:39.000   78.256793259   16.230294598   398.2068   2   9   0.0268   0.0295   0.0519  -0.0060   0.0120   0.0126   0.00    1.3
2018/03/11 11:31:40.000   78.256793306   16.230294447   398.2058   2   9   0.0266   0.0294   0.0515  -0.0059   0.0119   0.0124   0.00    1.3
2018/03/11 11:31:41.000   78.256793336   16.230294241   398.2023   2   9   0.0264   0.0293   0.0511  -0.0058   0.0119   0.0122   0.00    1.3
2018/03/11 11:31:42.000   78.256793364   16.230294013   398.1991   2   9   0.0263   0.0291   0.0507  -0.0057   0.0119   0.0120   0.00    1.3
2018/03/11 11:31:43.000   78.256793399   16.230293815   398.1959   2   9   0.0262   0.0290   0.0503  -0.0056   0.0119   0.0119   0.00    1.3
2018/03/11 11:31:44.000   78.256793413   16.230293582   398.1951   2   9   0.0260   0.0289   0.0500  -0.0055   0.0119   0.0117   0.00    1.3
2018/03/11 11:31:45.000   78.256793432   16.230293345   398.1926   2   9   0.0259   0.0288   0.0496  -0.0054   0.0119   0.0115   0.00    1.3
2018/03/11 11:31:46.000   78.256793452   16.230293229   398.1900   2   9   0.0257   0.0287   0.0492  -0.0053   0.0119   0.0113   0.00    1.3
2018/03/11 11:31:47.000   78.256793472   16.230293156   398.1867   2   9   0.0256   0.0286   0.0488  -0.0053   0.0119   0.0112   0.00    1.3
2018/03/11 11:31:48.000   78.256793479   16.230293133   398.1805   2   9   0.0254   0.0284   0.0485  -0.0052   0.0119   0.0110   0.00    1.3
2018/03/11 11:31:49.000   78.256793495   16.230293101   398.1743   2   9   0.0253   0.0283   0.0481  -0.0051   0.0119   0.0108   0.00    1.3
2018/03/11 11:31:50.000   78.256793524   16.230293162   398.1724   2   9   0.0252   0.0282   0.0478  -0.0050   0.0119   0.0107   0.00    1.3
2018/03/11 11:31:51.000   78.256793537   16.230293202   398.1684   2   9   0.0250   0.0281   0.0474  -0.0049   0.0118   0.0105   0.00    1.3
2018/03/11 11:31:52.000   78.256793554   16.230293260   398.1644   2   9   0.0249   0.0280   0.0471  -0.0048   0.0118   0.0104   0.00    1.3
2018/03/11 11:31:53.000   78.256793563   16.230293307   398.1613   2   9   0.0248   0.0279   0.0467  -0.0047   0.0118   0.0102   0.00    1.3
2018/03/11 11:31:54.000   78.256793561   16.230293337   398.1568   2   9   0.0246   0.0278   0.0464  -0.0046   0.0118   0.0101   0.00    1.3
2018/03/11 11:31:55.000   78.256793581   16.230293447   398.1556   2   9   0.0245   0.0277   0.0461  -0.0046   0.0118   0.0099   0.00    1.3
2018/03/11 11:31:56.000   78.256793601   16.230293622   398.1481   2   9   0.0244   0.0276   0.0457  -0.0045   0.0118   0.0097   0.00    1.3
2018/03/11 11:31:57.000   78.256793622   16.230293797   398.1442   2   9   0.0242   0.0275   0.0454  -0.0044   0.0118   0.0096   0.00    1.3
2018/03/11 11:31:58.000   78.256793643   16.230294101   398.1410   2   9   0.0241   0.0273   0.0451  -0.0043   0.0117   0.0095   0.00    1.4
2018/03/11 11:31:59.000   78.256793649   16.230294404   398.1409   2   9   0.0240   0.0272   0.0448  -0.0042   0.0117   0.0093   0.00    1.4
2018/03/11 11:32:00.000   78.256793666   16.230294604   398.1377   2   9   0.0238   0.0271   0.0444  -0.0041   0.0117   0.0092   0.00    1.4
2018/03/11 11:32:01.000   78.256793695   16.230294809   398.1331   2   9   0.0237   0.0270   0.0441  -0.0040   0.0117   0.0090   0.00    1.4
2018/03/11 11:32:02.000   78.256793715   16.230294945   398.1297   2   9   0.0236   0.0269   0.0438  -0.0039   0.0117   0.0089   0.00    1.4
2018/03/11 11:32:03.000   78.256793731   16.230295074   398.1296   2   9   0.0235   0.0268   0.0435  -0.0039   0.0117   0.0087   0.00    1.4
2018/03/11 11:32:04.000   78.256793746   16.230295185   398.1279   2   9   0.0234   0.0267   0.0432  -0.0038   0.0116   0.0086   0.00    1.4
2018/03/11 11:32:05.000   78.256793774   16.230295371   398.1265   2   9   0.0232   0.0266   0.0429  -0.0037   0.0116   0.0085   0.00    1.4
2018/03/11 11:32:06.000   78.256793797   16.230295558   398.1277   2   9   0.0231   0.0265   0.0426  -0.0036   0.0116   0.0083   0.00    1.4
2018/03/11 11:32:07.000   78.256793809   16.230295712   398.1300   2   9   0.0230   0.0264   0.0423  -0.0035   0.0116   0.0082   0.00    1.4
2018/03/11 11:32:08.000   78.256793822   16.230295904   398.1294   2   9   0.0229   0.0263   0.0421  -0.0034   0.0116   0.0081   0.00    1.4
2018/03/11 11:32:09.000   78.256793849   16.230296106   398.1324   2   9   0.0228   0.0262   0.0418  -0.0033   0.0115   0.0079   0.00    1.4
2018/03/11 11:32:10.000   78.256793876   16.230296280   398.1336   2   9   0.0226   0.0261   0.0415  -0.0032   0.0115   0.0078   0.00    1.4
2018/03/11 11:32:11.000   78.256793908   16.230296424   398.1394   2   9   0.0225   0.0260   0.0412  -0.0032   0.0115   0.0077   0.00    1.4
2018/03/11 11:32:12.000   78.256793930   16.230296531   398.1423   2   9   0.0224   0.0259   0.0409  -0.0031   0.0115   0.0075   0.00    1.4
2018/03/11 11:32:13.000   78.256793951   16.230296642   398.1421   2   9   0.0223   0.0258   0.0407  -0.0030   0.0115   0.0074   0.00    1.4
2018/03/11 11:32:14.000   78.256793959   16.230296760   398.1445   2   9   0.0222   0.0257   0.0404  -0.0029   0.0114   0.0073   0.00    1.4
2018/03/11 11:32:15.000   78.256793958   16.230296909   398.1482   2   9   0.0221   0.0256   0.0401  -0.0028   0.0114   0.0072   0.00    1.4
2018/03/11 11:32:16.000   78.256793962   16.230297007   398.1501   2   9   0.0220   0.0256   0.0399  -0.0027   0.0114   0.0071   0.00    1.4
2018/03/11 11:32:17.000   78.256793979   16.230297041   398.1526   2   9   0.0219   0.0255   0.0396  -0.0026   0.0114   0.0069   0.00    1.4
2018/03/11 11:32:18.000   78.256794005   16.230297194   398.1559   2   9   0.0218   0.0254   0.0393  -0.0025   0.0113   0.0068   0.00    1.4
2018/03/11 11:32:19.000   78.256794022   16.230297330   398.1583   2   9   0.0217   0.0253   0.0391  -0.0024   0.0113   0.0067   0.00    1.4
2018/03/11 11:32:20.000   78.256794036   16.230297484   398.1635   2   9   0.0215   0.0252   0.0388  -0.0023   0.0113   0.0066   0.00    1.4
2018/03/11 11:32:21.000   78.256794061   16.230297609   398.1652   2   9   0.0214   0.0251   0.0386  -0.0022   0.0113   0.0065   0.00    1.4
2018/03/11 11:32:22.000   78.256794085   16.230297781   398.1698   2   9   0.0213   0.0250   0.0383  -0.0021   0.0113   0.0063   0.00    1.4
2018/03/11 11:32:23.000   78.256794104   16.230297967   398.1763   2   9   0.0212   0.0249   0.0381  -0.0020   0.0112   0.0062   0.00    1.4
2018/03/11 11:32:24.000   78.256794118   16.230298090   398.1786   2   9   0.0211   0.0248   0.0379  -0.0019   0.0112   0.0061   0.00    1.4
2018/03/11 11:32:25.000   78.256794131   16.230298098   398.1782   2   9   0.0210   0.0247   0.0376  -0.0017   0.0112   0.0060   0.00    1.5
2018/03/11 11:32:26.000   78.256794150   16.230298218   398.1822   2   9   0.0209   0.0247   0.0374  -0.0016   0.0112   0.0059   0.00    1.5
2018/03/11 11:32:27.000   78.256794183   16.230298417   398.1851   2   9   0.0208   0.0246   0.0371  -0.0015   0.0111   0.0058   0.00    1.5
2018/03/11 11:32:28.000   78.256794226   16.230298601   398.1874   2   9   0.0207   0.0245   0.0369  -0.0013   0.0111   0.0057   0.00    1.5
2018/03/11 11:32:29.000   78.256794273   16.230298849   398.1937   2   9   0.0206   0.0244   0.0367  -0.0012   0.0111   0.0056   0.00    1.5
2018/03/11 11:32:30.000   78.256794301   16.230299047   398.1972   2   9   0.0205   0.0243   0.0365  -0.0010   0.0111   0.0055   0.00    1.5
2018/03/11 11:32:31.000   78.256794332   16.230299287   398.2008   2   9   0.0204   0.0242   0.0362  -0.0008   0.0110   0.0053   0.00    1.5
2018/03/11 11:32:32.000   78.256794353   16.230299479   398.2020   2   9   0.0203   0.0241   0.0360  -0.0005   0.0110   0.0052   0.00    1.5
2018/03/11 11:32:33.000   78.256794380   16.230299626   398.2051   2   9   0.0202   0.0241   0.0358   0.0003   0.0110   0.0051   0.00    1.5
2018/03/11 11:32:34.000   78.256794402   16.230299855   398.2073   2   9   0.0201   0.0240   0.0356   0.0007   0.0110   0.0050   0.00    1.5
2018/03/11 11:32:35.000   78.256794425   16.230300029   398.2089   2   9   0.0201   0.0239   0.0354   0.0009   0.0109   0.0049   0.00    1.5
2018/03/11 11:32:36.000   78.256794447   16.230300185   398.2119   2   9   0.0200   0.0238   0.0351   0.0011   0.0109   0.0048   0.00    1.5
2018/03/11 11:32:37.000   78.256794469   16.230300299   398.2175   2   9   0.0199   0.0237   0.0349   0.0012   0.0109   0.0047   0.00    1.5
2018/03/11 11:32:38.000   78.256794489   16.230300383   398.2222   2   9   0.0198   0.0236   0.0347   0.0013   0.0109   0.0046   0.00    1.5
2018/03/11 11:32:39.000   78.256794504   16.230300468   398.2301   2   9   0.0197   0.0236   0.0345   0.0015   0.0108   0.0045   0.00    1.5
2018/03/11 11:32:40.000   78.256794514   16.230300466   398.2343   2   9   0.0196   0.0235   0.0343   0.0016   0.0108   0.0044   0.00    1.5
2018/03/11 11:32:41.000   78.256794518   16.230300489   398.2411   2   9   0.0195   0.0234   0.0341   0.0017   0.0108   0.0043   0.00    1.5
2018/03/11 11:32:42.000   78.256794517   16.230300473   398.2483   2   9   0.0194   0.0233   0.0339   0.0017   0.0108   0.0042   0.00    1.5
2018/03/11 11:32:43.000   78.256794508   16.230300511   398.2571   2   9   0.0193   0.0232   0.0337   0.0018   0.0107   0.0041   0.00    1.5
2018/03/11 11:32:44.000   78.256794486   16.230300505   398.2645   2   9   0.0192   0.0232   0.0335   0.0019   0.0107   0.0040   0.00    1.5
2018/03/11 11:32:45.000   78.256794469   16.230300477   398.2686   2   9   0.0192   0.0231   0.0333   0.0020   0.0107   0.0039   0.00    1.5
2018/03/11 11:32:46.000   78.256794442   16.230300515   398.2771   2   9   0.0191   0.0230   0.0331   0.0020   0.0107   0.0038   0.00    1.5
2018/03/11 11:32:47.000   78.256794418   16.230300579   398.2869   2   9   0.0190   0.0229   0.0329   0.0021   0.0106   0.0037   0.00    1.5
2018/03/11 11:32:48.000   78.256794399   16.230300583   398.2938   2   9   0.0189   0.0229   0.0327   0.0022   0.0106   0.0036   0.00    1.5
2018/03/11 11:32:49.000   78.256794382   16.230300589   398.3039   2   9   0.0188   0.0228   0.0325   0.0022   0.0106   0.0035   0.00    1.5
2018/03/11 11:32:50.000   78.256794366   16.230300602   398.3094   2   9   0.0187   0.0227   0.0324   0.0023   0.0105   0.0034   0.00    1.5
2018/03/11 11:32:51.000   78.256794354   16.230300643   398.3160   2   9   0.0186   0.0226   0.0322   0.0023   0.0105   0.0033   0.00    1.5
2018/03/11 11:32:52.000   78.256794341   16.230300712   398.3207   2   9   0.0186   0.0226   0.0320   0.0024   0.0105   0.0032   0.00    1.5
2018/03/11 11:32:53.000   78.256794335   16.230300855   398.3243   2   9   0.0185   0.0225   0.0318   0.0024   0.0105   0.0031   0.00    1.5
2018/03/11 11:32:54.000   78.256794317   16.230300912   398.3294   2   9   0.0184   0.0224   0.0316   0.0025   0.0104   0.0030   0.00    1.5
2018/03/11 11:32:55.000   78.256794303   16.230301002   398.3348   2   9   0.0183   0.0223   0.0315   0.0025   0.0104   0.0029   0.00    1.5
2018/03/11 11:32:56.000   78.256794290   16.230301077   398.3398   2   9   0.0182   0.0223   0.0313   0.0026   0.0104   0.0028   0.00    1.5
2018/03/11 11:32:57.000   78.256794277   16.230301149   398.3468   2   9   0.0182   0.0222   0.0311   0.0026   0.0104   0.0027   0.00    1.5
2018/03/11 11:32:58.000   78.256794262   16.230301199   398.3536   2   9   0.0181   0.0221   0.0309   0.0027   0.0103   0.0026   0.00    1.5
2018/03/11 11:32:59.000   78.256794252   16.230301272   398.3603   2   9   0.0180   0.0220   0.0308   0.0027   0.0103   0.0025   0.00    1.5
2018/03/11 11:33:00.000   78.256794239   16.230301344   398.3676   2   9   0.0179   0.0220   0.0306   0.0027   0.0103   0.0024   0.00    1.5
2018/03/11 11:33:01.000   78.256794227   16.230301362   398.3764   2   9   0.0178   0.0219   0.0304   0.0028   0.0103   0.0022   0.00    1.5
2018/03/11 11:33:02.000   78.256794217   16.230301332   398.3841   2   9   0.0178   0.0218   0.0303   0.0028   0.0102   0.0021   0.00    1.5
2018/03/11 11:33:03.000   78.256794211   16.230301335   398.3917   2   9   0.0177   0.0218   0.0301   0.0028   0.0102   0.0020   0.00    1.4
2018/03/11 11:33:04.000   78.256794204   16.230301352   398.3982   2   9   0.0176   0.0217   0.0299   0.0029   0.0102   0.0019   0.00    1.4
2018/03/11 11:33:05.000   78.256794185   16.230301380   398.4058   2   9   0.0175   0.0216   0.0298   0.0029   0.0102   0.0018   0.00    1.4
2018/03/11 11:33:06.000   78.256794166   16.230301450   398.4160   2   9   0.0175   0.0215   0.0296   0.0029   0.0101   0.0016   0.00    1.4
2018/03/11 11:33:07.000   78.256794144   16.230301492   398.4269   2   9   0.0174   0.0215   0.0294   0.0030   0.0101   0.0015   0.00    1.4
2018/03/11 11:33:08.000   78.256794107   16.230301563   398.4356   2   9   0.0173   0.0214   0.0293   0.0030   0.0101   0.0013   0.00    1.4
2018/03/11 11:33:09.000   78.256794071   16.230301604   398.4454   2   9   0.0172   0.0213   0.0291   0.0030   0.0101   0.0012   0.00    1.4
2018/03/11 11:33:10.000   78.256794025   16.230301674   398.4554   2   9   0.0172   0.0213   0.0290   0.0030   0.0100   0.0010   0.00    1.4
2018/03/11 11:33:11.000   78.256793973   16.230301840   398.4671   2   9   0.0171   0.0212   0.0288   0.0031   0.0100   0.0008   0.00    1.4
2018/03/11 11:33:12.000   78.256793919   16.230301923   398.4784   2   9   0.0170   0.0211   0.0287   0.0031   0.0100   0.0004   0.00    1.4
2018/03/11 11:33:13.000   78.256793863   16.230302026   398.4888   2   9   0.0170   0.0211   0.0285   0.0031   0.0100  -0.0004   0.00    1.4
2018/03/11 11:33:14.000   78.256793805   16.230302166   398.4982   2   9   0.0169   0.0210   0.0284   0.0031   0.0099  -0.0007   0.00    1.4
2018/03/11 11:33:15.000   78.256793747   16.230302289   398.5080   2   9   0.0168   0.0209   0.0282   0.0032   0.0099  -0.0009   0.00    1.4
2018/03/11 11:33:16.000   78.256793688   16.230302419   398.5203   2   9   0.0168   0.0209   0.0281   0.0032   0.0099  -0.0011   0.00    1.4
2018/03/11 11:33:17.000   78.256793622   16.230302592   398.5314   2   9   0.0167   0.0208   0.0279   0.0032   0.0098  -0.0012   0.00    1.4
2018/03/11 11:33:18.000   78.256793563   16.230302739   398.5419   2   9   0.0166   0.0207   0.0278   0.0032   0.0098  -0.0014   0.00    1.4
2018/03/11 11:33:19.000   78.256793497   16.230302856   398.5500   2   9   0.0165   0.0207   0.0276   0.0032   0.0098  -0.0015   0.00    1.4
2018/03/11 11:33:20.000   78.256793428   16.230303027   398.5575   2   9   0.0165   0.0206   0.0275   0.0033   0.0098  -0.0016   0.00    1.4
2018/03/11 11:33:21.000   78.256793371   16.230303157   398.5656   2   9   0.0164   0.0206   0.0274   0.0033   0.0097  -0.0017   0.00    1.4
2018/03/11 11:33:22.000   78.256793310   16.230303315   398.5733   2   9   0.0163   0.0205   0.0272   0.0033   0.0097  -0.0017   0.00    1.4
2018/03/11 11:33:23.000   78.256793253   16.230303395   398.5844   2   9   0.0163   0.0204   0.0271   0.0033   0.0097  -0.0018   0.00    1.4
2018/03/11 11:33:24.000   78.256793193   16.230303510   398.5910   2   9   0.0162   0.0204   0.0269   0.0033   0.0097  -0.0019   0.00    1.4
2018/03/11 11:33:25.000   78.256793142   16.230303672   398.6003   2   9   0.0161   0.0203   0.0268   0.0034   0.0096  -0.0020   0.00    1.3
2018/03/11 11:33:26.000   78.256793086   16.230303818   398.6078   2   9   0.0161   0.0202   0.0267   0.0034   0.0096  -0.0020   0.00    1.3
2018/03/11 11:33:27.000   78.256793030   16.230303955   398.6145   2   9   0.0160   0.0202   0.0265   0.0034   0.0096  -0.0021   0.00    1.3
2018/03/11 11:33:28.000   78.256792967   16.230304073   398.6220   2   9   0.0160   0.0201   0.0264   0.0034   0.0096  -0.0021   0.00    1.3
2018/03/11 11:33:29.000   78.256792904   16.230304228   398.6295   2   9   0.0159   0.0201   0.0263   0.0034   0.0095  -0.0022   0.00    1.3
2018/03/11 11:33:30.000   78.256792840   16.230304325   398.6360   2   9   0.0158   0.0200   0.0261   0.0034   0.0095  -0.0022   0.00    1.3
2018/03/11 11:33:31.000   78.256792783   16.230304465   398.6423   2   9   0.0158   0.0199   0.0260   0.0034   0.0095  -0.0023   0.00    1.3
2018/03/11 11:33:32.000   78.256792729   16.230304562   398.6503   2   9   0.0157   0.0199   0.0259   0.0035   0.0095  -0.0023   0.00    1.3
2018/03/11 11:33:33.000   78.256792674   16.230304644   398.6581   2   9   0.0156   0.0198   0.0258   0.0035   0.0094  -0.0024   0.00    1.3
2018/03/11 11:33:34.000   78.256792622   16.230304658   398.6638   2   9   0.0156   0.0198   0.0256   0.0035   0.0094  -0.0024   0.00    1.3
2018/03/11 11:33:35.000   78.256792580   16.230304663   398.6707   2   9   0.0155   0.0197   0.0255   0.0035   0.0094  -0.0025   0.00    1.3
2018/03/11 11:33:36.000   78.256792528   16.230304678   398.6779   2   9   0.0155   0.0196   0.0254   0.0035   0.0094  -0.0025   0.00    1.3
2018/03/11 11:33:37.000   78.256792483   16.230304664   398.6824   2   9   0.0154   0.0196   0.0253   0.0035   0.0093  -0.0025   0.00    1.3
2018/03/11 11:33:38.000   78.256792437   16.230304629   398.6861   2   9   0.0153   0.0195   0.0251   0.0035   0.0093  -0.0026   0.00    1.3
2018/03/11 11:33:39.000   78.256792390   16.230304567   398.6907   2   9   0.0153   0.0195   0.0250   0.0035   0.0093  -0.0026   0.00    1.3
2018/03/11 11:33:40.000   78.256792343   16.230304542   398.6947   2   9   0.0152   0.0194   0.0249   0.0035   0.0093  -0.0026   0.00    1.3
2018/03/11 11:33:41.000   78.256792302   16.230304460   398.6994   2   9   0.0152   0.0193   0.0248   0.0036   0.0092  -0.0027   0.00    1.3
2018/03/11 11:33:42.000   78.256792256   16.230304406   398.7028   2   9   0.0151   0.0193   0.0247   0.0036   0.0092  -0.0027   0.00    1.3
2018/03/11 11:33:43.000   78.256792205   16.230304330   398.7058   2   9   0.0150   0.0192   0.0245   0.0036   0.0092  -0.0027   0.00    1.3
2018/03/11 11:33:44.000   78.256792161   16.230304239   398.7104   2   9   0.0150   0.0192   0.0244   0.0036   0.0092  -0.0027   0.00    1.3
2018/03/11 11:33:45.000   78.256792114   16.230304197   398.7131   2   9   0.0149   0.0191   0.0243   0.0036   0.0092  -0.0028   0.00    1.3
2018/03/11 11:33:46.000   78.256792079   16.230304152   398.7166   2   9   0.0149   0.0191   0.0242   0.0036   0.0091  -0.0028   0.00    1.3
2018/03/11 11:33:47.000   78.256792042   16.230304125   398.7192   2   9   0.0148   0.0190   0.0241   0.0036   0.0091  -0.0028   0.00    1.3
2018/03/11 11:33:48.000   78.256792008   16.230304078   398.7198   2   9   0.0148   0.0190   0.0240   0.0036   0.0091  -0.0028   0.00    1.3
2018/03/11 11:33:49.000   78.256791969   16.230304022   398.7173   2   9   0.0147   0.0189   0.0239   0.0036   0.0091  -0.0029   0.00    1.3
2018/03/11 11:33:50.000   78.256791934   16.230304017   398.7154   2   9   0.0146   0.0188   0.0237   0.0036   0.0090  -0.0029   0.00    1.3
2018/03/11 11:33:51.000   78.256791897   16.230303957   398.7146   2   9   0.0146   0.0188   0.0236   0.0036   0.0090  -0.0029   0.00    1.3
2018/03/11 11:33:52.000   78.256791863   16.230303938   398.7140   2   9   0.0145   0.0187   0.0235   0.0036   0.0090  -0.0029   0.00    1.3
2018/03/11 11:33:53.000   78.256791824   16.230303898   398.7143   2   9   0.0145   0.0187   0.0234   0.0037   0.0090  -0.0029   0.00    1.3
2018/03/11 11:33:54.000   78.256791787   16.230303864   398.7148   2   9   0.0144   0.0186   0.0233   0.0037   0.0089  -0.0030   0.00    1.3
2018/03/11 11:33:55.000   78.256791748   16.230303865   398.7147   2   9   0.0144   0.0186   0.0232   0.0037   0.0089  -0.0030   0.00    1.3
2018/03/11 11:33:56.000   78.256791707   16.230303834   398.7155   2   9   0.0143   0.0185   0.0231   0.0037   0.0089  -0.0030   0.00    1.3
2018/03/11 11:33:57.000   78.256791664   16.230303773   398.7155   2   9   0.0143   0.0185   0.0230   0.0037   0.0089  -0.0030   0.00    1.3
2018/03/11 11:33:58.000   78.256791618   16.230303759   398.7157   2   9   0.0142   0.0184   0.0229   0.0037   0.0088  -0.0030   0.00    1.3
2018/03/11 11:33:59.000   78.256791578   16.230303757   398.7148   2   9   0.0142   0.0184   0.0228   0.0037   0.0088  -0.0030   0.00    1.3
2018/03/11 11:34:00.000   78.256791530   16.230303732   398.7132   2   9   0.0141   0.0183   0.0227   0.0037   0.0088  -0.0030   0.00    1.4
2018/03/11 11:34:01.000   78.256791485   16.230303688   398.7126   2   9   0.0141   0.0183   0.0226   0.0037   0.0088  -0.0031   0.00    1.4
2018/03/11 11:34:02.000   78.256791440   16.230303647   398.7124   2   9   0.0140   0.0182   0.0225   0.0037   0.0088  -0.0031   0.00    1.4
2018/03/11 11:34:03.000   78.256791408   16.230303624   398.7124   2   9   0.0140   0.0181   0.0224   0.0037   0.0087  -0.0031   0.00    1.4
2018/03/11 11:34:04.000   78.256791366   16.230303538   398.7115   2   9   0.0139   0.0181   0.0223   0.0037   0.0087  -0.0031   0.00    1.4
2018/03/11 11:34:05.000   78.256791329   16.230303449   398.7096   2   9   0.0139   0.0180   0.0222   0.0037   0.0087  -0.0031   0.00    1.4
2018/03/11 11:34:06.000   78.256791290   16.230303376   398.7079   2   9   0.0138   0.0180   0.0221   0.0037   0.0087  -0.0031   0.00    1.4
2018/03/11 11:34:07.000   78.256791251   16.230303276   398.7063   2   9   0.0138   0.0179   0.0220   0.0037   0.0086  -0.0031   0.00    1.4
2018/03/11 11:34:08.000   78.256791215   16.230303172   398.7052   2   9   0.0137   0.0179   0.0219   0.0037   0.0086  -0.0031   0.00    1.4
2018/03/11 11:34:09.000   78.256791183   16.230303048   398.7036   2   9   0.0137   0.0178   0.0218   0.0037   0.0086  -0.0031   0.00    1.4
2018/03/11 11:34:10.000   78.256791157   16.230302956   398.7020   2   9   0.0136   0.0178   0.0217   0.0037   0.0086  -0.0032   0.00    1.4
2018/03/11 11:34:11.000   78.256791125   16.230302837   398.7012   2   9   0.0136   0.0177   0.0216   0.0037   0.0085  -0.0032   0.00    1.4
2018/03/11 11:34:12.000   78.256791102   16.230302691   398.7004   2   9   0.0135   0.0177   0.0215   0.0037   0.0085  -0.0032   0.00    1.4
2018/03/11 11:34:13.000   78.256791074   16.230302460   398.6994   2   9   0.0135   0.0176   0.0214   0.0037   0.0085  -0.0032   0.00    1.4
2018/03/11 11:34:14.000   78.256791046   16.230302226   398.6990   2   9   0.0134   0.0176   0.0213   0.0037   0.0085  -0.0032   0.00    1.4
2018/03/11 11:34:15.000   78.256791023   16.230301947   398.6986   2   9   0.0134   0.0175   0.0212   0.0037   0.0085  -0.0032   0.00    1.4
2018/03/11 11:34:16.000   78.256790991   16.230301719   398.6973   2   9   0.0133   0.0175   0.0211   0.0037   0.0084  -0.0032   0.00    1.4
2018/03/11 11:34:17.000   78.256790956   16.230301486   398.6971   2   9   0.0133   0.0174   0.0210   0.0038   0.0084  -0.0032   0.00    1.4
2018/03/11 11:34:18.000   78.256790925   16.230301245   398.6975   2   9   0.0132   0.0174   0.0210   0.0038   0.0084  -0.0032   0.00    1.4
2018/03/11 11:34:19.000   78.256790897   16.230301002   398.6969   2   9   0.0132   0.0174   0.0209   0.0038   0.0084  -0.0032   0.00    1.4
2018/03/11 11:34:20.000   78.256790872   16.230300763   398.6955   2   9   0.0131   0.0173   0.0208   0.0038   0.0084  -0.0032   0.00    1.4
2018/03/11 11:34:21.000   78.256790847   16.230300511   398.6927   2   9   0.0131   0.0173   0.0207   0.0038   0.0083  -0.0032   0.00    1.4
2018/03/11 11:34:22.000   78.256790822   16.230300238   398.6899   2   9   0.0130   0.0172   0.0206   0.0038   0.0083  -0.0032   0.00    1.4
2018/03/11 11:34:23.000   78.256790795   16.230299992   398.6859   2   9   0.0130   0.0172   0.0205   0.0038   0.0083  -0.0032   0.00    1.4
2018/03/11 11:34:24.000   78.256790768   16.230299794   398.6840   2   9   0.0130   0.0171   0.0204   0.0038   0.0083  -0.0032   0.00    1.4
2018/03/11 11:34:25.000   78.256790740   16.230299599   398.6822   2   9   0.0129   0.0171   0.0203   0.0038   0.0082  -0.0032   0.00    1.5
2018/03/11 11:34:26.000   78.256790719   16.230299421   398.6801   2   9   0.0129   0.0170   0.0203   0.0038   0.0082  -0.0032   0.00    1.5
2018/03/11 11:34:27.000   78.256790695   16.230299261   398.6789   2   9   0.0128   0.0170   0.0202   0.0038   0.0082  -0.0032   0.00    1.5
2018/03/11 11:34:28.000   78.256790675   16.230299140   398.6770   2   9   0.0128   0.0169   0.0201   0.0038   0.0082  -0.0032   0.00    1.5
2018/03/11 11:34:29.000   78.256790648   16.230299005   398.6760   2   9   0.0127   0.0169   0.0200   0.0038   0.0082  -0.0032   0.00    1.5
2018/03/11 11:34:30.000   78.256790627   16.230298900   398.6736   2   9   0.0127   0.0168   0.0199   0.0038   0.0081  -0.0033   0.00    1.5
2018/03/11 11:34:31.000   78.256790611   16.230298811   398.6735   2   9   0.0127   0.0168   0.0198   0.0038   0.0081  -0.0033   0.00    1.5
2018/03/11 11:34:32.000   78.256790597   16.230298767   398.6741   2   9   0.0126   0.0167   0.0198   0.0038   0.0081  -0.0033   0.00    1.5
2018/03/11 11:34:33.000   78.256790583   16.230298657   398.6724   2   9   0.0126   0.0167   0.0197   0.0038   0.0081  -0.0033   0.00    1.5
2018/03/11 11:34:34.000   78.256790570   16.230298540   398.6699   2   9   0.0125   0.0167   0.0196   0.0038   0.0081  -0.0033   0.00    1.5
2018/03/11 11:34:35.000   78.256790553   16.230298442   398.6669   2   9   0.0125   0.0166   0.0195   0.0038   0.0080  -0.0033   0.00    1.5
2018/03/11 11:34:36.000   78.256790545   16.230298336   398.6642   2   9   0.0124   0.0166   0.0194   0.0038   0.0080  -0.0033   0.00    1.5
2018/03/11 11:34:37.000   78.256790532   16.230298250   398.6628   2   9   0.0124   0.0165   0.0194   0.0038   0.0080  -0.0033   0.00    1.5
2018/03/11 11:34:38.000   78.256790522   16.230298189   398.6617   2   9   0.0124   0.0165   0.0193   0.0038   0.0080  -0.0033   0.00    1.5
2018/03/11 11:34:39.000   78.256790511   16.230298123   398.6614   2   9   0.0123   0.0164   0.0192   0.0038   0.0080  -0.0033   0.00    1.5
2018/03/11 11:34:40.000   78.256790497   16.230298078   398.6597   2   9   0.0123   0.0164   0.0191   0.0038   0.0079  -0.0033   0.00    1.5
2018/03/11 11:34:41.000   78.256790483   16.230297984   398.6593   2   9   0.0122   0.0163   0.0191   0.0038   0.0079  -0.0033   0.00    1.5
2018/03/11 11:34:42.000   78.256790473   16.230297906   398.6598   2   9   0.0122   0.0163   0.0190   0.0038   0.0079  -0.0033   0.00    1.5
2018/03/11 11:34:43.000   78.256790465   16.230297794   398.6589   2   9   0.0122   0.0163   0.0189   0.0038   0.0079  -0.0033   0.00    1.5
2018/03/11 11:34:44.000   78.256790459   16.230297673   398.6579   2   9   0.0121   0.0162   0.0188   0.0038   0.0079  -0.0033   0.00    1.5
2018/03/11 11:34:45.000   78.256790446   16.230297539   398.6559   2   9   0.0121   0.0162   0.0188   0.0038   0.0078  -0.0033   0.00    1.5
2018/03/11 11:34:46.000   78.256790434   16.230297445   398.6534   2   9   0.0120   0.0161   0.0187   0.0038   0.0078  -0.0033   0.00    1.5
2018/03/11 11:34:47.000   78.256790425   16.230297316   398.6517   2   9   0.0120   0.0161   0.0186   0.0038   0.0078  -0.0033   0.00    1.5
2018/03/11 11:34:48.000   78.256790419   16.230297211   398.6497   2   9   0.0120   0.0161   0.0185   0.0038   0.0078  -0.0033   0.00    1.5
2018/03/11 11:34:49.000   78.256790412   16.230297098   398.6492   2   9   0.0119   0.0160   0.0185   0.0038   0.0078  -0.0033   0.00    1.5
2018/03/11 11:34:50.000   78.256790402   16.230297013   398.6482   2   9   0.0119   0.0160   0.0184   0.0038   0.0077  -0.0033   0.00    1.5
2018/03/11 11:34:51.000   78.256790396   16.230296896   398.6464   2   9   0.0118   0.0159   0.0183   0.0037   0.0077  -0.0033   0.00    1.6
2018/03/11 11:34:52.000   78.256790389   16.230296795   398.6452   2   9   0.0118   0.0159   0.0182   0.0037   0.0077  -0.0033   0.00    1.6
2018/03/11 11:34:53.000   78.256790380   16.230296700   398.6436   2   9   0.0118   0.0158   0.0182   0.0037   0.0077  -0.0033   0.00    1.6
2018/03/11 11:34:54.000   78.256790371   16.230296624   398.6422   2   9   0.0117   0.0158   0.0181   0.0037   0.0077  -0.0032   0.00    1.6
2018/03/11 11:34:55.000   78.256790364   16.230296534   398.6398   2   9   0.0117   0.0158   0.0180   0.0037   0.0076  -0.0032   0.00    1.6
2018/03/11 11:34:56.000   78.256790361   16.230296501   398.6377   2   9   0.0117   0.0157   0.0180   0.0037   0.0076  -0.0032   0.00    1.6
2018/03/11 11:34:57.000   78.256790354   16.230296452   398.6351   2   9   0.0116   0.0157   0.0179   0.0037   0.0076  -0.0032   0.00    1.6
2018/03/11 11:34:58.000   78.256790351   16.230296364   398.6325   2   9   0.0116   0.0156   0.0178   0.0037   0.0076  -0.0032   0.00    1.6
2018/03/11 11:34:59.000   78.256790345   16.230296289   398.6297   2   9   0.0115   0.0156   0.0178   0.0037   0.0076  -0.0032   0.00    1.6
2018/03/11 11:35:00.000   78.256790344   16.230296237   398.6261   2   9   0.0115   0.0156   0.0177   0.0037   0.0075  -0.0032   0.00    1.6
2018/03/11 11:35:01.000   78.256790340   16.230296202   398.6228   2   9   0.0115   0.0155   0.0176   0.0037   0.0075  -0.0032   0.00    1.6
2018/03/11 11:35:02.000   78.256790335   16.230296173   398.6193   2   9   0.0114   0.0155   0.0176   0.0037   0.0075  -0.0032   0.00    1.6
2018/03/11 11:35:03.000   78.256790330   16.230296121   398.6147   2   9   0.0114   0.0154   0.0175   0.0037   0.0075  -0.0032   0.00    1.6
2018/03/11 11:35:39.000   78.256790327   16.230296169   398.6150   2   9   0.0114   0.0154   0.0175   0.0037   0.0075  -0.0032   0.00    1.1
2018/03/11 11:35:40.000   78.256790326   16.230296214   398.6150   2   9   0.0114   0.0154   0.0175   0.0037   0.0075  -0.0032   0.00    1.0
2018/03/11 11:35:41.000   78.256790323   16.230296249   398.6151   2   9   0.0114   0.0154   0.0175   0.0037   0.0075  -0.0032   0.00    1.0
2018/03/11 11:35:42.000   78.256790321   16.230296278   398.6152   2   9   0.0114   0.0154   0.0175   0.0037   0.0075  -0.0032   0.00    1.0
2018/03/11 11:35:43.000   78.256790318   16.230296297   398.6154   2   9   0.0114   0.0154   0.0175   0.0037   0.0075  -0.0032   0.00    1.0
2018/03/11 11:35:44.000   78.256790313   16.230296340   398.6159   2   9   0.0114   0.0154   0.0175   0.0037   0.0074  -0.0032   0.00    1.2
2018/03/11 11:35:45.000   78.256790310   16.230296384   398.6164   2   9   0.0114   0.0154   0.0175   0.0037   0.0074  -0.0032   0.00    1.3
2018/03/11 11:35:46.000   78.256790308   16.230296434   398.6169   2   9   0.0114   0.0153   0.0175   0.0037   0.0074  -0.0032   0.00    1.5
2018/03/11 11:35:47.000   78.256790306   16.230296467   398.6171   2   9   0.0114   0.0153   0.0175   0.0037   0.0074  -0.0032   0.00    1.5
2018/03/11 11:35:48.000   78.256790306   16.230296500   398.6173   2   9   0.0114   0.0153   0.0175   0.0037   0.0074  -0.0032   0.00    1.5
2018/03/11 11:35:49.000   78.256790304   16.230296534   398.6177   2   9   0.0113   0.0153   0.0175   0.0036   0.0074  -0.0032   0.00    1.6
2018/03/11 11:35:50.000   78.256790301   16.230296557   398.6181   2   9   0.0113   0.0153   0.0175   0.0036   0.0074  -0.0032   0.00    1.6
2018/03/11 11:35:51.000   78.256790301   16.230296605   398.6185   2   9   0.0113   0.0153   0.0175   0.0036   0.0074  -0.0032   0.00    1.6
2018/03/11 11:35:52.000   78.256790300   16.230296634   398.6187   2   9   0.0113   0.0153   0.0175   0.0036   0.0074  -0.0032   0.00    1.6
2018/03/11 11:35:53.000   78.256790302   16.230296661   398.6190   2   9   0.0113   0.0153   0.0175   0.0036   0.0074  -0.0032   0.00    1.6
2018/03/11 11:35:54.000   78.256790304   16.230296682   398.6192   2   9   0.0113   0.0153   0.0175   0.0036   0.0074  -0.0032   0.00    1.6
2018/03/11 11:35:55.000   78.256790306   16.230296692   398.6193   2   9   0.0113   0.0152   0.0175   0.0036   0.0074  -0.0031   0.00    1.6
2018/03/11 11:35:56.000   78.256790308   16.230296726   398.6196   2   9   0.0113   0.0152   0.0174   0.0036   0.0074  -0.0031   0.00    1.7
2018/03/11 11:35:57.000   78.256790308   16.230296757   398.6198   2   9   0.0113   0.0152   0.0174   0.0036   0.0074  -0.0031   0.00    1.7
2018/03/11 11:35:58.000   78.256790309   16.230296795   398.6200   2   9   0.0113   0.0152   0.0174   0.0036   0.0074  -0.0031   0.00    1.7
2018/03/11 11:35:59.000   78.256790309   16.230296829   398.6201   2   9   0.0113   0.0152   0.0174   0.0036   0.0074  -0.0031   0.00    1.7
2018/03/11 11:36:00.000   78.256790306   16.230296859   398.6204   2   9   0.0113   0.0152   0.0174   0.0036   0.0073  -0.0031   0.00    1.7
2018/03/11 11:36:01.000   78.256790303   16.230296886   398.6208   2   9   0.0113   0.0152   0.0174   0.0036   0.0073  -0.0031   0.00    1.7
2018/03/11 11:36:02.000   78.256790302   16.230296911   398.6211   2   9   0.0113   0.0152   0.0174   0.0035   0.0073  -0.0031   0.00    1.7
2018/03/11 11:36:03.000   78.256790300   16.230296945   398.6214   2   9   0.0113   0.0152   0.0174   0.0035   0.0073  -0.0031   0.00    1.7
2018/03/11 11:36:04.000   78.256790301   16.230297007   398.6217   2   9   0.0113   0.0151   0.0174   0.0035   0.0073  -0.0031   0.00    1.8
2018/03/11 11:36:05.000   78.256790299   16.230297029   398.6217   2   9   0.0113   0.0151   0.0174   0.0035   0.0073  -0.0031   0.00    1.8
2018/03/11 11:36:06.000   78.256790300   16.230297080   398.6219   2   9   0.0113   0.0151   0.0174   0.0035   0.0073  -0.0031   0.00    1.8
2018/03/11 11:36:07.000   78.256790300   16.230297104   398.6220   2   9   0.0113   0.0151   0.0174   0.0035   0.0073  -0.0031   0.00    1.8
2018/03/11 11:36:08.000   78.256790297   16.230297115   398.6221   2   9   0.0113   0.0151   0.0174   0.0035   0.0073  -0.0031   0.00    1.8
2018/03/11 11:36:09.000   78.256790296   16.230297145   398.6220   2   9   0.0113   0.0151   0.0174   0.0035   0.0073  -0.0031   0.00    1.9
2018/03/11 11:36:10.000   78.256790297   16.230297171   398.6218   2   9   0.0113   0.0151   0.0174   0.0035   0.0073  -0.0031   0.00    1.9
2018/03/11 11:36:11.000   78.256790299   16.230297213   398.6220   2   9   0.0112   0.0151   0.0174   0.0035   0.0073  -0.0031   0.00    1.9
2018/03/11 11:36:12.000   78.256790300   16.230297240   398.6220   2   9   0.0112   0.0151   0.0174   0.0035   0.0073  -0.0031   0.00    1.9
2018/03/11 11:36:13.000   78.256790302   16.230297271   398.6221   2   9   0.0112   0.0150   0.0174   0.0035   0.0073  -0.0031   0.00    1.9
2018/03/11 11:36:14.000   78.256790303   16.230297277   398.6219   2   9   0.0112   0.0150   0.0174   0.0035   0.0073  -0.0031   0.00    2.0
2018/03/11 11:36:15.000   78.256790307   16.230297287   398.6217   2   9   0.0112   0.0150   0.0174   0.0035   0.0073  -0.0030   0.00    2.0
2018/03/11 11:36:16.000   78.256790310   16.230297306   398.6217   2   9   0.0112   0.0150   0.0174   0.0035   0.0072  -0.0030   0.00    2.0
2018/03/11 11:36:17.000   78.256790312   16.230297307   398.6214   2   9   0.0112   0.0150   0.0174   0.0034   0.0072  -0.0030   0.00    2.0
2018/03/11 11:36:18.000   78.256790313   16.230297323   398.6214   2   9   0.0112   0.0150   0.0174   0.0034   0.0072  -0.0030   0.00    2.0
2018/03/11 11:36:19.000   78.256790314   16.230297340   398.6215   2   9   0.0112   0.0150   0.0174   0.0034   0.0072  -0.0030   0.00    2.0
2018/03/11 11:36:20.000   78.256790312   16.230297357   398.6217   2   9   0.0112   0.0150   0.0174   0.0034   0.0072  -0.0030   0.00    2.0
2018/03/11 11:36:21.000   78.256790310   16.230297370   398.6218   2   9   0.0112   0.0150   0.0174   0.0034   0.0072  -0.0030   0.00    2.1
2018/03/11 11:36:22.000   78.256790308   16.230297382   398.6219   2   9   0.0112   0.0149   0.0174   0.0034   0.0072  -0.0030   0.00    2.1
2018/03/11 11:36:23.000   78.256790307   16.230297395   398.6221   2   9   0.0112   0.0149   0.0174   0.0034   0.0072  -0.0030   0.00    2.1
2018/03/11 11:36:24.000   78.256790303   16.230297405   398.6224   2   9   0.0112   0.0149   0.0174   0.0034   0.0072  -0.0030   0.00    2.1
2018/03/11 11:36:25.000   78.256790300   16.230297432   398.6229   2   9   0.0112   0.0149   0.0174   0.0034   0.0072  -0.0030   0.00    2.1
2018/03/11 11:36:26.000   78.256790299   16.230297472   398.6230   2   9   0.0112   0.0149   0.0174   0.0034   0.0072  -0.0030   0.00    2.1
2018/03/11 11:36:27.000   78.256790298   16.230297508   398.6234   2   9   0.0112   0.0149   0.0174   0.0034   0.0072  -0.0030   0.00    2.1
2018/03/11 11:36:28.000   78.256790296   16.230297576   398.6240   2   9   0.0112   0.0149   0.0173   0.0034   0.0072  -0.0030   0.00    2.1
2018/03/11 11:36:29.000   78.256790296   16.230297631   398.6245   2   9   0.0112   0.0149   0.0173   0.0034   0.0072  -0.0030   0.00    2.1
