% program   : RTKPOST ver.2.4.2
% inp file  : Z:\home\linda\Documents\Spring18\GitHub_Unis\data\processed_data\46250706.obs
% inp file  : Z:\home\linda\Documents\Spring18\GitHub_Unis\data\processed_data\46250706.nav
% obs start : 2018/03/11 12:52:14.0 GPST (week1992  46334.0s)
% obs end   : 2018/03/11 13:07:15.0 GPST (week1992  47235.0s)
% pos mode  : single
% elev mask : 15.0 deg
% ionos opt : broadcast
% tropo opt : saastamoinen
% ephemeris : broadcast
% navi sys  : gps glonass galileo qzss sbas
%
% (lat/lon/height=WGS84/ellipsoidal,Q=1:fix,2:float,3:sbas,4:dgps,5:single,6:ppp,ns=# of satellites)
%  GPST                  latitude(deg) longitude(deg)  height(m)   Q  ns   sdn(m)   sde(m)   sdu(m)  sdne(m)  sdeu(m)  sdun(m) age(s)  ratio
2018/03/11 12:52:14.000   78.255311723   16.193743758   488.9970   5   8   1.9236   2.1289  11.0455  -0.9050   3.0470  -2.5039   0.00    0.0
2018/03/11 12:52:15.000   78.255311892   16.193737261   487.7928   5   8   1.9235   2.1286  11.0429  -0.9045   3.0450  -2.5028   0.00    0.0
2018/03/11 12:52:16.000   78.255311357   16.193751353   489.2054   5   8   1.9233   2.1283  11.0403  -0.9041   3.0430  -2.5017   0.00    0.0
2018/03/11 12:52:17.000   78.255310461   16.193739150   489.6681   5   8   1.9231   2.1280  11.0376  -0.9036   3.0411  -2.5005   0.00    0.0
2018/03/11 12:52:18.000   78.255318238   16.193735740   486.2953   5   8   1.9230   2.1277  11.0350  -0.9031   3.0391  -2.4994   0.00    0.0
2018/03/11 12:52:19.000   78.255318123   16.193746359   488.2956   5   8   1.9228   2.1273  11.0324  -0.9027   3.0371  -2.4983   0.00    0.0
2018/03/11 12:52:20.000   78.255315241   16.193771053   488.1305   5   8   1.9226   2.1270  11.0297  -0.9022   3.0352  -2.4971   0.00    0.0
2018/03/11 12:52:21.000   78.255317223   16.193765613   489.7246   5   8   1.9225   2.1267  11.0271  -0.9017   3.0332  -2.4960   0.00    0.0
2018/03/11 12:52:22.000   78.255314220   16.193734025   488.4336   5   8   1.9223   2.1264  11.0245  -0.9013   3.0312  -2.4949   0.00    0.0
2018/03/11 12:52:23.000   78.255310136   16.193753902   489.0315   5   8   1.9221   2.1261  11.0218  -0.9008   3.0293  -2.4938   0.00    0.0
2018/03/11 12:52:24.000   78.255302742   16.193773488   491.8709   5   8   1.9220   2.1258  11.0192  -0.9003   3.0273  -2.4926   0.00    0.0
2018/03/11 12:52:25.000   78.255308903   16.193764668   490.5783   5   8   1.9218   2.1255  11.0166  -0.8999   3.0253  -2.4915   0.00    0.0
2018/03/11 12:52:26.000   78.255314823   16.193748717   487.9382   5   8   1.9217   2.1252  11.0139  -0.8994   3.0233  -2.4904   0.00    0.0
2018/03/11 12:52:27.000   78.255315600   16.193777507   489.7790   5   8   1.9215   2.1248  11.0113  -0.8989   3.0214  -2.4892   0.00    0.0
2018/03/11 12:52:28.000   78.255314660   16.193809449   492.2684   5   8   1.9213   2.1245  11.0086  -0.8985   3.0194  -2.4881   0.00    0.0
2018/03/11 12:52:29.000   78.255316151   16.193778633   490.8727   5   8   1.9212   2.1242  11.0060  -0.8980   3.0174  -2.4870   0.00    0.0
2018/03/11 12:52:30.000   78.255317715   16.193766517   486.9004   5   8   1.9210   2.1239  11.0033  -0.8975   3.0154  -2.4858   0.00    0.0
2018/03/11 12:52:31.000   78.255315476   16.193749891   487.6879   5   8   1.9208   2.1236  11.0007  -0.8971   3.0135  -2.4847   0.00    0.0
2018/03/11 12:52:32.000   78.255311721   16.193763212   488.3703   5   8   1.9207   2.1233  10.9980  -0.8966   3.0115  -2.4835   0.00    0.0
2018/03/11 12:52:33.000   78.255312011   16.193757405   488.2157   5   8   1.9205   2.1230  10.9954  -0.8961   3.0095  -2.4824   0.00    0.0
2018/03/11 12:52:34.000   78.255315390   16.193728917   487.5469   5   8   1.9203   2.1227  10.9927  -0.8957   3.0075  -2.4813   0.00    0.0
2018/03/11 12:52:35.000   78.255315834   16.193746280   488.8324   5   8   1.9202   2.1224  10.9901  -0.8952   3.0056  -2.4801   0.00    0.0
2018/03/11 12:52:36.000   78.255312983   16.193751565   490.3742   5   8   1.9200   2.1221  10.9874  -0.8947   3.0036  -2.4790   0.00    0.0
2018/03/11 12:52:37.000   78.255309984   16.193761687   490.0197   5   8   1.9199   2.1217  10.9848  -0.8943   3.0016  -2.4779   0.00    0.0
2018/03/11 12:52:38.000   78.255313439   16.193757844   489.4567   5   8   1.9197   2.1214  10.9821  -0.8938   2.9996  -2.4767   0.00    0.0
2018/03/11 12:52:39.000   78.255314271   16.193745326   489.1030   5   8   1.9195   2.1211  10.9795  -0.8933   2.9977  -2.4756   0.00    0.0
2018/03/11 12:52:40.000   78.255312571   16.193764096   488.8778   5   8   1.9194   2.1208  10.9768  -0.8929   2.9957  -2.4745   0.00    0.0
2018/03/11 12:52:41.000   78.255310351   16.193762420   488.0038   5   8   1.9192   2.1205  10.9741  -0.8924   2.9937  -2.4733   0.00    0.0
2018/03/11 12:52:42.000   78.255309102   16.193751233   488.0355   5   8   1.9190   2.1202  10.9715  -0.8919   2.9917  -2.4722   0.00    0.0
2018/03/11 12:52:43.000   78.255309566   16.193765491   488.9533   5   8   1.9189   2.1199  10.9688  -0.8915   2.9897  -2.4710   0.00    0.0
2018/03/11 12:52:44.000   78.255308666   16.193754700   489.7798   5   8   1.9187   2.1196  10.9662  -0.8910   2.9877  -2.4699   0.00    0.0
2018/03/11 12:52:45.000   78.255307943   16.193786484   491.2812   5   8   1.9186   2.1193  10.9635  -0.8906   2.9858  -2.4687   0.00    0.0
2018/03/11 12:52:46.000   78.255312747   16.193783045   490.2858   5   8   1.9184   2.1190  10.9608  -0.8901   2.9838  -2.4676   0.00    0.0
2018/03/11 12:52:47.000   78.255318628   16.193764001   489.2284   5   8   1.9182   2.1187  10.9582  -0.8896   2.9818  -2.4665   0.00    0.0
2018/03/11 12:52:48.000   78.255315408   16.193754767   488.9537   5   8   1.9181   2.1184  10.9555  -0.8892   2.9798  -2.4653   0.00    0.0
2018/03/11 12:52:49.000   78.255310963   16.193765347   489.8174   5   8   1.9179   2.1181  10.9528  -0.8887   2.9778  -2.4642   0.00    0.0
2018/03/11 12:52:50.000   78.255309586   16.193760016   487.0386   5   8   1.9178   2.1178  10.9502  -0.8882   2.9758  -2.4630   0.00    0.0
2018/03/11 12:52:51.000   78.255308534   16.193737340   487.1420   5   8   1.9176   2.1175  10.9475  -0.8878   2.9739  -2.4619   0.00    0.0
2018/03/11 12:52:52.000   78.255310086   16.193741540   487.2786   5   8   1.9174   2.1172  10.9448  -0.8873   2.9719  -2.4607   0.00    0.0
2018/03/11 12:52:53.000   78.255311501   16.193768353   489.9512   5   8   1.9173   2.1169  10.9421  -0.8868   2.9699  -2.4596   0.00    0.0
2018/03/11 12:52:54.000   78.255311826   16.193780216   491.0559   5   8   1.9171   2.1166  10.9395  -0.8864   2.9679  -2.4585   0.00    0.0
2018/03/11 12:52:55.000   78.255318427   16.193771122   488.2708   5   8   1.9169   2.1163  10.9368  -0.8859   2.9659  -2.4573   0.00    0.0
2018/03/11 12:52:56.000   78.255316195   16.193753131   487.8217   5   8   1.9168   2.1160  10.9341  -0.8854   2.9639  -2.4562   0.00    0.0
2018/03/11 12:52:57.000   78.255316697   16.193770481   489.3633   5   8   1.9166   2.1157  10.9314  -0.8850   2.9619  -2.4550   0.00    0.0
2018/03/11 12:52:58.000   78.255313433   16.193765889   487.8331   5   8   1.9165   2.1154  10.9287  -0.8845   2.9599  -2.4539   0.00    0.0
2018/03/11 12:52:59.000   78.255311063   16.193730446   484.7054   5   8   1.9163   2.1151  10.9261  -0.8841   2.9579  -2.4527   0.00    0.0
2018/03/11 12:53:00.000   78.255314166   16.193739416   486.0101   5   8   1.9161   2.1148  10.9234  -0.8836   2.9560  -2.4516   0.00    0.0
2018/03/11 12:53:01.000   78.255309618   16.193742539   488.0357   5   8   1.9160   2.1145  10.9207  -0.8831   2.9540  -2.4504   0.00    0.0
2018/03/11 12:53:02.000   78.255308260   16.193770895   490.6703   5   8   1.9158   2.1142  10.9181  -0.8826   2.9520  -2.4492   0.00    0.0
2018/03/11 12:53:03.000   78.255313654   16.193754665   490.4360   5   8   1.9157   2.1139  10.9154  -0.8822   2.9500  -2.4481   0.00    0.0
2018/03/11 12:53:04.000   78.255317135   16.193746652   489.2031   5   8   1.9155   2.1136  10.9127  -0.8817   2.9481  -2.4469   0.00    0.0
2018/03/11 12:53:05.000   78.255313658   16.193763522   490.4430   5   8   1.9154   2.1133  10.9101  -0.8812   2.9461  -2.4457   0.00    0.0
2018/03/11 12:53:06.000   78.255311904   16.193777453   491.8791   5   8   1.9152   2.1130  10.9074  -0.8807   2.9441  -2.4446   0.00    0.0
2018/03/11 12:53:07.000   78.255313003   16.193744444   488.0313   5   8   1.9151   2.1127  10.9048  -0.8803   2.9421  -2.4434   0.00    0.0
2018/03/11 12:53:08.000   78.255313967   16.193747176   488.5606   5   8   1.9149   2.1124  10.9021  -0.8798   2.9402  -2.4422   0.00    0.0
2018/03/11 12:53:09.000   78.255313264   16.193745027   489.1489   5   8   1.9147   2.1121  10.8994  -0.8793   2.9382  -2.4410   0.00    0.0
2018/03/11 12:53:10.000   78.255309977   16.193774693   490.8239   5   8   1.9146   2.1118  10.8968  -0.8788   2.9362  -2.4399   0.00    0.0
2018/03/11 12:53:11.000   78.255311515   16.193774254   491.2358   5   8   1.9144   2.1116  10.8941  -0.8784   2.9342  -2.4387   0.00    0.0
2018/03/11 12:53:12.000   78.255314480   16.193756595   490.3729   5   8   1.9143   2.1113  10.8914  -0.8779   2.9322  -2.4375   0.00    0.0
2018/03/11 12:53:13.000   78.255314625   16.193783043   489.9238   5   8   1.9141   2.1110  10.8887  -0.8774   2.9303  -2.4363   0.00    0.0
2018/03/11 12:53:14.000   78.255311295   16.193760542   489.4247   5   8   1.9140   2.1107  10.8861  -0.8770   2.9283  -2.4352   0.00    0.0
2018/03/11 12:53:15.000   78.255313339   16.193761574   487.1417   5   8   1.9138   2.1104  10.8834  -0.8765   2.9263  -2.4340   0.00    0.0
2018/03/11 12:53:16.000   78.255310607   16.193746696   488.4817   5   8   1.9137   2.1101  10.8807  -0.8760   2.9243  -2.4328   0.00    0.0
2018/03/11 12:53:17.000   78.255304648   16.193737651   488.5750   5   8   1.9135   2.1098  10.8781  -0.8755   2.9223  -2.4316   0.00    0.0
2018/03/11 12:53:18.000   78.255309663   16.193749770   484.7084   5   8   1.9134   2.1095  10.8754  -0.8751   2.9204  -2.4305   0.00    0.0
2018/03/11 12:53:19.000   78.255309610   16.193756069   488.3869   5   8   1.9132   2.1092  10.8727  -0.8746   2.9184  -2.4293   0.00    0.0
2018/03/11 12:53:20.000   78.255311764   16.193773620   487.0053   5   8   1.9131   2.1090  10.8700  -0.8741   2.9164  -2.4281   0.00    0.0
2018/03/11 12:53:21.000   78.255315176   16.193795270   488.2650   5   8   1.9129   2.1087  10.8674  -0.8736   2.9144  -2.4269   0.00    0.0
2018/03/11 12:53:22.000   78.255317687   16.193754995   488.7457   5   8   1.9127   2.1084  10.8647  -0.8732   2.9124  -2.4258   0.00    0.0
2018/03/11 12:53:23.000   78.255317431   16.193777470   489.3452   5   8   1.9126   2.1081  10.8620  -0.8727   2.9104  -2.4246   0.00    0.0
2018/03/11 12:53:24.000   78.255312158   16.193778134   491.5064   5   8   1.9124   2.1078  10.8593  -0.8722   2.9084  -2.4234   0.00    0.0
2018/03/11 12:53:25.000   78.255312057   16.193751706   489.8729   5   8   1.9123   2.1075  10.8566  -0.8718   2.9065  -2.4222   0.00    0.0
2018/03/11 12:53:26.000   78.255311059   16.193744770   487.2447   5   8   1.9121   2.1072  10.8539  -0.8713   2.9045  -2.4210   0.00    0.0
2018/03/11 12:53:27.000   78.255311709   16.193743240   490.1734   5   8   1.9120   2.1070  10.8513  -0.8708   2.9025  -2.4199   0.00    0.0
2018/03/11 12:53:28.000   78.255313757   16.193775784   491.0943   5   8   1.9118   2.1067  10.8486  -0.8703   2.9005  -2.4187   0.00    0.0
2018/03/11 12:53:29.000   78.255316935   16.193760630   488.8498   5   8   1.9117   2.1064  10.8459  -0.8699   2.8985  -2.4175   0.00    0.0
2018/03/11 12:53:30.000   78.255315467   16.193753671   488.7929   5   8   1.9115   2.1061  10.8432  -0.8694   2.8965  -2.4163   0.00    0.0
2018/03/11 12:53:31.000   78.255311652   16.193746181   490.3814   5   8   1.9114   2.1058  10.8405  -0.8689   2.8945  -2.4151   0.00    0.0
2018/03/11 12:53:32.000   78.255311336   16.193755746   491.0786   5   8   1.9112   2.1055  10.8378  -0.8685   2.8925  -2.4139   0.00    0.0
2018/03/11 12:53:33.000   78.255312163   16.193750398   487.6309   5   8   1.9111   2.1053  10.8351  -0.8680   2.8906  -2.4128   0.00    0.0
2018/03/11 12:53:34.000   78.255312996   16.193761649   487.0373   5   8   1.9109   2.1050  10.8325  -0.8675   2.8886  -2.4116   0.00    0.0
2018/03/11 12:53:35.000   78.255318022   16.193757191   487.8827   5   8   1.9108   2.1047  10.8298  -0.8670   2.8866  -2.4104   0.00    0.0
2018/03/11 12:53:36.000   78.255316139   16.193750852   487.7287   5   8   1.9106   2.1044  10.8271  -0.8666   2.8846  -2.4092   0.00    0.0
2018/03/11 12:53:37.000   78.255317814   16.193750196   487.6394   5   8   1.9105   2.1041  10.8244  -0.8661   2.8826  -2.4080   0.00    0.0
2018/03/11 12:53:38.000   78.255312892   16.193761601   489.5945   5   8   1.9103   2.1039  10.8217  -0.8656   2.8806  -2.4068   0.00    0.0
2018/03/11 12:53:39.000   78.255309144   16.193759968   487.8020   5   8   1.9101   2.1036  10.8190  -0.8652   2.8786  -2.4057   0.00    0.0
2018/03/11 12:53:40.000   78.255313716   16.193766945   487.8368   5   8   1.9100   2.1033  10.8163  -0.8647   2.8766  -2.4045   0.00    0.0
2018/03/11 12:53:41.000   78.255309604   16.193754279   487.7508   5   8   1.9098   2.1030  10.8136  -0.8642   2.8746  -2.4033   0.00    0.0
2018/03/11 12:53:42.000   78.255314923   16.193768724   489.5167   5   8   1.9097   2.1027  10.8109  -0.8638   2.8726  -2.4021   0.00    0.0
2018/03/11 12:53:43.000   78.255310809   16.193767984   489.5209   5   8   1.9095   2.1025  10.8082  -0.8633   2.8706  -2.4009   0.00    0.0
2018/03/11 12:53:44.000   78.255311930   16.193760647   488.8990   5   8   1.9094   2.1022  10.8055  -0.8628   2.8686  -2.3997   0.00    0.0
2018/03/11 12:53:45.000   78.255316215   16.193765386   489.3859   5   8   1.9092   2.1019  10.8028  -0.8623   2.8666  -2.3985   0.00    0.0
2018/03/11 12:53:46.000   78.255311304   16.193784806   491.8791   5   8   1.9091   2.1016  10.8001  -0.8619   2.8647  -2.3973   0.00    0.0
2018/03/11 12:53:47.000   78.255318598   16.193785171   489.5893   5   8   1.9089   2.1013  10.7974  -0.8614   2.8627  -2.3962   0.00    0.0
2018/03/11 12:53:48.000   78.255315924   16.193765805   489.0622   5   8   1.9088   2.1011  10.7947  -0.8609   2.8607  -2.3950   0.00    0.0
2018/03/11 12:53:49.000   78.255312169   16.193749766   490.3562   5   8   1.9086   2.1008  10.7920  -0.8605   2.8587  -2.3938   0.00    0.0
2018/03/11 12:53:50.000   78.255314240   16.193756540   489.8066   5   8   1.9085   2.1005  10.7893  -0.8600   2.8567  -2.3926   0.00    0.0
2018/03/11 12:53:51.000   78.255311985   16.193733180   489.9559   5   8   1.9083   2.1002  10.7866  -0.8595   2.8547  -2.3914   0.00    0.0
2018/03/11 12:53:52.000   78.255314095   16.193736100   489.0877   5   8   1.9082   2.1000  10.7839  -0.8591   2.8527  -2.3902   0.00    0.0
2018/03/11 12:53:53.000   78.255313244   16.193748272   492.0521   5   8   1.9080   2.0997  10.7812  -0.8586   2.8507  -2.3890   0.00    0.0
2018/03/11 12:53:54.000   78.255312277   16.193767714   490.5588   5   8   1.9079   2.0994  10.7785  -0.8581   2.8487  -2.3878   0.00    0.0
2018/03/11 12:53:55.000   78.255317442   16.193752480   490.7807   5   8   1.9077   2.0991  10.7758  -0.8577   2.8467  -2.3866   0.00    0.0
2018/03/11 12:53:56.000   78.255316248   16.193746783   489.8493   5   8   1.9076   2.0989  10.7731  -0.8572   2.8447  -2.3854   0.00    0.0
2018/03/11 12:53:57.000   78.255312201   16.193773305   491.8969   5   8   1.9074   2.0986  10.7704  -0.8567   2.8427  -2.3842   0.00    0.0
2018/03/11 12:53:58.000   78.255311301   16.193768231   490.6549   5   8   1.9073   2.0983  10.7676  -0.8563   2.8407  -2.3831   0.00    0.0
2018/03/11 12:53:59.000   78.255313172   16.193749408   486.9087   5   8   1.9071   2.0980  10.7649  -0.8558   2.8387  -2.3819   0.00    0.0
2018/03/11 12:54:00.000   78.255313311   16.193763114   488.7949   5   8   1.9070   2.0978  10.7622  -0.8553   2.8367  -2.3807   0.00    0.0
2018/03/11 12:54:01.000   78.255309332   16.193766411   488.5293   5   8   1.9068   2.0975  10.7595  -0.8549   2.8347  -2.3795   0.00    0.0
2018/03/11 12:54:02.000   78.255311547   16.193768602   490.3724   5   8   1.9067   2.0972  10.7568  -0.8544   2.8327  -2.3783   0.00    0.0
2018/03/11 12:54:03.000   78.255312262   16.193748390   488.8081   5   8   1.9065   2.0970  10.7541  -0.8539   2.8307  -2.3771   0.00    0.0
2018/03/11 12:54:04.000   78.255310006   16.193768435   490.4760   5   8   1.9064   2.0967  10.7514  -0.8535   2.8287  -2.3759   0.00    0.0
2018/03/11 12:54:05.000   78.255313044   16.193777618   491.6009   5   8   1.9062   2.0964  10.7487  -0.8530   2.8267  -2.3747   0.00    0.0
2018/03/11 12:54:06.000   78.255315755   16.193762514   489.6405   5   8   1.9061   2.0961  10.7459  -0.8525   2.8247  -2.3735   0.00    0.0
2018/03/11 12:54:07.000   78.255319098   16.193739388   487.1857   5   8   1.9059   2.0959  10.7432  -0.8521   2.8226  -2.3723   0.00    0.0
2018/03/11 12:54:08.000   78.255317107   16.193741290   488.8012   5   8   1.9058   2.0956  10.7405  -0.8516   2.8206  -2.3711   0.00    0.0
2018/03/11 12:54:09.000   78.255310742   16.193737121   489.9197   5   8   1.9056   2.0953  10.7378  -0.8511   2.8186  -2.3699   0.00    0.0
2018/03/11 12:54:10.000   78.255315002   16.193731227   489.0378   5   8   1.9055   2.0951  10.7351  -0.8507   2.8166  -2.3687   0.00    0.0
2018/03/11 12:54:11.000   78.255315974   16.193723328   488.5884   5   8   1.9053   2.0948  10.7324  -0.8502   2.8146  -2.3675   0.00    0.0
2018/03/11 12:54:12.000   78.255317011   16.193725565   487.1403   5   8   1.9052   2.0945  10.7296  -0.8497   2.8126  -2.3663   0.00    0.0
2018/03/11 12:54:13.000   78.255317452   16.193788536   491.9737   5   8   1.9050   2.0943  10.7269  -0.8493   2.8106  -2.3651   0.00    0.0
2018/03/11 12:54:14.000   78.255316352   16.193778840   491.0399   5   8   1.9049   2.0940  10.7242  -0.8488   2.8086  -2.3639   0.00    0.0
2018/03/11 12:54:15.000   78.255313210   16.193757257   488.6129   5   8   1.9047   2.0937  10.7215  -0.8483   2.8066  -2.3627   0.00    0.0
2018/03/11 12:54:16.000   78.255307565   16.193762813   489.1735   5   8   1.9046   2.0935  10.7187  -0.8479   2.8046  -2.3615   0.00    0.0
2018/03/11 12:54:17.000   78.255304850   16.193768253   490.6052   5   8   1.9044   2.0932  10.7160  -0.8474   2.8026  -2.3603   0.00    0.0
2018/03/11 12:54:18.000   78.255308801   16.193754059   490.2742   5   8   1.9043   2.0929  10.7133  -0.8469   2.8006  -2.3591   0.00    0.0
2018/03/11 12:54:19.000   78.255315407   16.193746063   488.0562   5   8   1.9041   2.0927  10.7106  -0.8465   2.7986  -2.3579   0.00    0.0
2018/03/11 12:54:20.000   78.255316035   16.193755017   488.1442   5   8   1.9040   2.0924  10.7079  -0.8460   2.7965  -2.3567   0.00    0.0
2018/03/11 12:54:21.000   78.255316078   16.193783947   489.9354   5   8   1.9038   2.0921  10.7051  -0.8455   2.7945  -2.3555   0.00    0.0
2018/03/11 12:54:22.000   78.255318322   16.193784059   489.3227   5   8   1.9037   2.0919  10.7024  -0.8451   2.7925  -2.3543   0.00    0.0
2018/03/11 12:54:23.000   78.255316262   16.193750405   488.8671   5   8   1.9036   2.0916  10.6997  -0.8446   2.7905  -2.3531   0.00    0.0
2018/03/11 12:54:24.000   78.255317532   16.193744254   490.1343   5   8   1.9034   2.0914  10.6969  -0.8442   2.7885  -2.3519   0.00    0.0
2018/03/11 12:54:25.000   78.255312075   16.193747104   490.7199   5   8   1.9033   2.0911  10.6942  -0.8437   2.7865  -2.3507   0.00    0.0
2018/03/11 12:54:26.000   78.255314114   16.193761461   492.2942   5   8   1.9031   2.0908  10.6915  -0.8432   2.7845  -2.3495   0.00    0.0
2018/03/11 12:54:27.000   78.255316284   16.193740420   489.4907   5   8   1.9030   2.0906  10.6888  -0.8428   2.7825  -2.3483   0.00    0.0
2018/03/11 12:54:28.000   78.255315121   16.193739439   489.1088   5   8   1.9028   2.0903  10.6860  -0.8423   2.7805  -2.3471   0.00    0.0
2018/03/11 12:54:29.000   78.255313177   16.193765065   489.9912   5   8   1.9027   2.0900  10.6833  -0.8418   2.7784  -2.3459   0.00    0.0
2018/03/11 12:54:30.000   78.255311618   16.193767109   492.8886   5   8   1.9025   2.0898  10.6806  -0.8414   2.7764  -2.3447   0.00    0.0
2018/03/11 12:54:31.000   78.255321372   16.193740431   489.3629   5   8   1.9024   2.0895  10.6778  -0.8409   2.7744  -2.3435   0.00    0.0
2018/03/11 12:54:32.000   78.255319801   16.193739896   490.0828   5   8   1.9022   2.0893  10.6751  -0.8405   2.7724  -2.3423   0.00    0.0
2018/03/11 12:54:33.000   78.255313965   16.193766267   491.6104   5   8   1.9021   2.0890  10.6724  -0.8400   2.7704  -2.3411   0.00    0.0
2018/03/11 12:54:34.000   78.255309966   16.193790107   492.1995   5   8   1.9019   2.0887  10.6696  -0.8395   2.7684  -2.3399   0.00    0.0
2018/03/11 12:54:35.000   78.255309767   16.193758375   489.8045   5   8   1.9018   2.0885  10.6669  -0.8391   2.7663  -2.3387   0.00    0.0
2018/03/11 12:54:36.000   78.255314521   16.193744362   486.4468   5   8   1.9016   2.0882  10.6642  -0.8386   2.7643  -2.3375   0.00    0.0
2018/03/11 12:54:37.000   78.255314633   16.193743866   487.9168   5   8   1.9015   2.0880  10.6614  -0.8382   2.7623  -2.3362   0.00    0.0
2018/03/11 12:54:38.000   78.255309720   16.193785281   490.9948   5   8   1.9013   2.0877  10.6587  -0.8377   2.7603  -2.3350   0.00    0.0
2018/03/11 12:54:39.000   78.255312526   16.193758412   488.3570   5   8   1.9012   2.0875  10.6560  -0.8372   2.7583  -2.3338   0.00    0.0
2018/03/11 12:54:40.000   78.255314024   16.193752518   488.0802   5   8   1.9011   2.0872  10.6532  -0.8368   2.7563  -2.3326   0.00    0.0
2018/03/11 12:54:41.000   78.255309238   16.193773644   492.1897   5   8   1.9009   2.0869  10.6505  -0.8363   2.7542  -2.3314   0.00    0.0
2018/03/11 12:54:42.000   78.255311822   16.193778384   492.8281   5   8   1.9008   2.0867  10.6478  -0.8358   2.7522  -2.3302   0.00    0.0
2018/03/11 12:54:43.000   78.255316190   16.193736929   489.5933   5   8   1.9006   2.0864  10.6450  -0.8354   2.7502  -2.3290   0.00    0.0
2018/03/11 12:54:44.000   78.255319000   16.193725446   489.0080   5   8   1.9005   2.0862  10.6423  -0.8349   2.7482  -2.3278   0.00    0.0
2018/03/11 12:54:45.000   78.255316070   16.193751558   490.6605   5   8   1.9003   2.0859  10.6395  -0.8345   2.7462  -2.3266   0.00    0.0
2018/03/11 12:54:46.000   78.255311905   16.193750769   491.3928   5   8   1.9002   2.0857  10.6368  -0.8340   2.7441  -2.3254   0.00    0.0
2018/03/11 12:54:47.000   78.255316926   16.193721199   489.4072   5   8   1.9000   2.0854  10.6341  -0.8336   2.7421  -2.3242   0.00    0.0
2018/03/11 12:54:48.000   78.255319829   16.193722636   488.8829   5   8   1.8999   2.0852  10.6313  -0.8331   2.7401  -2.3230   0.00    0.0
2018/03/11 12:54:49.000   78.255316785   16.193750138   490.5029   5   8   1.8997   2.0849  10.6286  -0.8326   2.7381  -2.3217   0.00    0.0
2018/03/11 12:54:50.000   78.255315492   16.193798868   490.9422   5   8   1.8996   2.0846  10.6258  -0.8322   2.7360  -2.3205   0.00    0.0
2018/03/11 12:54:51.000   78.255317802   16.193776247   491.1039   5   8   1.8995   2.0844  10.6231  -0.8317   2.7340  -2.3193   0.00    0.0
2018/03/11 12:54:52.000   78.255316077   16.193753624   488.0307   5   8   1.8993   2.0841  10.6203  -0.8313   2.7320  -2.3181   0.00    0.0
2018/03/11 12:54:53.000   78.255311221   16.193771770   489.6694   5   8   1.8992   2.0839  10.6176  -0.8308   2.7300  -2.3169   0.00    0.0
2018/03/11 12:54:54.000   78.255308442   16.193786059   491.5682   5   8   1.8990   2.0836  10.6149  -0.8303   2.7280  -2.3157   0.00    0.0
2018/03/11 12:54:55.000   78.255310396   16.193745808   487.7460   5   8   1.8989   2.0834  10.6121  -0.8299   2.7259  -2.3145   0.00    0.0
2018/03/11 12:54:56.000   78.255310168   16.193745656   487.3606   5   8   1.8987   2.0831  10.6094  -0.8294   2.7239  -2.3133   0.00    0.0
2018/03/11 12:54:57.000   78.255306528   16.193769059   490.1599   5   8   1.8986   2.0829  10.6066  -0.8290   2.7219  -2.3120   0.00    0.0
2018/03/11 12:54:58.000   78.255310603   16.193778379   490.8664   5   8   1.8984   2.0826  10.6039  -0.8285   2.7199  -2.3108   0.00    0.0
2018/03/11 12:54:59.000   78.255316682   16.193745444   488.7582   5   8   1.8983   2.0824  10.6011  -0.8281   2.7178  -2.3096   0.00    0.0
2018/03/11 12:55:00.000   78.255318413   16.193750516   489.1334   5   8   1.8982   2.0821  10.5984  -0.8276   2.7158  -2.3084   0.00    0.0
2018/03/11 12:55:01.000   78.255313068   16.193765707   489.2609   5   8   1.8980   2.0819  10.5956  -0.8271   2.7138  -2.3072   0.00    0.0
2018/03/11 12:55:02.000   78.255314121   16.193757515   489.6719   5   8   1.8979   2.0816  10.5929  -0.8267   2.7117  -2.3060   0.00    0.0
2018/03/11 12:55:03.000   78.255318659   16.193743537   488.4133   5   8   1.8977   2.0814  10.5901  -0.8262   2.7097  -2.3048   0.00    0.0
2018/03/11 12:55:04.000   78.255313110   16.193744213   488.8962   5   8   1.8976   2.0811  10.5874  -0.8258   2.7077  -2.3035   0.00    0.0
2018/03/11 12:55:05.000   78.255309922   16.193744456   488.6712   5   8   1.8974   2.0809  10.5846  -0.8253   2.7057  -2.3023   0.00    0.0
2018/03/11 12:55:06.000   78.255310134   16.193761611   492.6914   5   8   1.8973   2.0806  10.5819  -0.8249   2.7036  -2.3011   0.00    0.0
2018/03/11 12:55:07.000   78.255314295   16.193732962   491.2167   5   8   1.8971   2.0804  10.5791  -0.8244   2.7016  -2.2999   0.00    0.0
2018/03/11 12:55:08.000   78.255318057   16.193761330   490.8418   5   8   1.8970   2.0802  10.5764  -0.8240   2.6996  -2.2987   0.00    0.0
2018/03/11 12:55:09.000   78.255315762   16.193770208   492.2524   5   8   1.8969   2.0799  10.5736  -0.8235   2.6975  -2.2975   0.00    0.0
2018/03/11 12:55:10.000   78.255317587   16.193769697   491.2728   5   8   1.8967   2.0797  10.5709  -0.8230   2.6955  -2.2963   0.00    0.0
2018/03/11 12:55:11.000   78.255320349   16.193764845   488.1175   5   8   1.8966   2.0794  10.5681  -0.8226   2.6935  -2.2950   0.00    0.0
2018/03/11 12:55:12.000   78.255311568   16.193744590   489.7428   5   8   1.8964   2.0792  10.5654  -0.8221   2.6915  -2.2938   0.00    0.0
2018/03/11 12:55:13.000   78.255307707   16.193761481   490.0665   5   8   1.8963   2.0789  10.5626  -0.8217   2.6894  -2.2926   0.00    0.0
2018/03/11 12:55:14.000   78.255308083   16.193740741   487.8693   5   8   1.8961   2.0787  10.5599  -0.8212   2.6874  -2.2914   0.00    0.0
2018/03/11 12:55:15.000   78.255308075   16.193736626   485.7802   5   8   1.8960   2.0784  10.5571  -0.8208   2.6854  -2.2902   0.00    0.0
2018/03/11 12:55:16.000   78.255311958   16.193755738   487.7908   5   8   1.8959   2.0782  10.5544  -0.8203   2.6833  -2.2889   0.00    0.0
2018/03/11 12:55:17.000   78.255306953   16.193756955   489.5667   5   8   1.8957   2.0780  10.5516  -0.8199   2.6813  -2.2877   0.00    0.0
2018/03/11 12:55:18.000   78.255308714   16.193740622   489.3949   5   8   1.8956   2.0777  10.5489  -0.8194   2.6793  -2.2865   0.00    0.0
2018/03/11 12:55:19.000   78.255310241   16.193733168   490.2625   5   8   1.8954   2.0775  10.5461  -0.8190   2.6772  -2.2853   0.00    0.0
2018/03/11 12:55:20.000   78.255309025   16.193740567   490.1109   5   8   1.8953   2.0772  10.5434  -0.8185   2.6752  -2.2841   0.00    0.0
2018/03/11 12:55:21.000   78.255311582   16.193749474   490.8852   5   8   1.8952   2.0770  10.5406  -0.8180   2.6732  -2.2828   0.00    0.0
2018/03/11 12:55:22.000   78.255317574   16.193736984   489.2503   5   8   1.8950   2.0767  10.5378  -0.8176   2.6711  -2.2816   0.00    0.0
2018/03/11 12:55:23.000   78.255324341   16.193720573   485.8947   5   8   1.8949   2.0765  10.5351  -0.8171   2.6691  -2.2804   0.00    0.0
2018/03/11 12:55:24.000   78.255318741   16.193742981   488.4910   5   8   1.8947   2.0763  10.5323  -0.8167   2.6671  -2.2792   0.00    0.0
2018/03/11 12:55:25.000   78.255313287   16.193753426   490.0844   5   8   1.8946   2.0760  10.5296  -0.8162   2.6650  -2.2780   0.00    0.0
2018/03/11 12:55:26.000   78.255312756   16.193757759   491.9116   5   8   1.8944   2.0758  10.5268  -0.8158   2.6630  -2.2767   0.00    0.0
2018/03/11 12:55:27.000   78.255313720   16.193752357   490.4273   5   8   1.8943   2.0755  10.5241  -0.8153   2.6610  -2.2755   0.00    0.0
2018/03/11 12:55:28.000   78.255316972   16.193774090   490.5442   5   8   1.8942   2.0753  10.5213  -0.8149   2.6589  -2.2743   0.00    0.0
2018/03/11 12:55:29.000   78.255315573   16.193797983   493.9234   5   8   1.8940   2.0751  10.5185  -0.8144   2.6569  -2.2731   0.00    0.0
2018/03/11 12:55:30.000   78.255320150   16.193782906   492.1250   5   8   1.8939   2.0748  10.5158  -0.8140   2.6548  -2.2719   0.00    0.0
2018/03/11 12:55:31.000   78.255314441   16.193766853   489.7922   5   8   1.8937   2.0746  10.5130  -0.8135   2.6528  -2.2706   0.00    0.0
2018/03/11 12:55:32.000   78.255308626   16.193752375   489.9571   5   8   1.8936   2.0744  10.5103  -0.8131   2.6508  -2.2694   0.00    0.0
2018/03/11 12:55:33.000   78.255305136   16.193759171   489.2156   5   8   1.8935   2.0741  10.5075  -0.8126   2.6487  -2.2682   0.00    0.0
2018/03/11 12:55:34.000   78.255304229   16.193750684   489.5510   5   8   1.8933   2.0739  10.5047  -0.8122   2.6467  -2.2669   0.00    0.0
2018/03/11 12:55:35.000   78.255312009   16.193744616   486.8679   5   8   1.8932   2.0736  10.5020  -0.8117   2.6446  -2.2657   0.00    0.0
2018/03/11 12:55:36.000   78.255316809   16.193743389   487.1268   5   8   1.8930   2.0734  10.4992  -0.8113   2.6426  -2.2645   0.00    0.0
2018/03/11 12:55:37.000   78.255318849   16.193765224   488.4944   5   8   1.8929   2.0732  10.4965  -0.8108   2.6406  -2.2633   0.00    0.0
2018/03/11 12:55:38.000   78.255318535   16.193771295   490.8069   5   8   1.8928   2.0729  10.4937  -0.8104   2.6385  -2.2621   0.00    0.0
2018/03/11 12:55:39.000   78.255318684   16.193755848   488.9353   5   8   1.8926   2.0727  10.4909  -0.8099   2.6365  -2.2608   0.00    0.0
2018/03/11 12:55:40.000   78.255313262   16.193751629   490.1243   5   8   1.8925   2.0725  10.4882  -0.8095   2.6344  -2.2596   0.00    0.0
2018/03/11 12:55:41.000   78.255310681   16.193761301   491.1811   5   8   1.8923   2.0722  10.4854  -0.8090   2.6324  -2.2584   0.00    0.0
2018/03/11 12:55:42.000   78.255311816   16.193754138   490.4623   5   8   1.8922   2.0720  10.4827  -0.8086   2.6304  -2.2572   0.00    0.0
2018/03/11 12:55:43.000   78.255314049   16.193745375   488.3817   5   8   1.8921   2.0718  10.4799  -0.8081   2.6283  -2.2559   0.00    0.0
2018/03/11 12:55:44.000   78.255316222   16.193725282   488.3181   5   8   1.8919   2.0715  10.4771  -0.8077   2.6263  -2.2547   0.00    0.0
2018/03/11 12:55:45.000   78.255314229   16.193748455   489.3110   5   8   1.8918   2.0713  10.4744  -0.8072   2.6242  -2.2535   0.00    0.0
2018/03/11 12:55:46.000   78.255315592   16.193740772   490.8102   5   8   1.8916   2.0711  10.4716  -0.8068   2.6222  -2.2522   0.00    0.0
2018/03/11 12:55:47.000   78.255316013   16.193741689   490.6077   5   8   1.8915   2.0708  10.4688  -0.8063   2.6202  -2.2510   0.00    0.0
2018/03/11 12:55:48.000   78.255316740   16.193746678   491.8340   5   8   1.8914   2.0706  10.4661  -0.8059   2.6181  -2.2498   0.00    0.0
2018/03/11 12:55:49.000   78.255316128   16.193761122   490.7019   5   8   1.8912   2.0704  10.4633  -0.8055   2.6161  -2.2486   0.00    0.0
2018/03/11 12:55:50.000   78.255315121   16.193768059   489.7017   5   8   1.8911   2.0702  10.4605  -0.8050   2.6140  -2.2473   0.00    0.0
2018/03/11 12:55:51.000   78.255311806   16.193748602   489.2809   5   8   1.8910   2.0699  10.4578  -0.8046   2.6120  -2.2461   0.00    0.0
2018/03/11 12:55:52.000   78.255310151   16.193748196   488.5992   5   8   1.8908   2.0697  10.4550  -0.8041   2.6099  -2.2449   0.00    0.0
2018/03/11 12:55:53.000   78.255306321   16.193750470   487.8568   5   8   1.8907   2.0695  10.4523  -0.8037   2.6079  -2.2436   0.00    0.0
2018/03/11 12:55:54.000   78.255306787   16.193757704   488.6187   5   8   1.8905   2.0692  10.4495  -0.8032   2.6058  -2.2424   0.00    0.0
2018/03/11 12:55:55.000   78.255307256   16.193744944   489.2575   5   8   1.8904   2.0690  10.4467  -0.8028   2.6038  -2.2412   0.00    0.0
2018/03/11 12:55:56.000   78.255309948   16.193748217   488.6052   5   8   1.8903   2.0688  10.4440  -0.8023   2.6017  -2.2400   0.00    0.0
2018/03/11 12:55:57.000   78.255314451   16.193763774   488.6565   5   8   1.8901   2.0686  10.4412  -0.8019   2.5997  -2.2387   0.00    0.0
2018/03/11 12:55:58.000   78.255314569   16.193763540   489.0407   5   8   1.8900   2.0683  10.4384  -0.8014   2.5976  -2.2375   0.00    0.0
2018/03/11 12:55:59.000   78.255315935   16.193764607   489.7946   5   8   1.8898   2.0681  10.4357  -0.8010   2.5956  -2.2363   0.00    0.0
2018/03/11 12:56:00.000   78.255319300   16.193751017   487.7638   5   8   1.8897   2.0679  10.4329  -0.8006   2.5936  -2.2350   0.00    0.0
2018/03/11 12:56:01.000   78.255315982   16.193759730   488.1571   5   8   1.8896   2.0677  10.4301  -0.8001   2.5915  -2.2338   0.00    0.0
2018/03/11 12:56:02.000   78.255309777   16.193751139   488.6970   5   8   1.8894   2.0674  10.4274  -0.7997   2.5895  -2.2326   0.00    0.0
2018/03/11 12:56:03.000   78.255307704   16.193751431   487.2892   5   8   1.8893   2.0672  10.4246  -0.7992   2.5874  -2.2313   0.00    0.0
2018/03/11 12:56:04.000   78.255311022   16.193743734   486.7848   5   8   1.8892   2.0670  10.4218  -0.7988   2.5854  -2.2301   0.00    0.0
2018/03/11 12:56:05.000   78.255304122   16.193747005   490.2054   5   8   1.8890   2.0668  10.4191  -0.7983   2.5833  -2.2289   0.00    0.0
2018/03/11 12:56:06.000   78.255308885   16.193747348   489.8166   5   8   1.8889   2.0665  10.4163  -0.7979   2.5813  -2.2277   0.00    0.0
2018/03/11 12:56:07.000   78.255312069   16.193754779   491.3489   5   8   1.8888   2.0663  10.4135  -0.7974   2.5792  -2.2264   0.00    0.0
2018/03/11 12:56:08.000   78.255314988   16.193756897   491.0604   5   8   1.8886   2.0661  10.4107  -0.7970   2.5772  -2.2252   0.00    0.0
2018/03/11 12:56:09.000   78.255312151   16.193754314   489.5490   5   8   1.8885   2.0659  10.4080  -0.7966   2.5751  -2.2240   0.00    0.0
2018/03/11 12:56:10.000   78.255310374   16.193742162   489.6298   5   8   1.8883   2.0656  10.4052  -0.7961   2.5731  -2.2227   0.00    0.0
2018/03/11 12:56:11.000   78.255313977   16.193732574   489.1151   5   8   1.8882   2.0654  10.4024  -0.7957   2.5710  -2.2215   0.00    0.0
2018/03/11 12:56:12.000   78.255313389   16.193730320   487.1959   5   8   1.8881   2.0652  10.3997  -0.7952   2.5690  -2.2203   0.00    0.0
2018/03/11 12:56:13.000   78.255312302   16.193733647   487.0257   5   8   1.8879   2.0650  10.3969  -0.7948   2.5669  -2.2190   0.00    0.0
2018/03/11 12:56:14.000   78.255310258   16.193748716   485.8884   5   8   1.8878   2.0648  10.3941  -0.7943   2.5648  -2.2178   0.00    0.0
2018/03/11 12:56:15.000   78.255311478   16.193754969   485.9784   5   8   1.8877   2.0645  10.3914  -0.7939   2.5628  -2.2166   0.00    0.0
2018/03/11 12:56:16.000   78.255309596   16.193774651   488.8697   5   8   1.8875   2.0643  10.3886  -0.7935   2.5607  -2.2153   0.00    0.0
2018/03/11 12:56:17.000   78.255310798   16.193787865   490.6298   5   8   1.8874   2.0641  10.3858  -0.7930   2.5587  -2.2141   0.00    0.0
2018/03/11 12:56:18.000   78.255309772   16.193792002   490.4217   5   8   1.8873   2.0639  10.3831  -0.7926   2.5566  -2.2129   0.00    0.0
2018/03/11 12:56:19.000   78.255308796   16.193772994   491.8492   5   8   1.8871   2.0637  10.3803  -0.7921   2.5546  -2.2116   0.00    0.0
2018/03/11 12:56:20.000   78.255312835   16.193769243   488.4490   5   8   1.8870   2.0634  10.3775  -0.7917   2.5525  -2.2104   0.00    0.0
2018/03/11 12:56:21.000   78.255310147   16.193763381   489.5367   5   8   1.8869   2.0632  10.3747  -0.7913   2.5505  -2.2091   0.00    0.0
2018/03/11 12:56:22.000   78.255305371   16.193743634   489.8369   5   8   1.8867   2.0630  10.3720  -0.7908   2.5484  -2.2079   0.00    0.0
2018/03/11 12:56:23.000   78.255308826   16.193715875   490.1011   5   8   1.8866   2.0628  10.3692  -0.7904   2.5464  -2.2067   0.00    0.0
2018/03/11 12:56:24.000   78.255310527   16.193710155   488.0735   5   8   1.8864   2.0626  10.3664  -0.7899   2.5443  -2.2054   0.00    0.0
2018/03/11 12:56:25.000   78.255310431   16.193712899   489.5013   5   8   1.8863   2.0624  10.3637  -0.7895   2.5422  -2.2042   0.00    0.0
2018/03/11 12:56:26.000   78.255314886   16.193724385   490.4341   5   9   1.6780   1.7882   8.1290   0.5118  -0.3811   0.8246   0.00    0.0
2018/03/11 12:56:27.000   78.255320811   16.193741350   491.3958   5   9   1.6780   1.7882   8.1293   0.5119  -0.3844   0.8243   0.00    0.0
2018/03/11 12:56:28.000   78.255316670   16.193746907   489.2974   5   9   1.6780   1.7882   8.1296   0.5119  -0.3877   0.8241   0.00    0.0
2018/03/11 12:56:29.000   78.255316056   16.193761673   489.2115   5   9   1.6780   1.7882   8.1299   0.5119  -0.3909   0.8239   0.00    0.0
2018/03/11 12:56:30.000   78.255313022   16.193765057   489.8868   5   9   1.6780   1.7882   8.1302   0.5120  -0.3941   0.8236   0.00    0.0
2018/03/11 12:56:31.000   78.255311945   16.193747417   489.2381   5   9   1.6780   1.7883   8.1305   0.5120  -0.3973   0.8234   0.00    0.0
2018/03/11 12:56:32.000   78.255310864   16.193759737   487.9649   5   9   1.6779   1.7883   8.1308   0.5120  -0.4005   0.8232   0.00    0.0
2018/03/11 12:56:33.000   78.255306928   16.193762694   487.1207   5   9   1.6779   1.7883   8.1311   0.5121  -0.4036   0.8229   0.00    0.0
2018/03/11 12:56:34.000   78.255306286   16.193775730   488.3136   5   9   1.6779   1.7883   8.1314   0.5121  -0.4067   0.8227   0.00    0.0
2018/03/11 12:56:35.000   78.255311274   16.193742539   486.3451   5   9   1.6779   1.7883   8.1316   0.5121  -0.4098   0.8225   0.00    0.0
2018/03/11 12:56:36.000   78.255310040   16.193734150   487.1216   5   9   1.6779   1.7883   8.1319   0.5121  -0.4129   0.8222   0.00    0.0
2018/03/11 12:56:37.000   78.255309606   16.193763415   490.2698   5   9   1.6778   1.7883   8.1322   0.5122  -0.4159   0.8220   0.00    0.0
2018/03/11 12:56:38.000   78.255312180   16.193769557   490.4543   5   9   1.6778   1.7884   8.1325   0.5122  -0.4189   0.8218   0.00    0.0
2018/03/11 12:56:39.000   78.255315738   16.193770691   489.0512   5   9   1.6778   1.7884   8.1328   0.5122  -0.4219   0.8215   0.00    0.0
2018/03/11 12:56:40.000   78.255316071   16.193748773   489.3585   5   9   1.6778   1.7884   8.1331   0.5123  -0.4249   0.8213   0.00    0.0
2018/03/11 12:56:41.000   78.255315586   16.193756911   490.4864   5   9   1.6778   1.7884   8.1333   0.5123  -0.4278   0.8211   0.00    0.0
2018/03/11 12:56:42.000   78.255311544   16.193748007   490.2083   5   9   1.6778   1.7884   8.1336   0.5123  -0.4308   0.8208   0.00    0.0
2018/03/11 12:56:43.000   78.255310616   16.193732377   489.4308   5   9   1.6777   1.7884   8.1339   0.5124  -0.4337   0.8206   0.00    0.0
2018/03/11 12:56:44.000   78.255311517   16.193747446   488.8026   5   9   1.6777   1.7885   8.1342   0.5124  -0.4366   0.8204   0.00    0.0
2018/03/11 12:56:45.000   78.255311422   16.193749403   489.7600   5   9   1.6777   1.7885   8.1344   0.5124  -0.4395   0.8202   0.00    0.0
2018/03/11 12:56:46.000   78.255313222   16.193743690   490.1365   5   9   1.6777   1.7885   8.1347   0.5124  -0.4423   0.8199   0.00    0.0
2018/03/11 12:56:47.000   78.255319321   16.193743877   489.3767   5   9   1.6777   1.7885   8.1350   0.5125  -0.4452   0.8197   0.00    0.0
2018/03/11 12:56:48.000   78.255314435   16.193760121   489.5852   5   9   1.6777   1.7885   8.1352   0.5125  -0.4480   0.8195   0.00    0.0
2018/03/11 12:56:49.000   78.255311358   16.193773861   488.0658   5   9   1.6776   1.7885   8.1355   0.5125  -0.4508   0.8192   0.00    0.0
2018/03/11 12:56:50.000   78.255313970   16.193764872   487.2389   5   9   1.6776   1.7886   8.1358   0.5126  -0.4536   0.8190   0.00    0.0
2018/03/11 12:56:51.000   78.255312029   16.193760633   487.9012   5   9   1.6776   1.7886   8.1360   0.5126  -0.4564   0.8188   0.00    0.0
2018/03/11 12:56:52.000   78.255308241   16.193760751   487.1745   5   9   1.6776   1.7886   8.1363   0.5126  -0.4591   0.8185   0.00    0.0
2018/03/11 12:56:53.000   78.255306943   16.193747996   488.5067   5   9   1.6776   1.7886   8.1366   0.5127  -0.4619   0.8183   0.00    0.0
2018/03/11 12:56:54.000   78.255307621   16.193741698   487.2149   5   9   1.6775   1.7886   8.1368   0.5127  -0.4646   0.8181   0.00    0.0
2018/03/11 12:56:55.000   78.255312101   16.193738472   487.8152   5   9   1.6775   1.7886   8.1371   0.5127  -0.4673   0.8178   0.00    0.0
2018/03/11 12:56:56.000   78.255310142   16.193745813   488.7808   5   9   1.6775   1.7887   8.1373   0.5127  -0.4700   0.8176   0.00    0.0
2018/03/11 12:56:57.000   78.255309849   16.193757599   490.2759   5   9   1.6775   1.7887   8.1376   0.5128  -0.4727   0.8174   0.00    0.0
2018/03/11 12:56:58.000   78.255313244   16.193767544   490.8492   5   9   1.6775   1.7887   8.1378   0.5128  -0.4753   0.8172   0.00    0.0
2018/03/11 12:56:59.000   78.255318076   16.193753390   490.1179   5   9   1.6775   1.7887   8.1381   0.5128  -0.4780   0.8169   0.00    0.0
2018/03/11 12:57:00.000   78.255318863   16.193753557   490.3647   5   9   1.6774   1.7887   8.1383   0.5129  -0.4806   0.8167   0.00    0.0
2018/03/11 12:57:01.000   78.255313909   16.193765128   491.1911   5   9   1.6774   1.7888   8.1386   0.5129  -0.4832   0.8165   0.00    0.0
2018/03/11 12:57:02.000   78.255310469   16.193768856   490.4910   5   9   1.6774   1.7888   8.1388   0.5129  -0.4858   0.8162   0.00    0.0
2018/03/11 12:57:03.000   78.255308639   16.193738333   488.5942   5   9   1.6774   1.7888   8.1391   0.5130  -0.4884   0.8160   0.00    0.0
2018/03/11 12:57:04.000   78.255310507   16.193749646   487.8608   5   9   1.6774   1.7888   8.1393   0.5130  -0.4910   0.8158   0.00    0.0
2018/03/11 12:57:05.000   78.255308824   16.193764192   487.9839   5   9   1.6774   1.7888   8.1395   0.5130  -0.4936   0.8156   0.00    0.0
2018/03/11 12:57:06.000   78.255308101   16.193759391   488.3191   5   9   1.6774   1.7888   8.1398   0.5131  -0.4961   0.8153   0.00    0.0
2018/03/11 12:57:07.000   78.255312728   16.193744750   487.3381   5   9   1.6773   1.7889   8.1400   0.5131  -0.4987   0.8151   0.00    0.0
2018/03/11 12:57:08.000   78.255311857   16.193742638   488.5111   5   9   1.6773   1.7889   8.1403   0.5131  -0.5012   0.8149   0.00    0.0
2018/03/11 12:57:09.000   78.255311818   16.193763396   490.3687   5   9   1.6773   1.7889   8.1405   0.5131  -0.5037   0.8146   0.00    0.0
2018/03/11 12:57:10.000   78.255310963   16.193750352   489.2847   5   9   1.6773   1.7889   8.1407   0.5132  -0.5062   0.8144   0.00    0.0
2018/03/11 12:57:11.000   78.255317410   16.193773048   489.3554   5   9   1.6773   1.7889   8.1410   0.5132  -0.5087   0.8142   0.00    0.0
2018/03/11 12:57:12.000   78.255314721   16.193769193   488.5411   5   9   1.6773   1.7889   8.1412   0.5132  -0.5112   0.8140   0.00    0.0
2018/03/11 12:57:13.000   78.255315181   16.193778677   487.6492   5   9   1.6772   1.7890   8.1414   0.5133  -0.5136   0.8137   0.00    0.0
2018/03/11 12:57:14.000   78.255318476   16.193764547   488.8544   5   9   1.6772   1.7890   8.1416   0.5133  -0.5161   0.8135   0.00    0.0
2018/03/11 12:57:15.000   78.255312729   16.193748026   487.8828   5   9   1.6772   1.7890   8.1419   0.5133  -0.5185   0.8133   0.00    0.0
2018/03/11 12:57:16.000   78.255309678   16.193750011   487.4735   5   9   1.6772   1.7890   8.1421   0.5134  -0.5210   0.8131   0.00    0.0
2018/03/11 12:57:17.000   78.255303702   16.193731785   488.1716   5   9   1.6772   1.7890   8.1423   0.5134  -0.5234   0.8128   0.00    0.0
2018/03/11 12:57:18.000   78.255307651   16.193729610   488.6714   5   9   1.6772   1.7891   8.1425   0.5134  -0.5258   0.8126   0.00    0.0
2018/03/11 12:57:19.000   78.255311007   16.193724909   491.2287   5   9   1.6771   1.7891   8.1428   0.5134  -0.5282   0.8124   0.00    0.0
2018/03/11 12:57:20.000   78.255312191   16.193738338   490.8522   5   9   1.6771   1.7891   8.1430   0.5135  -0.5306   0.8122   0.00    0.0
2018/03/11 12:57:21.000   78.255312809   16.193755382   491.5406   5   9   1.6771   1.7891   8.1432   0.5135  -0.5330   0.8119   0.00    0.0
2018/03/11 12:57:22.000   78.255319377   16.193766764   490.9942   5   9   1.6771   1.7891   8.1434   0.5135  -0.5353   0.8117   0.00    0.0
2018/03/11 12:57:23.000   78.255317592   16.193764753   489.6488   5   9   1.6771   1.7892   8.1436   0.5136  -0.5377   0.8115   0.00    0.0
2018/03/11 12:57:24.000   78.255315809   16.193771582   490.6542   5   9   1.6771   1.7892   8.1438   0.5136  -0.5400   0.8113   0.00    0.0
2018/03/11 12:57:25.000   78.255314157   16.193766048   489.0883   5   9   1.6771   1.7892   8.1440   0.5136  -0.5424   0.8110   0.00    0.0
2018/03/11 12:57:26.000   78.255311975   16.193749482   488.0316   5   9   1.6770   1.7892   8.1442   0.5137  -0.5447   0.8108   0.00    0.0
2018/03/11 12:57:27.000   78.255310902   16.193750542   488.3235   5   9   1.6770   1.7892   8.1444   0.5137  -0.5470   0.8106   0.00    0.0
2018/03/11 12:57:28.000   78.255315726   16.193775110   491.3774   5   9   1.6770   1.7892   8.1446   0.5137  -0.5493   0.8104   0.00    0.0
2018/03/11 12:57:29.000   78.255314250   16.193766210   489.0914   5   9   1.6770   1.7893   8.1449   0.5138  -0.5516   0.8101   0.00    0.0
2018/03/11 12:57:30.000   78.255315032   16.193757924   489.3190   5   9   1.6770   1.7893   8.1451   0.5138  -0.5539   0.8099   0.00    0.0
2018/03/11 12:57:31.000   78.255315249   16.193763727   488.3821   5   9   1.6770   1.7893   8.1453   0.5138  -0.5562   0.8097   0.00    0.0
2018/03/11 12:57:32.000   78.255311437   16.193751655   489.0624   5   9   1.6770   1.7893   8.1455   0.5139  -0.5585   0.8095   0.00    0.0
2018/03/11 12:57:33.000   78.255309496   16.193749339   488.7379   5   9   1.6769   1.7893   8.1456   0.5139  -0.5607   0.8093   0.00    0.0
2018/03/11 12:57:34.000   78.255313744   16.193739505   488.4561   5   9   1.6769   1.7894   8.1458   0.5139  -0.5630   0.8090   0.00    0.0
2018/03/11 12:57:35.000   78.255311781   16.193745517   489.1124   5   9   1.6769   1.7894   8.1460   0.5139  -0.5652   0.8088   0.00    0.0
2018/03/11 12:57:36.000   78.255311633   16.193747898   490.0900   5   9   1.6769   1.7894   8.1462   0.5140  -0.5675   0.8086   0.00    0.0
2018/03/11 12:57:37.000   78.255312648   16.193757942   490.1706   5   9   1.6769   1.7894   8.1464   0.5140  -0.5697   0.8084   0.00    0.0
2018/03/11 12:57:38.000   78.255313973   16.193721506   488.7343   5   9   1.6769   1.7894   8.1466   0.5140  -0.5719   0.8081   0.00    0.0
2018/03/11 12:57:39.000   78.255314798   16.193751592   489.4844   5   9   1.6768   1.7895   8.1468   0.5141  -0.5741   0.8079   0.00    0.0
2018/03/11 12:57:40.000   78.255315000   16.193765665   492.2088   5   9   1.6768   1.7895   8.1470   0.5141  -0.5763   0.8077   0.00    0.0
2018/03/11 12:57:41.000   78.255316707   16.193758266   491.0664   5   9   1.6768   1.7895   8.1472   0.5141  -0.5785   0.8075   0.00    0.0
2018/03/11 12:57:42.000   78.255322317   16.193762605   490.6536   5   9   1.6768   1.7895   8.1473   0.5142  -0.5807   0.8072   0.00    0.0
2018/03/11 12:57:43.000   78.255320623   16.193765397   491.2258   5   9   1.6768   1.7895   8.1475   0.5142  -0.5829   0.8070   0.00    0.0
2018/03/11 12:57:44.000   78.255316993   16.193772961   490.7527   5   9   1.6768   1.7896   8.1477   0.5142  -0.5850   0.8068   0.00    0.0
2018/03/11 12:57:45.000   78.255313346   16.193743547   489.6035   5   9   1.6768   1.7896   8.1479   0.5143  -0.5872   0.8066   0.00    0.0
2018/03/11 12:57:46.000   78.255311061   16.193736316   487.8672   5   9   1.6768   1.7896   8.1481   0.5143  -0.5893   0.8064   0.00    0.0
2018/03/11 12:57:47.000   78.255307337   16.193745983   489.2176   5   9   1.6767   1.7896   8.1482   0.5143  -0.5915   0.8062   0.00    0.0
2018/03/11 12:57:48.000   78.255306678   16.193751449   489.1847   5   9   1.6767   1.7896   8.1484   0.5143  -0.5936   0.8059   0.00    0.0
2018/03/11 12:57:49.000   78.255310900   16.193761660   487.9557   5   9   1.6767   1.7897   8.1486   0.5144  -0.5957   0.8057   0.00    0.0
2018/03/11 12:57:50.000   78.255314502   16.193769991   488.2719   5   9   1.6767   1.7897   8.1487   0.5144  -0.5979   0.8055   0.00    0.0
2018/03/11 12:57:51.000   78.255316312   16.193757668   488.4963   5   9   1.6767   1.7897   8.1489   0.5144  -0.6000   0.8053   0.00    0.0
2018/03/11 12:57:52.000   78.255315311   16.193775604   489.2644   5   9   1.6767   1.7897   8.1491   0.5145  -0.6021   0.8051   0.00    0.0
2018/03/11 12:57:53.000   78.255315141   16.193763104   490.1046   5   9   1.6767   1.7897   8.1492   0.5145  -0.6042   0.8048   0.00    0.0
2018/03/11 12:57:54.000   78.255311774   16.193735311   489.5045   5   9   1.6766   1.7898   8.1494   0.5145  -0.6063   0.8046   0.00    0.0
2018/03/11 12:57:55.000   78.255315412   16.193751698   489.2535   5   9   1.6766   1.7898   8.1496   0.5146  -0.6084   0.8044   0.00    0.0
2018/03/11 12:57:56.000   78.255314182   16.193753998   489.2873   5   9   1.6766   1.7898   8.1497   0.5146  -0.6104   0.8042   0.00    0.0
2018/03/11 12:57:57.000   78.255310664   16.193759706   490.2702   5   9   1.6766   1.7898   8.1499   0.5146  -0.6125   0.8040   0.00    0.0
2018/03/11 12:57:58.000   78.255313459   16.193746639   489.2488   5   9   1.6766   1.7899   8.1500   0.5147  -0.6146   0.8038   0.00    0.0
2018/03/11 12:57:59.000   78.255311342   16.193729720   487.4179   5   9   1.6766   1.7899   8.1502   0.5147  -0.6166   0.8035   0.00    0.0
2018/03/11 12:58:00.000   78.255311619   16.193740942   490.4047   5   9   1.6766   1.7899   8.1504   0.5147  -0.6187   0.8033   0.00    0.0
2018/03/11 12:58:01.000   78.255311613   16.193749002   489.1009   5   9   1.6766   1.7899   8.1505   0.5148  -0.6207   0.8031   0.00    0.0
2018/03/11 12:58:02.000   78.255317334   16.193759323   489.1148   5   9   1.6765   1.7899   8.1507   0.5148  -0.6228   0.8029   0.00    0.0
2018/03/11 12:58:03.000   78.255316186   16.193761998   488.2907   5   9   1.6765   1.7900   8.1508   0.5148  -0.6248   0.8027   0.00    0.0
2018/03/11 12:58:04.000   78.255314173   16.193775135   488.4116   5   9   1.6765   1.7900   8.1510   0.5148  -0.6268   0.8025   0.00    0.0
2018/03/11 12:58:05.000   78.255311624   16.193787269   489.5119   5   9   1.6765   1.7900   8.1511   0.5149  -0.6288   0.8022   0.00    0.0
2018/03/11 12:58:06.000   78.255310839   16.193751313   488.7217   5   9   1.6765   1.7900   8.1512   0.5149  -0.6308   0.8020   0.00    0.0
2018/03/11 12:58:07.000   78.255311566   16.193766581   487.2817   5   9   1.6765   1.7900   8.1514   0.5149  -0.6329   0.8018   0.00    0.0
2018/03/11 12:58:08.000   78.255310087   16.193777623   488.5678   5   9   1.6765   1.7901   8.1515   0.5150  -0.6349   0.8016   0.00    0.0
2018/03/11 12:58:09.000   78.255311377   16.193760777   489.2309   5   9   1.6764   1.7901   8.1517   0.5150  -0.6368   0.8014   0.00    0.0
2018/03/11 12:58:10.000   78.255311886   16.193761531   489.0084   5   9   1.6764   1.7901   8.1518   0.5150  -0.6388   0.8012   0.00    0.0
2018/03/11 12:58:11.000   78.255315144   16.193750542   488.9640   5   9   1.6764   1.7901   8.1519   0.5151  -0.6408   0.8009   0.00    0.0
2018/03/11 12:58:12.000   78.255315012   16.193742659   488.1388   5   9   1.6764   1.7902   8.1521   0.5151  -0.6428   0.8007   0.00    0.0
2018/03/11 12:58:13.000   78.255316139   16.193745711   488.5480   5   9   1.6764   1.7902   8.1522   0.5151  -0.6447   0.8005   0.00    0.0
2018/03/11 12:58:14.000   78.255318563   16.193765268   489.6104   5   9   1.6764   1.7902   8.1523   0.5152  -0.6467   0.8003   0.00    0.0
2018/03/11 12:58:15.000   78.255315708   16.193751361   490.4049   5   9   1.6764   1.7902   8.1525   0.5152  -0.6487   0.8001   0.00    0.0
2018/03/11 12:58:16.000   78.255316331   16.193763654   491.0728   5   9   1.6764   1.7902   8.1526   0.5152  -0.6506   0.7999   0.00    0.0
2018/03/11 12:58:17.000   78.255314864   16.193763705   489.6586   5   9   1.6763   1.7903   8.1527   0.5153  -0.6526   0.7997   0.00    0.0
2018/03/11 12:58:18.000   78.255307640   16.193756426   489.4652   5   9   1.6763   1.7903   8.1529   0.5153  -0.6545   0.7995   0.00    0.0
2018/03/11 12:58:19.000   78.255311316   16.193769031   488.5366   5   9   1.6763   1.7903   8.1530   0.5153  -0.6564   0.7992   0.00    0.0
2018/03/11 12:58:20.000   78.255311292   16.193747877   487.1066   5   9   1.6763   1.7903   8.1531   0.5153  -0.6584   0.7990   0.00    0.0
2018/03/11 12:58:21.000   78.255312314   16.193781424   488.6033   5   9   1.6763   1.7904   8.1532   0.5154  -0.6603   0.7988   0.00    0.0
2018/03/11 12:58:22.000   78.255310043   16.193761196   488.1579   5   9   1.6763   1.7904   8.1533   0.5154  -0.6622   0.7986   0.00    0.0
2018/03/11 12:58:23.000   78.255313109   16.193753704   487.9288   5   9   1.6763   1.7904   8.1535   0.5154  -0.6641   0.7984   0.00    0.0
2018/03/11 12:58:24.000   78.255310121   16.193736446   486.9986   5   9   1.6763   1.7904   8.1536   0.5155  -0.6660   0.7982   0.00    0.0
2018/03/11 12:58:25.000   78.255310292   16.193739685   489.0303   5   9   1.6763   1.7904   8.1537   0.5155  -0.6679   0.7980   0.00    0.0
2018/03/11 12:58:26.000   78.255310618   16.193745856   490.0548   5   9   1.6762   1.7905   8.1538   0.5155  -0.6698   0.7978   0.00    0.0
2018/03/11 12:58:27.000   78.255319210   16.193759389   489.2735   5   9   1.6762   1.7905   8.1539   0.5156  -0.6717   0.7976   0.00    0.0
2018/03/11 12:58:28.000   78.255315619   16.193752361   488.6182   5   9   1.6762   1.7905   8.1540   0.5156  -0.6736   0.7973   0.00    0.0
2018/03/11 12:58:29.000   78.255320702   16.193780053   490.3500   5   9   1.6762   1.7905   8.1541   0.5156  -0.6754   0.7971   0.00    0.0
2018/03/11 12:58:30.000   78.255317010   16.193774306   488.4960   5   9   1.6762   1.7906   8.1542   0.5157  -0.6773   0.7969   0.00    0.0
2018/03/11 12:58:31.000   78.255314407   16.193744583   489.1804   5   9   1.6762   1.7906   8.1543   0.5157  -0.6792   0.7967   0.00    0.0
2018/03/11 12:58:32.000   78.255311735   16.193765630   488.4696   5   9   1.6762   1.7906   8.1544   0.5157  -0.6810   0.7965   0.00    0.0
2018/03/11 12:58:33.000   78.255314422   16.193778866   489.7754   5   9   1.6762   1.7906   8.1545   0.5158  -0.6829   0.7963   0.00    0.0
2018/03/11 12:58:34.000   78.255311337   16.193750657   488.1804   5   9   1.6762   1.7907   8.1546   0.5158  -0.6847   0.7961   0.00    0.0
2018/03/11 12:58:35.000   78.255314807   16.193744875   488.7788   5   9   1.6761   1.7907   8.1547   0.5158  -0.6866   0.7959   0.00    0.0
2018/03/11 12:58:36.000   78.255316404   16.193760721   490.7558   5   9   1.6761   1.7907   8.1548   0.5159  -0.6884   0.7957   0.00    0.0
2018/03/11 12:58:37.000   78.255311918   16.193749115   490.6089   5   9   1.6761   1.7907   8.1549   0.5159  -0.6903   0.7955   0.00    0.0
2018/03/11 12:58:38.000   78.255312837   16.193740899   488.9067   5   9   1.6761   1.7907   8.1550   0.5159  -0.6921   0.7953   0.00    0.0
2018/03/11 12:58:39.000   78.255311693   16.193742903   488.4795   5   9   1.6761   1.7908   8.1551   0.5160  -0.6939   0.7950   0.00    0.0
2018/03/11 12:58:40.000   78.255311265   16.193746152   489.2337   5   9   1.6761   1.7908   8.1552   0.5160  -0.6958   0.7948   0.00    0.0
2018/03/11 12:58:41.000   78.255313534   16.193769828   490.2598   5   9   1.6761   1.7908   8.1553   0.5160  -0.6976   0.7946   0.00    0.0
2018/03/11 12:58:42.000   78.255313432   16.193765603   489.4146   5   9   1.6761   1.7908   8.1554   0.5160  -0.6994   0.7944   0.00    0.0
2018/03/11 12:58:43.000   78.255313875   16.193766371   487.6389   5   9   1.6761   1.7909   8.1555   0.5161  -0.7012   0.7942   0.00    0.0
2018/03/11 12:58:44.000   78.255313819   16.193775592   489.3745   5   9   1.6760   1.7909   8.1555   0.5161  -0.7030   0.7940   0.00    0.0
2018/03/11 12:58:45.000   78.255314842   16.193776157   490.2106   5   9   1.6760   1.7909   8.1556   0.5161  -0.7048   0.7938   0.00    0.0
2018/03/11 12:58:46.000   78.255315042   16.193755196   488.3341   5   9   1.6760   1.7909   8.1557   0.5162  -0.7066   0.7936   0.00    0.0
2018/03/11 12:58:47.000   78.255316762   16.193757984   489.4711   5   9   1.6760   1.7910   8.1558   0.5162  -0.7084   0.7934   0.00    0.0
2018/03/11 12:58:48.000   78.255313602   16.193759837   489.8269   5   9   1.6760   1.7910   8.1559   0.5162  -0.7102   0.7932   0.00    0.0
2018/03/11 12:58:49.000   78.255312967   16.193733487   489.0483   5   9   1.6760   1.7910   8.1559   0.5163  -0.7119   0.7930   0.00    0.0
2018/03/11 12:58:50.000   78.255316276   16.193734109   489.2956   5   9   1.6760   1.7910   8.1560   0.5163  -0.7137   0.7928   0.00    0.0
2018/03/11 12:58:51.000   78.255313652   16.193725209   490.0048   5   9   1.6760   1.7911   8.1561   0.5163  -0.7155   0.7926   0.00    0.0
2018/03/11 12:58:52.000   78.255314615   16.193759299   491.3418   5   9   1.6760   1.7911   8.1561   0.5164  -0.7172   0.7924   0.00    0.0
2018/03/11 12:58:53.000   78.255316737   16.193758772   490.4200   5   9   1.6760   1.7911   8.1562   0.5164  -0.7190   0.7922   0.00    0.0
2018/03/11 12:58:54.000   78.255320639   16.193765781   490.2017   5   9   1.6759   1.7911   8.1563   0.5164  -0.7208   0.7920   0.00    0.0
2018/03/11 12:58:55.000   78.255318794   16.193780390   490.4666   5   9   1.6759   1.7912   8.1563   0.5165  -0.7225   0.7918   0.00    0.0
2018/03/11 12:58:56.000   78.255313540   16.193778781   491.5287   5   9   1.6759   1.7912   8.1564   0.5165  -0.7243   0.7916   0.00    0.0
2018/03/11 12:58:57.000   78.255314587   16.193753177   489.0857   5   9   1.6759   1.7912   8.1565   0.5165  -0.7260   0.7914   0.00    0.0
2018/03/11 12:58:58.000   78.255315721   16.193761902   489.4466   5   9   1.6759   1.7912   8.1565   0.5166  -0.7278   0.7912   0.00    0.0
2018/03/11 12:58:59.000   78.255310393   16.193769154   489.5453   5   9   1.6759   1.7913   8.1566   0.5166  -0.7295   0.7910   0.00    0.0
2018/03/11 12:59:00.000   78.255313403   16.193760740   490.0340   5   9   1.6759   1.7913   8.1567   0.5166  -0.7312   0.7907   0.00    0.0
2018/03/11 12:59:01.000   78.255314875   16.193749599   489.1345   5   9   1.6759   1.7913   8.1567   0.5167  -0.7329   0.7905   0.00    0.0
2018/03/11 12:59:02.000   78.255309798   16.193757022   487.7567   5   9   1.6759   1.7913   8.1568   0.5167  -0.7347   0.7903   0.00    0.0
2018/03/11 12:59:03.000   78.255307586   16.193761847   489.9777   5   9   1.6759   1.7913   8.1568   0.5167  -0.7364   0.7901   0.00    0.0
2018/03/11 12:59:04.000   78.255311938   16.193757240   490.1788   5   9   1.6758   1.7914   8.1569   0.5167  -0.7381   0.7899   0.00    0.0
2018/03/11 12:59:05.000   78.255312295   16.193738796   490.8566   5   9   1.6758   1.7914   8.1569   0.5168  -0.7398   0.7897   0.00    0.0
2018/03/11 12:59:06.000   78.255312235   16.193744946   490.1399   5   9   1.6758   1.7914   8.1570   0.5168  -0.7415   0.7895   0.00    0.0
2018/03/11 12:59:07.000   78.255315393   16.193766127   491.3471   5   9   1.6758   1.7915   8.1570   0.5168  -0.7432   0.7893   0.00    0.0
2018/03/11 12:59:08.000   78.255317003   16.193765910   491.4698   5   9   1.6758   1.7915   8.1571   0.5169  -0.7449   0.7891   0.00    0.0
2018/03/11 12:59:09.000   78.255320051   16.193750314   491.0224   5   9   1.6758   1.7915   8.1571   0.5169  -0.7466   0.7889   0.00    0.0
2018/03/11 12:59:10.000   78.255320109   16.193753963   491.2667   5   9   1.6758   1.7915   8.1571   0.5169  -0.7483   0.7887   0.00    0.0
