     2.11           OBSERVATION DATA    M (MIXED)           RINEX VERSION / TYPE
teqc  2018Mar15                         20180319 14:17:34UTCPGM / RUN BY / DATE
Linux 2.6.32-573.12.1.x86_64|x86_64|gcc -static|Linux 64|=+ COMMENT
END OF STATIC MODE OBSERVATION                              COMMENT
BIT 2 OF LLI FLAGS DATA COLLECTED UNDER A/S CONDITION       COMMENT
-Unknown-                                                   MARKER NAME
4625                                                        MARKER NUMBER
-Unknown-           -Unknown-                               OBSERVER / AGENCY
5127468778          TRIMBLE             4.63                REC # / TYPE / VERS
47477114                            NONE                    ANT # / TYPE
  5128214.6819        0.0000 -3779651.6886                  APPROX POSITION XYZ
        0.0000        0.0000        0.0000                  ANTENNA: DELTA H/E/N
     1     1                                                WAVELENGTH FACT L1/2
     7    L1    L2    C1    P1    P2    S1    S2            # / TYPES OF OBSERV
    18                                                      LEAP SECONDS
 SNR is mapped to RINEX snr flag value [0-9]                COMMENT
  L1 & L2: min(max(int(snr_dBHz/6), 0), 9)                  COMMENT
  2018     3    15    12    47   45.0000000     GPS         TIME OF FIRST OBS
                                                            END OF HEADER
 18  3 15 12 47 45.0000000  0 16G19R19R01R09R10R02R18G32R11G11G17G24
                                G28G01G10G15
 121882277.753 7  94973156.63744  23193423.836                    23193427.109
        43.500          29.700
                  86794374.849 6  20861137.383                    20861136.895
                        41.200
                  84813145.856 6  20399206.227                    20399210.063
                        38.500
                  86120480.788 6  20735484.898                    20735485.563
                        41.800
                  80442739.454 6  19402527.102                    19402530.801
                        40.600
                  89468094.178 6  21556647.133                    21556650.422
                        40.900
                  85745997.880 6  20652571.820                    20652571.109
                        41.400
 125126740.421 7  97501405.95744  23810835.719                    23810841.168
        43.800          27.700
                  93958927.682 6  22606882.234                    22606882.273
                        40.700
 118699000.123 7  92492758.00144  22587674.703                    22587676.844
        42.800          29.500
 117834651.785 7  91819185.47845  22423185.156                    22423189.145
        46.800          35.700
 110334449.031 8  85974816.00446  20995923.242                    20995929.285
        51.600          40.500
 120840340.825 7  94161323.73044  22995156.516                    22995159.102
        44.900          28.900
 117931524.482 7  91894621.94345  22441598.320                    22441606.148
        47.000          34.700
 118429751.040 7  92283068.30045  22536473.953                    22536480.105
        46.000          33.500
 125222446.028 7  97575940.39844  23829040.297                    23829044.141
        46.400          28.200
 18  3 15 12 47 46.0000000  0 16G19R19R01R09R10R02R18G32R11G11G17G24
                                G28G01G10G15
 121879181.658 7  94970744.08544  23192834.430                    23192837.824
        42.900          28.100
                  86792626.495 6  20860716.992                    20860716.891
                        41.100
                  84814681.861 6  20399575.781                    20399579.449
                        38.300
                  86123274.912 6  20736157.289                    20736158.832
                        41.800
                  80442196.303 6  19402395.656                    19402399.820
                        40.800
                  89465908.430 6  21556122.180                    21556122.934
                        40.700
                  85747715.396 6  20652983.398                    20652985.605
                        41.600
 125123934.672 7  97499219.65344  23810300.750                    23810307.449
        43.400          27.900
                  93955900.709 6  22606152.375                    22606154.902
                        40.200
 118700410.420 7  92493856.93144  22587942.773                    22587945.117
        43.200          29.900
 117833030.451 8  91817922.13746  22422877.727                    22422880.523
        48.100          36.500
 110333927.756 8  85974409.81846  20995823.813                    20995829.633
        51.700          40.700
 120843495.135 7  94163781.63344  22995756.797                    22995759.316
        45.100          28.600
 117930948.492 7  91894173.16545  22441488.813                    22441496.719
        47.000          34.400
 118431710.163 7  92284594.88845  22536847.164                    22536853.113
        46.000          33.300
 125226423.810 7  97579039.97944  23829797.289                    23829800.984
        46.300          27.700
 18  3 15 12 47 47.0000000  0 16G19R19R01R09R10R02R18G32R11G11G17G24
                                G28G01G10G15
 121876085.975 6  94968331.86144  23192244.492                    23192248.164
        41.500          27.400
                  86790878.760 6  20860296.367                    20860297.066
                        40.900
                  84816218.566 6  20399945.883                    20399948.840
                        38.400
                  86126069.469 6  20736831.227                    20736831.453
                        41.600
                  80441653.804 6  19402264.836                    19402269.125
                        40.400
                  89463723.201 6  21555595.688                    21555596.789
                        40.600
                  85749433.604 6  20653394.914                    20653399.309
                        41.200
 125121129.262 7  97497033.62544  23809767.102                    23809773.066
        42.600          26.700
                  93952873.983 6  22605423.500                    22605425.863
                        40.400
 118701821.528 7  92494956.51144  22588211.406                    22588213.719
        43.100          28.300
 117831409.670 8  91816659.22246  22422570.461                    22422572.254
        49.400          36.800
 110333407.137 8  85974004.14646  20995724.813                    20995730.824
        50.500          40.700
 120846649.793 7  94166239.80644  22996357.063                    22996359.668
        45.000          28.300
 117930373.244 7  91893724.95945  22441379.383                    22441387.063
        46.700          34.600
 118433669.940 7  92286121.98945  22537220.219                    22537226.094
        46.100          33.500
 125230401.840 7  97582139.75144  23830554.156                    23830557.875
        46.600          28.000
 18  3 15 12 47 48.0000000  0 16G19R19R01R09R10R02R18G32R11G11G17G24
                                G28G01G10G15
 121872990.660 6  94965919.94444  23191655.813                    23191658.719
        41.200          27.400
                  86789131.643 6  20859877.297                    20859876.605
                        40.900
                  84817755.972 6  20400315.500                    20400318.898
                        38.300
                  86128864.449 6  20737503.773                    20737504.313
                        41.500
                  80441111.942 6  19402134.555                    19402138.859
                        40.200
                  89461538.445 6  21555069.328                    21555069.871
                        40.400
                  85751152.535 6  20653807.281                    20653812.477
                        41.500
 125118324.247 7  97494847.89544  23809233.039                    23809239.246
        43.000          26.000
                  93949847.495 6  22604697.094                    22604698.383
                        40.700
 118703233.308 7  92496056.61544  22588480.188                    22588482.250
        43.800          28.700
 117829789.455 8  91815396.72846  22422262.406                    22422263.840
        50.400          37.500
 110332887.188 8  85973598.99046  20995625.766                    20995631.770
        50.800          40.600
 120849804.784 7  94168698.24344  22996957.195                    22996959.688
        45.400          28.600
 117929798.687 7  91893277.28745  22441269.781                    22441277.633
        46.400          34.200
 118435630.388 7  92287649.63345  22537592.898                    22537599.262
        45.900          33.600
 125234380.146 7  97585239.72844  23831311.383                    23831314.879
        46.500          28.500
 18  3 15 12 47 49.0000000  0 16G19R19R01R09R10R02R18G32R11G11G17G24
                                G28G01G10G15
 121869895.751 6  94963508.33544  23191067.227                    23191069.867
        41.000          27.100
                  86787385.151 6  20859457.922                    20859457.391
                        40.900
                  84819294.094 6  20400684.922                    20400688.902
                        38.200
                  86131659.900 6  20738176.305                    20738177.113
                        41.300
                  80440570.743 6  19402003.805                    19402007.621
                        40.100
                  89459354.187 6  21554542.047                    21554543.688
                        40.200
                  85752872.144 6  20654221.891                    20654226.156
                        41.400
 125115519.593 7  97492662.43444  23808699.445                    23808705.273
        42.800          25.200
                  93946821.211 6  22603967.570                    22603970.023
                        40.000
 118704645.827 7  92497157.30144  22588748.898                    22588750.953
        44.000          28.300
 117828169.797 8  91814134.64646  22421953.758                    22421955.453
        51.200          36.800
 110332367.925 8  85973194.36246  20995527.086                    20995532.922
        51.000          40.600
 120852960.110 7  94171156.94044  22997557.867                    22997560.230
        45.300          29.400
 117929224.884 7  91892830.18745  22441160.523                    22441168.426
        46.800          34.100
 118437591.488 7  92289177.78845  22537966.086                    22537972.559
        46.400          33.700
 125238358.688 7  97588339.89144  23832068.656                    23832071.934
        46.600          28.800
 18  3 15 12 47 50.0000000  0 16G19R19R01R09R10R02R18G32R11G11G17G24
                                G28G01G10G15
 121866801.277 6  94961097.07244  23190478.688                    23190480.688
        41.900          27.400
                  86785639.234 6  20859038.242                    20859037.250
                        41.100
                  84820832.921 6  20401056.016                    20401059.055
                        38.900
                  86134455.782 6  20738851.031                    20738850.613
                        41.300
                  80440030.183 6  19401873.539                    19401877.258
                        40.500
                  89457170.391 6  21554015.617                    21554017.387
                        40.900
                  85754592.379 6  20654638.344                    20654640.621
                        41.700
 125112715.293 7  97490477.24344  23808165.477                    23808171.617
        43.000          26.200
                  93943795.123 6  22603239.078                    22603241.516
                        40.200
 118706059.094 7  92498258.56344  22589017.766                    22589019.570
        44.100          28.000
 117826550.676 8  91812872.97346  22421645.625                    22421647.496
        51.600          36.900
 110331849.340 8  85972790.27146  20995428.344                    20995434.309
        50.800          40.700
 120856115.816 7  94173615.93844  22998157.727                    22998161.215
        44.700          28.500
 117928651.776 7  91892383.62345  22441052.031                    22441059.145
        46.300          34.000
 118439553.168 7  92290706.38345  22538339.430                    22538345.430
        46.500          33.400
 125242337.530 7  97591440.28844  23832826.109                    23832829.590
        47.000          29.000
 18  3 15 12 47 51.0000000  0 16G19R19R01R09R10R02R18G32R11G11G17G24
                                G28G01G10G15
 121863707.219 7  94958686.11645  23189890.164                    23189891.504
        43.000          30.600
                  86783893.928 6  20858618.531                    20858618.316
                        41.100
                  84822372.421 6  20401425.938                    20401428.980
                        38.500
                  86137252.067 6  20739523.984                    20739523.504
                        41.200
                  80439490.278 6  19401743.289                    19401747.227
                        40.400
                  89454987.123 6  21553488.867                    21553491.559
                        40.900
                  85756313.270 6  20655053.266                    20655055.324
                        41.200
 125109911.347 7  97488292.33744  23807631.938                    23807637.703
        43.200          25.400
                  93940769.276 6  22602511.969                    22602513.703
                        40.400
 118707473.076 7  92499360.38044  22589287.180                    22589288.660
        44.000          28.600
 117824932.101 8  91811611.71546  22421337.461                    22421339.969
        51.400          36.800
 110331331.417 8  85972386.69946  20995329.984                    20995335.980
        50.800          40.900
 120859271.846 7  94176075.17944  22998758.188                    22998761.508
        44.400          29.100
 117928079.409 7  91891937.63545  22440942.570                    22440949.980
        46.500          34.100
 118441515.458 7  92292235.43845  22538712.688                    22538718.648
        46.800          34.000
 125246316.604 7  97594540.85644  23833582.820                    23833586.777
        47.200          29.000
 18  3 15 12 47 52.0000000  0 16G19R19R01R09R10R02R18G32R11G11G17G24
                                G28G01G10G15
 121860613.564 7  94956275.47345  23189302.141                    23189302.949
        44.300          30.600
                  86782149.248 6  20858198.211                    20858198.469
                        41.200
                  84823912.635 6  20401796.336                    20401799.777
                        38.600
                  86140048.807 6  20740196.289                    20740197.488
                        41.100
                  80438951.018 6  19401613.328                    19401616.895
                        40.400
                  89452804.361 6  21552963.328                    21552965.656
                        41.100
                  85758034.867 6  20655467.039                    20655469.977
                        41.400
 125107107.770 7  97486107.73544  23807099.031                    23807104.336
        42.700          25.400
                  93937743.598 6  22601783.969                    22601785.707
                        40.400
 118708887.796 7  92500462.75944  22589556.094                    22589557.758
        44.900          28.100
 117823314.059 8  91810350.89246  22421028.898                    22421032.176
        51.000          36.600
 110330814.181 8  85971983.65846  20995231.633                    20995237.559
        50.800          40.800
 120862428.213 7  94178534.67444  22999359.070                    22999362.227
        44.500          29.700
 117927507.770 7  91891492.21145  22440833.719                    22440841.504
        46.400          33.100
 118443478.436 7  92293765.01045  22539086.406                    22539092.215
        46.800          35.100
 125250295.961 7  97597641.65244  23834340.141                    23834344.070
        46.400          28.900
 18  3 15 12 47 53.0000000  0 16G19R19R01R09R10R02R18G32R11G11G17G24
                                G28G01G10G15
 121857520.332 7  94953865.16045  23188713.883                    23188714.664
        45.400          31.400
                  86780405.186 6  20857779.656                    20857778.855
                        40.900
                  84825453.520 6  20402166.492                    20402170.199
                        38.200
                  86142846.030 6  20740870.102                    20740870.617
                        41.300
                  80438412.426 6  19401483.313                    19401487.203
                        40.400
                  89450622.138 6  21552437.477                    21552440.359
                        40.900
                  85759757.196 6  20655882.078                    20655884.895
                        41.300
 125104304.576 7  97483923.43344  23806565.586                    23806570.926
        43.400          26.200
                  93934718.113 6  22601055.422                    22601057.922
                        40.500
 118710303.282 7  92501565.73744  22589825.234                    22589827.426
        45.100          28.400
 117821696.559 8  91809090.49346  22420720.500                    22420724.512
        49.500          36.900
 110330297.630 8  85971581.14646  20995133.281                    20995139.090
        51.100          41.100
 120865584.952 7  94180994.46444  22999960.516                    22999962.656
        45.000          29.600
 117926936.893 7  91891047.39145  22440725.422                    22440732.645
        46.400          34.000
 118445442.022 7  92295295.04745  22539459.359                    22539466.023
        46.400          34.200
 125254275.598 7  97600742.66844  23835096.711                    23835101.156
        46.100          28.500
 18  3 15 12 47 54.0000000  0 16G19R19R01R09R10R02R18G32R11G11G17G24
                                G28G01G10G15
 121854427.527 7  94951455.18445  23188125.172                    23188126.840
        45.600          31.500
                  86778661.765 6  20857360.391                    20857360.918
                        40.800
                  84826995.105 6  20402536.602                    20402541.078
                        38.500
                  86145643.671 6  20741544.828                    20741544.473
                        41.200
                  80437874.480 6  19401353.711                    19401357.160
                        40.700
                  89448440.434 6  21551913.125                    21551914.184
                        40.600
                  85761480.180 6  20656299.031                    20656299.430
                        41.200
 125101501.771 7  97481739.43144  23806032.305                    23806037.313
        44.100          28.000
                  93931692.887 6  22600327.922                    22600330.152
                        40.500
 118711719.500 7  92502669.29344  22590094.188                    22590096.660
        44.500          28.400
 117820079.607 8  91807830.53446  22420412.242                    22420416.531
        48.700          36.600
 110329781.734 8  85971179.15546  20995034.883                    20995040.688
        51.300          41.100
 120868742.026 7  94183454.52144  23000561.563                    23000563.383
        45.300          29.100
 117926366.719 7  91890603.10845  22440616.602                    22440624.172
        46.400          34.800
 118447406.274 7  92296825.60245  22539833.695                    22539839.605
        46.500          34.700
 125258255.479 7  97603843.87444  23835854.148                    23835858.605
        46.000          28.500
 18  3 15 12 47 55.0000000  0 16G19R19R01R09R10R02R18G32R11G11G17G24
                                G28G01G10G15
 121851335.115 7  94949045.50945  23187536.883                    23187538.359
        45.200          31.600
                  86776918.961 6  20856941.469                    20856941.586
                        40.900
                  84828537.398 6  20402908.141                    20402911.801
                        38.400
                  86148441.751 6  20742218.258                    20742217.672
                        41.100
                  80437337.207 6  19401224.383                    19401227.770
                        40.900
                  89446259.226 6  21551387.523                    21551388.656
                        40.700
                  85763203.879 6  20656714.906                    20656715.402
                        41.500
 125098699.322 7  97479555.70544  23805499.008                    23805504.043
        44.500          28.800
                  93928667.899 6  22599600.906                    22599602.430
                        40.700
 118713136.467 7  92503773.42944  22590363.648                    22590366.387
        44.700          28.900
 117818463.197 8  91806571.01046  22420104.813                    22420109.336
        48.500          37.100
 110329266.546 8  85970777.70946  20994936.984                    20994942.801
        51.400          40.900
 120871899.459 7  94185914.85144  23001162.227                    23001164.387
        45.800          28.500
 117925797.294 7  91890159.41545  22440508.773                    22440515.574
        47.000          34.700
 118449371.207 7  92298356.69745  22540207.867                    22540214.020
        46.000          34.000
 125262235.697 7  97606945.34444  23836611.367                    23836615.902
        45.100          27.500
 18  3 15 12 47 56.0000000  0 16G19R19R01R09R10R02R18G32R11G11G17G24
                                G28G01G10G15
 121848243.152 7  94946636.19445  23186947.430                    23186950.258
        44.900          31.400
                  86775176.792 6  20856522.813                    20856522.734
                        40.900
                  84830080.378 6  20403279.219                    20403282.727
                        38.800
                  86151240.309 6  20742890.656                    20742891.809
                        41.400
                  80436800.597 6  19401094.664                    19401098.848
                        40.700
                  89444078.512 6  21550862.336                    21550863.273
                        40.900
                  85764928.286 6  20657130.063                    20657130.645
                        41.600
 125095897.302 7  97477372.31444  23804965.938                    23804970.941
        44.100          28.300
                  93925643.063 6  22598871.453                    22598874.000
                        40.500
 118714554.209 7  92504878.18744  22590633.773                    22590636.164
        45.000          28.900
 117816847.361 8  91805311.93846  22419797.906                    22419801.965
        48.700          37.000
 110328752.021 8  85970376.78346  20994839.047                    20994844.813
        51.300          40.700
 120875057.273 7  94188375.49844  23001762.711                    23001765.500
        45.500          29.500
 117925228.600 7  91889716.28645  22440400.172                    22440407.563
        46.500          34.400
 118451336.811 7  92299888.33445  22540581.797                    22540587.816
        46.300          33.900
 125266216.168 7  97610047.01244  23837369.328                    23837373.148
        45.200          27.500
 18  3 15 12 47 57.0000000  0 16G19R19R01R09R10R02R18G32R11G11G17G24
                                G28G01G10G15
 121845151.593 7  94944227.19045  23186359.328                    23186361.820
        44.100          30.200
                  86773435.256 6  20856105.023                    20856103.738
                        41.100
                  84831624.086 6  20403650.883                    20403654.004
                        38.500
                  86154039.305 6  20743565.719                    20743565.438
                        41.500
                  80436264.650 6  19400965.367                    19400969.074
                        40.300
                  89441898.274 6  21550336.352                    21550338.359
                        40.800
                  85766653.394 6  20657543.836                    20657546.012
                        41.400
 125093095.628 7  97475189.19944  23804432.867                    23804438.309
        44.000          28.900
                  93922618.457 6  22598144.211                    22598146.371
                        40.600
 118715972.684 7  92505983.50644  22590903.125                    22590906.551
        44.500          29.700
 117815232.102 8  91804053.31546  22419491.172                    22419494.570
        49.400          37.300
 110328238.197 8  85969976.39646  20994741.258                    20994747.328
        50.300          40.800
 120878215.418 7  94190836.39744  23002363.258                    23002366.258
        44.600          28.500
 117924660.671 7  91889273.73845  22440292.117                    22440299.160
        46.400          34.600
 118453303.114 7  92301420.52445  22540956.258                    22540962.172
        46.600          33.800
 125270196.930 7  97613148.89644  23838127.469                    23838130.781
        44.900          28.300
 18  3 15 12 47 58.0000000  0 16G19R19R01R09R10R02R18G32R11G11G17G24
                                G28G01G10G15
 121842060.439 7  94941818.51744  23185771.266                    23185773.883
        43.800          29.000
                  86771694.315 6  20855686.531                    20855685.676
                        41.000
                  84833168.488 6  20404021.875                    20404025.754
                        38.900
                  86156838.727 6  20744239.984                    20744240.086
                        41.400
                  80435729.366 6  19400836.055                    19400840.363
                        40.000
                  89439718.520 6  21549810.469                    21549813.184
                        40.800
                  85768379.194 6  20657956.961                    20657961.781
                        41.400
 125090294.339 7  97473006.37944  23803900.313                    23803905.371
        43.900          29.100
                  93919594.091 6  22597417.383                    22597419.012
                        40.600
 118717391.906 7  92507089.40444  22591172.586                    22591176.453
        44.000          29.200
 117813617.384 8  91802795.10346  22419184.219                    22419186.746
        49.700          37.500
 110327725.058 8  85969576.55046  20994643.500                    20994649.469
        50.400          40.900
 120881373.926 7  94193297.57344  23002963.977                    23002967.176
        44.600          29.100
 117924093.454 7  91888831.74445  22440184.336                    22440191.313
        46.600          34.400
 118455270.036 7  92302953.19745  22541329.891                    22541336.844
        46.700          34.000
 125274177.951 7  97616250.98044  23838884.992                    23838888.086
        45.900          27.900
 18  3 15 12 47 59.0000000  0 16G19R19R01R09R10R02R18G32R11G11G17G24
                                G28G01G10G15
 121838969.657 7  94939410.12044  23185182.992                    23185184.953
        44.100          28.900
                  86769953.941 6  20855267.336                    20855267.371
                        41.000
                  84834713.567 6  20404393.164                    20404397.563
                        38.900
                  86159638.588 6  20744913.070                    20744914.027
                        41.500
                  80435194.721 6  19400706.914                    19400711.086
                        40.400
                  89437539.244 6  21549285.547                    21549288.184
                        40.700
                  85770105.636 6  20658372.445                    20658376.824
                        41.300
 125087493.373 7  97470823.81944  23803367.516                    23803372.316
        43.900          28.900
                  93916569.915 6  22596689.281                    22596691.168
                        40.200
 118718811.831 7  92508195.83444  22591443.055                    22591446.906
        43.200          28.300
 117812003.187 8  91801537.27446  22418876.797                    22418879.555
        50.000          36.700
 110327212.567 8  85969177.20446  20994546.109                    20994552.262
        50.700          40.800
 120884532.741 7  94195758.97644  23003565.289                    23003568.246
        44.800          28.800
 117923526.943 7  91888390.30645  22440076.633                    22440083.730
        46.400          34.700
 118457237.584 7  92304486.36945  22541704.219                    22541710.969
        46.000          33.500
 125278159.182 7  97619353.22944  23839643.406                    23839646.148
        46.900          28.400
 18  3 15 12 48  0.0000000  0 16G19R19R01R09R10R02R18G32R11G11G17G24
                                G28G01G10G15
 121835879.326 7  94937002.07944  23184595.258                    23184596.945
        44.600          28.100
                  86768214.200 6  20854849.078                    20854849.246
                        41.000
                  84836259.341 6  20404765.633                    20404769.238
                        39.100
                  86162438.910 6  20745587.547                    20745587.941
                        41.400
                  80434660.728 6  19400577.852                    19400582.375
                        40.400
                  89435360.508 6  21548760.195                    21548763.750
                        40.500
                  85771832.739 6  20658789.313                    20658793.129
                        41.300
 125084692.787 7  97468641.53544  23802833.688                    23802839.734
        44.000          28.100
                  93913545.973 6  22595961.047                    22595964.047
                        40.700
 118720232.562 7  92509302.89644  22591713.313                    22591717.008
        42.900          28.300
 117810389.559 8  91800279.88946  22418569.461                    22418572.531
        49.300          37.200
 110326700.777 8  85968778.41046  20994448.750                    20994454.598
        50.200          40.900
 120887691.906 7  94198220.65544  23004167.164                    23004169.520
        44.800          29.400
 117922961.170 7  91887949.44445  22439968.586                    22439975.938
        45.500          34.500
 118459205.788 7  92306020.05545  22542078.734                    22542085.500
        46.300          34.400
 125282140.703 7  97622455.71344  23840401.211                    23840403.645
        47.700          28.200
 18  3 15 12 48  1.0000000  0 16G19R19R01R09R10R02R18G32R11G11G17G24
                                G28G01G10G15
 121832789.398 7  94934594.33144  23184007.273                    23184008.531
        45.100          26.500
                  86766475.101 6  20854431.422                    20854431.590
                        41.100
                  84837805.821 6  20405137.570                    20405140.613
                        38.300
                  86165239.658 6  20746263.281                    20746262.449
                        41.500
                  80434127.418 6  19400449.914                    19400453.961
                        40.400
                  89433182.328 6  21548235.586                    21548238.508
                        40.400
                  85773560.537 6  20659207.281                    20659209.156
                        41.500
 125081892.601 7  97466459.56844  23802300.445                    23802306.859
        43.500          27.900
                  93910522.231 6  22595234.547                    22595236.484
                        40.900
 118721654.036 7  92510410.53744  22591983.367                    22591987.875
        42.500          28.300
 117808776.486 7  91799022.93546  22418262.320                    22418265.340
        47.600          36.800
 110326189.643 8  85968380.12246  20994351.344                    20994357.348
        49.800          40.800
 120890851.436 7  94200682.61344  23004768.547                    23004770.922
        45.300          29.300
 117922396.144 7  91887509.16345  22439861.578                    22439868.949
        45.600          34.700
 118461174.609 7  92307554.21045  22542453.938                    22542460.371
        45.900          33.200
 125286122.508 7  97625558.42344  23841158.805                    23841161.227
        47.800          29.400
 18  3 15 12 48  2.0000000  0 16G19R19R01R09R10R02R18G32R11G11G17G24
                                G28G01G10G15
 121829699.858 7  94932186.86544  23183419.391                    23183420.184
        45.800          26.500
                  86764736.611 6  20854013.641                    20854013.160
                        41.200
                  84839352.986 6  20405509.586                    20405512.668
                        38.300
                  86168040.815 6  20746936.945                    20746936.887
                        41.600
                  80433594.741 6  19400321.680                    19400325.328
                        40.400
                  89431004.634 6  21547711.813                    21547713.457
                        40.500
                  85775288.968 6  20659624.305                    20659625.254
                        41.400
 125079092.748 7  97464277.86544  23801767.719                    23801774.039
        43.200          26.900
                  93907498.612 6  22594506.516                    22594508.680
                        40.500
 118723076.224 7  92511518.74544  22592254.344                    22592258.473
        42.200          29.200
 117807163.922 7  91797766.38946  22417954.953                    22417958.191
        47.500          36.900
 110325679.163 8  85967982.34146  20994254.219                    20994260.219
        49.800          40.900
 120894011.281 7  94203144.83544  23005369.844                    23005372.242
        45.400          29.100
 117921831.844 7  91887069.43845  22439754.063                    22439761.418
        45.900          34.600
 118463144.107 7  92309088.88745  22542828.602                    22542834.730
        46.500          33.600
 125290104.521 7  97628661.29844  23841915.773                    23841919.363
        47.300          28.700
 18  3 15 12 48  3.0000000  0 16G19R19R01R09R10R02R18G32R11G11G17G24
                                G28G01G10G15
 121826610.731 7  94929779.70444  23182831.898                    23182831.133
        45.400          28.100
                  86762998.741 6  20853596.063                    20853596.059
                        41.100
                  84840900.838 6  20405881.859                    20405885.324
                        38.400
                  86170842.442 6  20747611.023                    20747611.469
                        41.500
                  80433062.722 6  19400193.250                    19400197.145
                        40.200
                  89428827.424 6  21547186.508                    21547188.852
                        40.500
                  85777018.076 6  20660041.656                    20660042.406
                        41.600
 125076293.280 7  97462096.46844  23801234.758                    23801241.363
        42.700          25.600
                  93904475.233 6  22593779.266                    22593780.871
                        40.000
 118724499.164 6  92512627.53144  22592525.000                    22592528.934
        41.800          28.300
 117805551.917 7  91796510.28646  22417648.609                    22417652.199
        47.900          36.300
 110325169.377 8  85967585.10446  20994157.406                    20994163.359
        50.000          41.000
 120897171.448 7  94205607.30044  23005970.828                    23005973.672
        45.400          28.900
 117921268.230 7  91886630.25945  22439647.047                    22439654.531
        46.200          34.300
 118465114.181 7  92310624.00645  22543203.570                    22543209.816
        46.300          34.300
 125294086.816 7  97631764.39644  23842672.922                    23842677.703
        46.600          28.900
 18  3 15 12 48  4.0000000  0 16G19R19R01R09R10R02R18G32R11G11G17G24
                                G28G01G10G15
 121823522.025 7  94927372.87244  23182244.547                    23182243.496
        45.800          29.300
                  86761261.496 6  20853178.367                    20853178.438
                        41.200
                  84842449.382 6  20406254.367                    20406257.840
                        38.200
                  86173644.523 6  20748285.516                    20748285.754
                        41.500
                  80432531.354 6  19400065.258                    19400068.641
                        40.400
                  89426650.677 6  21546662.070                    21546663.313
                        40.400
                  85778747.862 6  20660458.656                    20660458.941
                        41.500
 125073494.154 7  97459915.32344  23800702.039                    23800708.500
        43.000          25.500
                  93901452.113 6  22593052.906                    22593053.969
                        40.200
 118725922.832 7  92513736.87744  22592796.117                    22592799.641
        42.000          28.600
 117803940.465 8  91795254.62146  22417342.203                    22417345.098
        48.300          36.600
 110324660.276 8  85967188.40246  20994060.453                    20994066.449
        50.100          40.800
 120900331.982 7  94208070.06544  23006572.023                    23006575.129
        45.900          29.000
 117920705.348 7  91886191.64545  22439539.664                    22439547.266
        46.400          34.900
 118467084.870 7  92312159.58945  22543578.383                    22543584.816
        46.500          34.400
 125298069.407 7  97634867.72244  23843430.453                    23843435.383
        45.900          27.400
 18  3 15 12 48  5.0000000  0 16G19R19R01R09R10R02R18G32R11G11G17G24
                                G28G01G10G15
 121820433.775 7  94924966.41845  23181656.461                    23181656.121
        45.600          31.200
                  86759524.893 6  20852761.148                    20852761.242
                        41.200
                  84843998.649 6  20406626.555                    20406630.957
                        38.900
                  86176447.052 6  20748961.102                    20748960.762
                        41.200
                  80432000.683 6  19399937.180                    19399940.715
                        40.600
                  89424474.441 6  21546138.547                    21546139.488
                        40.000
                  85780478.401 6  20660874.141                    20660875.723
                        41.600
 125070695.491 7  97457734.54044  23800169.727                    23800175.074
        43.400          26.000
                  93898429.207 6  22592324.406                    22592326.680
                        39.900
 118727347.299 7  92514846.85544  22593067.859                    22593070.672
        42.700          29.400
 117802329.615 8  91793999.42046  22417035.859                    22417038.547
        48.400          36.700
 110324151.847 8  85966792.22446  20993963.906                    20993969.594
        49.900          40.800
 120903492.898 7  94210533.11845  23007173.719                    23007176.883
        45.700          30.000
 117920143.240 7  91885753.61345  22439432.781                    22439440.230
        46.400          34.700
 118469056.234 7  92313695.67745  22543953.664                    22543959.836
        47.100          34.300
 125302052.296 7  97637971.25944  23844187.453                    23844193.387
        44.800          27.300
 18  3 15 12 48  6.0000000  0 16G19R19R01R09R10R02R18G32R11G11G17G24
                                G28G01G10G15
 121817345.953 7  94922560.30945  23181068.875                    23181069.000
        45.600          32.200
                  86757788.906 6  20852343.930                    20852343.730
                        41.000
                  84845548.624 6  20407000.141                    20407003.469
                        38.900
                  86179250.043 6  20749635.141                    20749635.973
                        41.600
                  80431470.688 6  19399809.156                    19399813.047
                        40.500
                  89422298.737 6  21545614.422                    21545615.355
                        40.300
                  85782209.648 6  20661289.609                    20661293.043
                        41.700
 125067897.192 7  97455554.04444  23799637.289                    23799642.504
        43.400          25.400
                  93895406.546 6  22591597.242                    22591599.008
                        39.800
 118728772.524 7  92515957.42345  22593339.078                    22593342.113
        42.800          30.000
 117800719.323 8  91792744.65546  22416729.398                    22416732.051
        48.800          37.100
 110323644.132 8  85966396.60446  20993867.063                    20993873.293
        49.500          40.900
 120906654.178 7  94212996.45544  23007774.828                    23007778.063
        45.000          29.000
 117919581.905 7  91885316.17745  22439326.023                    22439333.094
        45.800          34.100
 118471028.328 7  92315232.33045  22544328.898                    22544335.090
        47.000          35.200
 125306035.494 7  97641075.04344  23844945.797                    23844950.598
        43.900          27.200
 18  3 15 12 48  7.0000000  0 16G19R19R01R09R10R02R18G32R11G11G17G24
                                G28G01G10G15
 121814258.543 7  94920154.53045  23180481.125                    23180482.410
        45.100          31.400
                  86756053.555 6  20851926.609                    20851926.594
                        41.200
                  84847099.306 6  20407372.852                    20407376.328
                        39.100
                  86182053.510 6  20750309.953                    20750310.945
                        41.600
                  80430941.351 6  19399681.516                    19399685.227
                        40.300
                  89420123.567 6  21545089.531                    21545091.523
                        41.000
                  85783941.625 6  20661705.219                    20661709.820
                        41.300
 125065099.296 7  97453373.85444  23799105.477                    23799109.941
        44.000          25.300
                  93892384.097 6  22590871.359                    22590872.258
                        40.600
 118730198.472 7  92517068.55444  22593610.836                    22593613.617
        43.000          28.500
 117799109.626 8  91791490.35246  22416423.219                    22416426.035
        49.600          37.300
 110323137.096 8  85966001.51246  20993770.594                    20993776.668
        49.600          40.900
 120909815.820 7  94215460.06944  23008377.070                    23008379.629
        45.100          29.600
 117919021.354 7  91884879.36645  22439219.156                    22439226.387
        46.000          34.200
 118473001.073 7  92316769.50845  22544704.844                    22544710.883
        46.700          34.500
 125310018.993 7  97644179.04644  23845705.313                    23845708.586
        44.300          27.200
 18  3 15 12 48  8.0000000  0 16G19R19R01R09R10R02R18G32R11G11G17G24
                                G28G01G10G15
 121811171.509 7  94917749.06845  23179893.359                    23179895.766
        44.300          32.400
                  86754318.783 6  20851509.438                    20851509.426
                        41.300
                  84848650.652 6  20407745.898                    20407749.059
                        38.600
                  86184857.372 6  20750985.125                    20750985.715
                        41.700
                  80430412.630 6  19399553.273                    19399557.426
                        40.400
                  89417948.890 6  21544564.773                    21544568.082
                        40.900
                  85785674.220 6  20662123.680                    20662126.785
                        41.400
 125062301.766 7  97451193.94644  23798573.195                    23798577.570
        44.100          26.500
                  93889361.776 6  22590142.945                    22590145.078
                        40.500
 118731625.157 7  92518180.26144  22593882.258                    22593884.840
        43.500          28.300
 117797500.422 8  91790236.41546  22416116.836                    22416119.805
        49.900          37.300
 110322630.706 8  85965606.92746  20993674.063                    20993680.078
        49.900          41.300
 120912977.774 7  94217923.91344  23008978.328                    23008981.305
        45.400          29.400
 117918461.499 7  91884443.11645  22439112.320                    22439120.133
        46.000          34.400
 118474974.398 7  92318307.14645  22545079.898                    22545086.145
        46.600          34.600
 125314002.675 7  97647283.19544  23846463.570                    23846466.516
        45.100          26.700
 18  3 15 12 48  9.0000000  0 16G19R19R01R09R10R02R18G32R11G11G17G24
                                G28G01G10G15
 121808084.945 7  94915343.98145  23179305.094                    23179308.734
        43.000          30.500
                  86752584.689 6  20851092.703                    20851092.781
                        40.800
                  84850202.772 6  20408119.578                    20408122.855
                        38.800
                  86187661.711 6  20751661.141                    20751661.074
                        41.700
                  80429884.610 6  19399426.445                    19399430.102
                        39.900
                  89415774.772 6  21544041.211                    21544044.223
                        40.800
                  85787407.546 6  20662542.063                    20662544.398
                        41.400
 125059504.641 7  97449014.37044  23798040.461                    23798045.453
        44.000          28.700
                  93886339.788 6  22589416.398                    22589417.211
                        40.200
 118733052.664 7  92519292.61744  22594154.156                    22594156.559
        43.700          28.800
 117795891.839 8  91788982.97346  22415810.836                    22415813.422
        48.800          36.900
 110322125.040 8  85965212.90146  20993577.750                    20993583.918
        49.900          40.700
 120916140.139 7  94220388.08744  23009581.008                    23009582.742
        45.200          28.900
 117917902.461 7  91884007.51445  22439006.391                    22439013.523
        46.100          34.200
 118476948.520 7  92319845.41845  22545455.414                    22545461.797
        46.900          34.100
 125317986.699 7  97650387.61944  23847222.703                    23847224.582
        46.300          27.700
 18  3 15 12 48 10.0000000  0 16G19R19R01R09R10R02R18G32R11G11G17G24
                                G28G01G10G15
 121804998.724 6  94912939.16845  23178717.734                    23178721.824
        41.800          30.600
                  86750851.178 6  20850676.367                    20850676.723
                        40.800
                  84851755.512 6  20408492.984                    20408496.484
                        38.500
                  86190466.489 6  20752335.695                    20752336.266
                        41.200
                  80429357.215 6  19399299.164                    19399303.152
                        40.200
                  89413601.094 6  21543517.375                    21543520.520
                        40.300
                  85789141.475 6  20662959.719                    20662962.125
                        41.200
 125056707.832 7  97446835.02544  23797508.844                    23797513.453
        44.500          27.900
                  93883317.989 6  22588689.773                    22588690.789
                        40.600
 118734480.853 7  92520405.49644  22594426.148                    22594428.461
        44.300          29.600
 117794283.757 8  91787729.91846  22415504.625                    22415507.688
        49.000          36.700
 110321620.030 8  85964819.39046  20993481.898                    20993487.848
        49.600          41.000
 120919302.813 7  94222852.51345  23010182.555                    23010184.988
        45.100          30.200
 117917344.071 7  91883572.40945  22438900.070                    22438907.313
        46.200          34.700
 118478923.200 7  92321384.13645  22545831.320                    22545837.906
        47.100          34.300
 125321970.929 7  97653492.22744  23847980.914                    23847982.695
        47.200          27.400
 18  3 15 12 48 11.0000000  0 16G19R19R01R09R10R02R18G32R11G11G17G24
                                G28G01G10G15
 121801912.914 6  94910534.70045  23178130.844                    23178134.879
        41.400          30.700
                  86749118.232 6  20850259.930                    20850259.723
                        40.800
                  84853308.929 6  20408866.367                    20408870.031
                        38.600
                  86193271.670 6  20753011.570                    20753011.633
                        41.200
                  80428830.431 6  19399172.266                    19399175.961
                        40.300
                  89411427.915 6  21542993.664                    21542997.188
                        40.500
                  85790876.074 6  20663376.461                    20663379.680
                        41.400
 125053911.377 7  97444655.95644  23796976.156                    23796981.246
        44.500          28.700
                  93880296.314 6  22587960.969                    22587963.820
                        40.200
 118735909.718 7  92521518.90244  22594698.102                    22594700.586
        44.500          28.800
 117792676.196 8  91786477.26646  22415198.469                    22415201.688
        48.900          37.100
 110321115.661 8  85964426.37746  20993386.094                    20993392.012
        48.900          41.000
 120922465.775 7  94225317.15344  23010784.148                    23010786.723
        45.400          28.900
 117916786.374 7  91883137.84145  22438793.984                    22438801.527
        46.300          33.700
 118480898.512 7  92322923.35245  22546207.328                    22546213.590
        46.300          34.200
 125325955.397 7  97656597.03444  23848738.430                    23848740.832
        47.400          29.400
 18  3 15 12 48 12.0000000  0 16G19R19R01R09R10R02R18G32R11G11G17G24
                                G28G01G10G15
 121798827.502 7  94908130.53245  23177543.586                    23177547.879
        42.300          30.400
                  86747385.949 6  20849842.961                    20849842.738
                        41.000
                  84854863.053 6  20409240.375                    20409243.996
                        38.700
                  86196077.305 6  20753687.828                    20753687.172
                        41.100
                  80428304.321 6  19399045.484                    19399049.266
                        40.200
                  89409255.234 6  21542471.273                    21542473.813
                        40.000
                  85792611.382 6  20663794.977                    20663797.539
                        41.500
 125051115.314 7  97442477.20444  23796444.445                    23796449.840
        44.200          29.400
                  93877274.896 6  22587234.148                    22587237.113
                        40.600
 118737339.371 7  92522632.91644  22594969.898                    22594972.227
        43.400          28.900
 117791069.202 8  91785225.05646  22414892.281                    22414896.355
        48.600          37.100
 110320611.991 8  85964033.90046  20993290.008                    20993296.070
        49.000          40.800
 120925629.122 7  94227782.10244  23011386.406                    23011388.816
        45.600          29.400
 117916229.479 7  91882703.88645  22438688.094                    22438695.055
        46.400          34.800
 118482874.493 7  92324463.09645  22546583.398                    22546589.578
        46.100          34.000
 125329940.137 7  97659702.04344  23849496.586                    23849499.121
        47.300          29.300
 18  3 15 12 48 13.0000000  0 16G19R19R01R09R10R02R18G32R11G11G17G24
                                G28G01G10G15
 121795742.473 7  94905726.65345  23176957.203                    23176960.762
        43.300          30.200
                  86745654.263 6  20849427.258                    20849426.453
                        40.800
                  84856417.826 6  20409614.438                    20409617.523
                        38.900
                  86198883.335 6  20754362.906                    20754362.883
                        41.200
                  80427778.832 6  19398918.422                    19398922.230
                        40.100
                  89407082.995 6  21541947.758                    21541949.762
                        40.100
                  85794347.277 6  20664215.203                    20664215.254
                        41.400
 125048319.582 7  97440298.70845  23795911.789                    23795917.484
        43.500          30.000
                  93874253.685 6  22586507.898                    22586509.223
                        40.500
 118738769.699 7  92523747.45544  22595242.164                    22595244.082
        43.600          28.500
 117789462.676 8  91783973.22346  22414586.594                    22414590.531
        48.300          37.100
 110320108.985 8  85963641.95346  20993194.398                    20993200.340
        49.000          40.900
 120928792.741 7  94230247.26644  23011988.188                    23011990.316
        45.800          28.900
 117915673.245 7  91882270.45145  22438582.328                    22438589.250
        46.500          34.700
 118484851.097 7  92326003.32545  22546959.320                    22546965.281
        46.200          33.400
 125333925.094 7  97662807.22544  23850254.430                    23850258.098
        47.000          29.700
 18  3 15 12 48 14.0000000  0 16G19R19R01R09R10R02R18G32R11G11G17G24
                                G28G01G10G15
 121792657.860 7  94903323.07645  23176369.836                    23176373.816
        44.000          30.500
                  86743923.209 6  20849010.766                    20849010.891
                        40.800
                  84857973.276 6  20409988.289                    20409991.801
                        38.600
                  86201689.827 6  20755038.289                    20755038.348
                        41.000
                  80427253.994 6  19398792.063                    19398795.520
                        40.400
                  89404911.275 6  21541424.508                    21541425.902
                        40.200
                  85796083.852 6  20664635.148                    20664634.543
                        41.100
 125045524.183 7  97438120.48444  23795379.836                    23795386.031
        43.000          28.500
                  93871232.599 6  22585780.750                    22585782.641
                        40.600
 118740200.766 7  92524862.58244  22595514.438                    22595516.766
        43.700          29.600
 117787856.727 7  91782721.84746  22414281.344                    22414284.926
        47.900          36.900
 110319606.628 8  85963250.50546  20993098.766                    20993104.832
        49.000          40.800
 120931956.720 7  94232712.70044  23012590.531                    23012592.906
        45.200          29.900
 117915117.746 7  91881837.58945  22438476.430                    22438483.816
        46.300          34.500
 118486828.327 7  92327544.05245  22547335.914                    22547341.613
        46.200          34.000
 125337910.317 7  97665912.60544  23851012.000                    23851016.512
        46.400          29.100
 18  3 15 12 48 15.0000000  0 16G19R19R01R09R10R02R18G32R11G11G17G24
                                G28G01G10G15
 121789573.657 7  94900919.80544  23175783.820                    23175787.043
        44.600          29.800
                  86742192.760 6  20848595.031                    20848595.344
                        41.200
                  84859529.413 6  20410362.195                    20410365.988
                        38.700
                  86204496.744 6  20755714.250                    20755714.508
                        41.100
                  80426729.819 6  19398665.258                    19398669.563
                        40.700
                  89402740.078 6  21540901.352                    21540903.078
                        40.400
                  85797821.118 6  20665052.250                    20665053.246
                        41.300
 125042729.166 7  97435942.57444  23794848.000                    23794854.703
        42.900          29.100
                  93868211.766 6  22585054.266                    22585056.035
                        40.600
 118741632.558 7  92525978.26944  22595787.664                    22595789.098
        44.700          29.100
 117786251.310 8  91781470.88646  22413975.711                    22413979.570
        48.100          36.800
 110319104.970 8  85962859.60146  20993003.313                    20993009.152
        48.900          41.100
 120935121.043 7  94235178.40144  23013192.656                    23013194.895
        45.400          29.700
 117914562.957 7  91881405.28045  22438371.148                    22438378.215
        46.300          34.400
 118488806.204 7  92329085.27245  22547712.086                    22547718.406
        46.400          34.800
 125341895.810 7  97669018.18544  23851769.391                    23851775.016
        45.000          29.700
 18  3 15 12 48 16.0000000  0 16G19R19R01R09R10R02R18G32R11G11G17G24
                                G28G01G10G15
 121786489.898 7  94898516.87344  23175196.773                    23175199.547
        45.100          27.800
                  86740462.928 6  20848180.148                    20848179.203
                        41.200
                  84861086.220 6  20410736.688                    20410740.508
                        38.600
