% program   : RTKPOST ver.2.4.2
% inp file  : Z:\home\linda\Documents\Spring18\GitHub_Unis\data\processed_data\46250706.obs
% inp file  : Z:\home\linda\Documents\Spring18\GitHub_Unis\data\base_station_data\lyrs0700.18o
% inp file  : Z:\home\linda\Documents\Spring18\GitHub_Unis\data\processed_data\46250706.nav
% obs start : 2018/03/11 12:52:14.0 GPST (week1992  46334.0s)
% obs end   : 2018/03/11 13:07:15.0 GPST (week1992  47235.0s)
% pos mode  : static
% freqs     : L1+L2
% solution  : forward
% elev mask : 15.0 deg
% dynamics  : on
% tidecorr  : off
% ionos opt : iono-free
% tropo opt : saastamoinen
% ephemeris : broadcast
% navi sys  : gps glonass galileo qzss sbas
% amb res   : fix and hold
% amb glo   : on
% val thres : 3.0
% antenna1  :                       ( 0.0000  0.0000  0.0000)
% antenna2  :                       ( 0.0000  0.0000  0.0000)
% ref pos   : 78.228825638   15.397310064   495.6816
%
% (lat/lon/height=WGS84/ellipsoidal,Q=1:fix,2:float,3:sbas,4:dgps,5:single,6:ppp,ns=# of satellites)
%  GPST                  latitude(deg) longitude(deg)  height(m)   Q  ns   sdn(m)   sde(m)   sdu(m)  sdne(m)  sdeu(m)  sdun(m) age(s)  ratio
2018/03/11 12:52:14.000   78.255308707   16.193666195   481.7904   2   8   1.0738   1.0603   5.0618  -0.4636   1.5903  -0.4145   0.00    1.0
2018/03/11 12:52:15.000   78.255304735   16.193675269   481.9665   2   8   0.7601   0.7516   3.6054  -0.3282   1.1330  -0.2932   0.00    1.0
2018/03/11 12:52:16.000   78.255306090   16.193675115   481.4639   2   8   0.6208   0.6140   2.9486  -0.2681   0.9266  -0.2392   0.00    1.0
2018/03/11 12:52:17.000   78.255306269   16.193680454   483.0807   2   8   0.5377   0.5318   2.5533  -0.2321   0.8024  -0.2070   0.00    1.0
2018/03/11 12:52:18.000   78.255311463   16.193673241   482.7766   2   8   0.4810   0.4755   2.2815  -0.2076   0.7169  -0.1849   0.00    1.0
2018/03/11 12:52:19.000   78.255314193   16.193671900   482.9846   2   8   0.4390   0.4339   2.0794  -0.1894   0.6533  -0.1686   0.00    1.1
2018/03/11 12:52:20.000   78.255314314   16.193680981   483.0004   2   8   0.4065   0.4015   1.9210  -0.1753   0.6035  -0.1560   0.00    1.0
2018/03/11 12:52:21.000   78.255314426   16.193687598   483.4092   2   8   0.3802   0.3753   1.7923  -0.1639   0.5630  -0.1458   0.00    1.0
2018/03/11 12:52:22.000   78.255314541   16.193687012   483.6562   2   8   0.3584   0.3536   1.6847  -0.1545   0.5292  -0.1373   0.00    1.0
2018/03/11 12:52:23.000   78.255314218   16.193686223   483.6393   2   8   0.3399   0.3351   1.5929  -0.1465   0.5002  -0.1302   0.00    1.1
2018/03/11 12:52:24.000   78.255311449   16.193691842   484.0458   2   8   0.3241   0.3192   1.5130  -0.1396   0.4751  -0.1241   0.00    1.1
2018/03/11 12:52:25.000   78.255310553   16.193697472   484.6868   2   8   0.3102   0.3053   1.4427  -0.1336   0.4529  -0.1188   0.00    1.1
2018/03/11 12:52:26.000   78.255310922   16.193698776   484.9752   2   8   0.2980   0.2930   1.3800  -0.1283   0.4331  -0.1141   0.00    1.1
2018/03/11 12:52:27.000   78.255311557   16.193705326   485.2087   2   8   0.2871   0.2819   1.3234  -0.1235   0.4153  -0.1099   0.00    1.1
2018/03/11 12:52:28.000   78.255311766   16.193716163   485.7775   2   8   0.2773   0.2720   1.2721  -0.1192   0.3991  -0.1062   0.00    1.1
2018/03/11 12:52:29.000   78.255311862   16.193719036   486.0401   2   8   0.2684   0.2630   1.2251  -0.1154   0.3842  -0.1028   0.00    1.1
2018/03/11 12:52:30.000   78.255312441   16.193722527   486.0612   2   8   0.2603   0.2548   1.1818  -0.1118   0.3705  -0.0998   0.00    1.1
2018/03/11 12:52:31.000   78.255312798   16.193722642   486.0967   2   8   0.2529   0.2472   1.1417  -0.1086   0.3579  -0.0970   0.00    1.1
2018/03/11 12:52:32.000   78.255312354   16.193723445   485.7196   2   8   0.2461   0.2402   1.1044  -0.1056   0.3461  -0.0945   0.00    1.1
2018/03/11 12:52:33.000   78.255312077   16.193723729   485.5370   2   8   0.2398   0.2337   1.0696  -0.1029   0.3350  -0.0921   0.00    1.1
2018/03/11 12:52:34.000   78.255312083   16.193721223   485.5530   2   8   0.2339   0.2277   1.0368  -0.1003   0.3247  -0.0900   0.00    1.1
2018/03/11 12:52:35.000   78.255312315   16.193722492   485.7612   2   8   0.2284   0.2221   1.0060  -0.0979   0.3149  -0.0880   0.00    1.0
2018/03/11 12:52:36.000   78.255312100   16.193724999   486.0174   2   8   0.2233   0.2168   0.9769  -0.0956   0.3057  -0.0861   0.00    1.0
2018/03/11 12:52:37.000   78.255312084   16.193727128   486.2050   2   8   0.2186   0.2119   0.9494  -0.0935   0.2969  -0.0844   0.00    1.1
2018/03/11 12:52:38.000   78.255311930   16.193728448   486.5096   2   8   0.2141   0.2072   0.9232  -0.0915   0.2886  -0.0828   0.00    1.1
2018/03/11 12:52:39.000   78.255311910   16.193729464   486.7031   2   8   0.2098   0.2028   0.8983  -0.0897   0.2807  -0.0812   0.00    1.1
2018/03/11 12:52:40.000   78.255311687   16.193731507   486.7576   2   8   0.2058   0.1986   0.8746  -0.0879   0.2732  -0.0798   0.00    1.1
2018/03/11 12:52:41.000   78.255311304   16.193732812   486.7216   2   8   0.2020   0.1946   0.8520  -0.0862   0.2660  -0.0785   0.00    1.1
2018/03/11 12:52:42.000   78.255310946   16.193734692   486.7566   2   8   0.1984   0.1909   0.8304  -0.0846   0.2591  -0.0772   0.00    1.1
2018/03/11 12:52:43.000   78.255310624   16.193737941   486.9167   2   8   0.1950   0.1873   0.8096  -0.0831   0.2525  -0.0760   0.00    1.1
2018/03/11 12:52:44.000   78.255310050   16.193739669   487.1645   2   8   0.1917   0.1838   0.7897  -0.0816   0.2462  -0.0749   0.00    1.1
2018/03/11 12:52:45.000   78.255309672   16.193742661   487.3938   2   8   0.1886   0.1806   0.7707  -0.0802   0.2401  -0.0738   0.00    1.1
2018/03/11 12:52:46.000   78.255309644   16.193745417   487.6294   2   8   0.1856   0.1774   0.7523  -0.0789   0.2342  -0.0727   0.00    1.1
2018/03/11 12:52:47.000   78.255310110   16.193746279   487.6835   2   8   0.1828   0.1744   0.7347  -0.0776   0.2286  -0.0718   0.00    1.1
2018/03/11 12:52:48.000   78.255310052   16.193746662   487.6685   2   8   0.1800   0.1716   0.7177  -0.0764   0.2232  -0.0708   0.00    1.1
2018/03/11 12:52:49.000   78.255309767   16.193746982   487.5947   2   8   0.1774   0.1688   0.7013  -0.0752   0.2180  -0.0699   0.00    1.0
2018/03/11 12:52:50.000   78.255309471   16.193747847   487.4181   2   8   0.1749   0.1662   0.6855  -0.0740   0.2129  -0.0691   0.00    1.0
2018/03/11 12:52:51.000   78.255309026   16.193746998   487.3311   2   8   0.1725   0.1636   0.6703  -0.0729   0.2081  -0.0683   0.00    1.0
2018/03/11 12:52:52.000   78.255308864   16.193747713   487.3521   2   8   0.1701   0.1612   0.6556  -0.0719   0.2034  -0.0675   0.00    1.0
2018/03/11 12:52:53.000   78.255308603   16.193748935   487.4066   2   8   0.1679   0.1588   0.6414  -0.0708   0.1988  -0.0667   0.00    1.0
2018/03/11 12:52:54.000   78.255308477   16.193750444   487.6168   2   8   0.1657   0.1565   0.6276  -0.0699   0.1944  -0.0660   0.00    1.0
2018/03/11 12:52:55.000   78.255308715   16.193750810   487.6907   2   8   0.1636   0.1543   0.6143  -0.0689   0.1902  -0.0653   0.00    1.0
2018/03/11 12:52:56.000   78.255308880   16.193750723   487.7764   2   8   0.1616   0.1522   0.6015  -0.0680   0.1861  -0.0646   0.00    1.0
2018/03/11 12:52:57.000   78.255308831   16.193751375   487.7930   2   8   0.1597   0.1501   0.5890  -0.0671   0.1821  -0.0640   0.00    1.0
2018/03/11 12:52:58.000   78.255308831   16.193751219   487.7796   2   8   0.1578   0.1482   0.5770  -0.0662   0.1782  -0.0633   0.00    1.0
2018/03/11 12:52:59.000   78.255308628   16.193750318   487.6962   2   8   0.1559   0.1462   0.5653  -0.0653   0.1745  -0.0627   0.00    1.0
2018/03/11 12:53:00.000   78.255308622   16.193749614   487.6520   2   8   0.1541   0.1444   0.5540  -0.0645   0.1708  -0.0622   0.00    1.0
2018/03/11 12:53:01.000   78.255308306   16.193749323   487.7063   2   8   0.1524   0.1426   0.5430  -0.0637   0.1673  -0.0616   0.00    1.0
2018/03/11 12:53:02.000   78.255308049   16.193751355   487.9183   2   8   0.1507   0.1408   0.5323  -0.0629   0.1639  -0.0610   0.00    1.0
2018/03/11 12:53:03.000   78.255308196   16.193752090   488.1154   2   8   0.1491   0.1391   0.5220  -0.0621   0.1606  -0.0605   0.00    1.0
2018/03/11 12:53:04.000   78.255308522   16.193752508   488.2852   2   8   0.1475   0.1374   0.5119  -0.0614   0.1573  -0.0600   0.00    1.0
2018/03/11 12:53:05.000   78.255308578   16.193752921   488.3949   2   8   0.1460   0.1358   0.5022  -0.0607   0.1542  -0.0595   0.00    1.0
2018/03/11 12:53:06.000   78.255308503   16.193753403   488.4987   2   8   0.1445   0.1343   0.4927  -0.0600   0.1512  -0.0590   0.00    1.0
2018/03/11 12:53:07.000   78.255308697   16.193752852   488.5079   2   8   0.1430   0.1328   0.4836  -0.0593   0.1482  -0.0585   0.00    1.0
2018/03/11 12:53:08.000   78.255308869   16.193752475   488.5180   2   8   0.1416   0.1313   0.4746  -0.0586   0.1453  -0.0580   0.00    1.0
2018/03/11 12:53:09.000   78.255308788   16.193752695   488.5154   2   8   0.1402   0.1298   0.4659  -0.0579   0.1426  -0.0576   0.00    1.0
2018/03/11 12:53:10.000   78.255308772   16.193753018   488.5688   2   8   0.1389   0.1284   0.4575  -0.0573   0.1398  -0.0571   0.00    1.0
2018/03/11 12:53:11.000   78.255308631   16.193754042   488.6441   2   8   0.1375   0.1271   0.4493  -0.0566   0.1372  -0.0567   0.00    1.0
2018/03/11 12:53:12.000   78.255308634   16.193754402   488.7147   2   8   0.1363   0.1258   0.4413  -0.0560   0.1346  -0.0563   0.00    1.0
2018/03/11 12:53:13.000   78.255308720   16.193755665   488.7654   2   8   0.1350   0.1245   0.4336  -0.0554   0.1321  -0.0559   0.00    1.0
2018/03/11 12:53:14.000   78.255308583   16.193756578   488.7902   2   8   0.1338   0.1232   0.4260  -0.0548   0.1297  -0.0555   0.00    1.0
2018/03/11 12:53:15.000   78.255308512   16.193756927   488.7803   2   8   0.1326   0.1220   0.4186  -0.0542   0.1273  -0.0551   0.00    1.0
2018/03/11 12:53:16.000   78.255308318   16.193756840   488.7835   2   8   0.1314   0.1208   0.4115  -0.0536   0.1250  -0.0547   0.00    1.0
2018/03/11 12:53:17.000   78.255307929   16.193756615   488.8039   2   8   0.1302   0.1196   0.4045  -0.0531   0.1228  -0.0543   0.00    1.0
2018/03/11 12:53:18.000   78.255307774   16.193756842   488.7655   2   8   0.1291   0.1184   0.3977  -0.0525   0.1206  -0.0539   0.00    1.0
2018/03/11 12:53:19.000   78.255307561   16.193757273   488.7913   2   8   0.1280   0.1173   0.3911  -0.0520   0.1184  -0.0536   0.00    1.0
2018/03/11 12:53:20.000   78.255307511   16.193758170   488.8201   2   8   0.1269   0.1162   0.3847  -0.0514   0.1163  -0.0532   0.00    1.0
2018/03/11 12:53:21.000   78.255307632   16.193759308   488.8550   2   8   0.1259   0.1151   0.3784  -0.0509   0.1143  -0.0529   0.00    1.0
2018/03/11 12:53:22.000   78.255307717   16.193759532   488.9342   2   8   0.1248   0.1141   0.3723  -0.0504   0.1123  -0.0525   0.00    1.0
2018/03/11 12:53:23.000   78.255307836   16.193759922   488.9866   2   8   0.1238   0.1130   0.3663  -0.0499   0.1104  -0.0522   0.00    1.0
2018/03/11 12:53:24.000   78.255307827   16.193760515   489.0625   2   8   0.1228   0.1120   0.3605  -0.0494   0.1085  -0.0519   0.00    1.0
2018/03/11 12:53:25.000   78.255307799   16.193760203   489.1160   2   8   0.1218   0.1111   0.3548  -0.0489   0.1067  -0.0516   0.00    1.0
2018/03/11 12:53:26.000   78.255307631   16.193760637   489.1445   2   8   0.1209   0.1101   0.3493  -0.0484   0.1049  -0.0512   0.00    1.0
2018/03/11 12:53:27.000   78.255307559   16.193760644   489.1765   2   8   0.1199   0.1091   0.3439  -0.0479   0.1031  -0.0509   0.00    1.0
2018/03/11 12:53:28.000   78.255307511   16.193761113   489.2046   2   8   0.1190   0.1082   0.3386  -0.0474   0.1014  -0.0506   0.00    1.0
2018/03/11 12:53:29.000   78.255307460   16.193761041   489.2441   2   8   0.1181   0.1073   0.3335  -0.0470   0.0998  -0.0503   0.00    1.0
2018/03/11 12:53:30.000   78.255307438   16.193760991   489.2704   2   8   0.1172   0.1064   0.3284  -0.0465   0.0981  -0.0500   0.00    1.0
2018/03/11 12:53:31.000   78.255307297   16.193760735   489.3098   2   8   0.1163   0.1055   0.3235  -0.0461   0.0966  -0.0497   0.00    1.0
2018/03/11 12:53:32.000   78.255307132   16.193760916   489.3490   2   8   0.1155   0.1047   0.3188  -0.0456   0.0950  -0.0494   0.00    1.0
2018/03/11 12:53:33.000   78.255306905   16.193760953   489.3548   2   8   0.1146   0.1038   0.3141  -0.0452   0.0935  -0.0492   0.00    1.0
2018/03/11 12:53:34.000   78.255306904   16.193761150   489.3210   2   8   0.1138   0.1030   0.3095  -0.0447   0.0920  -0.0489   0.00    1.0
2018/03/11 12:53:35.000   78.255307103   16.193760826   489.3069   2   8   0.1130   0.1022   0.3051  -0.0443   0.0906  -0.0486   0.00    1.0
2018/03/11 12:53:36.000   78.255307199   16.193760251   489.2902   2   8   0.1121   0.1014   0.3007  -0.0439   0.0891  -0.0483   0.00    1.0
2018/03/11 12:53:37.000   78.255307251   16.193760476   489.3014   2   8   0.1114   0.1006   0.2964  -0.0435   0.0878  -0.0481   0.00    1.0
2018/03/11 12:53:38.000   78.255307219   16.193760509   489.3294   2   8   0.1106   0.0998   0.2923  -0.0431   0.0864  -0.0478   0.00    1.0
2018/03/11 12:53:39.000   78.255307130   16.193760866   489.3261   2   8   0.1098   0.0991   0.2882  -0.0427   0.0851  -0.0475   0.00    1.0
2018/03/11 12:53:40.000   78.255307158   16.193761132   489.3433   2   8   0.1090   0.0984   0.2842  -0.0423   0.0838  -0.0473   0.00    1.0
2018/03/11 12:53:41.000   78.255306988   16.193760909   489.3791   2   8   0.1083   0.0976   0.2803  -0.0419   0.0825  -0.0470   0.00    1.0
2018/03/11 12:53:42.000   78.255307026   16.193760926   489.3989   2   8   0.1076   0.0969   0.2765  -0.0415   0.0813  -0.0468   0.00    1.0
2018/03/11 12:53:43.000   78.255306849   16.193761440   489.4191   2   8   0.1068   0.0962   0.2728  -0.0411   0.0801  -0.0466   0.00    1.0
2018/03/11 12:53:44.000   78.255306789   16.193761727   489.4669   2   8   0.1061   0.0955   0.2692  -0.0407   0.0789  -0.0463   0.00    1.0
2018/03/11 12:53:45.000   78.255306812   16.193762321   489.5146   2   8   0.1054   0.0948   0.2656  -0.0403   0.0777  -0.0461   0.00    1.0
2018/03/11 12:53:46.000   78.255306780   16.193762881   489.5668   2   8   0.1047   0.0941   0.2621  -0.0400   0.0766  -0.0458   0.00    1.0
2018/03/11 12:53:47.000   78.255306879   16.193763179   489.6061   2   8   0.1040   0.0935   0.2587  -0.0396   0.0755  -0.0456   0.00    1.0
2018/03/11 12:53:48.000   78.255306864   16.193763458   489.6425   2   8   0.1034   0.0928   0.2554  -0.0392   0.0744  -0.0454   0.00    1.0
2018/03/11 12:53:49.000   78.255306714   16.193763551   489.6689   2   8   0.1027   0.0922   0.2521  -0.0389   0.0733  -0.0452   0.00    1.0
2018/03/11 12:53:50.000   78.255306708   16.193763573   489.6790   2   8   0.1021   0.0916   0.2489  -0.0385   0.0723  -0.0449   0.00    1.0
2018/03/11 12:53:51.000   78.255306613   16.193763185   489.6984   2   8   0.1014   0.0909   0.2458  -0.0382   0.0712  -0.0447   0.00    1.0
2018/03/11 12:53:52.000   78.255306602   16.193762515   489.6964   2   8   0.1008   0.0903   0.2427  -0.0378   0.0702  -0.0445   0.00    1.0
2018/03/11 12:53:53.000   78.255306598   16.193762210   489.7157   2   8   0.1001   0.0897   0.2397  -0.0375   0.0693  -0.0443   0.00    1.0
2018/03/11 12:53:54.000   78.255306568   16.193762325   489.7211   2   8   0.0995   0.0891   0.2367  -0.0371   0.0683  -0.0441   0.00    1.0
2018/03/11 12:53:55.000   78.255306697   16.193762316   489.7417   2   8   0.0989   0.0885   0.2339  -0.0368   0.0674  -0.0439   0.00    1.0
2018/03/11 12:53:56.000   78.255306658   16.193762379   489.7685   2   8   0.0983   0.0880   0.2310  -0.0365   0.0664  -0.0436   0.00    1.0
2018/03/11 12:53:57.000   78.255306634   16.193762510   489.7791   2   8   0.0977   0.0874   0.2283  -0.0361   0.0655  -0.0434   0.00    1.0
2018/03/11 12:53:58.000   78.255306529   16.193762610   489.7915   2   8   0.0971   0.0868   0.2255  -0.0358   0.0646  -0.0432   0.00    1.0
2018/03/11 12:53:59.000   78.255306473   16.193762562   489.7963   2   8   0.0965   0.0863   0.2229  -0.0355   0.0638  -0.0430   0.00    1.0
2018/03/11 12:54:00.000   78.255306460   16.193762952   489.7920   2   8   0.0960   0.0857   0.2203  -0.0352   0.0629  -0.0428   0.00    1.0
2018/03/11 12:54:01.000   78.255306318   16.193763217   489.7970   2   8   0.0954   0.0852   0.2177  -0.0348   0.0621  -0.0426   0.00    1.0
2018/03/11 12:54:02.000   78.255306236   16.193763573   489.8079   2   8   0.0948   0.0847   0.2152  -0.0345   0.0612  -0.0424   0.00    1.0
2018/03/11 12:54:03.000   78.255306222   16.193763987   489.8313   2   8   0.0943   0.0841   0.2127  -0.0342   0.0604  -0.0423   0.00    1.0
2018/03/11 12:54:04.000   78.255306066   16.193764249   489.8655   2   8   0.0937   0.0836   0.2103  -0.0339   0.0596  -0.0421   0.00    1.0
2018/03/11 12:54:05.000   78.255306017   16.193764213   489.8786   2   8   0.0932   0.0831   0.2079  -0.0336   0.0589  -0.0419   0.00    1.0
2018/03/11 12:54:06.000   78.255306071   16.193764339   489.8700   2   8   0.0927   0.0826   0.2056  -0.0333   0.0581  -0.0417   0.00    1.1
2018/03/11 12:54:07.000   78.255306179   16.193763854   489.8560   2   8   0.0921   0.0821   0.2033  -0.0330   0.0574  -0.0415   0.00    1.1
2018/03/11 12:54:08.000   78.255306175   16.193763383   489.8399   2   8   0.0916   0.0816   0.2011  -0.0327   0.0566  -0.0413   0.00    1.1
2018/03/11 12:54:09.000   78.255306079   16.193762932   489.8308   2   8   0.0911   0.0811   0.1989  -0.0324   0.0559  -0.0411   0.00    1.1
2018/03/11 12:54:10.000   78.255306102   16.193762387   489.8133   2   8   0.0906   0.0806   0.1967  -0.0321   0.0552  -0.0410   0.00    1.1
2018/03/11 12:54:11.000   78.255306137   16.193762194   489.8247   2   8   0.0901   0.0802   0.1946  -0.0318   0.0545  -0.0408   0.00    1.1
2018/03/11 12:54:12.000   78.255306216   16.193761723   489.8105   2   8   0.0896   0.0797   0.1925  -0.0315   0.0538  -0.0406   0.00    1.1
2018/03/11 12:54:13.000   78.255306257   16.193762270   489.8142   2   8   0.0891   0.0792   0.1905  -0.0313   0.0531  -0.0404   0.00    1.1
2018/03/11 12:54:14.000   78.255306354   16.193762559   489.8265   2   8   0.0886   0.0788   0.1885  -0.0310   0.0525  -0.0403   0.00    1.1
2018/03/11 12:54:15.000   78.255306359   16.193762716   489.8442   2   8   0.0881   0.0783   0.1865  -0.0307   0.0518  -0.0401   0.00    1.1
2018/03/11 12:54:16.000   78.255306219   16.193763190   489.8628   2   8   0.0877   0.0779   0.1845  -0.0304   0.0512  -0.0399   0.00    1.1
2018/03/11 12:54:17.000   78.255306016   16.193763663   489.8734   2   8   0.0872   0.0775   0.1826  -0.0301   0.0506  -0.0398   0.00    1.1
2018/03/11 12:54:18.000   78.255305982   16.193763757   489.8692   2   8   0.0867   0.0770   0.1808  -0.0299   0.0500  -0.0396   0.00    1.1
2018/03/11 12:54:19.000   78.255305996   16.193763525   489.8783   2   8   0.0863   0.0766   0.1789  -0.0296   0.0493  -0.0394   0.00    1.1
2018/03/11 12:54:20.000   78.255306035   16.193763522   489.8825   2   8   0.0858   0.0762   0.1771  -0.0293   0.0488  -0.0393   0.00    1.1
2018/03/11 12:54:21.000   78.255306075   16.193763674   489.8852   2   8   0.0854   0.0757   0.1754  -0.0291   0.0482  -0.0391   0.00    1.1
2018/03/11 12:54:22.000   78.255306186   16.193763704   489.8924   2   8   0.0849   0.0753   0.1736  -0.0288   0.0476  -0.0390   0.00    1.1
2018/03/11 12:54:23.000   78.255306249   16.193763471   489.9023   2   8   0.0845   0.0749   0.1719  -0.0286   0.0470  -0.0388   0.00    1.1
2018/03/11 12:54:24.000   78.255306259   16.193763322   489.9209   2   8   0.0840   0.0745   0.1702  -0.0283   0.0465  -0.0387   0.00    1.1
2018/03/11 12:54:25.000   78.255306195   16.193763428   489.9247   2   8   0.0836   0.0741   0.1686  -0.0280   0.0459  -0.0385   0.00    1.1
2018/03/11 12:54:26.000   78.255306201   16.193763379   489.9245   2   8   0.0832   0.0737   0.1669  -0.0278   0.0454  -0.0383   0.00    1.1
2018/03/11 12:54:27.000   78.255306246   16.193763070   489.9165   2   8   0.0828   0.0733   0.1653  -0.0275   0.0449  -0.0382   0.00    1.1
2018/03/11 12:54:28.000   78.255306318   16.193762651   489.8877   2   8   0.0823   0.0729   0.1637  -0.0273   0.0443  -0.0380   0.00    1.1
2018/03/11 12:54:29.000   78.255306324   16.193762682   489.8745   2   8   0.0819   0.0726   0.1622  -0.0270   0.0438  -0.0379   0.00    1.1
2018/03/11 12:54:30.000   78.255306316   16.193762615   489.8735   2   8   0.0815   0.0722   0.1607  -0.0268   0.0433  -0.0377   0.00    1.1
2018/03/11 12:54:31.000   78.255306467   16.193762124   489.8779   2   8   0.0811   0.0718   0.1592  -0.0266   0.0428  -0.0376   0.00    1.1
2018/03/11 12:54:32.000   78.255306536   16.193761762   489.8868   2   8   0.0807   0.0714   0.1577  -0.0263   0.0424  -0.0375   0.00    1.1
2018/03/11 12:54:33.000   78.255306589   16.193761813   489.8967   2   8   0.0803   0.0711   0.1562  -0.0261   0.0419  -0.0373   0.00    1.1
2018/03/11 12:54:34.000   78.255306539   16.193761863   489.9004   2   8   0.0799   0.0707   0.1548  -0.0258   0.0414  -0.0372   0.00    1.1
2018/03/11 12:54:35.000   78.255306520   16.193761912   489.9138   2   8   0.0795   0.0703   0.1534  -0.0256   0.0409  -0.0370   0.00    1.1
2018/03/11 12:54:36.000   78.255306572   16.193761714   489.9182   2   8   0.0791   0.0700   0.1520  -0.0254   0.0405  -0.0369   0.00    1.1
2018/03/11 12:54:37.000   78.255306595   16.193761512   489.9143   2   8   0.0787   0.0696   0.1507  -0.0251   0.0400  -0.0367   0.00    1.1
2018/03/11 12:54:38.000   78.255306531   16.193761720   489.9227   2   8   0.0784   0.0693   0.1493  -0.0249   0.0396  -0.0366   0.00    1.1
2018/03/11 12:54:39.000   78.255306524   16.193761560   489.9329   2   8   0.0780   0.0689   0.1480  -0.0247   0.0392  -0.0365   0.00    1.1
2018/03/11 12:54:40.000   78.255306525   16.193761331   489.9398   2   8   0.0776   0.0686   0.1467  -0.0245   0.0387  -0.0363   0.00    1.1
2018/03/11 12:54:41.000   78.255306454   16.193761204   489.9554   2   8   0.0772   0.0683   0.1454  -0.0242   0.0383  -0.0362   0.00    1.1
2018/03/11 12:54:42.000   78.255306461   16.193760996   489.9611   2   8   0.0769   0.0679   0.1441  -0.0240   0.0379  -0.0361   0.00    1.1
2018/03/11 12:54:43.000   78.255306539   16.193760232   489.9657   2   8   0.0765   0.0676   0.1429  -0.0238   0.0375  -0.0359   0.00    1.1
2018/03/11 12:54:44.000   78.255306586   16.193759652   489.9590   2   8   0.0762   0.0673   0.1417  -0.0236   0.0371  -0.0358   0.00    1.1
2018/03/11 12:54:45.000   78.255306614   16.193759151   489.9514   2   8   0.0758   0.0669   0.1405  -0.0234   0.0367  -0.0357   0.00    1.1
2018/03/11 12:54:46.000   78.255306557   16.193758692   489.9458   2   8   0.0755   0.0666   0.1393  -0.0231   0.0363  -0.0356   0.00    1.2
2018/03/11 12:54:47.000   78.255306612   16.193758197   489.9388   2   8   0.0751   0.0663   0.1381  -0.0229   0.0359  -0.0354   0.00    1.2
2018/03/11 12:54:48.000   78.255306683   16.193757714   489.9303   2   8   0.0748   0.0660   0.1370  -0.0227   0.0355  -0.0353   0.00    1.2
2018/03/11 12:54:49.000   78.255306718   16.193757514   489.9184   2   8   0.0744   0.0657   0.1358  -0.0225   0.0351  -0.0352   0.00    1.2
2018/03/11 12:54:50.000   78.255306777   16.193757696   489.9084   2   8   0.0741   0.0654   0.1347  -0.0223   0.0348  -0.0350   0.00    1.2
2018/03/11 12:54:51.000   78.255306825   16.193757715   489.9004   2   8   0.0737   0.0651   0.1336  -0.0221   0.0344  -0.0349   0.00    1.2
2018/03/11 12:54:52.000   78.255306819   16.193757684   489.8886   2   8   0.0734   0.0647   0.1325  -0.0219   0.0340  -0.0348   0.00    1.2
2018/03/11 12:54:53.000   78.255306805   16.193757838   489.8733   2   8   0.0731   0.0644   0.1315  -0.0217   0.0337  -0.0347   0.00    1.2
2018/03/11 12:54:54.000   78.255306730   16.193758005   489.8648   2   8   0.0727   0.0641   0.1304  -0.0215   0.0333  -0.0346   0.00    1.2
2018/03/11 12:54:55.000   78.255306661   16.193757819   489.8582   2   8   0.0724   0.0639   0.1294  -0.0213   0.0330  -0.0344   0.00    1.2
2018/03/11 12:54:56.000   78.255306551   16.193757538   489.8526   2   8   0.0721   0.0636   0.1283  -0.0211   0.0327  -0.0343   0.00    1.2
2018/03/11 12:54:57.000   78.255306446   16.193757627   489.8522   2   8   0.0718   0.0633   0.1273  -0.0209   0.0323  -0.0342   0.00    1.2
2018/03/11 12:54:58.000   78.255306399   16.193757769   489.8614   2   8   0.0715   0.0630   0.1263  -0.0207   0.0320  -0.0341   0.00    1.2
2018/03/11 12:54:59.000   78.255306429   16.193757677   489.8707   2   8   0.0711   0.0627   0.1253  -0.0205   0.0317  -0.0340   0.00    1.2
2018/03/11 12:55:00.000   78.255306505   16.193757403   489.8640   2   8   0.0708   0.0624   0.1244  -0.0203   0.0314  -0.0339   0.00    1.2
2018/03/11 12:55:01.000   78.255306497   16.193757331   489.8530   2   8   0.0705   0.0621   0.1234  -0.0201   0.0310  -0.0337   0.00    1.2
2018/03/11 12:55:02.000   78.255306494   16.193757196   489.8479   2   8   0.0702   0.0619   0.1225  -0.0199   0.0307  -0.0336   0.00    1.2
2018/03/11 12:55:03.000   78.255306547   16.193757014   489.8413   2   8   0.0699   0.0616   0.1216  -0.0197   0.0304  -0.0335   0.00    1.2
2018/03/11 12:55:04.000   78.255306543   16.193756833   489.8423   2   8   0.0696   0.0613   0.1206  -0.0195   0.0301  -0.0334   0.00    1.2
2018/03/11 12:55:05.000   78.255306461   16.193756698   489.8385   2   8   0.0693   0.0610   0.1197  -0.0193   0.0298  -0.0333   0.00    1.2
2018/03/11 12:55:06.000   78.255306414   16.193756672   489.8403   2   8   0.0690   0.0608   0.1188  -0.0191   0.0295  -0.0332   0.00    1.2
2018/03/11 12:55:07.000   78.255306421   16.193756309   489.8391   2   8   0.0687   0.0605   0.1180  -0.0189   0.0292  -0.0331   0.00    1.2
2018/03/11 12:55:08.000   78.255306478   16.193756080   489.8288   2   8   0.0684   0.0603   0.1171  -0.0188   0.0289  -0.0330   0.00    1.2
2018/03/11 12:55:09.000   78.255306515   16.193755840   489.8267   2   8   0.0682   0.0600   0.1162  -0.0186   0.0287  -0.0328   0.00    1.2
2018/03/11 12:55:10.000   78.255306585   16.193755770   489.8234   2   8   0.0679   0.0597   0.1154  -0.0184   0.0284  -0.0327   0.00    1.2
2018/03/11 12:55:11.000   78.255306659   16.193755598   489.8163   2   8   0.0676   0.0595   0.1146  -0.0182   0.0281  -0.0326   0.00    1.2
2018/03/11 12:55:12.000   78.255306630   16.193755455   489.8081   2   8   0.0673   0.0592   0.1137  -0.0180   0.0278  -0.0325   0.00    1.3
2018/03/11 12:55:13.000   78.255306543   16.193755517   489.7959   2   8   0.0670   0.0590   0.1129  -0.0179   0.0276  -0.0324   0.00    1.3
2018/03/11 12:55:14.000   78.255306458   16.193755575   489.7827   2   8   0.0668   0.0587   0.1121  -0.0177   0.0273  -0.0323   0.00    1.3
2018/03/11 12:55:15.000   78.255306401   16.193755413   489.7705   2   8   0.0665   0.0585   0.1113  -0.0175   0.0270  -0.0322   0.00    1.3
2018/03/11 12:55:16.000   78.255306344   16.193755304   489.7611   2   8   0.0662   0.0582   0.1105  -0.0173   0.0268  -0.0321   0.00    1.3
2018/03/11 12:55:17.000   78.255306264   16.193754980   489.7524   2   8   0.0659   0.0580   0.1098  -0.0172   0.0265  -0.0320   0.00    1.3
2018/03/11 12:55:18.000   78.255306193   16.193754576   489.7538   2   8   0.0657   0.0577   0.1090  -0.0170   0.0263  -0.0319   0.00    1.3
2018/03/11 12:55:19.000   78.255306143   16.193754112   489.7581   2   8   0.0654   0.0575   0.1083  -0.0168   0.0260  -0.0318   0.00    1.3
2018/03/11 12:55:20.000   78.255306076   16.193753814   489.7591   2   8   0.0651   0.0573   0.1075  -0.0166   0.0258  -0.0317   0.00    1.3
2018/03/11 12:55:21.000   78.255306086   16.193753408   489.7574   2   8   0.0649   0.0570   0.1068  -0.0165   0.0255  -0.0316   0.00    1.3
2018/03/11 12:55:22.000   78.255306171   16.193752945   489.7538   2   8   0.0646   0.0568   0.1060  -0.0163   0.0253  -0.0315   0.00    1.3
2018/03/11 12:55:23.000   78.255306300   16.193752458   489.7457   2   8   0.0644   0.0566   0.1053  -0.0161   0.0251  -0.0314   0.00    1.3
2018/03/11 12:55:24.000   78.255306345   16.193752138   489.7398   2   8   0.0641   0.0563   0.1046  -0.0160   0.0248  -0.0313   0.00    1.3
2018/03/11 12:55:25.000   78.255306363   16.193751936   489.7342   2   8   0.0639   0.0561   0.1039  -0.0158   0.0246  -0.0312   0.00    1.3
2018/03/11 12:55:26.000   78.255306373   16.193751961   489.7386   2   8   0.0636   0.0559   0.1032  -0.0156   0.0244  -0.0311   0.00    1.3
2018/03/11 12:55:27.000   78.255306404   16.193751874   489.7432   2   8   0.0634   0.0557   0.1026  -0.0155   0.0241  -0.0310   0.00    1.3
2018/03/11 12:55:28.000   78.255306451   16.193751837   489.7453   2   8   0.0631   0.0554   0.1019  -0.0153   0.0239  -0.0309   0.00    1.3
2018/03/11 12:55:29.000   78.255306503   16.193751777   489.7451   2   8   0.0629   0.0552   0.1012  -0.0151   0.0237  -0.0308   0.00    1.3
2018/03/11 12:55:30.000   78.255306574   16.193751839   489.7437   2   8   0.0626   0.0550   0.1006  -0.0150   0.0235  -0.0307   0.00    1.3
2018/03/11 12:55:31.000   78.255306585   16.193751795   489.7409   2   8   0.0624   0.0548   0.0999  -0.0148   0.0233  -0.0307   0.00    1.3
2018/03/11 12:55:32.000   78.255306523   16.193751692   489.7417   2   8   0.0621   0.0546   0.0993  -0.0147   0.0231  -0.0306   0.00    1.3
2018/03/11 12:55:33.000   78.255306449   16.193751586   489.7372   2   8   0.0619   0.0544   0.0986  -0.0145   0.0228  -0.0305   0.00    1.3
2018/03/11 12:55:34.000   78.255306360   16.193751496   489.7316   2   8   0.0617   0.0541   0.0980  -0.0143   0.0226  -0.0304   0.00    1.3
2018/03/11 12:55:35.000   78.255306353   16.193751350   489.7206   2   8   0.0614   0.0539   0.0974  -0.0142   0.0224  -0.0303   0.00    1.3
2018/03/11 12:55:36.000   78.255306380   16.193751204   489.7121   2   8   0.0612   0.0537   0.0968  -0.0140   0.0222  -0.0302   0.00    1.3
2018/03/11 12:55:37.000   78.255306430   16.193751102   489.7060   2   8   0.0610   0.0535   0.0962  -0.0139   0.0220  -0.0301   0.00    1.4
2018/03/11 12:55:38.000   78.255306486   16.193751098   489.7054   2   8   0.0607   0.0533   0.0956  -0.0137   0.0218  -0.0300   0.00    1.4
2018/03/11 12:55:39.000   78.255306537   16.193751124   489.7075   2   8   0.0605   0.0531   0.0950  -0.0136   0.0216  -0.0299   0.00    1.4
2018/03/11 12:55:40.000   78.255306516   16.193750979   489.7064   2   8   0.0603   0.0529   0.0944  -0.0134   0.0215  -0.0298   0.00    1.4
2018/03/11 12:55:41.000   78.255306464   16.193750991   489.6989   2   8   0.0601   0.0527   0.0938  -0.0133   0.0213  -0.0298   0.00    1.4
2018/03/11 12:55:42.000   78.255306449   16.193750868   489.6908   2   8   0.0598   0.0525   0.0933  -0.0131   0.0211  -0.0297   0.00    1.4
2018/03/11 12:55:43.000   78.255306446   16.193750793   489.6796   2   8   0.0596   0.0523   0.0927  -0.0130   0.0209  -0.0296   0.00    1.4
2018/03/11 12:55:44.000   78.255306441   16.193750653   489.6694   2   8   0.0594   0.0521   0.0921  -0.0128   0.0207  -0.0295   0.00    1.4
2018/03/11 12:55:45.000   78.255306417   16.193750567   489.6618   2   8   0.0592   0.0519   0.0916  -0.0127   0.0205  -0.0294   0.00    1.4
2018/03/11 12:55:46.000   78.255306412   16.193750512   489.6549   2   8   0.0590   0.0517   0.0911  -0.0125   0.0203  -0.0293   0.00    1.4
2018/03/11 12:55:47.000   78.255306398   16.193750389   489.6536   2   8   0.0587   0.0515   0.0905  -0.0124   0.0202  -0.0292   0.00    1.4
2018/03/11 12:55:48.000   78.255306398   16.193750352   489.6536   2   8   0.0585   0.0514   0.0900  -0.0122   0.0200  -0.0292   0.00    1.4
2018/03/11 12:55:49.000   78.255306439   16.193750299   489.6462   2   8   0.0583   0.0512   0.0895  -0.0121   0.0198  -0.0291   0.00    1.4
2018/03/11 12:55:50.000   78.255306436   16.193750372   489.6442   2   8   0.0581   0.0510   0.0889  -0.0119   0.0196  -0.0290   0.00    1.4
2018/03/11 12:55:51.000   78.255306389   16.193750279   489.6410   2   8   0.0579   0.0508   0.0884  -0.0118   0.0195  -0.0289   0.00    1.4
2018/03/11 12:55:52.000   78.255306315   16.193750323   489.6378   2   8   0.0577   0.0506   0.0879  -0.0116   0.0193  -0.0288   0.00    1.4
2018/03/11 12:55:53.000   78.255306249   16.193750485   489.6299   2   8   0.0575   0.0504   0.0874  -0.0115   0.0191  -0.0288   0.00    1.4
2018/03/11 12:55:54.000   78.255306188   16.193750619   489.6281   2   8   0.0573   0.0502   0.0869  -0.0113   0.0190  -0.0287   0.00    1.4
2018/03/11 12:55:55.000   78.255306104   16.193750624   489.6261   2   8   0.0571   0.0501   0.0864  -0.0112   0.0188  -0.0286   0.00    1.4
2018/03/11 12:55:56.000   78.255306078   16.193750528   489.6254   2   8   0.0569   0.0499   0.0859  -0.0110   0.0187  -0.0285   0.00    1.4
2018/03/11 12:55:57.000   78.255306093   16.193750589   489.6260   2   8   0.0567   0.0497   0.0854  -0.0109   0.0185  -0.0284   0.00    1.4
2018/03/11 12:55:58.000   78.255306097   16.193750561   489.6282   2   8   0.0565   0.0495   0.0850  -0.0108   0.0183  -0.0284   0.00    1.4
2018/03/11 12:55:59.000   78.255306132   16.193750509   489.6287   2   8   0.0563   0.0494   0.0845  -0.0106   0.0182  -0.0283   0.00    1.4
2018/03/11 12:56:00.000   78.255306198   16.193750468   489.6215   2   8   0.0561   0.0492   0.0840  -0.0105   0.0180  -0.0282   0.00    1.4
2018/03/11 12:56:01.000   78.255306242   16.193750545   489.6150   2   8   0.0559   0.0490   0.0836  -0.0103   0.0179  -0.0281   0.00    1.4
2018/03/11 12:56:02.000   78.255306226   16.193750593   489.6081   2   8   0.0557   0.0488   0.0831  -0.0102   0.0177  -0.0280   0.00    1.4
2018/03/11 12:56:03.000   78.255306175   16.193750782   489.6073   2   8   0.0555   0.0487   0.0827  -0.0100   0.0176  -0.0280   0.00    1.5
2018/03/11 12:56:04.000   78.255306166   16.193750851   489.6004   2   8   0.0553   0.0485   0.0822  -0.0099   0.0174  -0.0279   0.00    1.5
2018/03/11 12:56:05.000   78.255306108   16.193750899   489.5970   2   8   0.0551   0.0483   0.0818  -0.0098   0.0173  -0.0278   0.00    1.5
2018/03/11 12:56:06.000   78.255306070   16.193751000   489.5947   2   8   0.0550   0.0482   0.0813  -0.0096   0.0171  -0.0277   0.00    1.5
2018/03/11 12:56:07.000   78.255306075   16.193751069   489.5928   2   8   0.0548   0.0480   0.0809  -0.0095   0.0170  -0.0277   0.00    1.5
2018/03/11 12:56:08.000   78.255306096   16.193751064   489.5886   2   8   0.0546   0.0478   0.0805  -0.0093   0.0169  -0.0276   0.00    1.5
2018/03/11 12:56:09.000   78.255306082   16.193751077   489.5846   2   8   0.0544   0.0477   0.0800  -0.0092   0.0167  -0.0275   0.00    1.5
2018/03/11 12:56:10.000   78.255306065   16.193751007   489.5814   2   8   0.0542   0.0475   0.0796  -0.0091   0.0166  -0.0275   0.00    1.5
2018/03/11 12:56:11.000   78.255306073   16.193750828   489.5755   2   8   0.0540   0.0474   0.0792  -0.0089   0.0164  -0.0274   0.00    1.5
2018/03/11 12:56:12.000   78.255306055   16.193750713   489.5725   2   8   0.0539   0.0472   0.0788  -0.0088   0.0163  -0.0273   0.00    1.5
2018/03/11 12:56:13.000   78.255306044   16.193750608   489.5719   2   8   0.0537   0.0470   0.0784  -0.0087   0.0162  -0.0272   0.00    1.5
2018/03/11 12:56:14.000   78.255306058   16.193750733   489.5712   2   8   0.0535   0.0469   0.0780  -0.0085   0.0160  -0.0272   0.00    1.5
2018/03/11 12:56:15.000   78.255306078   16.193750776   489.5739   2   8   0.0533   0.0467   0.0776  -0.0084   0.0159  -0.0271   0.00    1.5
2018/03/11 12:56:16.000   78.255306074   16.193751042   489.5803   2   8   0.0532   0.0466   0.0772  -0.0082   0.0158  -0.0270   0.00    1.5
2018/03/11 12:56:17.000   78.255306092   16.193751363   489.5871   2   8   0.0530   0.0464   0.0768  -0.0081   0.0157  -0.0270   0.00    1.5
2018/03/11 12:56:18.000   78.255306073   16.193751687   489.5970   2   8   0.0528   0.0463   0.0764  -0.0080   0.0155  -0.0269   0.00    1.5
2018/03/11 12:56:19.000   78.255306052   16.193751781   489.6044   2   8   0.0526   0.0461   0.0760  -0.0078   0.0154  -0.0268   0.00    1.5
2018/03/11 12:56:20.000   78.255306073   16.193751880   489.6048   2   8   0.0525   0.0460   0.0756  -0.0077   0.0153  -0.0267   0.00    1.5
2018/03/11 12:56:21.000   78.255306056   16.193751858   489.6021   2   8   0.0523   0.0458   0.0753  -0.0075   0.0152  -0.0267   0.00    1.5
2018/03/11 12:56:22.000   78.255306018   16.193751779   489.5972   2   8   0.0521   0.0457   0.0749  -0.0074   0.0150  -0.0266   0.00    1.5
2018/03/11 12:56:23.000   78.255305968   16.193751542   489.5917   2   8   0.0520   0.0455   0.0745  -0.0073   0.0149  -0.0265   0.00    1.5
2018/03/11 12:56:24.000   78.255305923   16.193751321   489.5848   2   8   0.0518   0.0454   0.0741  -0.0071   0.0148  -0.0265   0.00    1.5
2018/03/11 12:56:25.000   78.255305885   16.193751057   489.5778   2   8   0.0516   0.0452   0.0738  -0.0070   0.0147  -0.0264   0.00    1.5
2018/03/11 12:56:26.000   78.255305881   16.193750743   489.5740   2   8   0.0515   0.0451   0.0734  -0.0068   0.0146  -0.0263   0.00    1.5
2018/03/11 12:56:27.000   78.255305949   16.193750469   489.5756   2   8   0.0513   0.0449   0.0731  -0.0067   0.0144  -0.0263   0.00    1.5
2018/03/11 12:56:28.000   78.255305997   16.193750274   489.5780   2   8   0.0511   0.0448   0.0727  -0.0065   0.0143  -0.0262   0.00    1.5
2018/03/11 12:56:29.000   78.255306028   16.193750294   489.5761   2   8   0.0510   0.0447   0.0724  -0.0064   0.0142  -0.0261   0.00    1.5
2018/03/11 12:56:30.000   78.255306023   16.193750289   489.5785   2   8   0.0508   0.0445   0.0720  -0.0062   0.0141  -0.0261   0.00    1.5
2018/03/11 12:56:31.000   78.255306039   16.193750267   489.5784   2   8   0.0507   0.0444   0.0717  -0.0061   0.0140  -0.0260   0.00    1.5
2018/03/11 12:56:32.000   78.255306043   16.193750271   489.5769   2   8   0.0505   0.0442   0.0713  -0.0060   0.0139  -0.0260   0.00    1.5
2018/03/11 12:56:33.000   78.255306029   16.193750422   489.5738   2   8   0.0504   0.0441   0.0710  -0.0058   0.0138  -0.0259   0.00    1.5
2018/03/11 12:56:34.000   78.255306018   16.193750559   489.5752   2   8   0.0502   0.0440   0.0707  -0.0057   0.0137  -0.0258   0.00    1.4
2018/03/11 12:56:35.000   78.255306036   16.193750544   489.5794   2   8   0.0501   0.0438   0.0703  -0.0055   0.0136  -0.0258   0.00    1.4
2018/03/11 12:56:36.000   78.255306055   16.193750468   489.5862   2   8   0.0499   0.0437   0.0700  -0.0053   0.0134  -0.0257   0.00    1.4
2018/03/11 12:56:37.000   78.255306064   16.193750486   489.5918   2   8   0.0497   0.0436   0.0697  -0.0052   0.0133  -0.0256   0.00    1.4
2018/03/11 12:56:38.000   78.255306097   16.193750479   489.5989   2   8   0.0496   0.0434   0.0694  -0.0050   0.0132  -0.0256   0.00    1.4
2018/03/11 12:56:39.000   78.255306141   16.193750476   489.6082   2   8   0.0494   0.0433   0.0691  -0.0049   0.0131  -0.0255   0.00    1.4
2018/03/11 12:56:40.000   78.255306188   16.193750435   489.6144   2   8   0.0493   0.0432   0.0687  -0.0047   0.0130  -0.0255   0.00    1.4
2018/03/11 12:56:41.000   78.255306208   16.193750502   489.6186   2   8   0.0491   0.0430   0.0684  -0.0045   0.0129  -0.0254   0.00    1.4
2018/03/11 12:56:42.000   78.255306219   16.193750559   489.6205   2   8   0.0490   0.0429   0.0681  -0.0044   0.0128  -0.0253   0.00    1.4
2018/03/11 12:56:43.000   78.255306212   16.193750493   489.6201   2   8   0.0489   0.0428   0.0678  -0.0042   0.0127  -0.0253   0.00    1.4
2018/03/11 12:56:44.000   78.255306194   16.193750479   489.6135   2   8   0.0487   0.0426   0.0675  -0.0040   0.0126  -0.0252   0.00    1.4
2018/03/11 12:56:45.000   78.255306168   16.193750593   489.6094   2   8   0.0486   0.0425   0.0672  -0.0038   0.0125  -0.0252   0.00    1.4
2018/03/11 12:56:46.000   78.255306181   16.193750614   489.6049   2   8   0.0484   0.0424   0.0669  -0.0036   0.0124  -0.0251   0.00    1.4
2018/03/11 12:56:47.000   78.255306229   16.193750600   489.6038   2   8   0.0483   0.0423   0.0666  -0.0034   0.0123  -0.0250   0.00    1.4
2018/03/11 12:56:48.000   78.255306261   16.193750609   489.6032   2   8   0.0481   0.0421   0.0663  -0.0032   0.0122  -0.0250   0.00    1.4
2018/03/11 12:56:49.000   78.255306270   16.193750746   489.6025   2   8   0.0480   0.0420   0.0660  -0.0030   0.0121  -0.0249   0.00    1.4
2018/03/11 12:56:50.000   78.255306269   16.193750868   489.6049   2   8   0.0479   0.0419   0.0657  -0.0028   0.0121  -0.0249   0.00    1.4
2018/03/11 12:56:51.000   78.255306280   16.193750968   489.6077   2   8   0.0477   0.0418   0.0655  -0.0025   0.0120  -0.0248   0.00    1.4
2018/03/11 12:56:52.000   78.255306263   16.193751050   489.6114   2   8   0.0476   0.0416   0.0652  -0.0023   0.0119  -0.0247   0.00    1.4
2018/03/11 12:56:53.000   78.255306231   16.193751055   489.6135   2   8   0.0474   0.0415   0.0649  -0.0020   0.0118  -0.0247   0.00    1.4
2018/03/11 12:56:54.000   78.255306196   16.193751105   489.6168   2   8   0.0473   0.0414   0.0646  -0.0016   0.0117  -0.0246   0.00    1.4
2018/03/11 12:56:55.000   78.255306204   16.193751081   489.6222   2   8   0.0472   0.0413   0.0643  -0.0012   0.0116  -0.0246   0.00    1.4
2018/03/11 12:56:56.000   78.255306199   16.193751052   489.6269   2   8   0.0470   0.0412   0.0641  -0.0005   0.0115  -0.0245   0.00    1.4
2018/03/11 12:56:57.000   78.255306205   16.193751079   489.6282   2   8   0.0469   0.0410   0.0638   0.0010   0.0114  -0.0245   0.00    1.3
2018/03/11 12:56:58.000   78.255306250   16.193751053   489.6308   2   8   0.0468   0.0409   0.0635   0.0015   0.0113  -0.0244   0.00    1.3
2018/03/11 12:56:59.000   78.255306304   16.193751060   489.6342   2   8   0.0466   0.0408   0.0633   0.0018   0.0112  -0.0243   0.00    1.3
2018/03/11 12:57:00.000   78.255306366   16.193751057   489.6363   2   8   0.0465   0.0407   0.0630   0.0021   0.0112  -0.0243   0.00    1.3
2018/03/11 12:57:01.000   78.255306399   16.193751126   489.6383   2   8   0.0464   0.0406   0.0627   0.0023   0.0111  -0.0242   0.00    1.3
2018/03/11 12:57:02.000   78.255306410   16.193751247   489.6387   2   8   0.0462   0.0405   0.0625   0.0026   0.0110  -0.0242   0.00    1.3
2018/03/11 12:57:03.000   78.255306410   16.193751268   489.6385   2   8   0.0461   0.0403   0.0622   0.0028   0.0109  -0.0241   0.00    1.3
2018/03/11 12:57:04.000   78.255306416   16.193751288   489.6407   2   8   0.0460   0.0402   0.0620   0.0030   0.0108  -0.0241   0.00    1.3
2018/03/11 12:57:05.000   78.255306412   16.193751442   489.6439   2   8   0.0459   0.0401   0.0617   0.0031   0.0107  -0.0240   0.00    1.3
2018/03/11 12:57:06.000   78.255306390   16.193751537   489.6502   2   8   0.0457   0.0400   0.0615   0.0033   0.0107  -0.0240   0.00    1.3
2018/03/11 12:57:07.000   78.255306408   16.193751557   489.6539   2   8   0.0456   0.0399   0.0612   0.0034   0.0106  -0.0239   0.00    1.3
2018/03/11 12:57:08.000   78.255306420   16.193751621   489.6603   2   8   0.0455   0.0398   0.0610   0.0036   0.0105  -0.0239   0.00    1.3
2018/03/11 12:57:09.000   78.255306428   16.193751655   489.6665   2   8   0.0454   0.0397   0.0607   0.0037   0.0104  -0.0238   0.00    1.3
2018/03/11 12:57:10.000   78.255306422   16.193751569   489.6713   2   8   0.0452   0.0396   0.0605   0.0038   0.0103  -0.0238   0.00    1.3
2018/03/11 12:57:11.000   78.255306470   16.193751548   489.6734   2   8   0.0451   0.0395   0.0602   0.0040   0.0103  -0.0237   0.00    1.3
2018/03/11 12:57:12.000   78.255306497   16.193751523   489.6722   2   8   0.0450   0.0394   0.0600   0.0041   0.0102  -0.0237   0.00    1.3
2018/03/11 12:57:13.000   78.255306532   16.193751624   489.6688   2   8   0.0449   0.0392   0.0598   0.0042   0.0101  -0.0236   0.00    1.3
2018/03/11 12:57:14.000   78.255306578   16.193751604   489.6659   2   8   0.0447   0.0391   0.0595   0.0043   0.0100  -0.0236   0.00    1.3
2018/03/11 12:57:15.000   78.255306595   16.193751521   489.6674   2   8   0.0446   0.0390   0.0593   0.0044   0.0100  -0.0235   0.00    1.3
2018/03/11 12:57:16.000   78.255306571   16.193751659   489.6712   2   9   0.0445   0.0389   0.0591   0.0045   0.0099  -0.0234   0.00    1.1
2018/03/11 12:57:17.000   78.255306513   16.193751679   489.6780   2   9   0.0444   0.0388   0.0588   0.0047   0.0098  -0.0234   0.00    1.1
2018/03/11 12:57:18.000   78.255306494   16.193751658   489.6836   2   9   0.0443   0.0387   0.0586   0.0048   0.0097  -0.0233   0.00    1.2
2018/03/11 12:57:19.000   78.255306476   16.193751690   489.6917   2   9   0.0441   0.0386   0.0584   0.0049   0.0096  -0.0233   0.00    1.2
2018/03/11 12:57:20.000   78.255306455   16.193751642   489.6999   2   9   0.0440   0.0385   0.0581   0.0050   0.0095  -0.0232   0.00    1.2
2018/03/11 12:57:21.000   78.255306460   16.193751624   489.7058   2   9   0.0439   0.0384   0.0579   0.0051   0.0094  -0.0232   0.00    1.2
2018/03/11 12:57:22.000   78.255306509   16.193751633   489.7121   2   9   0.0438   0.0383   0.0577   0.0052   0.0094  -0.0231   0.00    1.2
2018/03/11 12:57:23.000   78.255306554   16.193751615   489.7161   2   9   0.0437   0.0382   0.0575   0.0053   0.0093  -0.0230   0.00    1.2
2018/03/11 12:57:24.000   78.255306588   16.193751585   489.7190   2   9   0.0435   0.0381   0.0573   0.0054   0.0092  -0.0230   0.00    1.2
2018/03/11 12:57:25.000   78.255306597   16.193751565   489.7209   2   9   0.0434   0.0380   0.0570   0.0055   0.0091  -0.0229   0.00    1.2
2018/03/11 12:57:26.000   78.255306604   16.193751554   489.7225   2   9   0.0433   0.0379   0.0568   0.0056   0.0090  -0.0229   0.00    1.2
2018/03/11 12:57:27.000   78.255306606   16.193751451   489.7234   2   9   0.0432   0.0378   0.0566   0.0056   0.0090  -0.0228   0.00    1.2
2018/03/11 12:57:28.000   78.255306608   16.193751413   489.7252   2   9   0.0431   0.0377   0.0564   0.0057   0.0089  -0.0228   0.00    1.2
2018/03/11 12:57:29.000   78.255306632   16.193751362   489.7281   2   9   0.0430   0.0376   0.0562   0.0058   0.0088  -0.0227   0.00    1.2
2018/03/11 12:57:30.000   78.255306661   16.193751298   489.7343   2   9   0.0428   0.0375   0.0560   0.0059   0.0087  -0.0227   0.00    1.2
2018/03/11 12:57:31.000   78.255306699   16.193751245   489.7409   2   9   0.0427   0.0374   0.0558   0.0060   0.0086  -0.0226   0.00    1.2
2018/03/11 12:57:32.000   78.255306715   16.193751200   489.7482   2   9   0.0426   0.0373   0.0556   0.0060   0.0086  -0.0226   0.00    1.2
2018/03/11 12:57:33.000   78.255306726   16.193751209   489.7576   2   9   0.0425   0.0372   0.0554   0.0061   0.0085  -0.0225   0.00    1.2
2018/03/11 12:57:34.000   78.255306749   16.193751158   489.7675   2   9   0.0424   0.0371   0.0552   0.0062   0.0084  -0.0225   0.00    1.1
2018/03/11 12:57:35.000   78.255306769   16.193751080   489.7739   2   9   0.0423   0.0370   0.0550   0.0062   0.0083  -0.0224   0.00    1.1
2018/03/11 12:57:36.000   78.255306788   16.193751069   489.7766   2   9   0.0422   0.0369   0.0548   0.0063   0.0083  -0.0224   0.00    1.1
2018/03/11 12:57:37.000   78.255306814   16.193751065   489.7782   2   9   0.0421   0.0368   0.0546   0.0064   0.0082  -0.0223   0.00    1.1
2018/03/11 12:57:38.000   78.255306848   16.193750967   489.7796   2   9   0.0420   0.0367   0.0544   0.0064   0.0081  -0.0223   0.00    1.1
2018/03/11 12:57:39.000   78.255306892   16.193751015   489.7814   2   9   0.0419   0.0366   0.0542   0.0065   0.0081  -0.0222   0.00    1.1
2018/03/11 12:57:40.000   78.255306921   16.193750972   489.7850   2   9   0.0417   0.0365   0.0540   0.0065   0.0080  -0.0222   0.00    1.1
2018/03/11 12:57:41.000   78.255306964   16.193750942   489.7870   2   9   0.0416   0.0364   0.0538   0.0066   0.0079  -0.0221   0.00    1.1
2018/03/11 12:57:42.000   78.255307029   16.193750879   489.7880   2   9   0.0415   0.0363   0.0536   0.0066   0.0078  -0.0221   0.00    1.1
2018/03/11 12:57:43.000   78.255307078   16.193750807   489.7891   2   9   0.0414   0.0363   0.0534   0.0067   0.0078  -0.0220   0.00    1.1
2018/03/11 12:57:44.000   78.255307122   16.193750791   489.7884   2   9   0.0413   0.0362   0.0532   0.0067   0.0077  -0.0220   0.00    1.1
2018/03/11 12:57:45.000   78.255307130   16.193750702   489.7909   2   9   0.0412   0.0361   0.0530   0.0068   0.0076  -0.0219   0.00    1.1
2018/03/11 12:57:46.000   78.255307123   16.193750655   489.7916   2   9   0.0411   0.0360   0.0529   0.0068   0.0076  -0.0219   0.00    1.1
2018/03/11 12:57:47.000   78.255307097   16.193750645   489.7943   2   9   0.0410   0.0359   0.0527   0.0069   0.0075  -0.0218   0.00    1.1
2018/03/11 12:57:48.000   78.255307069   16.193750613   489.7991   2   9   0.0409   0.0358   0.0525   0.0069   0.0074  -0.0218   0.00    1.1
2018/03/11 12:57:49.000   78.255307087   16.193750628   489.8048   2   9   0.0408   0.0357   0.0523   0.0070   0.0074  -0.0217   0.00    1.1
2018/03/11 12:57:50.000   78.255307120   16.193750610   489.8117   2   9   0.0407   0.0356   0.0521   0.0070   0.0073  -0.0217   0.00    1.1
2018/03/11 12:57:51.000   78.255307172   16.193750585   489.8180   2   9   0.0406   0.0355   0.0519   0.0071   0.0072  -0.0216   0.00    1.1
2018/03/11 12:57:52.000   78.255307217   16.193750669   489.8225   2   9   0.0405   0.0355   0.0518   0.0071   0.0072  -0.0216   0.00    1.1
2018/03/11 12:57:53.000   78.255307234   16.193750717   489.8285   2   9   0.0404   0.0354   0.0516   0.0071   0.0071  -0.0215   0.00    1.0
2018/03/11 12:57:54.000   78.255307242   16.193750656   489.8342   2   9   0.0403   0.0353   0.0514   0.0072   0.0070  -0.0215   0.00    1.0
2018/03/11 12:57:55.000   78.255307257   16.193750669   489.8374   2   9   0.0402   0.0352   0.0512   0.0072   0.0070  -0.0214   0.00    1.0
2018/03/11 12:57:56.000   78.255307262   16.193750664   489.8387   2   9   0.0401   0.0351   0.0511   0.0073   0.0069  -0.0214   0.00    1.0
2018/03/11 12:57:57.000   78.255307257   16.193750642   489.8390   2   9   0.0400   0.0350   0.0509   0.0073   0.0068  -0.0214   0.00    1.0
2018/03/11 12:57:58.000   78.255307263   16.193750586   489.8409   2   9   0.0399   0.0349   0.0507   0.0073   0.0068  -0.0213   0.00    1.0
2018/03/11 12:57:59.000   78.255307271   16.193750508   489.8412   2   9   0.0398   0.0349   0.0506   0.0074   0.0067  -0.0213   0.00    1.0
2018/03/11 12:58:00.000   78.255307267   16.193750406   489.8432   2   9   0.0397   0.0348   0.0504   0.0074   0.0066  -0.0212   0.00    1.0
2018/03/11 12:58:01.000   78.255307277   16.193750353   489.8462   2   9   0.0396   0.0347   0.0502   0.0074   0.0066  -0.0212   0.00    1.0
2018/03/11 12:58:02.000   78.255307329   16.193750295   489.8482   2   9   0.0395   0.0346   0.0501   0.0075   0.0065  -0.0211   0.00    1.0
2018/03/11 12:58:03.000   78.255307371   16.193750290   489.8506   2   9   0.0394   0.0345   0.0499   0.0075   0.0065  -0.0211   0.00    1.0
2018/03/11 12:58:04.000   78.255307395   16.193750283   489.8518   2   9   0.0394   0.0345   0.0497   0.0075   0.0064  -0.0210   0.00    1.0
2018/03/11 12:58:05.000   78.255307406   16.193750368   489.8575   2   9   0.0393   0.0344   0.0496   0.0076   0.0063  -0.0210   0.00    1.0
2018/03/11 12:58:06.000   78.255307406   16.193750342   489.8621   2   9   0.0392   0.0343   0.0494   0.0076   0.0063  -0.0210   0.00    1.0
2018/03/11 12:58:07.000   78.255307416   16.193750418   489.8655   2   9   0.0391   0.0342   0.0493   0.0076   0.0062  -0.0209   0.00    1.0
2018/03/11 12:58:08.000   78.255307419   16.193750571   489.8701   2   9   0.0390   0.0341   0.0491   0.0076   0.0062  -0.0209   0.00    1.0
2018/03/11 12:58:09.000   78.255307435   16.193750606   489.8749   2   9   0.0389   0.0341   0.0489   0.0077   0.0061  -0.0208   0.00    1.0
2018/03/11 12:58:10.000   78.255307448   16.193750614   489.8785   2   9   0.0388   0.0340   0.0488   0.0077   0.0060  -0.0208   0.00    1.0
2018/03/11 12:58:11.000   78.255307461   16.193750579   489.8829   2   9   0.0387   0.0339   0.0486   0.0077   0.0060  -0.0207   0.00    1.0
2018/03/11 12:58:12.000   78.255307480   16.193750489   489.8845   2   9   0.0386   0.0338   0.0485   0.0078   0.0059  -0.0207   0.00    1.0
2018/03/11 12:58:13.000   78.255307522   16.193750427   489.8865   2   9   0.0385   0.0337   0.0483   0.0078   0.0059  -0.0207   0.00    1.0
2018/03/11 12:58:14.000   78.255307569   16.193750412   489.8885   2   9   0.0384   0.0337   0.0482   0.0078   0.0058  -0.0206   0.00    1.0
2018/03/11 12:58:15.000   78.255307601   16.193750428   489.8913   2   9   0.0384   0.0336   0.0480   0.0078   0.0057  -0.0206   0.00    1.0
2018/03/11 12:58:16.000   78.255307647   16.193750442   489.8963   2   9   0.0383   0.0335   0.0479   0.0079   0.0057  -0.0205   0.00    1.0
2018/03/11 12:58:17.000   78.255307674   16.193750512   489.9001   2   9   0.0382   0.0334   0.0477   0.0079   0.0056  -0.0205   0.00    1.0
2018/03/11 12:58:18.000   78.255307679   16.193750541   489.9034   2   9   0.0381   0.0334   0.0476   0.0079   0.0056  -0.0205   0.00    1.0
2018/03/11 12:58:19.000   78.255307703   16.193750574   489.9056   2   9   0.0380   0.0333   0.0474   0.0079   0.0055  -0.0204   0.00    1.0
2018/03/11 12:58:20.000   78.255307721   16.193750616   489.9068   2   9   0.0379   0.0332   0.0473   0.0079   0.0055  -0.0204   0.00    1.0
2018/03/11 12:58:21.000   78.255307741   16.193750675   489.9075   2   9   0.0378   0.0331   0.0471   0.0080   0.0054  -0.0203   0.00    1.0
2018/03/11 12:58:22.000   78.255307752   16.193750678   489.9081   2   9   0.0378   0.0331   0.0470   0.0080   0.0053  -0.0203   0.00    1.1
2018/03/11 12:58:23.000   78.255307772   16.193750639   489.9103   2   9   0.0377   0.0330   0.0469   0.0080   0.0053  -0.0203   0.00    1.1
2018/03/11 12:58:24.000   78.255307775   16.193750572   489.9123   2   9   0.0376   0.0329   0.0467   0.0080   0.0052  -0.0202   0.00    1.1
2018/03/11 12:58:25.000   78.255307775   16.193750495   489.9164   2   9   0.0375   0.0328   0.0466   0.0080   0.0052  -0.0202   0.00    1.1
2018/03/11 12:58:26.000   78.255307771   16.193750398   489.9208   2   9   0.0374   0.0328   0.0464   0.0081   0.0051  -0.0201   0.00    1.1
2018/03/11 12:58:27.000   78.255307810   16.193750326   489.9240   2   9   0.0373   0.0327   0.0463   0.0081   0.0051  -0.0201   0.00    1.1
2018/03/11 12:58:28.000   78.255307850   16.193750216   489.9253   2   9   0.0373   0.0326   0.0462   0.0081   0.0050  -0.0201   0.00    1.1
2018/03/11 12:58:29.000   78.255307900   16.193750190   489.9259   2   9   0.0372   0.0326   0.0460   0.0081   0.0050  -0.0200   0.00    1.1
2018/03/11 12:58:30.000   78.255307932   16.193750126   489.9274   2   9   0.0371   0.0325   0.0459   0.0081   0.0049  -0.0200   0.00    1.1
2018/03/11 12:58:31.000   78.255307955   16.193750039   489.9303   2   9   0.0370   0.0324   0.0457   0.0081   0.0049  -0.0199   0.00    1.1
2018/03/11 12:58:32.000   78.255307952   16.193750030   489.9334   2   9   0.0369   0.0324   0.0456   0.0082   0.0048  -0.0199   0.00    1.1
2018/03/11 12:58:33.000   78.255307952   16.193750166   489.9368   2   9   0.0368   0.0323   0.0455   0.0082   0.0048  -0.0199   0.00    1.1
2018/03/11 12:58:34.000   78.255307954   16.193750142   489.9387   2   9   0.0368   0.0322   0.0453   0.0082   0.0047  -0.0198   0.00    1.1
2018/03/11 12:58:35.000   78.255307973   16.193750148   489.9400   2   9   0.0367   0.0321   0.0452   0.0082   0.0046  -0.0198   0.00    1.1
2018/03/11 12:58:36.000   78.255307996   16.193750128   489.9413   2   9   0.0366   0.0321   0.0451   0.0082   0.0046  -0.0197   0.00    1.1
2018/03/11 12:58:37.000   78.255307992   16.193750080   489.9439   2   9   0.0365   0.0320   0.0449   0.0082   0.0045  -0.0197   0.00    1.1
2018/03/11 12:58:38.000   78.255308013   16.193750032   489.9452   2   9   0.0365   0.0319   0.0448   0.0082   0.0045  -0.0197   0.00    1.1
2018/03/11 12:58:39.000   78.255308025   16.193749969   489.9461   2   9   0.0364   0.0319   0.0447   0.0083   0.0044  -0.0196   0.00    1.1
2018/03/11 12:58:40.000   78.255308035   16.193749920   489.9470   2   9   0.0363   0.0318   0.0446   0.0083   0.0044  -0.0196   0.00    1.1
2018/03/11 12:58:41.000   78.255308037   16.193749952   489.9483   2   9   0.0362   0.0317   0.0444   0.0083   0.0043  -0.0196   0.00    1.1
2018/03/11 12:58:42.000   78.255308057   16.193749998   489.9489   2   9   0.0361   0.0317   0.0443   0.0083   0.0043  -0.0195   0.00    1.1
2018/03/11 12:58:43.000   78.255308091   16.193750008   489.9489   2   9   0.0361   0.0316   0.0442   0.0083   0.0042  -0.0195   0.00    1.1
2018/03/11 12:58:44.000   78.255308113   16.193750031   489.9490   2   9   0.0360   0.0315   0.0441   0.0083   0.0042  -0.0195   0.00    1.1
2018/03/11 12:58:45.000   78.255308118   16.193750050   489.9505   2   9   0.0359   0.0315   0.0439   0.0083   0.0041  -0.0194   0.00    1.1
2018/03/11 12:58:46.000   78.255308138   16.193750013   489.9528   2   9   0.0358   0.0314   0.0438   0.0083   0.0041  -0.0194   0.00    1.1
2018/03/11 12:58:47.000   78.255308157   16.193750009   489.9554   2   9   0.0358   0.0313   0.0437   0.0084   0.0040  -0.0193   0.00    1.1
2018/03/11 12:58:48.000   78.255308157   16.193750013   489.9574   2   9   0.0357   0.0313   0.0436   0.0084   0.0040  -0.0193   0.00    1.1
2018/03/11 12:58:49.000   78.255308151   16.193749959   489.9610   2   9   0.0356   0.0312   0.0434   0.0084   0.0039  -0.0193   0.00    1.1
2018/03/11 12:58:50.000   78.255308171   16.193749915   489.9631   2   9   0.0355   0.0312   0.0433   0.0084   0.0039  -0.0192   0.00    1.1
2018/03/11 12:58:51.000   78.255308169   16.193749812   489.9643   2   9   0.0355   0.0311   0.0432   0.0084   0.0038  -0.0192   0.00    1.1
2018/03/11 12:58:52.000   78.255308178   16.193749835   489.9668   2   9   0.0354   0.0310   0.0431   0.0084   0.0038  -0.0192   0.00    1.1
2018/03/11 12:58:53.000   78.255308192   16.193749834   489.9683   2   9   0.0353   0.0310   0.0430   0.0084   0.0037  -0.0191   0.00    1.1
2018/03/11 12:58:54.000   78.255308237   16.193749831   489.9673   2   9   0.0353   0.0309   0.0428   0.0084   0.0037  -0.0191   0.00    1.1
2018/03/11 12:58:55.000   78.255308265   16.193749901   489.9670   2   9   0.0352   0.0308   0.0427   0.0084   0.0036  -0.0191   0.00    1.1
2018/03/11 12:58:56.000   78.255308282   16.193749975   489.9674   2   9   0.0351   0.0308   0.0426   0.0084   0.0036  -0.0190   0.00    1.1
2018/03/11 12:58:57.000   78.255308298   16.193749966   489.9676   2   9   0.0350   0.0307   0.0425   0.0084   0.0035  -0.0190   0.00    1.1
2018/03/11 12:58:58.000   78.255308318   16.193750018   489.9667   2   9   0.0350   0.0307   0.0424   0.0085   0.0035  -0.0190   0.00    1.1
2018/03/11 12:58:59.000   78.255308315   16.193750039   489.9659   2   9   0.0349   0.0306   0.0423   0.0085   0.0034  -0.0189   0.00    1.1
2018/03/11 12:59:00.000   78.255308325   16.193750023   489.9658   2   9   0.0348   0.0305   0.0422   0.0085   0.0034  -0.0189   0.00    1.1
2018/03/11 12:59:01.000   78.255308338   16.193750005   489.9679   2   9   0.0348   0.0305   0.0420   0.0085   0.0033  -0.0189   0.00    1.1
2018/03/11 12:59:02.000   78.255308338   16.193750047   489.9697   2   9   0.0347   0.0304   0.0419   0.0085   0.0033  -0.0188   0.00    1.1
2018/03/11 12:59:03.000   78.255308315   16.193750109   489.9744   2   9   0.0346   0.0304   0.0418   0.0085   0.0032  -0.0188   0.00    1.1
2018/03/11 12:59:04.000   78.255308313   16.193750175   489.9790   2   9   0.0346   0.0303   0.0417   0.0085   0.0032  -0.0188   0.00    1.1
2018/03/11 12:59:05.000   78.255308313   16.193750195   489.9839   2   9   0.0345   0.0302   0.0416   0.0085   0.0031  -0.0187   0.00    1.1
2018/03/11 12:59:06.000   78.255308315   16.193750160   489.9876   2   9   0.0344   0.0302   0.0415   0.0085   0.0031  -0.0187   0.00    1.1
2018/03/11 12:59:07.000   78.255308333   16.193750157   489.9887   2   9   0.0343   0.0301   0.0414   0.0085   0.0030  -0.0187   0.00    1.1
