% program   : RTKPOST ver.2.4.2
% inp file  : Z:\home\linda\Documents\Spring18\GitHub_Unis\data\processed_data\46250705.obs
% inp file  : Z:\home\linda\Documents\Spring18\GitHub_Unis\data\base_station_data\lyrs0700.18o
% inp file  : Z:\home\linda\Documents\Spring18\GitHub_Unis\data\processed_data\46250705.nav
% obs start : 2018/03/11 12:25:09.0 GPST (week1992  44709.0s)
% obs end   : 2018/03/11 12:40:16.0 GPST (week1992  45616.0s)
% pos mode  : static
% freqs     : L1+L2
% solution  : forward
% elev mask : 15.0 deg
% dynamics  : on
% tidecorr  : off
% ionos opt : broadcast
% tropo opt : saastamoinen
% ephemeris : broadcast
% navi sys  : gps glonass galileo qzss sbas
% amb res   : fix and hold
% amb glo   : on
% val thres : 3.0
% antenna1  :                       ( 0.0000  0.0000  0.0000)
% antenna2  :                       ( 0.0000  0.0000  0.0000)
% ref pos   : 78.228825638   15.397310064   495.6816
%
% (lat/lon/height=WGS84/ellipsoidal,Q=1:fix,2:float,3:sbas,4:dgps,5:single,6:ppp,ns=# of satellites)
%  GPST                  latitude(deg) longitude(deg)  height(m)   Q  ns   sdn(m)   sde(m)   sdu(m)  sdne(m)  sdeu(m)  sdun(m) age(s)  ratio
2018/03/11 12:25:09.000   78.256422468   16.214732861   423.9763   2   8   0.4477   0.4027   2.1266  -0.2170   0.5562  -0.4428   0.00    2.0
2018/03/11 12:25:10.000   78.256423066   16.214745052   424.9082   2   8   0.3184   0.2859   1.5127  -0.1541   0.3946  -0.3141   0.00    2.1
2018/03/11 12:25:11.000   78.256423661   16.214747921   425.0037   2   8   0.2605   0.2338   1.2366  -0.1260   0.3224  -0.2566   0.00    2.2
2018/03/11 12:25:12.000   78.256424779   16.214746033   424.9154   2   8   0.2258   0.2025   1.0707  -0.1092   0.2791  -0.2221   0.00    2.2
2018/03/11 12:25:13.000   78.256425431   16.214749013   424.7505   2   8   0.2020   0.1812   0.9567  -0.0976   0.2493  -0.1985   0.00    2.1
2018/03/11 12:25:14.000   78.256425466   16.214747718   424.8791   2   8   0.1845   0.1654   0.8718  -0.0891   0.2272  -0.1809   0.00    2.3
2018/03/11 12:25:15.000   78.256425604   16.214747186   424.9692   2   8   0.1708   0.1531   0.8054  -0.0825   0.2099  -0.1672   0.00    2.4
2018/03/11 12:25:16.000   78.256425743   16.214747083   424.9373   2   8   0.1598   0.1432   0.7514  -0.0771   0.1959  -0.1560   0.00    2.5
2018/03/11 12:25:17.000   78.256425820   16.214747712   424.9863   2   8   0.1506   0.1350   0.7062  -0.0726   0.1842  -0.1467   0.00    2.6
2018/03/11 12:25:18.000   78.256425707   16.214747951   424.8555   2   8   0.1429   0.1280   0.6676  -0.0689   0.1741  -0.1388   0.00    2.7
2018/03/11 12:25:19.000   78.256425324   16.214747666   424.7718   2   8   0.1362   0.1220   0.6340  -0.0656   0.1654  -0.1319   0.00    2.7
2018/03/11 12:25:20.000   78.256424848   16.214747415   424.8592   2   8   0.1304   0.1167   0.6045  -0.0627   0.1578  -0.1259   0.00    2.8
2018/03/11 12:25:21.000   78.256424617   16.214747877   425.0055   2   8   0.1253   0.1121   0.5780  -0.0602   0.1509  -0.1205   0.00    2.9
2018/03/11 12:25:22.000   78.256422646   16.214742033   425.5410   1   8   0.0012   0.0011   0.0058  -0.0006   0.0015  -0.0012   0.00    3.1
2018/03/11 12:25:23.000   78.256422640   16.214742052   425.5412   1   8   0.0012   0.0010   0.0056  -0.0006   0.0015  -0.0012   0.00    3.2
2018/03/11 12:25:24.000   78.256422637   16.214742074   425.5418   1   8   0.0011   0.0010   0.0054  -0.0005   0.0014  -0.0011   0.00    3.4
2018/03/11 12:25:25.000   78.256422633   16.214742090   425.5413   1   8   0.0011   0.0010   0.0052  -0.0005   0.0014  -0.0011   0.00    3.5
2018/03/11 12:25:26.000   78.256422628   16.214742108   425.5424   1   8   0.0011   0.0010   0.0051  -0.0005   0.0013  -0.0011   0.00    3.8
2018/03/11 12:25:27.000   78.256422622   16.214742131   425.5435   1   8   0.0010   0.0009   0.0050  -0.0005   0.0013  -0.0010   0.00    4.2
2018/03/11 12:25:28.000   78.256422616   16.214742163   425.5444   1   8   0.0010   0.0009   0.0048  -0.0005   0.0013  -0.0010   0.00    4.8
2018/03/11 12:25:29.000   78.256422608   16.214742199   425.5459   1   8   0.0010   0.0009   0.0047  -0.0005   0.0012  -0.0010   0.00    5.5
2018/03/11 12:25:30.000   78.256422598   16.214742239   425.5479   1   8   0.0010   0.0009   0.0046  -0.0005   0.0012  -0.0010   0.00    6.4
2018/03/11 12:25:31.000   78.256422587   16.214742285   425.5501   1   8   0.0009   0.0008   0.0045  -0.0005   0.0012  -0.0009   0.00    7.6
2018/03/11 12:25:32.000   78.256422575   16.214742332   425.5519   1   8   0.0009   0.0008   0.0044  -0.0004   0.0012  -0.0009   0.00   36.6
2018/03/11 12:25:33.000   78.256422565   16.214742380   425.5533   1   8   0.0009   0.0008   0.0043  -0.0004   0.0011  -0.0009   0.00   55.3
2018/03/11 12:25:34.000   78.256422555   16.214742418   425.5547   1   8   0.0009   0.0008   0.0042  -0.0004   0.0011  -0.0009   0.00   76.9
2018/03/11 12:25:35.000   78.256422546   16.214742450   425.5560   1   8   0.0009   0.0008   0.0042  -0.0004   0.0011  -0.0009   0.00   97.2
2018/03/11 12:25:36.000   78.256422538   16.214742481   425.5570   1   8   0.0009   0.0008   0.0041  -0.0004   0.0011  -0.0008   0.00  113.1
2018/03/11 12:25:37.000   78.256422532   16.214742507   425.5582   1   8   0.0008   0.0008   0.0040  -0.0004   0.0010  -0.0008   0.00  122.8
2018/03/11 12:25:38.000   78.256422526   16.214742531   425.5590   1   8   0.0008   0.0007   0.0039  -0.0004   0.0010  -0.0008   0.00  127.7
2018/03/11 12:25:39.000   78.256422519   16.214742550   425.5597   1   8   0.0008   0.0007   0.0039  -0.0004   0.0010  -0.0008   0.00  131.5
2018/03/11 12:25:40.000   78.256422513   16.214742570   425.5604   1   8   0.0008   0.0007   0.0038  -0.0004   0.0010  -0.0008   0.00  130.3
2018/03/11 12:25:41.000   78.256422510   16.214742589   425.5608   1   8   0.0008   0.0007   0.0038  -0.0004   0.0010  -0.0008   0.00  127.1
2018/03/11 12:25:42.000   78.256422505   16.214742606   425.5610   1   8   0.0008   0.0007   0.0037  -0.0004   0.0010  -0.0008   0.00  123.8
2018/03/11 12:25:43.000   78.256422500   16.214742619   425.5614   1   8   0.0008   0.0007   0.0037  -0.0004   0.0010  -0.0008   0.00  120.2
2018/03/11 12:25:44.000   78.256422494   16.214742630   425.5617   1   8   0.0008   0.0007   0.0036  -0.0004   0.0009  -0.0007   0.00  117.5
2018/03/11 12:25:45.000   78.256422491   16.214742643   425.5619   1   8   0.0007   0.0007   0.0036  -0.0004   0.0009  -0.0007   0.00  114.2
2018/03/11 12:25:46.000   78.256422488   16.214742655   425.5620   1   8   0.0007   0.0007   0.0035  -0.0004   0.0009  -0.0007   0.00  109.3
2018/03/11 12:25:47.000   78.256422484   16.214742665   425.5620   1   8   0.0007   0.0007   0.0035  -0.0004   0.0009  -0.0007   0.00  105.4
2018/03/11 12:25:48.000   78.256422480   16.214742674   425.5623   1   8   0.0007   0.0006   0.0034  -0.0003   0.0009  -0.0007   0.00  103.7
2018/03/11 12:25:49.000   78.256422477   16.214742685   425.5623   1   8   0.0007   0.0006   0.0034  -0.0003   0.0009  -0.0007   0.00  100.8
2018/03/11 12:25:50.000   78.256422475   16.214742694   425.5624   1   8   0.0007   0.0006   0.0033  -0.0003   0.0009  -0.0007   0.00   96.9
2018/03/11 12:25:51.000   78.256422472   16.214742706   425.5626   1   8   0.0007   0.0006   0.0033  -0.0003   0.0009  -0.0007   0.00   93.7
2018/03/11 12:25:52.000   78.256422468   16.214742713   425.5628   1   8   0.0007   0.0006   0.0033  -0.0003   0.0009  -0.0007   0.00   91.1
2018/03/11 12:25:53.000   78.256422465   16.214742721   425.5631   1   8   0.0007   0.0006   0.0032  -0.0003   0.0008  -0.0007   0.00   88.7
2018/03/11 12:25:54.000   78.256422462   16.214742731   425.5630   1   8   0.0007   0.0006   0.0032  -0.0003   0.0008  -0.0007   0.00   85.5
2018/03/11 12:25:55.000   78.256422458   16.214742741   425.5630   1   8   0.0007   0.0006   0.0032  -0.0003   0.0008  -0.0007   0.00   82.4
2018/03/11 12:25:56.000   78.256422455   16.214742750   425.5628   1   8   0.0007   0.0006   0.0031  -0.0003   0.0008  -0.0007   0.00   79.6
2018/03/11 12:25:57.000   78.256422451   16.214742761   425.5630   1   8   0.0006   0.0006   0.0031  -0.0003   0.0008  -0.0006   0.00   76.4
2018/03/11 12:25:58.000   78.256422448   16.214742771   425.5630   1   8   0.0006   0.0006   0.0031  -0.0003   0.0008  -0.0006   0.00   73.5
2018/03/11 12:25:59.000   78.256422445   16.214742784   425.5631   1   8   0.0006   0.0006   0.0030  -0.0003   0.0008  -0.0006   0.00   71.0
2018/03/11 12:26:00.000   78.256422442   16.214742793   425.5633   1   8   0.0006   0.0006   0.0030  -0.0003   0.0008  -0.0006   0.00   68.7
2018/03/11 12:26:01.000   78.256422439   16.214742807   425.5639   1   8   0.0006   0.0006   0.0030  -0.0003   0.0008  -0.0006   0.00   66.4
2018/03/11 12:26:02.000   78.256422436   16.214742819   425.5638   1   8   0.0006   0.0006   0.0030  -0.0003   0.0008  -0.0006   0.00   63.9
2018/03/11 12:26:03.000   78.256422433   16.214742833   425.5640   1   8   0.0006   0.0006   0.0029  -0.0003   0.0008  -0.0006   0.00   61.9
2018/03/11 12:26:04.000   78.256422430   16.214742844   425.5640   1   8   0.0006   0.0005   0.0029  -0.0003   0.0008  -0.0006   0.00   59.8
2018/03/11 12:26:05.000   78.256422427   16.214742854   425.5641   1   8   0.0006   0.0005   0.0029  -0.0003   0.0008  -0.0006   0.00   58.0
2018/03/11 12:26:06.000   78.256422424   16.214742866   425.5642   1   8   0.0006   0.0005   0.0029  -0.0003   0.0007  -0.0006   0.00   56.2
2018/03/11 12:26:07.000   78.256422420   16.214742880   425.5647   1   8   0.0006   0.0005   0.0028  -0.0003   0.0007  -0.0006   0.00   54.4
2018/03/11 12:26:08.000   78.256422417   16.214742892   425.5649   1   8   0.0006   0.0005   0.0028  -0.0003   0.0007  -0.0006   0.00   52.9
2018/03/11 12:26:09.000   78.256422413   16.214742906   425.5650   1   8   0.0006   0.0005   0.0028  -0.0003   0.0007  -0.0006   0.00   51.2
2018/03/11 12:26:10.000   78.256422409   16.214742919   425.5651   1   8   0.0006   0.0005   0.0028  -0.0003   0.0007  -0.0006   0.00   49.4
2018/03/11 12:26:11.000   78.256422406   16.214742932   425.5652   1   8   0.0006   0.0005   0.0027  -0.0003   0.0007  -0.0006   0.00   47.9
2018/03/11 12:26:12.000   78.256422402   16.214742948   425.5656   1   8   0.0006   0.0005   0.0027  -0.0003   0.0007  -0.0006   0.00   46.6
2018/03/11 12:26:13.000   78.256422398   16.214742962   425.5659   1   8   0.0006   0.0005   0.0027  -0.0003   0.0007  -0.0006   0.00   45.2
2018/03/11 12:26:14.000   78.256422394   16.214742975   425.5660   1   8   0.0006   0.0005   0.0027  -0.0003   0.0007  -0.0006   0.00   43.7
2018/03/11 12:26:15.000   78.256422390   16.214742989   425.5663   1   8   0.0006   0.0005   0.0027  -0.0003   0.0007  -0.0006   0.00   42.5
2018/03/11 12:26:16.000   78.256422387   16.214743002   425.5666   1   8   0.0006   0.0005   0.0026  -0.0003   0.0007  -0.0006   0.00   41.4
2018/03/11 12:26:17.000   78.256422384   16.214743014   425.5669   1   8   0.0005   0.0005   0.0026  -0.0003   0.0007  -0.0005   0.00   40.2
2018/03/11 12:26:18.000   78.256422381   16.214743026   425.5670   1   8   0.0005   0.0005   0.0026  -0.0003   0.0007  -0.0005   0.00   39.2
2018/03/11 12:26:19.000   78.256422377   16.214743039   425.5672   1   8   0.0005   0.0005   0.0026  -0.0003   0.0007  -0.0005   0.00   38.1
2018/03/11 12:26:20.000   78.256422374   16.214743050   425.5673   1   8   0.0005   0.0005   0.0026  -0.0003   0.0007  -0.0005   0.00   37.2
2018/03/11 12:26:21.000   78.256422371   16.214743061   425.5677   1   8   0.0005   0.0005   0.0026  -0.0003   0.0007  -0.0005   0.00   36.4
2018/03/11 12:26:22.000   78.256422368   16.214743071   425.5677   1   8   0.0005   0.0005   0.0025  -0.0003   0.0007  -0.0005   0.00   35.7
2018/03/11 12:26:23.000   78.256422366   16.214743080   425.5678   1   8   0.0005   0.0005   0.0025  -0.0003   0.0007  -0.0005   0.00   35.0
2018/03/11 12:26:24.000   78.256422364   16.214743089   425.5676   1   8   0.0005   0.0005   0.0025  -0.0003   0.0007  -0.0005   0.00   34.4
2018/03/11 12:26:25.000   78.256422362   16.214743095   425.5675   1   8   0.0005   0.0005   0.0025  -0.0003   0.0007  -0.0005   0.00   33.9
2018/03/11 12:26:26.000   78.256422360   16.214743100   425.5675   1   8   0.0005   0.0005   0.0025  -0.0003   0.0007  -0.0005   0.00   33.4
2018/03/11 12:26:27.000   78.256422358   16.214743102   425.5674   1   8   0.0005   0.0005   0.0025  -0.0003   0.0006  -0.0005   0.00   33.1
2018/03/11 12:26:28.000   78.256422357   16.214743104   425.5671   1   8   0.0005   0.0005   0.0024  -0.0002   0.0006  -0.0005   0.00   32.8
2018/03/11 12:26:29.000   78.256422356   16.214743105   425.5667   1   8   0.0005   0.0005   0.0024  -0.0002   0.0006  -0.0005   0.00   32.6
2018/03/11 12:26:30.000   78.256422355   16.214743105   425.5664   1   8   0.0005   0.0005   0.0024  -0.0002   0.0006  -0.0005   0.00   32.4
2018/03/11 12:26:31.000   78.256422354   16.214743103   425.5663   1   8   0.0005   0.0005   0.0024  -0.0002   0.0006  -0.0005   0.00   32.3
2018/03/11 12:26:32.000   78.256422353   16.214743101   425.5660   1   8   0.0005   0.0004   0.0024  -0.0002   0.0006  -0.0005   0.00   32.3
2018/03/11 12:26:33.000   78.256422353   16.214743099   425.5656   1   8   0.0005   0.0004   0.0024  -0.0002   0.0006  -0.0005   0.00   32.3
2018/03/11 12:26:34.000   78.256422354   16.214743094   425.5652   1   8   0.0005   0.0004   0.0024  -0.0002   0.0006  -0.0005   0.00   32.4
2018/03/11 12:26:35.000   78.256422354   16.214743089   425.5649   1   8   0.0005   0.0004   0.0023  -0.0002   0.0006  -0.0005   0.00   32.5
2018/03/11 12:26:36.000   78.256422354   16.214743081   425.5644   1   8   0.0005   0.0004   0.0023  -0.0002   0.0006  -0.0005   0.00   32.7
2018/03/11 12:26:37.000   78.256422355   16.214743075   425.5639   1   8   0.0005   0.0004   0.0023  -0.0002   0.0006  -0.0005   0.00   32.9
2018/03/11 12:26:38.000   78.256422356   16.214743067   425.5634   1   8   0.0005   0.0004   0.0023  -0.0002   0.0006  -0.0005   0.00   33.1
2018/03/11 12:26:39.000   78.256422357   16.214743058   425.5627   1   8   0.0005   0.0004   0.0023  -0.0002   0.0006  -0.0005   0.00   33.4
2018/03/11 12:26:40.000   78.256422358   16.214743048   425.5621   1   8   0.0005   0.0004   0.0023  -0.0002   0.0006  -0.0005   0.00   33.8
2018/03/11 12:26:41.000   78.256422359   16.214743037   425.5615   1   8   0.0005   0.0004   0.0023  -0.0002   0.0006  -0.0005   0.00   34.2
2018/03/11 12:26:42.000   78.256422361   16.214743025   425.5609   1   8   0.0005   0.0004   0.0023  -0.0002   0.0006  -0.0005   0.00   34.6
2018/03/11 12:26:43.000   78.256422363   16.214743013   425.5601   1   8   0.0005   0.0004   0.0023  -0.0002   0.0006  -0.0005   0.00   35.0
2018/03/11 12:26:44.000   78.256422365   16.214743000   425.5594   1   8   0.0005   0.0004   0.0022  -0.0002   0.0006  -0.0005   0.00   35.6
2018/03/11 12:26:45.000   78.256422366   16.214742987   425.5588   1   8   0.0005   0.0004   0.0022  -0.0002   0.0006  -0.0005   0.00   36.2
2018/03/11 12:26:46.000   78.256422368   16.214742975   425.5581   1   8   0.0005   0.0004   0.0022  -0.0002   0.0006  -0.0005   0.00   36.6
2018/03/11 12:26:47.000   78.256422370   16.214742964   425.5575   1   8   0.0005   0.0004   0.0022  -0.0002   0.0006  -0.0005   0.00   37.1
2018/03/11 12:26:48.000   78.256422371   16.214742951   425.5569   1   8   0.0005   0.0004   0.0022  -0.0002   0.0006  -0.0005   0.00   37.5
2018/03/11 12:26:49.000   78.256422372   16.214742939   425.5564   1   8   0.0005   0.0004   0.0022  -0.0002   0.0006  -0.0005   0.00   38.1
2018/03/11 12:26:50.000   78.256422373   16.214742928   425.5558   1   8   0.0005   0.0004   0.0022  -0.0002   0.0006  -0.0005   0.00   38.6
2018/03/11 12:26:51.000   78.256422375   16.214742918   425.5552   1   8   0.0005   0.0004   0.0022  -0.0002   0.0006  -0.0005   0.00   39.1
2018/03/11 12:26:52.000   78.256422377   16.214742906   425.5546   1   8   0.0004   0.0004   0.0022  -0.0002   0.0006  -0.0005   0.00   39.4
2018/03/11 12:26:53.000   78.256422377   16.214742894   425.5542   1   8   0.0004   0.0004   0.0021  -0.0002   0.0006  -0.0005   0.00   39.9
2018/03/11 12:26:54.000   78.256422378   16.214742883   425.5536   1   8   0.0004   0.0004   0.0021  -0.0002   0.0006  -0.0004   0.00   40.4
2018/03/11 12:26:55.000   78.256422380   16.214742873   425.5533   1   8   0.0004   0.0004   0.0021  -0.0002   0.0006  -0.0004   0.00   40.7
2018/03/11 12:26:56.000   78.256422381   16.214742864   425.5530   1   8   0.0004   0.0004   0.0021  -0.0002   0.0006  -0.0004   0.00   41.1
2018/03/11 12:26:57.000   78.256422382   16.214742854   425.5525   1   8   0.0004   0.0004   0.0021  -0.0002   0.0006  -0.0004   0.00   41.5
2018/03/11 12:26:58.000   78.256422383   16.214742844   425.5519   1   8   0.0004   0.0004   0.0021  -0.0002   0.0006  -0.0004   0.00   42.0
2018/03/11 12:26:59.000   78.256422384   16.214742837   425.5515   1   8   0.0004   0.0004   0.0021  -0.0002   0.0006  -0.0004   0.00   42.5
2018/03/11 12:27:00.000   78.256422385   16.214742829   425.5511   1   8   0.0004   0.0004   0.0021  -0.0002   0.0006  -0.0004   0.00   42.9
2018/03/11 12:27:01.000   78.256422385   16.214742821   425.5507   1   8   0.0004   0.0004   0.0021  -0.0002   0.0006  -0.0004   0.00   43.3
2018/03/11 12:27:02.000   78.256422385   16.214742813   425.5504   1   8   0.0004   0.0004   0.0021  -0.0002   0.0005  -0.0004   0.00   43.7
2018/03/11 12:27:03.000   78.256422386   16.214742805   425.5499   1   8   0.0004   0.0004   0.0021  -0.0002   0.0005  -0.0004   0.00   44.1
2018/03/11 12:27:04.000   78.256422386   16.214742798   425.5494   1   8   0.0004   0.0004   0.0021  -0.0002   0.0005  -0.0004   0.00   44.5
2018/03/11 12:27:05.000   78.256422387   16.214742791   425.5491   1   8   0.0004   0.0004   0.0020  -0.0002   0.0005  -0.0004   0.00   44.9
2018/03/11 12:27:06.000   78.256422387   16.214742784   425.5489   1   8   0.0004   0.0004   0.0020  -0.0002   0.0005  -0.0004   0.00   45.3
2018/03/11 12:27:07.000   78.256422388   16.214742777   425.5486   1   8   0.0004   0.0004   0.0020  -0.0002   0.0005  -0.0004   0.00   45.8
2018/03/11 12:27:08.000   78.256422389   16.214742770   425.5482   1   8   0.0004   0.0004   0.0020  -0.0002   0.0005  -0.0004   0.00   46.2
2018/03/11 12:27:09.000   78.256422389   16.214742764   425.5479   1   8   0.0004   0.0004   0.0020  -0.0002   0.0005  -0.0004   0.00   46.7
2018/03/11 12:27:10.000   78.256422390   16.214742758   425.5476   1   8   0.0004   0.0004   0.0020  -0.0002   0.0005  -0.0004   0.00   47.1
2018/03/11 12:27:11.000   78.256422390   16.214742752   425.5474   1   8   0.0004   0.0004   0.0020  -0.0002   0.0005  -0.0004   0.00   47.5
2018/03/11 12:27:12.000   78.256422390   16.214742747   425.5471   1   8   0.0004   0.0004   0.0020  -0.0002   0.0005  -0.0004   0.00   47.9
2018/03/11 12:27:13.000   78.256422390   16.214742742   425.5470   1   8   0.0004   0.0004   0.0020  -0.0002   0.0005  -0.0004   0.00   48.3
2018/03/11 12:27:14.000   78.256422391   16.214742737   425.5468   1   8   0.0004   0.0004   0.0020  -0.0002   0.0005  -0.0004   0.00   48.8
2018/03/11 12:27:15.000   78.256422391   16.214742731   425.5467   1   8   0.0004   0.0004   0.0020  -0.0002   0.0005  -0.0004   0.00   49.3
2018/03/11 12:27:16.000   78.256422391   16.214742725   425.5466   1   8   0.0004   0.0004   0.0020  -0.0002   0.0005  -0.0004   0.00   49.8
2018/03/11 12:27:17.000   78.256422392   16.214742720   425.5464   1   8   0.0004   0.0004   0.0020  -0.0002   0.0005  -0.0004   0.00   50.3
2018/03/11 12:27:18.000   78.256422392   16.214742716   425.5461   1   8   0.0004   0.0004   0.0019  -0.0002   0.0005  -0.0004   0.00   50.8
2018/03/11 12:27:19.000   78.256422393   16.214742711   425.5458   1   8   0.0004   0.0004   0.0019  -0.0002   0.0005  -0.0004   0.00   51.2
2018/03/11 12:27:20.000   78.256422393   16.214742706   425.5457   1   8   0.0004   0.0004   0.0019  -0.0002   0.0005  -0.0004   0.00   51.8
2018/03/11 12:27:21.000   78.256422393   16.214742701   425.5455   1   8   0.0004   0.0004   0.0019  -0.0002   0.0005  -0.0004   0.00   52.3
2018/03/11 12:27:22.000   78.256422393   16.214742697   425.5453   1   8   0.0004   0.0004   0.0019  -0.0002   0.0005  -0.0004   0.00   52.7
2018/03/11 12:27:23.000   78.256422394   16.214742693   425.5451   1   8   0.0004   0.0004   0.0019  -0.0002   0.0005  -0.0004   0.00   53.2
2018/03/11 12:27:24.000   78.256422395   16.214742689   425.5449   1   8   0.0004   0.0004   0.0019  -0.0002   0.0005  -0.0004   0.00   53.7
2018/03/11 12:27:25.000   78.256422395   16.214742685   425.5447   1   8   0.0004   0.0004   0.0019  -0.0002   0.0005  -0.0004   0.00   54.2
2018/03/11 12:27:26.000   78.256422395   16.214742682   425.5446   1   8   0.0004   0.0004   0.0019  -0.0002   0.0005  -0.0004   0.00   54.8
2018/03/11 12:27:27.000   78.256422395   16.214742679   425.5443   1   8   0.0004   0.0004   0.0019  -0.0002   0.0005  -0.0004   0.00   55.2
2018/03/11 12:27:28.000   78.256422396   16.214742675   425.5441   1   8   0.0004   0.0004   0.0019  -0.0002   0.0005  -0.0004   0.00   55.7
2018/03/11 12:27:29.000   78.256422396   16.214742672   425.5439   1   8   0.0004   0.0004   0.0019  -0.0002   0.0005  -0.0004   0.00   56.0
2018/03/11 12:27:30.000   78.256422396   16.214742670   425.5439   1   8   0.0004   0.0004   0.0019  -0.0002   0.0005  -0.0004   0.00   56.6
2018/03/11 12:27:31.000   78.256422396   16.214742667   425.5438   1   8   0.0004   0.0003   0.0019  -0.0002   0.0005  -0.0004   0.00   57.0
2018/03/11 12:27:32.000   78.256422397   16.214742665   425.5437   1   8   0.0004   0.0003   0.0019  -0.0002   0.0005  -0.0004   0.00   57.4
2018/03/11 12:27:33.000   78.256422397   16.214742664   425.5437   1   8   0.0004   0.0003   0.0019  -0.0002   0.0005  -0.0004   0.00   57.7
2018/03/11 12:27:34.000   78.256422397   16.214742662   425.5436   1   8   0.0004   0.0003   0.0018  -0.0002   0.0005  -0.0004   0.00   58.0
2018/03/11 12:27:35.000   78.256422397   16.214742661   425.5435   1   8   0.0004   0.0003   0.0018  -0.0002   0.0005  -0.0004   0.00   58.5
2018/03/11 12:27:36.000   78.256422398   16.214742660   425.5435   1   8   0.0004   0.0003   0.0018  -0.0002   0.0005  -0.0004   0.00   58.8
2018/03/11 12:27:37.000   78.256422398   16.214742659   425.5437   1   8   0.0004   0.0003   0.0018  -0.0002   0.0005  -0.0004   0.00   59.1
2018/03/11 12:27:38.000   78.256422398   16.214742658   425.5437   1   8   0.0004   0.0003   0.0018  -0.0002   0.0005  -0.0004   0.00   59.5
2018/03/11 12:27:39.000   78.256422398   16.214742656   425.5437   1   8   0.0004   0.0003   0.0018  -0.0002   0.0005  -0.0004   0.00   60.0
2018/03/11 12:27:40.000   78.256422398   16.214742657   425.5438   1   8   0.0004   0.0003   0.0018  -0.0002   0.0005  -0.0004   0.00   60.3
2018/03/11 12:27:41.000   78.256422398   16.214742656   425.5437   1   8   0.0004   0.0003   0.0018  -0.0002   0.0005  -0.0004   0.00   60.6
2018/03/11 12:27:42.000   78.256422399   16.214742655   425.5437   1   8   0.0004   0.0003   0.0018  -0.0002   0.0005  -0.0004   0.00   60.8
2018/03/11 12:27:43.000   78.256422398   16.214742654   425.5437   1   8   0.0004   0.0003   0.0018  -0.0002   0.0005  -0.0004   0.00   61.2
2018/03/11 12:27:44.000   78.256422398   16.214742653   425.5438   1   8   0.0004   0.0003   0.0018  -0.0002   0.0005  -0.0004   0.00   61.6
2018/03/11 12:27:45.000   78.256422398   16.214742652   425.5440   1   8   0.0004   0.0003   0.0018  -0.0002   0.0005  -0.0004   0.00   62.0
2018/03/11 12:27:46.000   78.256422399   16.214742651   425.5439   1   8   0.0004   0.0003   0.0018  -0.0002   0.0005  -0.0004   0.00   62.2
2018/03/11 12:27:47.000   78.256422399   16.214742651   425.5438   1   8   0.0004   0.0003   0.0018  -0.0002   0.0005  -0.0004   0.00   62.5
2018/03/11 12:27:48.000   78.256422399   16.214742650   425.5436   1   8   0.0004   0.0003   0.0018  -0.0002   0.0005  -0.0004   0.00   62.7
2018/03/11 12:27:49.000   78.256422400   16.214742649   425.5436   1   8   0.0004   0.0003   0.0018  -0.0002   0.0005  -0.0004   0.00   63.0
2018/03/11 12:27:50.000   78.256422400   16.214742648   425.5435   1   8   0.0004   0.0003   0.0018  -0.0002   0.0005  -0.0004   0.00   63.2
2018/03/11 12:27:51.000   78.256422401   16.214742648   425.5434   1   8   0.0004   0.0003   0.0018  -0.0002   0.0005  -0.0004   0.00   63.5
2018/03/11 12:27:52.000   78.256422401   16.214742646   425.5433   1   8   0.0004   0.0003   0.0018  -0.0002   0.0005  -0.0004   0.00   63.7
2018/03/11 12:27:53.000   78.256422402   16.214742644   425.5432   1   8   0.0004   0.0003   0.0017  -0.0002   0.0005  -0.0004   0.00   64.1
2018/03/11 12:27:54.000   78.256422403   16.214742643   425.5431   1   8   0.0004   0.0003   0.0017  -0.0002   0.0005  -0.0004   0.00   64.5
2018/03/11 12:27:55.000   78.256422403   16.214742640   425.5430   1   8   0.0004   0.0003   0.0017  -0.0002   0.0005  -0.0004   0.00   64.9
2018/03/11 12:27:56.000   78.256422404   16.214742639   425.5429   1   8   0.0004   0.0003   0.0017  -0.0002   0.0005  -0.0004   0.00   65.2
2018/03/11 12:27:57.000   78.256422405   16.214742636   425.5428   1   8   0.0004   0.0003   0.0017  -0.0002   0.0005  -0.0004   0.00   65.6
2018/03/11 12:27:58.000   78.256422405   16.214742634   425.5426   1   8   0.0004   0.0003   0.0017  -0.0002   0.0005  -0.0004   0.00   66.0
2018/03/11 12:27:59.000   78.256422406   16.214742631   425.5425   1   8   0.0004   0.0003   0.0017  -0.0002   0.0005  -0.0004   0.00   66.4
2018/03/11 12:28:00.000   78.256422406   16.214742629   425.5423   1   8   0.0004   0.0003   0.0017  -0.0002   0.0005  -0.0004   0.00   66.8
2018/03/11 12:28:01.000   78.256422407   16.214742627   425.5422   1   8   0.0004   0.0003   0.0017  -0.0002   0.0005  -0.0004   0.00   67.3
2018/03/11 12:28:02.000   78.256422407   16.214742625   425.5422   1   8   0.0004   0.0003   0.0017  -0.0002   0.0005  -0.0004   0.00   67.8
2018/03/11 12:28:03.000   78.256422408   16.214742622   425.5420   1   8   0.0004   0.0003   0.0017  -0.0002   0.0005  -0.0004   0.00   68.3
2018/03/11 12:28:04.000   78.256422409   16.214742619   425.5419   1   8   0.0004   0.0003   0.0017  -0.0002   0.0005  -0.0004   0.00   68.9
2018/03/11 12:28:05.000   78.256422410   16.214742617   425.5418   1   8   0.0003   0.0003   0.0017  -0.0002   0.0005  -0.0004   0.00   69.6
2018/03/11 12:28:06.000   78.256422410   16.214742614   425.5416   1   8   0.0003   0.0003   0.0017  -0.0002   0.0005  -0.0004   0.00   70.2
2018/03/11 12:28:07.000   78.256422411   16.214742611   425.5414   1   8   0.0003   0.0003   0.0017  -0.0002   0.0005  -0.0004   0.00   70.8
2018/03/11 12:28:08.000   78.256422412   16.214742608   425.5412   1   8   0.0003   0.0003   0.0017  -0.0002   0.0005  -0.0004   0.00   71.4
2018/03/11 12:28:09.000   78.256422413   16.214742605   425.5412   1   8   0.0003   0.0003   0.0017  -0.0002   0.0005  -0.0004   0.00   72.0
2018/03/11 12:28:10.000   78.256422414   16.214742602   425.5411   1   8   0.0003   0.0003   0.0017  -0.0002   0.0005  -0.0004   0.00   72.8
2018/03/11 12:28:11.000   78.256422414   16.214742598   425.5410   1   8   0.0003   0.0003   0.0017  -0.0002   0.0005  -0.0004   0.00   73.7
2018/03/11 12:28:12.000   78.256422415   16.214742594   425.5408   1   8   0.0003   0.0003   0.0017  -0.0002   0.0004  -0.0004   0.00   74.4
2018/03/11 12:28:13.000   78.256422416   16.214742590   425.5407   1   8   0.0003   0.0003   0.0017  -0.0002   0.0004  -0.0004   0.00   75.2
2018/03/11 12:28:14.000   78.256422417   16.214742586   425.5406   1   8   0.0003   0.0003   0.0017  -0.0002   0.0004  -0.0004   0.00   76.1
2018/03/11 12:28:15.000   78.256422418   16.214742582   425.5404   1   8   0.0003   0.0003   0.0017  -0.0002   0.0004  -0.0004   0.00   77.0
2018/03/11 12:28:16.000   78.256422419   16.214742578   425.5403   1   8   0.0003   0.0003   0.0017  -0.0002   0.0004  -0.0003   0.00   77.9
2018/03/11 12:28:17.000   78.256422432   16.214742613   425.5393   2   8   0.0004   0.0004   0.0020  -0.0002   0.0006  -0.0004   0.00    1.0
2018/03/11 12:28:18.000   78.256422433   16.214742609   425.5392   2   8   0.0004   0.0004   0.0020  -0.0002   0.0006  -0.0004   0.00    1.1
2018/03/11 12:28:19.000   78.256422434   16.214742605   425.5391   2   8   0.0004   0.0004   0.0020  -0.0002   0.0006  -0.0004   0.00    1.2
2018/03/11 12:28:20.000   78.256422435   16.214742600   425.5390   2   8   0.0004   0.0004   0.0020  -0.0002   0.0006  -0.0004   0.00    1.2
2018/03/11 12:28:21.000   78.256422435   16.214742596   425.5390   2   8   0.0004   0.0004   0.0020  -0.0002   0.0006  -0.0004   0.00    1.3
2018/03/11 12:28:22.000   78.256422436   16.214742592   425.5389   2   8   0.0004   0.0004   0.0020  -0.0002   0.0006  -0.0004   0.00    1.4
2018/03/11 12:28:23.000   78.256422437   16.214742588   425.5388   2   8   0.0004   0.0004   0.0020  -0.0002   0.0006  -0.0004   0.00    1.0
2018/03/11 12:28:24.000   78.256422438   16.214742583   425.5387   2   8   0.0004   0.0004   0.0020  -0.0002   0.0006  -0.0004   0.00    1.0
2018/03/11 12:28:25.000   78.256422439   16.214742577   425.5386   2   8   0.0004   0.0004   0.0020  -0.0002   0.0006  -0.0004   0.00    1.0
2018/03/11 12:28:26.000   78.256422439   16.214742573   425.5385   2   8   0.0004   0.0004   0.0020  -0.0002   0.0006  -0.0004   0.00    1.1
2018/03/11 12:28:27.000   78.256422440   16.214742568   425.5384   2   8   0.0004   0.0004   0.0020  -0.0002   0.0006  -0.0004   0.00    1.1
2018/03/11 12:28:28.000   78.256422441   16.214742563   425.5383   2   8   0.0004   0.0004   0.0020  -0.0002   0.0006  -0.0004   0.00    1.2
2018/03/11 12:28:29.000   78.256422442   16.214742558   425.5382   2   8   0.0004   0.0004   0.0020  -0.0002   0.0006  -0.0004   0.00    1.3
2018/03/11 12:28:30.000   78.256422443   16.214742552   425.5381   2   8   0.0004   0.0004   0.0020  -0.0002   0.0006  -0.0004   0.00    1.4
2018/03/11 12:28:31.000   78.256422444   16.214742547   425.5380   2   8   0.0004   0.0004   0.0020  -0.0002   0.0006  -0.0004   0.00    1.5
2018/03/11 12:28:32.000   78.256422445   16.214742542   425.5379   2   8   0.0004   0.0004   0.0020  -0.0002   0.0006  -0.0004   0.00    1.5
2018/03/11 12:28:33.000   78.256422446   16.214742537   425.5378   2   8   0.0004   0.0004   0.0020  -0.0002   0.0006  -0.0004   0.00    1.6
2018/03/11 12:28:34.000   78.256422447   16.214742532   425.5377   2   8   0.0004   0.0004   0.0020  -0.0002   0.0006  -0.0004   0.00    1.7
2018/03/11 12:28:35.000   78.256422448   16.214742527   425.5376   2   8   0.0004   0.0004   0.0020  -0.0002   0.0006  -0.0004   0.00    1.8
2018/03/11 12:28:36.000   78.256422449   16.214742522   425.5374   2   8   0.0004   0.0004   0.0020  -0.0002   0.0006  -0.0004   0.00    1.0
2018/03/11 12:28:37.000   78.256422450   16.214742517   425.5372   2   8   0.0004   0.0004   0.0020  -0.0002   0.0006  -0.0004   0.00    1.1
2018/03/11 12:28:38.000   78.256422451   16.214742512   425.5370   2   8   0.0004   0.0004   0.0020  -0.0002   0.0006  -0.0004   0.00    1.0
2018/03/11 12:28:39.000   78.256422452   16.214742508   425.5369   2   8   0.0004   0.0004   0.0020  -0.0002   0.0006  -0.0004   0.00    1.1
2018/03/11 12:28:40.000   78.256422453   16.214742503   425.5368   2   8   0.0004   0.0004   0.0020  -0.0002   0.0006  -0.0004   0.00    1.1
2018/03/11 12:28:41.000   78.256422454   16.214742498   425.5367   2   8   0.0004   0.0004   0.0020  -0.0002   0.0006  -0.0004   0.00    1.1
2018/03/11 12:28:42.000   78.256422455   16.214742494   425.5366   2   8   0.0004   0.0004   0.0020  -0.0002   0.0006  -0.0004   0.00    1.0
2018/03/11 12:28:43.000   78.256422456   16.214742489   425.5365   2   8   0.0004   0.0004   0.0020  -0.0002   0.0006  -0.0004   0.00    1.0
2018/03/11 12:28:44.000   78.256422457   16.214742484   425.5363   2   8   0.0004   0.0004   0.0020  -0.0002   0.0006  -0.0004   0.00    1.0
2018/03/11 12:28:45.000   78.256422458   16.214742480   425.5362   2   8   0.0004   0.0004   0.0020  -0.0002   0.0006  -0.0004   0.00    1.1
2018/03/11 12:28:46.000   78.256422459   16.214742476   425.5362   2   8   0.0004   0.0004   0.0020  -0.0002   0.0006  -0.0004   0.00    1.0
2018/03/11 12:28:47.000   78.256422460   16.214742472   425.5361   2   8   0.0004   0.0004   0.0019  -0.0002   0.0006  -0.0004   0.00    1.0
2018/03/11 12:28:48.000   78.256422461   16.214742468   425.5359   2   8   0.0004   0.0004   0.0019  -0.0002   0.0006  -0.0004   0.00    1.0
2018/03/11 12:28:49.000   78.256422462   16.214742464   425.5358   2   8   0.0004   0.0004   0.0019  -0.0002   0.0006  -0.0004   0.00    1.1
2018/03/11 12:28:50.000   78.256422462   16.214742460   425.5357   2   8   0.0004   0.0004   0.0019  -0.0002   0.0006  -0.0004   0.00    1.0
2018/03/11 12:28:51.000   78.256422463   16.214742456   425.5357   2   8   0.0004   0.0004   0.0019  -0.0002   0.0006  -0.0004   0.00    1.0
2018/03/11 12:28:52.000   78.256422464   16.214742451   425.5355   2   8   0.0004   0.0004   0.0019  -0.0002   0.0006  -0.0004   0.00    1.0
2018/03/11 12:28:53.000   78.256422465   16.214742446   425.5352   2   8   0.0004   0.0004   0.0019  -0.0002   0.0006  -0.0004   0.00    1.0
2018/03/11 12:28:54.000   78.256422466   16.214742441   425.5351   2   8   0.0004   0.0004   0.0019  -0.0002   0.0006  -0.0004   0.00    1.1
2018/03/11 12:28:55.000   78.256422467   16.214742437   425.5349   2   8   0.0004   0.0004   0.0019  -0.0002   0.0006  -0.0004   0.00    1.1
2018/03/11 12:28:56.000   78.256422468   16.214742432   425.5347   2   8   0.0004   0.0004   0.0019  -0.0002   0.0006  -0.0004   0.00    1.0
2018/03/11 12:28:57.000   78.256422469   16.214742427   425.5346   2   8   0.0004   0.0004   0.0019  -0.0002   0.0006  -0.0004   0.00    1.1
2018/03/11 12:28:58.000   78.256422470   16.214742423   425.5344   2   8   0.0004   0.0004   0.0019  -0.0002   0.0006  -0.0004   0.00    1.1
2018/03/11 12:28:59.000   78.256422472   16.214742419   425.5342   2   8   0.0004   0.0004   0.0019  -0.0002   0.0006  -0.0004   0.00    1.0
2018/03/11 12:29:00.000   78.256422473   16.214742415   425.5340   2   8   0.0004   0.0004   0.0019  -0.0002   0.0006  -0.0004   0.00    1.0
2018/03/11 12:29:01.000   78.256422474   16.214742411   425.5338   2   8   0.0004   0.0004   0.0019  -0.0002   0.0006  -0.0004   0.00    1.0
2018/03/11 12:29:02.000   78.256422475   16.214742408   425.5336   2   8   0.0004   0.0004   0.0019  -0.0002   0.0006  -0.0004   0.00    1.1
2018/03/11 12:29:03.000   78.256422476   16.214742404   425.5334   2   8   0.0004   0.0004   0.0019  -0.0002   0.0006  -0.0004   0.00    1.1
2018/03/11 12:29:04.000   78.256422477   16.214742400   425.5331   2   8   0.0004   0.0004   0.0019  -0.0002   0.0006  -0.0004   0.00    1.1
2018/03/11 12:29:05.000   78.256422478   16.214742395   425.5329   2   8   0.0004   0.0004   0.0019  -0.0002   0.0006  -0.0004   0.00    1.1
2018/03/11 12:29:06.000   78.256422479   16.214742391   425.5327   2   8   0.0004   0.0004   0.0019  -0.0002   0.0006  -0.0004   0.00    1.1
2018/03/11 12:29:07.000   78.256422480   16.214742387   425.5325   2   8   0.0004   0.0004   0.0019  -0.0002   0.0006  -0.0004   0.00    1.1
2018/03/11 12:29:08.000   78.256422481   16.214742383   425.5322   2   8   0.0004   0.0004   0.0019  -0.0002   0.0006  -0.0004   0.00    1.1
2018/03/11 12:29:09.000   78.256422482   16.214742379   425.5320   2   8   0.0004   0.0004   0.0019  -0.0002   0.0006  -0.0004   0.00    1.0
2018/03/11 12:29:10.000   78.256422482   16.214742376   425.5318   2   8   0.0004   0.0004   0.0019  -0.0002   0.0006  -0.0004   0.00    1.0
2018/03/11 12:29:11.000   78.256422483   16.214742372   425.5316   2   8   0.0004   0.0004   0.0019  -0.0002   0.0006  -0.0004   0.00    1.1
2018/03/11 12:29:12.000   78.256422484   16.214742368   425.5314   2   8   0.0004   0.0004   0.0019  -0.0002   0.0006  -0.0004   0.00    1.1
2018/03/11 12:29:13.000   78.256422485   16.214742365   425.5311   2   8   0.0004   0.0004   0.0019  -0.0002   0.0006  -0.0004   0.00    1.1
2018/03/11 12:29:14.000   78.256422486   16.214742361   425.5309   2   8   0.0004   0.0004   0.0019  -0.0002   0.0006  -0.0004   0.00    1.1
2018/03/11 12:29:15.000   78.256422487   16.214742357   425.5307   2   8   0.0004   0.0004   0.0019  -0.0002   0.0006  -0.0004   0.00    1.1
2018/03/11 12:29:16.000   78.256422488   16.214742353   425.5304   2   8   0.0004   0.0004   0.0019  -0.0002   0.0006  -0.0004   0.00    1.1
2018/03/11 12:29:17.000   78.256422489   16.214742350   425.5302   2   8   0.0004   0.0004   0.0019  -0.0002   0.0006  -0.0004   0.00    1.1
2018/03/11 12:29:18.000   78.256422491   16.214742346   425.5300   2   8   0.0004   0.0004   0.0019  -0.0002   0.0006  -0.0004   0.00    1.1
2018/03/11 12:29:19.000   78.256422491   16.214742343   425.5298   2   8   0.0004   0.0004   0.0019  -0.0002   0.0006  -0.0004   0.00    1.0
2018/03/11 12:29:20.000   78.256422492   16.214742340   425.5295   2   8   0.0004   0.0004   0.0019  -0.0002   0.0006  -0.0004   0.00    1.1
2018/03/11 12:29:21.000   78.256422493   16.214742337   425.5294   2   8   0.0004   0.0004   0.0019  -0.0002   0.0006  -0.0004   0.00    1.1
2018/03/11 12:29:22.000   78.256422494   16.214742334   425.5292   2   8   0.0004   0.0004   0.0019  -0.0002   0.0006  -0.0004   0.00    1.1
2018/03/11 12:29:23.000   78.256422495   16.214742332   425.5290   2   7   0.0004   0.0004   0.0019  -0.0002   0.0006  -0.0004   0.00    1.1
2018/03/11 12:29:24.000   78.256422496   16.214742329   425.5288   2   7   0.0004   0.0004   0.0019  -0.0002   0.0006  -0.0004   0.00    1.1
2018/03/11 12:29:25.000   78.256422497   16.214742327   425.5286   2   7   0.0004   0.0004   0.0019  -0.0002   0.0006  -0.0004   0.00    1.1
2018/03/11 12:29:26.000   78.256422497   16.214742324   425.5284   2   7   0.0004   0.0004   0.0019  -0.0002   0.0006  -0.0004   0.00    1.1
2018/03/11 12:29:27.000   78.256422498   16.214742323   425.5283   2   7   0.0004   0.0004   0.0019  -0.0002   0.0006  -0.0004   0.00    1.1
2018/03/11 12:29:28.000   78.256422500   16.214742260   425.5301   1   7   0.0003   0.0003   0.0015  -0.0001   0.0004  -0.0003   0.00  115.7
2018/03/11 12:29:29.000   78.256422501   16.214742257   425.5300   1   7   0.0003   0.0003   0.0015  -0.0001   0.0004  -0.0003   0.00  116.3
2018/03/11 12:29:30.000   78.256422502   16.214742255   425.5299   1   7   0.0003   0.0003   0.0015  -0.0001   0.0004  -0.0003   0.00  116.7
2018/03/11 12:29:31.000   78.256422503   16.214742252   425.5299   1   7   0.0003   0.0003   0.0015  -0.0001   0.0004  -0.0003   0.00  116.6
2018/03/11 12:29:32.000   78.256422504   16.214742250   425.5299   1   7   0.0003   0.0003   0.0015  -0.0001   0.0004  -0.0002   0.00  116.8
2018/03/11 12:29:33.000   78.256422505   16.214742247   425.5298   1   7   0.0003   0.0003   0.0015  -0.0001   0.0004  -0.0002   0.00  117.2
2018/03/11 12:29:34.000   78.256422505   16.214742245   425.5298   1   7   0.0003   0.0003   0.0015  -0.0001   0.0004  -0.0002   0.00  117.6
2018/03/11 12:29:35.000   78.256422506   16.214742243   425.5296   1   7   0.0003   0.0003   0.0015  -0.0001   0.0004  -0.0002   0.00  117.8
2018/03/11 12:29:36.000   78.256422507   16.214742240   425.5295   1   7   0.0003   0.0003   0.0015  -0.0001   0.0004  -0.0002   0.00  117.7
2018/03/11 12:29:37.000   78.256422507   16.214742238   425.5295   1   7   0.0003   0.0003   0.0015  -0.0001   0.0004  -0.0002   0.00  117.9
2018/03/11 12:29:38.000   78.256422508   16.214742236   425.5294   1   7   0.0003   0.0003   0.0015  -0.0001   0.0004  -0.0002   0.00  119.5
2018/03/11 12:29:39.000   78.256422509   16.214742234   425.5293   1   7   0.0003   0.0003   0.0015  -0.0001   0.0004  -0.0002   0.00  121.4
2018/03/11 12:29:40.000   78.256422509   16.214742231   425.5292   1   7   0.0003   0.0003   0.0015  -0.0001   0.0004  -0.0002   0.00  123.0
2018/03/11 12:29:41.000   78.256422510   16.214742229   425.5291   1   7   0.0003   0.0003   0.0015  -0.0001   0.0004  -0.0002   0.00  124.4
2018/03/11 12:29:42.000   78.256422511   16.214742227   425.5289   1   7   0.0003   0.0003   0.0015  -0.0001   0.0004  -0.0002   0.00  126.0
2018/03/11 12:29:43.000   78.256422512   16.214742224   425.5288   1   7   0.0003   0.0003   0.0015  -0.0001   0.0004  -0.0002   0.00  127.7
2018/03/11 12:29:44.000   78.256422512   16.214742222   425.5287   1   7   0.0003   0.0003   0.0015  -0.0001   0.0004  -0.0002   0.00  129.5
2018/03/11 12:29:45.000   78.256422513   16.214742220   425.5286   1   7   0.0003   0.0003   0.0015  -0.0001   0.0004  -0.0002   0.00  130.9
2018/03/11 12:29:46.000   78.256422514   16.214742218   425.5285   1   7   0.0003   0.0003   0.0015  -0.0001   0.0004  -0.0002   0.00  132.5
2018/03/11 12:29:47.000   78.256422514   16.214742216   425.5283   1   7   0.0003   0.0003   0.0015  -0.0001   0.0004  -0.0002   0.00  134.6
2018/03/11 12:29:48.000   78.256422515   16.214742213   425.5282   1   7   0.0003   0.0003   0.0015  -0.0001   0.0004  -0.0002   0.00  136.7
2018/03/11 12:29:49.000   78.256422515   16.214742211   425.5282   1   7   0.0003   0.0003   0.0015  -0.0001   0.0004  -0.0002   0.00  138.7
2018/03/11 12:29:50.000   78.256422516   16.214742209   425.5280   1   7   0.0003   0.0003   0.0015  -0.0001   0.0004  -0.0002   0.00  140.4
2018/03/11 12:29:51.000   78.256422516   16.214742207   425.5279   1   7   0.0003   0.0003   0.0015  -0.0001   0.0004  -0.0002   0.00  142.4
2018/03/11 12:29:52.000   78.256422517   16.214742205   425.5278   1   7   0.0003   0.0003   0.0015  -0.0001   0.0004  -0.0002   0.00  144.7
2018/03/11 12:29:53.000   78.256422517   16.214742203   425.5277   1   7   0.0003   0.0003   0.0015  -0.0001   0.0004  -0.0002   0.00  147.2
2018/03/11 12:29:54.000   78.256422518   16.214742201   425.5276   1   7   0.0003   0.0003   0.0015  -0.0001   0.0004  -0.0002   0.00  149.4
2018/03/11 12:29:55.000   78.256422518   16.214742199   425.5275   1   7   0.0003   0.0003   0.0015  -0.0001   0.0004  -0.0002   0.00  151.2
2018/03/11 12:29:56.000   78.256422519   16.214742196   425.5274   1   7   0.0003   0.0003   0.0015  -0.0001   0.0004  -0.0002   0.00  153.2
2018/03/11 12:29:57.000   78.256422519   16.214742194   425.5274   1   7   0.0003   0.0003   0.0015  -0.0001   0.0004  -0.0002   0.00  155.6
2018/03/11 12:29:58.000   78.256422519   16.214742192   425.5272   1   7   0.0003   0.0003   0.0015  -0.0001   0.0004  -0.0002   0.00  158.1
2018/03/11 12:29:59.000   78.256422520   16.214742189   425.5270   1   7   0.0003   0.0003   0.0015  -0.0001   0.0004  -0.0002   0.00  159.9
2018/03/11 12:30:00.000   78.256422521   16.214742187   425.5270   1   7   0.0003   0.0003   0.0015  -0.0001   0.0004  -0.0002   0.00  161.8
2018/03/11 12:30:01.000   78.256422521   16.214742184   425.5269   1   7   0.0003   0.0003   0.0015  -0.0001   0.0004  -0.0002   0.00  164.2
2018/03/11 12:30:02.000   78.256422522   16.214742182   425.5268   1   7   0.0003   0.0003   0.0015  -0.0001   0.0004  -0.0002   0.00  166.8
2018/03/11 12:30:03.000   78.256422522   16.214742179   425.5267   1   7   0.0003   0.0003   0.0015  -0.0001   0.0004  -0.0002   0.00  169.3
2018/03/11 12:30:04.000   78.256422523   16.214742177   425.5265   1   7   0.0003   0.0003   0.0015  -0.0001   0.0004  -0.0002   0.00  171.7
2018/03/11 12:30:05.000   78.256422523   16.214742174   425.5265   1   7   0.0003   0.0003   0.0015  -0.0001   0.0004  -0.0002   0.00  174.0
2018/03/11 12:30:06.000   78.256422524   16.214742172   425.5263   1   7   0.0003   0.0003   0.0015  -0.0001   0.0004  -0.0002   0.00  176.4
2018/03/11 12:30:07.000   78.256422524   16.214742169   425.5263   1   7   0.0003   0.0003   0.0015  -0.0001   0.0004  -0.0002   0.00  178.9
2018/03/11 12:30:08.000   78.256422525   16.214742166   425.5262   1   7   0.0003   0.0003   0.0015  -0.0001   0.0004  -0.0002   0.00  181.8
2018/03/11 12:30:09.000   78.256422525   16.214742164   425.5261   1   7   0.0003   0.0003   0.0015  -0.0001   0.0004  -0.0002   0.00  184.6
2018/03/11 12:30:10.000   78.256422526   16.214742162   425.5261   1   7   0.0003   0.0003   0.0015  -0.0001   0.0004  -0.0002   0.00  187.3
2018/03/11 12:30:11.000   78.256422526   16.214742159   425.5261   1   7   0.0003   0.0003   0.0015  -0.0001   0.0004  -0.0002   0.00  189.9
2018/03/11 12:30:12.000   78.256422527   16.214742155   425.5260   1   7   0.0003   0.0003   0.0015  -0.0001   0.0004  -0.0002   0.00  192.6
2018/03/11 12:30:13.000   78.256422528   16.214742152   425.5260   1   7   0.0003   0.0003   0.0014  -0.0001   0.0004  -0.0002   0.00  195.7
2018/03/11 12:30:14.000   78.256422528   16.214742149   425.5260   1   7   0.0003   0.0003   0.0014  -0.0001   0.0004  -0.0002   0.00  198.6
2018/03/11 12:30:15.000   78.256422529   16.214742146   425.5259   1   7   0.0003   0.0003   0.0014  -0.0001   0.0004  -0.0002   0.00  201.1
2018/03/11 12:30:16.000   78.256422530   16.214742143   425.5259   1   7   0.0003   0.0003   0.0014  -0.0001   0.0004  -0.0002   0.00  204.0
2018/03/11 12:30:17.000   78.256422530   16.214742139   425.5259   1   7   0.0003   0.0003   0.0014  -0.0001   0.0004  -0.0002   0.00  206.8
2018/03/11 12:30:18.000   78.256422531   16.214742136   425.5259   1   7   0.0003   0.0003   0.0014  -0.0001   0.0004  -0.0002   0.00  209.7
2018/03/11 12:30:19.000   78.256422532   16.214742133   425.5258   1   7   0.0003   0.0003   0.0014  -0.0001   0.0004  -0.0002   0.00  213.0
2018/03/11 12:30:20.000   78.256422532   16.214742130   425.5258   1   7   0.0003   0.0003   0.0014  -0.0001   0.0004  -0.0002   0.00  216.3
2018/03/11 12:30:21.000   78.256422533   16.214742128   425.5258   1   7   0.0003   0.0003   0.0014  -0.0001   0.0004  -0.0002   0.00  219.6
2018/03/11 12:30:22.000   78.256422534   16.214742125   425.5258   1   7   0.0003   0.0003   0.0014  -0.0001   0.0004  -0.0002   0.00  223.4
2018/03/11 12:30:23.000   78.256422534   16.214742122   425.5257   1   7   0.0003   0.0003   0.0014  -0.0001   0.0004  -0.0002   0.00  227.8
2018/03/11 12:30:24.000   78.256422535   16.214742119   425.5257   1   7   0.0003   0.0003   0.0014  -0.0001   0.0004  -0.0002   0.00  231.4
2018/03/11 12:30:25.000   78.256422535   16.214742117   425.5257   1   7   0.0003   0.0003   0.0014  -0.0001   0.0004  -0.0002   0.00  234.7
2018/03/11 12:30:26.000   78.256422536   16.214742114   425.5257   1   7   0.0003   0.0003   0.0014  -0.0001   0.0004  -0.0002   0.00  238.5
2018/03/11 12:30:27.000   78.256422537   16.214742111   425.5256   1   7   0.0003   0.0003   0.0014  -0.0001   0.0004  -0.0002   0.00  242.7
2018/03/11 12:30:28.000   78.256422537   16.214742108   425.5256   1   7   0.0003   0.0003   0.0014  -0.0001   0.0004  -0.0002   0.00  247.2
2018/03/11 12:30:29.000   78.256422538   16.214742105   425.5257   1   7   0.0003   0.0003   0.0014  -0.0001   0.0004  -0.0002   0.00  250.2
2018/03/11 12:30:30.000   78.256422539   16.214742103   425.5256   1   7   0.0003   0.0003   0.0014  -0.0001   0.0004  -0.0002   0.00  253.4
2018/03/11 12:30:31.000   78.256422539   16.214742101   425.5257   1   7   0.0003   0.0003   0.0014  -0.0001   0.0004  -0.0002   0.00  257.5
2018/03/11 12:30:32.000   78.256422540   16.214742098   425.5256   1   7   0.0003   0.0003   0.0014  -0.0001   0.0004  -0.0002   0.00  262.5
2018/03/11 12:30:33.000   78.256422540   16.214742096   425.5256   1   7   0.0003   0.0002   0.0014  -0.0001   0.0004  -0.0002   0.00  267.4
2018/03/11 12:30:34.000   78.256422541   16.214742094   425.5256   1   7   0.0003   0.0002   0.0014  -0.0001   0.0004  -0.0002   0.00  271.3
2018/03/11 12:30:35.000   78.256422542   16.214742092   425.5257   1   7   0.0003   0.0002   0.0014  -0.0001   0.0004  -0.0002   0.00  274.5
2018/03/11 12:30:36.000   78.256422542   16.214742090   425.5257   1   7   0.0003   0.0002   0.0014  -0.0001   0.0004  -0.0002   0.00  278.5
2018/03/11 12:30:37.000   78.256422543   16.214742088   425.5257   1   7   0.0003   0.0002   0.0014  -0.0001   0.0004  -0.0002   0.00  284.3
2018/03/11 12:30:38.000   78.256422543   16.214742085   425.5257   1   7   0.0003   0.0002   0.0014  -0.0001   0.0004  -0.0002   0.00  290.1
2018/03/11 12:30:39.000   78.256422543   16.214742083   425.5257   1   7   0.0003   0.0002   0.0014  -0.0001   0.0004  -0.0002   0.00  296.1
2018/03/11 12:30:40.000   78.256422544   16.214742081   425.5258   1   7   0.0003   0.0002   0.0014  -0.0001   0.0004  -0.0002   0.00  297.2
2018/03/11 12:30:41.000   78.256422545   16.214742080   425.5259   1   7   0.0003   0.0002   0.0014  -0.0001   0.0004  -0.0002   0.00  300.3
2018/03/11 12:30:42.000   78.256422545   16.214742078   425.5259   1   7   0.0003   0.0002   0.0014  -0.0001   0.0004  -0.0002   0.00  305.3
2018/03/11 12:30:43.000   78.256422545   16.214742076   425.5259   1   7   0.0003   0.0002   0.0014  -0.0001   0.0004  -0.0002   0.00  312.0
2018/03/11 12:30:44.000   78.256422546   16.214742074   425.5259   1   7   0.0003   0.0002   0.0014  -0.0001   0.0004  -0.0002   0.00  317.5
2018/03/11 12:30:45.000   78.256422547   16.214742073   425.5260   1   7   0.0003   0.0002   0.0014  -0.0001   0.0004  -0.0002   0.00  318.1
2018/03/11 12:30:46.000   78.256422547   16.214742071   425.5260   1   7   0.0003   0.0002   0.0014  -0.0001   0.0004  -0.0002   0.00  321.4
2018/03/11 12:30:47.000   78.256422548   16.214742069   425.5260   1   7   0.0003   0.0002   0.0014  -0.0001   0.0004  -0.0002   0.00  326.5
2018/03/11 12:30:48.000   78.256422548   16.214742067   425.5260   1   7   0.0003   0.0002   0.0014  -0.0001   0.0004  -0.0002   0.00  333.1
2018/03/11 12:30:49.000   78.256422548   16.214742066   425.5260   1   7   0.0003   0.0002   0.0014  -0.0001   0.0004  -0.0002   0.00  337.7
2018/03/11 12:30:50.000   78.256422549   16.214742064   425.5261   1   7   0.0003   0.0002   0.0014  -0.0001   0.0004  -0.0002   0.00  338.3
2018/03/11 12:30:51.000   78.256422550   16.214742063   425.5262   1   7   0.0003   0.0002   0.0014  -0.0001   0.0004  -0.0002   0.00  341.2
2018/03/11 12:30:52.000   78.256422550   16.214742062   425.5262   1   7   0.0003   0.0002   0.0014  -0.0001   0.0004  -0.0002   0.00  346.2
2018/03/11 12:30:53.000   78.256422550   16.214742060   425.5261   1   7   0.0003   0.0002   0.0014  -0.0001   0.0004  -0.0002   0.00  351.5
2018/03/11 12:30:54.000   78.256422550   16.214742058   425.5260   1   7   0.0003   0.0002   0.0014  -0.0001   0.0004  -0.0002   0.00  358.1
2018/03/11 12:30:55.000   78.256422551   16.214742057   425.5261   1   7   0.0003   0.0002   0.0014  -0.0001   0.0004  -0.0002   0.00  358.7
2018/03/11 12:30:56.000   78.256422552   16.214742055   425.5261   1   7   0.0003   0.0002   0.0014  -0.0001   0.0004  -0.0002   0.00  360.3
2018/03/11 12:30:57.000   78.256422552   16.214742054   425.5261   1   7   0.0003   0.0002   0.0014  -0.0001   0.0004  -0.0002   0.00  365.0
2018/03/11 12:30:58.000   78.256422553   16.214742051   425.5260   1   7   0.0003   0.0002   0.0014  -0.0001   0.0004  -0.0002   0.00  371.7
2018/03/11 12:30:59.000   78.256422553   16.214742049   425.5260   1   7   0.0003   0.0002   0.0014  -0.0001   0.0004  -0.0002   0.00  377.3
2018/03/11 12:31:00.000   78.256422554   16.214742048   425.5261   1   7   0.0003   0.0002   0.0014  -0.0001   0.0004  -0.0002   0.00  376.5
2018/03/11 12:31:01.000   78.256422555   16.214742046   425.5261   1   7   0.0003   0.0002   0.0014  -0.0001   0.0004  -0.0002   0.00  377.7
2018/03/11 12:31:02.000   78.256422555   16.214742044   425.5261   1   7   0.0003   0.0002   0.0014  -0.0001   0.0004  -0.0002   0.00  382.3
2018/03/11 12:31:03.000   78.256422555   16.214742042   425.5260   1   7   0.0003   0.0002   0.0014  -0.0001   0.0004  -0.0002   0.00  387.4
2018/03/11 12:31:04.000   78.256422556   16.214742040   425.5260   1   7   0.0003   0.0002   0.0014  -0.0001   0.0004  -0.0002   0.00  391.0
2018/03/11 12:31:05.000   78.256422557   16.214742039   425.5260   1   7   0.0003   0.0002   0.0014  -0.0001   0.0004  -0.0002   0.00  390.1
2018/03/11 12:31:06.000   78.256422557   16.214742037   425.5260   1   7   0.0003   0.0002   0.0014  -0.0001   0.0004  -0.0002   0.00  390.7
2018/03/11 12:31:07.000   78.256422558   16.214742035   425.5260   1   7   0.0003   0.0002   0.0014  -0.0001   0.0004  -0.0002   0.00  392.9
2018/03/11 12:31:08.000   78.256422558   16.214742033   425.5259   1   7   0.0003   0.0002   0.0014  -0.0001   0.0004  -0.0002   0.00  397.0
2018/03/11 12:31:09.000   78.256422559   16.214742031   425.5258   1   7   0.0003   0.0002   0.0014  -0.0001   0.0004  -0.0002   0.00  400.0
2018/03/11 12:31:10.000   78.256422560   16.214742029   425.5259   1   7   0.0003   0.0002   0.0014  -0.0001   0.0004  -0.0002   0.00  399.0
2018/03/11 12:31:11.000   78.256422560   16.214742027   425.5259   1   7   0.0003   0.0002   0.0014  -0.0001   0.0004  -0.0002   0.00  398.1
2018/03/11 12:31:12.000   78.256422561   16.214742024   425.5258   1   7   0.0003   0.0002   0.0014  -0.0001   0.0004  -0.0002   0.00  399.4
2018/03/11 12:31:13.000   78.256422561   16.214742022   425.5258   1   7   0.0003   0.0002   0.0014  -0.0001   0.0004  -0.0002   0.00  402.1
2018/03/11 12:31:14.000   78.256422562   16.214742020   425.5258   1   7   0.0003   0.0002   0.0014  -0.0001   0.0004  -0.0002   0.00  403.0
2018/03/11 12:31:15.000   78.256422562   16.214742019   425.5258   1   7   0.0003   0.0002   0.0014  -0.0001   0.0004  -0.0002   0.00  401.2
2018/03/11 12:31:16.000   78.256422563   16.214742017   425.5258   1   7   0.0003   0.0002   0.0014  -0.0001   0.0004  -0.0002   0.00  399.7
2018/03/11 12:31:17.000   78.256422564   16.214742015   425.5258   1   7   0.0003   0.0002   0.0014  -0.0001   0.0004  -0.0002   0.00  400.0
2018/03/11 12:31:18.000   78.256422564   16.214742012   425.5258   1   7   0.0003   0.0002   0.0014  -0.0001   0.0004  -0.0002   0.00  401.0
2018/03/11 12:31:19.000   78.256422565   16.214742010   425.5257   1   7   0.0003   0.0002   0.0014  -0.0001   0.0004  -0.0002   0.00  401.4
2018/03/11 12:31:20.000   78.256422565   16.214742008   425.5257   1   7   0.0003   0.0002   0.0014  -0.0001   0.0004  -0.0002   0.00  400.5
2018/03/11 12:31:21.000   78.256422566   16.214742006   425.5257   1   7   0.0003   0.0002   0.0014  -0.0001   0.0004  -0.0002   0.00  399.2
2018/03/11 12:31:22.000   78.256422566   16.214742003   425.5257   1   7   0.0003   0.0002   0.0014  -0.0001   0.0004  -0.0002   0.00  398.4
2018/03/11 12:31:23.000   78.256422567   16.214742000   425.5257   1   7   0.0003   0.0002   0.0014  -0.0001   0.0004  -0.0002   0.00  398.6
2018/03/11 12:31:24.000   78.256422568   16.214741998   425.5256   1   7   0.0003   0.0002   0.0014  -0.0001   0.0004  -0.0002   0.00  398.4
2018/03/11 12:31:25.000   78.256422568   16.214741996   425.5256   1   7   0.0003   0.0002   0.0014  -0.0001   0.0004  -0.0002   0.00  397.4
2018/03/11 12:31:26.000   78.256422569   16.214741993   425.5256   1   7   0.0003   0.0002   0.0014  -0.0001   0.0004  -0.0002   0.00  395.9
2018/03/11 12:31:27.000   78.256422569   16.214741990   425.5256   1   7   0.0003   0.0002   0.0014  -0.0001   0.0004  -0.0002   0.00  394.1
2018/03/11 12:31:28.000   78.256422570   16.214741987   425.5256   1   7   0.0003   0.0002   0.0014  -0.0001   0.0004  -0.0002   0.00  392.0
2018/03/11 12:31:29.000   78.256422571   16.214741985   425.5256   1   7   0.0003   0.0002   0.0014  -0.0001   0.0004  -0.0002   0.00  390.0
2018/03/11 12:31:30.000   78.256422572   16.214741982   425.5255   1   7   0.0003   0.0002   0.0014  -0.0001   0.0004  -0.0002   0.00  387.5
2018/03/11 12:31:31.000   78.256422572   16.214741979   425.5256   1   7   0.0003   0.0002   0.0014  -0.0001   0.0004  -0.0002   0.00  385.5
2018/03/11 12:31:32.000   78.256422573   16.214741975   425.5256   1   7   0.0003   0.0002   0.0014  -0.0001   0.0004  -0.0002   0.00  383.7
2018/03/11 12:31:33.000   78.256422574   16.214741972   425.5255   1   7   0.0003   0.0002   0.0014  -0.0001   0.0004  -0.0002   0.00  382.1
2018/03/11 12:31:34.000   78.256422575   16.214741969   425.5255   1   7   0.0003   0.0002   0.0014  -0.0001   0.0004  -0.0002   0.00  379.7
2018/03/11 12:31:35.000   78.256422575   16.214741966   425.5254   1   7   0.0003   0.0002   0.0014  -0.0001   0.0004  -0.0002   0.00  376.9
2018/03/11 12:31:36.000   78.256422576   16.214741962   425.5255   1   7   0.0003   0.0002   0.0014  -0.0001   0.0004  -0.0002   0.00  374.3
2018/03/11 12:31:37.000   78.256422577   16.214741959   425.5255   1   7   0.0003   0.0002   0.0013  -0.0001   0.0004  -0.0002   0.00  372.4
2018/03/11 12:31:38.000   78.256422577   16.214741955   425.5254   1   7   0.0003   0.0002   0.0013  -0.0001   0.0004  -0.0002   0.00  370.2
2018/03/11 12:31:39.000   78.256422578   16.214741951   425.5253   1   7   0.0003   0.0002   0.0013  -0.0001   0.0004  -0.0002   0.00  367.4
2018/03/11 12:31:40.000   78.256422579   16.214741948   425.5253   1   7   0.0003   0.0002   0.0013  -0.0001   0.0004  -0.0002   0.00  364.0
2018/03/11 12:31:41.000   78.256422580   16.214741944   425.5253   1   7   0.0003   0.0002   0.0013  -0.0001   0.0004  -0.0002   0.00  361.1
2018/03/11 12:31:42.000   78.256422581   16.214741940   425.5252   1   7   0.0003   0.0002   0.0013  -0.0001   0.0004  -0.0002   0.00  358.5
2018/03/11 12:31:43.000   78.256422581   16.214741936   425.5252   1   7   0.0003   0.0002   0.0013  -0.0001   0.0004  -0.0002   0.00  355.9
2018/03/11 12:31:44.000   78.256422582   16.214741933   425.5252   1   7   0.0003   0.0002   0.0013  -0.0001   0.0004  -0.0002   0.00  352.6
2018/03/11 12:31:45.000   78.256422583   16.214741929   425.5252   1   7   0.0003   0.0002   0.0013  -0.0001   0.0004  -0.0002   0.00  348.2
2018/03/11 12:31:46.000   78.256422584   16.214741925   425.5252   1   7   0.0003   0.0002   0.0013  -0.0001   0.0004  -0.0002   0.00  344.3
2018/03/11 12:31:47.000   78.256422585   16.214741920   425.5251   1   7   0.0003   0.0002   0.0013  -0.0001   0.0004  -0.0002   0.00  340.7
2018/03/11 12:31:48.000   78.256422585   16.214741916   425.5251   1   7   0.0003   0.0002   0.0013  -0.0001   0.0004  -0.0002   0.00  337.2
2018/03/11 12:31:49.000   78.256422586   16.214741912   425.5250   1   7   0.0003   0.0002   0.0013  -0.0001   0.0004  -0.0002   0.00  333.6
2018/03/11 12:31:50.000   78.256422587   16.214741908   425.5250   1   7   0.0003   0.0002   0.0013  -0.0001   0.0004  -0.0002   0.00  329.7
2018/03/11 12:31:51.000   78.256422588   16.214741903   425.5250   1   7   0.0003   0.0002   0.0013  -0.0001   0.0004  -0.0002   0.00  326.4
2018/03/11 12:31:52.000   78.256422588   16.214741899   425.5249   1   7   0.0003   0.0002   0.0013  -0.0001   0.0004  -0.0002   0.00  323.9
2018/03/11 12:31:53.000   78.256422589   16.214741895   425.5249   1   7   0.0003   0.0002   0.0013  -0.0001   0.0004  -0.0002   0.00  321.5
2018/03/11 12:31:54.000   78.256422590   16.214741891   425.5248   1   7   0.0003   0.0002   0.0013  -0.0001   0.0004  -0.0002   0.00  319.0
2018/03/11 12:31:55.000   78.256422590   16.214741887   425.5248   1   7   0.0003   0.0002   0.0013  -0.0001   0.0004  -0.0002   0.00  316.2
2018/03/11 12:31:56.000   78.256422591   16.214741884   425.5249   1   7   0.0003   0.0002   0.0013  -0.0001   0.0004  -0.0002   0.00  313.3
2018/03/11 12:31:57.000   78.256422592   16.214741880   425.5248   1   7   0.0003   0.0002   0.0013  -0.0001   0.0004  -0.0002   0.00  310.7
2018/03/11 12:31:58.000   78.256422592   16.214741876   425.5248   1   7   0.0003   0.0002   0.0013  -0.0001   0.0004  -0.0002   0.00  308.4
2018/03/11 12:31:59.000   78.256422593   16.214741873   425.5248   1   7   0.0003   0.0002   0.0013  -0.0001   0.0004  -0.0002   0.00  306.1
2018/03/11 12:32:00.000   78.256422593   16.214741870   425.5248   1   7   0.0003   0.0002   0.0013  -0.0001   0.0004  -0.0002   0.00  303.6
2018/03/11 12:32:01.000   78.256422594   16.214741867   425.5248   1   7   0.0003   0.0002   0.0013  -0.0001   0.0004  -0.0002   0.00  300.9
2018/03/11 12:32:02.000   78.256422594   16.214741864   425.5248   1   7   0.0003   0.0002   0.0013  -0.0001   0.0004  -0.0002   0.00  298.5
