% program   : RTKPOST ver.2.4.2
% inp file  : Z:\home\linda\Documents\Spring18\GitHub_Unis\data\processed_data\46250723.obs
% inp file  : Z:\home\linda\Documents\Spring18\GitHub_Unis\data\base_station_data\lyrs0720.18o
% inp file  : Z:\home\linda\Documents\Spring18\GitHub_Unis\data\processed_data\46250723.nav
% obs start : 2018/03/13 12:56:14.0 GPST (week1992 219374.0s)
% obs end   : 2018/03/13 13:11:18.0 GPST (week1992 220278.0s)
% pos mode  : static
% freqs     : L1+L2
% solution  : forward
% elev mask : 15.0 deg
% dynamics  : on
% tidecorr  : off
% ionos opt : broadcast
% tropo opt : saastamoinen
% ephemeris : broadcast
% navi sys  : gps glonass galileo qzss sbas
% amb res   : fix and hold
% amb glo   : on
% val thres : 3.0
% antenna1  :                       ( 0.0000  0.0000  0.0000)
% antenna2  :                       ( 0.0000  0.0000  0.0000)
% ref pos   : 78.228825638   15.397310064   495.6816
%
% (lat/lon/height=WGS84/ellipsoidal,Q=1:fix,2:float,3:sbas,4:dgps,5:single,6:ppp,ns=# of satellites)
%  GPST                  latitude(deg) longitude(deg)  height(m)   Q  ns   sdn(m)   sde(m)   sdu(m)  sdne(m)  sdeu(m)  sdun(m) age(s)  ratio
2018/03/13 12:56:14.000   78.254769400   16.249375394   344.3257   2   9   0.4161   0.3787   1.5844   0.0499   0.3730   0.4371   0.00    1.1
2018/03/13 12:56:15.000   78.254769829   16.249375393   343.9706   2   9   0.2964   0.2694   1.1272   0.0359   0.2666   0.3125   0.00    1.1
2018/03/13 12:56:16.000   78.254769535   16.249374597   344.2656   2   9   0.2426   0.2204   0.9218   0.0295   0.2183   0.2560   0.00    1.1
2018/03/13 12:56:17.000   78.254768880   16.249376037   344.1341   2   9   0.2103   0.1910   0.7985   0.0255   0.1892   0.2219   0.00    1.2
2018/03/13 12:56:18.000   78.254768939   16.249372795   344.1550   2   9   0.1882   0.1709   0.7138   0.0228   0.1692   0.1985   0.00    1.2
2018/03/13 12:56:19.000   78.254769215   16.249369041   344.0832   2   9   0.1719   0.1561   0.6511   0.0208   0.1543   0.1811   0.00    1.2
2018/03/13 12:56:20.000   78.254769343   16.249366316   344.0497   2   9   0.1591   0.1445   0.6020   0.0192   0.1427   0.1674   0.00    1.2
2018/03/13 12:56:21.000   78.254769359   16.249364187   343.9854   2   9   0.1488   0.1352   0.5622   0.0178   0.1332   0.1564   0.00    1.6
2018/03/13 12:56:22.000   78.254769695   16.249363540   343.8780   2   9   0.1403   0.1274   0.5291   0.0167   0.1254   0.1471   0.00    1.7
2018/03/13 12:56:23.000   78.254769983   16.249363047   343.8565   2   9   0.1331   0.1209   0.5009   0.0157   0.1187   0.1393   0.00    1.6
2018/03/13 12:56:24.000   78.254770013   16.249363658   343.7899   2   9   0.1269   0.1152   0.4765   0.0149   0.1128   0.1324   0.00    1.4
2018/03/13 12:56:25.000   78.254769730   16.249363170   343.6052   2   9   0.1214   0.1103   0.4550   0.0141   0.1077   0.1264   0.00    1.0
2018/03/13 12:56:26.000   78.254769880   16.249361841   343.5627   2   9   0.1166   0.1059   0.4359   0.0134   0.1032   0.1211   0.00    1.3
2018/03/13 12:56:27.000   78.254769589   16.249361974   343.4904   2   9   0.1123   0.1021   0.4188   0.0128   0.0991   0.1163   0.00    1.4
2018/03/13 12:56:28.000   78.254769567   16.249361611   343.4431   2   9   0.1084   0.0986   0.4033   0.0122   0.0954   0.1119   0.00    1.3
2018/03/13 12:56:29.000   78.254769633   16.249360831   343.4278   2   9   0.1049   0.0954   0.3891   0.0116   0.0920   0.1079   0.00    1.0
2018/03/13 12:56:30.000   78.254769593   16.249360197   343.3605   2   9   0.1018   0.0925   0.3761   0.0111   0.0888   0.1043   0.00    1.2
2018/03/13 12:56:31.000   78.254769600   16.249360073   343.3366   2   9   0.0988   0.0899   0.3641   0.0106   0.0860   0.1009   0.00    1.2
2018/03/13 12:56:32.000   78.254769622   16.249359671   343.3229   2   9   0.0961   0.0874   0.3529   0.0102   0.0833   0.0977   0.00    1.2
2018/03/13 12:56:33.000   78.254769622   16.249358915   343.3426   2   9   0.0936   0.0852   0.3426   0.0097   0.0808   0.0947   0.00    1.1
2018/03/13 12:56:34.000   78.254769590   16.249358922   343.3808   2   9   0.0913   0.0831   0.3328   0.0093   0.0784   0.0920   0.00    1.1
2018/03/13 12:56:35.000   78.254769893   16.249358150   343.4386   2   9   0.0891   0.0811   0.3237   0.0089   0.0762   0.0894   0.00    1.1
2018/03/13 12:56:36.000   78.254770049   16.249357661   343.5104   2   9   0.0871   0.0793   0.3151   0.0085   0.0741   0.0869   0.00    1.2
2018/03/13 12:56:37.000   78.254770181   16.249357525   343.5826   2   9   0.0852   0.0776   0.3069   0.0081   0.0722   0.0846   0.00    1.2
2018/03/13 12:56:38.000   78.254770350   16.249357319   343.6860   2   9   0.0834   0.0760   0.2992   0.0078   0.0703   0.0823   0.00    1.2
2018/03/13 12:56:39.000   78.254770585   16.249356895   343.7825   2   9   0.0817   0.0744   0.2918   0.0074   0.0685   0.0802   0.00    1.2
2018/03/13 12:56:40.000   78.254770670   16.249356898   343.8683   2   9   0.0801   0.0730   0.2848   0.0070   0.0668   0.0782   0.00    1.2
2018/03/13 12:56:41.000   78.254770853   16.249356502   343.9587   2   9   0.0786   0.0716   0.2782   0.0067   0.0652   0.0763   0.00    1.1
2018/03/13 12:56:42.000   78.254770997   16.249356004   344.0934   2   9   0.0772   0.0703   0.2718   0.0064   0.0636   0.0744   0.00    1.2
2018/03/13 12:56:43.000   78.254771042   16.249355635   344.1585   2   9   0.0758   0.0691   0.2657   0.0060   0.0622   0.0727   0.00    1.1
2018/03/13 12:56:44.000   78.254771042   16.249355335   344.2405   2   9   0.0745   0.0679   0.2598   0.0057   0.0607   0.0710   0.00    1.1
2018/03/13 12:56:45.000   78.254771096   16.249355116   344.2850   2   9   0.0732   0.0668   0.2542   0.0054   0.0593   0.0693   0.00    1.0
2018/03/13 12:56:46.000   78.254771113   16.249355397   344.3526   2   9   0.0720   0.0657   0.2488   0.0051   0.0580   0.0677   0.00    1.0
2018/03/13 12:56:47.000   78.254771210   16.249355619   344.4109   2   9   0.0709   0.0647   0.2435   0.0048   0.0567   0.0662   0.00    1.1
2018/03/13 12:56:48.000   78.254771401   16.249355839   344.4734   2   9   0.0698   0.0637   0.2385   0.0045   0.0555   0.0647   0.00    1.0
2018/03/13 12:56:49.000   78.254771579   16.249356305   344.5796   2   9   0.0688   0.0628   0.2337   0.0041   0.0543   0.0633   0.00    1.0
2018/03/13 12:56:50.000   78.254771793   16.249356592   344.7456   2   9   0.0677   0.0619   0.2290   0.0038   0.0532   0.0619   0.00    1.1
2018/03/13 12:56:51.000   78.254772004   16.249357132   344.9175   2   9   0.0668   0.0610   0.2244   0.0035   0.0521   0.0606   0.00    1.1
2018/03/13 12:56:52.000   78.254772181   16.249357996   345.1038   2   9   0.0658   0.0602   0.2201   0.0032   0.0510   0.0593   0.00    1.0
2018/03/13 12:56:53.000   78.254772404   16.249358888   345.2856   2   9   0.0649   0.0594   0.2158   0.0028   0.0499   0.0581   0.00    1.0
2018/03/13 12:56:54.000   78.254772645   16.249359531   345.4616   2   9   0.0641   0.0586   0.2117   0.0025   0.0489   0.0568   0.00    1.0
2018/03/13 12:56:55.000   78.254772835   16.249359989   345.6057   2   9   0.0632   0.0578   0.2077   0.0021   0.0479   0.0557   0.00    1.0
2018/03/13 12:56:56.000   78.254773071   16.249360220   345.7173   2   9   0.0624   0.0571   0.2038   0.0017   0.0470   0.0545   0.00    1.0
2018/03/13 12:56:57.000   78.254773270   16.249360218   345.8188   2   9   0.0616   0.0564   0.2001   0.0012   0.0461   0.0534   0.00    1.0
2018/03/13 12:56:58.000   78.254773466   16.249360240   345.9062   2   9   0.0609   0.0557   0.1964   0.0001   0.0451   0.0523   0.00    1.1
2018/03/13 12:56:59.000   78.254773646   16.249360207   345.9857   2   9   0.0601   0.0551   0.1929  -0.0011   0.0443   0.0512   0.00    1.1
2018/03/13 12:57:00.000   78.254773817   16.249360373   346.0729   2   9   0.0594   0.0544   0.1895  -0.0015   0.0434   0.0502   0.00    1.1
2018/03/13 12:57:01.000   78.254774003   16.249360447   346.1463   2   9   0.0587   0.0538   0.1861  -0.0019   0.0426   0.0492   0.00    1.1
2018/03/13 12:57:02.000   78.254774176   16.249360311   346.2152   2   9   0.0580   0.0532   0.1829  -0.0021   0.0418   0.0482   0.00    1.0
2018/03/13 12:57:03.000   78.254774338   16.249360152   346.2647   2   9   0.0574   0.0526   0.1797  -0.0023   0.0410   0.0473   0.00    1.0
2018/03/13 12:57:04.000   78.254774458   16.249360092   346.3266   2   9   0.0568   0.0520   0.1766  -0.0024   0.0402   0.0463   0.00    1.0
2018/03/13 12:57:05.000   78.254774514   16.249359685   346.3504   2   9   0.0561   0.0515   0.1736  -0.0026   0.0395   0.0454   0.00    1.0
2018/03/13 12:57:06.000   78.254774497   16.249359356   346.3266   2   9   0.0555   0.0509   0.1707  -0.0027   0.0387   0.0445   0.00    1.0
2018/03/13 12:57:07.000   78.254774432   16.249359114   346.3078   2   9   0.0549   0.0504   0.1678  -0.0028   0.0380   0.0437   0.00    1.1
2018/03/13 12:57:08.000   78.254774364   16.249358617   346.2934   2   9   0.0544   0.0499   0.1651  -0.0029   0.0373   0.0428   0.00    1.1
2018/03/13 12:57:09.000   78.254774207   16.249358187   346.2458   2   9   0.0538   0.0494   0.1623  -0.0029   0.0367   0.0420   0.00    1.1
2018/03/13 12:57:10.000   78.254774153   16.249357841   346.1909   2   9   0.0533   0.0489   0.1597  -0.0030   0.0360   0.0412   0.00    1.1
2018/03/13 12:57:11.000   78.254774136   16.249357248   346.1631   2   9   0.0527   0.0485   0.1571  -0.0030   0.0353   0.0404   0.00    1.0
2018/03/13 12:57:12.000   78.254774097   16.249356941   346.1295   2   9   0.0522   0.0480   0.1546  -0.0031   0.0347   0.0396   0.00    1.0
2018/03/13 12:57:13.000   78.254774072   16.249356964   346.1391   2   9   0.0517   0.0475   0.1522  -0.0031   0.0341   0.0389   0.00    1.0
2018/03/13 12:57:14.000   78.254774072   16.249356994   346.1657   2   9   0.0512   0.0471   0.1498  -0.0031   0.0335   0.0381   0.00    1.0
2018/03/13 12:57:15.000   78.254774099   16.249356730   346.2014   2   9   0.0507   0.0467   0.1474  -0.0031   0.0329   0.0374   0.00    1.0
2018/03/13 12:57:16.000   78.254774108   16.249356690   346.2356   2   9   0.0503   0.0462   0.1451  -0.0031   0.0323   0.0367   0.00    1.1
2018/03/13 12:57:17.000   78.254774143   16.249356599   346.2926   2   9   0.0498   0.0458   0.1429  -0.0031   0.0318   0.0360   0.00    1.1
2018/03/13 12:57:18.000   78.254774191   16.249356690   346.3547   2   9   0.0494   0.0454   0.1407  -0.0031   0.0312   0.0354   0.00    1.1
2018/03/13 12:57:19.000   78.254774224   16.249356879   346.3980   2   9   0.0489   0.0450   0.1386  -0.0031   0.0307   0.0347   0.00    1.1
2018/03/13 12:57:20.000   78.254774238   16.249357242   346.4446   2   9   0.0485   0.0446   0.1365  -0.0031   0.0301   0.0340   0.00    1.1
2018/03/13 12:57:21.000   78.254774249   16.249357638   346.4625   2   9   0.0481   0.0443   0.1345  -0.0030   0.0296   0.0334   0.00    1.2
2018/03/13 12:57:22.000   78.254774236   16.249358122   346.4946   2   9   0.0477   0.0439   0.1325  -0.0030   0.0291   0.0328   0.00    1.2
2018/03/13 12:57:23.000   78.254774264   16.249358440   346.5208   2   9   0.0473   0.0435   0.1306  -0.0029   0.0286   0.0322   0.00    1.2
2018/03/13 12:57:24.000   78.254774276   16.249358780   346.5321   2   9   0.0469   0.0432   0.1287  -0.0029   0.0281   0.0316   0.00    1.2
2018/03/13 12:57:25.000   78.254774265   16.249359154   346.5278   2   9   0.0465   0.0428   0.1268  -0.0028   0.0277   0.0310   0.00    1.2
2018/03/13 12:57:26.000   78.254774281   16.249359293   346.5102   2   9   0.0461   0.0425   0.1250  -0.0028   0.0272   0.0304   0.00    1.2
2018/03/13 12:57:27.000   78.254774306   16.249359337   346.4985   2   9   0.0457   0.0421   0.1232  -0.0027   0.0268   0.0299   0.00    1.2
2018/03/13 12:57:28.000   78.254774320   16.249359350   346.5219   2   9   0.0453   0.0418   0.1215  -0.0026   0.0263   0.0293   0.00    1.2
2018/03/13 12:57:29.000   78.254774382   16.249359187   346.5339   2   9   0.0450   0.0415   0.1198  -0.0025   0.0259   0.0288   0.00    1.2
2018/03/13 12:57:30.000   78.254774456   16.249358857   346.5407   2   9   0.0446   0.0412   0.1181  -0.0025   0.0254   0.0282   0.00    1.2
2018/03/13 12:57:31.000   78.254774478   16.249358744   346.5506   2   9   0.0443   0.0409   0.1165  -0.0024   0.0250   0.0277   0.00    1.1
2018/03/13 12:57:32.000   78.254774516   16.249358420   346.5462   2   9   0.0439   0.0405   0.1149  -0.0023   0.0246   0.0272   0.00    1.1
2018/03/13 12:57:33.000   78.254774558   16.249358016   346.5314   2   9   0.0436   0.0402   0.1133  -0.0022   0.0242   0.0267   0.00    1.1
2018/03/13 12:57:34.000   78.254774542   16.249357682   346.5129   2   9   0.0433   0.0399   0.1118  -0.0020   0.0238   0.0262   0.00    1.1
2018/03/13 12:57:35.000   78.254774533   16.249357213   346.4702   2   9   0.0430   0.0397   0.1103  -0.0019   0.0234   0.0258   0.00    1.1
2018/03/13 12:57:36.000   78.254774507   16.249356771   346.4134   2   9   0.0426   0.0394   0.1088  -0.0018   0.0231   0.0253   0.00    1.1
2018/03/13 12:57:37.000   78.254774469   16.249356367   346.3490   2   9   0.0423   0.0391   0.1074  -0.0016   0.0227   0.0248   0.00    1.1
2018/03/13 12:57:38.000   78.254774405   16.249356004   346.2775   2   9   0.0420   0.0388   0.1060  -0.0014   0.0223   0.0244   0.00    1.1
2018/03/13 12:57:39.000   78.254774283   16.249355715   346.2155   2   9   0.0417   0.0385   0.1046  -0.0012   0.0220   0.0239   0.00    1.0
2018/03/13 12:57:40.000   78.254774169   16.249355484   346.1433   2   9   0.0414   0.0383   0.1032  -0.0009   0.0216   0.0235   0.00    1.0
2018/03/13 12:57:41.000   78.254774015   16.249355375   346.0745   2   9   0.0411   0.0380   0.1019  -0.0005   0.0213   0.0230   0.00    1.0
2018/03/13 12:57:42.000   78.254773801   16.249355344   345.9900   2   9   0.0408   0.0377   0.1006   0.0005   0.0209   0.0226   0.00    1.0
2018/03/13 12:57:43.000   78.254773632   16.249355347   345.9138   2   9   0.0406   0.0375   0.0993   0.0009   0.0206   0.0222   0.00    1.0
2018/03/13 12:57:44.000   78.254773439   16.249355344   345.8301   2   9   0.0403   0.0372   0.0981   0.0012   0.0203   0.0218   0.00    1.0
2018/03/13 12:57:45.000   78.254773253   16.249355285   345.7555   2   9   0.0400   0.0370   0.0969   0.0014   0.0199   0.0214   0.00    1.0
2018/03/13 12:57:46.000   78.254773053   16.249355151   345.6746   2   9   0.0397   0.0367   0.0956   0.0016   0.0196   0.0210   0.00    1.0
2018/03/13 12:57:47.000   78.254772883   16.249355045   345.5967   2   9   0.0395   0.0365   0.0945   0.0018   0.0193   0.0206   0.00    1.0
2018/03/13 12:57:48.000   78.254772740   16.249355057   345.5456   2   9   0.0392   0.0362   0.0933   0.0020   0.0190   0.0202   0.00    1.0
2018/03/13 12:57:49.000   78.254772649   16.249355189   345.5116   2   9   0.0389   0.0360   0.0922   0.0021   0.0187   0.0198   0.00    1.0
2018/03/13 12:57:50.000   78.254772558   16.249355294   345.4780   2   9   0.0387   0.0358   0.0911   0.0023   0.0184   0.0195   0.00    1.0
2018/03/13 12:57:51.000   78.254772499   16.249355644   345.4543   2   9   0.0384   0.0355   0.0900   0.0024   0.0181   0.0191   0.00    1.0
2018/03/13 12:57:52.000   78.254772484   16.249356027   345.4319   2   9   0.0382   0.0353   0.0889   0.0025   0.0178   0.0187   0.00    1.0
2018/03/13 12:57:53.000   78.254772532   16.249356516   345.4166   2   9   0.0379   0.0351   0.0878   0.0026   0.0176   0.0184   0.00    1.0
2018/03/13 12:57:54.000   78.254772594   16.249357195   345.4070   2   9   0.0377   0.0349   0.0868   0.0028   0.0173   0.0180   0.00    1.0
2018/03/13 12:57:55.000   78.254772688   16.249357863   345.4072   2   9   0.0375   0.0347   0.0858   0.0029   0.0170   0.0177   0.00    1.0
2018/03/13 12:57:56.000   78.254772762   16.249358575   345.4045   2   9   0.0372   0.0344   0.0848   0.0030   0.0168   0.0174   0.00    1.0
2018/03/13 12:57:57.000   78.254772816   16.249359254   345.4014   2   9   0.0370   0.0342   0.0838   0.0031   0.0165   0.0170   0.00    1.0
2018/03/13 12:57:58.000   78.254772890   16.249360106   345.4003   2   9   0.0368   0.0340   0.0829   0.0032   0.0162   0.0167   0.00    1.1
2018/03/13 12:57:59.000   78.254772969   16.249360886   345.3847   2   9   0.0365   0.0338   0.0819   0.0033   0.0160   0.0164   0.00    1.1
2018/03/13 12:58:00.000   78.254773012   16.249361826   345.3676   2   9   0.0363   0.0336   0.0810   0.0034   0.0157   0.0161   0.00    1.1
2018/03/13 12:58:01.000   78.254773082   16.249362831   345.3528   2   9   0.0361   0.0334   0.0801   0.0035   0.0155   0.0157   0.00    1.1
2018/03/13 12:58:02.000   78.254773168   16.249363849   345.3262   2   9   0.0359   0.0332   0.0792   0.0035   0.0153   0.0154   0.00    1.1
2018/03/13 12:58:03.000   78.254773277   16.249365119   345.3003   2   9   0.0357   0.0330   0.0783   0.0036   0.0150   0.0151   0.00    1.1
2018/03/13 12:58:04.000   78.254773363   16.249366368   345.2768   2   9   0.0354   0.0328   0.0775   0.0037   0.0148   0.0148   0.00    1.2
2018/03/13 12:58:05.000   78.254773468   16.249367455   345.2477   2   9   0.0352   0.0326   0.0766   0.0038   0.0146   0.0145   0.00    1.2
2018/03/13 12:58:06.000   78.254773581   16.249368541   345.2261   2   9   0.0350   0.0324   0.0758   0.0039   0.0143   0.0142   0.00    1.2
2018/03/13 12:58:07.000   78.254773666   16.249369655   345.2045   2   9   0.0348   0.0323   0.0750   0.0039   0.0141   0.0139   0.00    1.3
2018/03/13 12:58:08.000   78.254773786   16.249370692   345.1748   2   9   0.0346   0.0321   0.0742   0.0040   0.0139   0.0137   0.00    1.3
2018/03/13 12:58:09.000   78.254773901   16.249371757   345.1417   2   9   0.0344   0.0319   0.0734   0.0041   0.0137   0.0134   0.00    1.3
2018/03/13 12:58:10.000   78.254774014   16.249372740   345.0995   2   9   0.0342   0.0317   0.0726   0.0042   0.0135   0.0131   0.00    1.4
2018/03/13 12:58:11.000   78.254774158   16.249373620   345.0667   2   9   0.0340   0.0315   0.0718   0.0042   0.0133   0.0128   0.00    1.4
2018/03/13 12:58:12.000   78.254774287   16.249374520   345.0353   2   9   0.0338   0.0313   0.0711   0.0043   0.0130   0.0125   0.00    1.4
2018/03/13 12:58:13.000   78.254774404   16.249375439   345.0118   2   9   0.0336   0.0312   0.0703   0.0044   0.0128   0.0123   0.00    1.5
2018/03/13 12:58:14.000   78.254774493   16.249376327   344.9836   2   9   0.0335   0.0310   0.0696   0.0044   0.0126   0.0120   0.00    1.5
2018/03/13 12:58:15.000   78.254774576   16.249377236   344.9635   2   9   0.0333   0.0308   0.0689   0.0045   0.0124   0.0117   0.00    1.5
2018/03/13 12:58:16.000   78.254774683   16.249378049   344.9403   2   9   0.0331   0.0307   0.0682   0.0045   0.0122   0.0115   0.00    1.6
2018/03/13 12:58:17.000   78.254774810   16.249378855   344.9175   2   9   0.0329   0.0305   0.0675   0.0046   0.0121   0.0112   0.00    1.6
2018/03/13 12:58:18.000   78.254774932   16.249379550   344.8932   2   9   0.0327   0.0303   0.0668   0.0047   0.0119   0.0110   0.00    1.6
2018/03/13 12:58:19.000   78.254775070   16.249380113   344.8552   2   9   0.0325   0.0302   0.0662   0.0047   0.0117   0.0107   0.00    1.6
2018/03/13 12:58:20.000   78.254775181   16.249380612   344.8229   2   9   0.0324   0.0300   0.0655   0.0048   0.0115   0.0104   0.00    1.6
2018/03/13 12:58:21.000   78.254775268   16.249381085   344.7780   2   9   0.0322   0.0298   0.0649   0.0048   0.0113   0.0102   0.00    1.6
2018/03/13 12:58:22.000   78.254775318   16.249381595   344.7248   2   9   0.0320   0.0297   0.0642   0.0049   0.0111   0.0099   0.00    1.6
2018/03/13 12:58:23.000   78.254775354   16.249382096   344.6713   2   9   0.0319   0.0295   0.0636   0.0049   0.0110   0.0097   0.00    1.6
2018/03/13 12:58:24.000   78.254775394   16.249382550   344.6138   2   9   0.0317   0.0294   0.0630   0.0050   0.0108   0.0095   0.00    1.6
2018/03/13 12:58:25.000   78.254775412   16.249382921   344.5584   2   9   0.0315   0.0292   0.0624   0.0050   0.0106   0.0092   0.00    1.6
2018/03/13 12:58:26.000   78.254775435   16.249383316   344.5059   2   9   0.0313   0.0291   0.0618   0.0051   0.0104   0.0090   0.00    1.5
2018/03/13 12:58:27.000   78.254775495   16.249383680   344.4546   2   9   0.0312   0.0289   0.0612   0.0051   0.0103   0.0087   0.00    1.5
2018/03/13 12:58:28.000   78.254775564   16.249383971   344.4119   2   9   0.0310   0.0288   0.0606   0.0052   0.0101   0.0085   0.00    1.5
2018/03/13 12:58:29.000   78.254775670   16.249384258   344.3767   2   9   0.0309   0.0286   0.0600   0.0052   0.0099   0.0082   0.00    1.5
2018/03/13 12:58:30.000   78.254775786   16.249384430   344.3480   2   9   0.0307   0.0285   0.0595   0.0053   0.0098   0.0080   0.00    1.5
2018/03/13 12:58:31.000   78.254775903   16.249384549   344.3254   2   9   0.0305   0.0283   0.0589   0.0053   0.0096   0.0078   0.00    1.5
2018/03/13 12:58:32.000   78.254776036   16.249384698   344.3036   2   9   0.0304   0.0282   0.0584   0.0053   0.0094   0.0075   0.00    1.5
2018/03/13 12:58:33.000   78.254776211   16.249384809   344.2793   2   9   0.0302   0.0280   0.0578   0.0054   0.0093   0.0073   0.00    1.5
2018/03/13 12:58:34.000   78.254776412   16.249384963   344.2585   2   9   0.0301   0.0279   0.0573   0.0054   0.0091   0.0070   0.00    1.5
2018/03/13 12:58:35.000   78.254776628   16.249385209   344.2441   2   9   0.0299   0.0278   0.0568   0.0055   0.0090   0.0068   0.00    1.4
2018/03/13 12:58:36.000   78.254776871   16.249385496   344.2416   2   9   0.0298   0.0276   0.0563   0.0055   0.0088   0.0066   0.00    1.4
2018/03/13 12:58:37.000   78.254777129   16.249385721   344.2421   2   9   0.0296   0.0275   0.0558   0.0055   0.0087   0.0063   0.00    1.4
2018/03/13 12:58:38.000   78.254777429   16.249385960   344.2494   2   9   0.0295   0.0273   0.0553   0.0056   0.0085   0.0061   0.00    1.4
2018/03/13 12:58:39.000   78.254777765   16.249386301   344.2654   2   9   0.0293   0.0272   0.0548   0.0056   0.0084   0.0058   0.00    1.4
2018/03/13 12:58:40.000   78.254778081   16.249386731   344.2835   2   9   0.0292   0.0271   0.0543   0.0056   0.0082   0.0056   0.00    1.3
2018/03/13 12:58:41.000   78.254778381   16.249387144   344.3001   2   9   0.0290   0.0269   0.0538   0.0057   0.0081   0.0053   0.00    1.3
2018/03/13 12:58:42.000   78.254778675   16.249387505   344.3207   2   9   0.0289   0.0268   0.0533   0.0057   0.0079   0.0051   0.00    1.3
2018/03/13 12:58:43.000   78.254778971   16.249387998   344.3365   2   9   0.0288   0.0267   0.0529   0.0057   0.0078   0.0048   0.00    1.3
2018/03/13 12:58:44.000   78.254779257   16.249388551   344.3597   2   9   0.0286   0.0265   0.0524   0.0058   0.0077   0.0046   0.00    1.3
2018/03/13 12:58:45.000   78.254779545   16.249389218   344.3848   2   9   0.0285   0.0264   0.0520   0.0058   0.0075   0.0043   0.00    1.2
2018/03/13 12:58:46.000   78.254779804   16.249389915   344.4061   2   9   0.0284   0.0263   0.0515   0.0058   0.0074   0.0040   0.00    1.2
2018/03/13 12:58:47.000   78.254780064   16.249390622   344.4349   2   9   0.0282   0.0262   0.0511   0.0059   0.0073   0.0037   0.00    1.2
2018/03/13 12:58:48.000   78.254780369   16.249391380   344.4719   2   9   0.0281   0.0260   0.0506   0.0059   0.0071   0.0034   0.00    1.2
2018/03/13 12:58:49.000   78.254780684   16.249392130   344.5096   2   9   0.0279   0.0259   0.0502   0.0059   0.0070   0.0031   0.00    1.2
2018/03/13 12:58:50.000   78.254781003   16.249392905   344.5456   2   9   0.0278   0.0258   0.0498   0.0059   0.0068   0.0027   0.00    1.1
2018/03/13 12:58:51.000   78.254781287   16.249393682   344.5742   2   9   0.0277   0.0257   0.0494   0.0060   0.0067   0.0023   0.00    1.1
2018/03/13 12:58:52.000   78.254781545   16.249394491   344.5996   2   9   0.0276   0.0256   0.0490   0.0060   0.0066   0.0018   0.00    1.1
2018/03/13 12:58:53.000   78.254781770   16.249395335   344.6202   2   9   0.0274   0.0254   0.0486   0.0060   0.0065   0.0012   0.00    1.1
2018/03/13 12:58:54.000   78.254781965   16.249396187   344.6289   2   9   0.0273   0.0253   0.0482   0.0061   0.0063  -0.0006   0.00    1.1
2018/03/13 12:58:55.000   78.254782154   16.249396989   344.6306   2   9   0.0272   0.0252   0.0478   0.0061   0.0062  -0.0015   0.00    1.1
2018/03/13 12:58:56.000   78.254782314   16.249397812   344.6217   2   9   0.0270   0.0251   0.0474   0.0061   0.0061  -0.0020   0.00    1.1
2018/03/13 12:58:57.000   78.254782437   16.249398578   344.6027   2   9   0.0269   0.0250   0.0470   0.0061   0.0059  -0.0023   0.00    1.0
2018/03/13 12:58:58.000   78.254782519   16.249399302   344.5664   2   9   0.0268   0.0249   0.0466   0.0061   0.0058  -0.0027   0.00    1.0
2018/03/13 12:58:59.000   78.254782551   16.249399973   344.5192   2   9   0.0267   0.0247   0.0463   0.0062   0.0057  -0.0029   0.00    1.0
2018/03/13 12:59:00.000   78.254782562   16.249400533   344.4606   2   9   0.0266   0.0246   0.0459   0.0062   0.0056  -0.0032   0.00    1.0
2018/03/13 12:59:01.000   78.254782559   16.249401068   344.4023   2   9   0.0264   0.0245   0.0455   0.0062   0.0054  -0.0034   0.00    1.0
2018/03/13 12:59:02.000   78.254782563   16.249401506   344.3412   2   9   0.0263   0.0244   0.0452   0.0062   0.0053  -0.0036   0.00    1.1
2018/03/13 12:59:03.000   78.254782565   16.249401876   344.2818   2   9   0.0262   0.0243   0.0448   0.0063   0.0052  -0.0038   0.00    1.1
2018/03/13 12:59:04.000   78.254782560   16.249402212   344.2209   2   9   0.0261   0.0242   0.0445   0.0063   0.0051  -0.0040   0.00    1.1
2018/03/13 12:59:05.000   78.254782544   16.249402450   344.1609   2   9   0.0260   0.0241   0.0441   0.0063   0.0049  -0.0041   0.00    1.1
2018/03/13 12:59:06.000   78.254782512   16.249402603   344.0935   2   9   0.0258   0.0240   0.0438   0.0063   0.0048  -0.0043   0.00    1.1
2018/03/13 12:59:07.000   78.254782458   16.249402772   344.0287   2   9   0.0257   0.0239   0.0435   0.0063   0.0047  -0.0044   0.00    1.1
2018/03/13 12:59:08.000   78.254782340   16.249402819   343.9530   2   9   0.0256   0.0238   0.0431   0.0063   0.0046  -0.0045   0.00    1.2
2018/03/13 12:59:09.000   78.254782195   16.249402893   343.8723   2   9   0.0255   0.0237   0.0428   0.0064   0.0044  -0.0047   0.00    1.2
2018/03/13 12:59:10.000   78.254782047   16.249402968   343.7911   2   9   0.0254   0.0235   0.0425   0.0064   0.0043  -0.0048   0.00    1.2
2018/03/13 12:59:11.000   78.254781891   16.249402979   343.7118   2   9   0.0253   0.0234   0.0422   0.0064   0.0042  -0.0049   0.00    1.2
2018/03/13 12:59:12.000   78.254781731   16.249402986   343.6368   2   9   0.0252   0.0233   0.0418   0.0064   0.0041  -0.0050   0.00    1.2
2018/03/13 12:59:13.000   78.254781576   16.249402951   343.5642   2   9   0.0251   0.0232   0.0415   0.0064   0.0039  -0.0051   0.00    1.2
2018/03/13 12:59:14.000   78.254781457   16.249402889   343.4977   2   9   0.0250   0.0231   0.0412   0.0064   0.0038  -0.0052   0.00    1.1
2018/03/13 12:59:15.000   78.254781337   16.249402645   343.4334   2   9   0.0248   0.0230   0.0409   0.0065   0.0037  -0.0053   0.00    1.1
2018/03/13 12:59:16.000   78.254781215   16.249402410   343.3760   2   9   0.0247   0.0229   0.0406   0.0065   0.0036  -0.0053   0.00    1.1
2018/03/13 12:59:17.000   78.254781114   16.249402121   343.3250   2   9   0.0246   0.0228   0.0403   0.0065   0.0034  -0.0054   0.00    1.1
2018/03/13 12:59:18.000   78.254781014   16.249401838   343.2791   2   9   0.0245   0.0227   0.0400   0.0065   0.0033  -0.0055   0.00    1.1
2018/03/13 12:59:19.000   78.254780934   16.249401628   343.2442   2   9   0.0244   0.0226   0.0397   0.0065   0.0032  -0.0056   0.00    1.1
2018/03/13 12:59:20.000   78.254780889   16.249401407   343.2161   2   9   0.0243   0.0226   0.0395   0.0065   0.0030  -0.0056   0.00    1.1
2018/03/13 12:59:21.000   78.254780877   16.249401203   343.1910   2   9   0.0242   0.0225   0.0392   0.0065   0.0029  -0.0057   0.00    1.1
2018/03/13 12:59:22.000   78.254780860   16.249400993   343.1726   2   9   0.0241   0.0224   0.0389   0.0065   0.0027  -0.0058   0.00    1.1
2018/03/13 12:59:23.000   78.254780812   16.249400816   343.1538   2   9   0.0240   0.0223   0.0386   0.0066   0.0026  -0.0058   0.00    1.1
2018/03/13 12:59:24.000   78.254780746   16.249400654   343.1358   2   9   0.0239   0.0222   0.0384   0.0066   0.0025  -0.0059   0.00    1.1
2018/03/13 12:59:25.000   78.254780672   16.249400533   343.1262   2   9   0.0238   0.0221   0.0381   0.0066   0.0023  -0.0059   0.00    1.1
2018/03/13 12:59:26.000   78.254780583   16.249400463   343.1196   2   9   0.0237   0.0220   0.0378   0.0066   0.0021  -0.0060   0.00    1.0
2018/03/13 12:59:27.000   78.254780495   16.249400363   343.1198   2   9   0.0236   0.0219   0.0376   0.0066   0.0020  -0.0060   0.00    1.0
2018/03/13 12:59:28.000   78.254780419   16.249400307   343.1240   2   9   0.0235   0.0218   0.0373   0.0066   0.0018  -0.0061   0.00    1.0
2018/03/13 12:59:29.000   78.254780348   16.249400181   343.1328   2   9   0.0234   0.0217   0.0370   0.0066   0.0016  -0.0061   0.00    1.0
2018/03/13 12:59:30.000   78.254780285   16.249399991   343.1434   2   9   0.0233   0.0216   0.0368   0.0066   0.0014  -0.0062   0.00    1.0
2018/03/13 12:59:31.000   78.254780233   16.249399836   343.1578   2   9   0.0232   0.0215   0.0365   0.0066   0.0011  -0.0062   0.00    1.0
2018/03/13 12:59:32.000   78.254780163   16.249399596   343.1693   2   9   0.0231   0.0214   0.0363   0.0066   0.0008  -0.0063   0.00    1.0
2018/03/13 12:59:33.000   78.254780078   16.249399386   343.1853   2   9   0.0230   0.0214   0.0360   0.0066   0.0002  -0.0063   0.00    1.0
2018/03/13 12:59:34.000   78.254779969   16.249399171   343.1980   2   9   0.0229   0.0213   0.0358   0.0067  -0.0007  -0.0063   0.00    1.1
2018/03/13 12:59:35.000   78.254779841   16.249398924   343.2068   2   9   0.0228   0.0212   0.0356   0.0067  -0.0010  -0.0064   0.00    1.1
2018/03/13 12:59:36.000   78.254779710   16.249398671   343.2190   2   9   0.0228   0.0211   0.0353   0.0067  -0.0013  -0.0064   0.00    1.1
2018/03/13 12:59:37.000   78.254779596   16.249398464   343.2298   2   9   0.0227   0.0210   0.0351   0.0067  -0.0015  -0.0064   0.00    1.1
2018/03/13 12:59:38.000   78.254779473   16.249398278   343.2425   2   9   0.0226   0.0209   0.0349   0.0067  -0.0016  -0.0065   0.00    1.1
2018/03/13 12:59:39.000   78.254779353   16.249398081   343.2524   2   9   0.0225   0.0208   0.0346   0.0067  -0.0018  -0.0065   0.00    1.1
2018/03/13 12:59:40.000   78.254779210   16.249397833   343.2597   2   9   0.0224   0.0208   0.0344   0.0067  -0.0019  -0.0065   0.00    1.1
2018/03/13 12:59:41.000   78.254779040   16.249397628   343.2611   2   9   0.0223   0.0207   0.0342   0.0067  -0.0020  -0.0065   0.00    1.1
2018/03/13 12:59:42.000   78.254778849   16.249397353   343.2574   2   9   0.0222   0.0206   0.0340   0.0067  -0.0022  -0.0066   0.00    1.1
2018/03/13 12:59:43.000   78.254778645   16.249397133   343.2519   2   9   0.0221   0.0205   0.0337   0.0067  -0.0023  -0.0066   0.00    1.1
2018/03/13 12:59:44.000   78.254778424   16.249396924   343.2461   2   9   0.0220   0.0204   0.0335   0.0067  -0.0024  -0.0066   0.00    1.1
2018/03/13 12:59:45.000   78.254778207   16.249396557   343.2412   2   9   0.0219   0.0203   0.0333   0.0067  -0.0024  -0.0066   0.00    1.1
2018/03/13 12:59:46.000   78.254777986   16.249396178   343.2329   2   9   0.0219   0.0203   0.0331   0.0067  -0.0025  -0.0067   0.00    1.1
2018/03/13 12:59:47.000   78.254777770   16.249395769   343.2285   2   9   0.0218   0.0202   0.0329   0.0067  -0.0026  -0.0067   0.00    1.1
2018/03/13 12:59:48.000   78.254777531   16.249395398   343.2257   2   9   0.0217   0.0201   0.0327   0.0067  -0.0027  -0.0067   0.00    1.1
2018/03/13 12:59:49.000   78.254777277   16.249395096   343.2216   2   9   0.0216   0.0200   0.0325   0.0067  -0.0028  -0.0067   0.00    1.1
2018/03/13 12:59:50.000   78.254777026   16.249394839   343.2222   2   9   0.0215   0.0200   0.0323   0.0067  -0.0028  -0.0067   0.00    1.1
2018/03/13 12:59:51.000   78.254776786   16.249394605   343.2210   2   9   0.0214   0.0199   0.0321   0.0067  -0.0029  -0.0068   0.00    1.1
2018/03/13 12:59:52.000   78.254776561   16.249394501   343.2248   2   9   0.0214   0.0198   0.0319   0.0067  -0.0030  -0.0068   0.00    1.1
2018/03/13 12:59:53.000   78.254776360   16.249394550   343.2357   2   9   0.0213   0.0197   0.0317   0.0067  -0.0030  -0.0068   0.00    1.1
2018/03/13 12:59:54.000   78.254776181   16.249394620   343.2483   2   9   0.0212   0.0196   0.0315   0.0067  -0.0031  -0.0068   0.00    1.1
2018/03/13 12:59:55.000   78.254776004   16.249394728   343.2653   2   9   0.0211   0.0196   0.0313   0.0067  -0.0031  -0.0068   0.00    1.1
2018/03/13 12:59:56.000   78.254775829   16.249394904   343.2814   2   9   0.0210   0.0195   0.0311   0.0067  -0.0032  -0.0068   0.00    1.1
2018/03/13 12:59:57.000   78.254775633   16.249395062   343.2928   2   9   0.0209   0.0194   0.0309   0.0067  -0.0032  -0.0068   0.00    1.1
2018/03/13 12:59:58.000   78.254775427   16.249395219   343.3019   2   9   0.0209   0.0193   0.0307   0.0067  -0.0033  -0.0068   0.00    1.1
2018/03/13 12:59:59.000   78.254775237   16.249395328   343.3114   2   9   0.0208   0.0193   0.0305   0.0068  -0.0033  -0.0069   0.00    1.1
2018/03/13 13:00:00.000   78.254775041   16.249395420   343.3209   2   9   0.0207   0.0192   0.0304   0.0068  -0.0034  -0.0069   0.00    1.1
2018/03/13 13:00:01.000   78.254774856   16.249395427   343.3280   2   9   0.0206   0.0191   0.0302   0.0068  -0.0034  -0.0069   0.00    1.2
2018/03/13 13:00:02.000   78.254774675   16.249395366   343.3361   2   9   0.0206   0.0191   0.0300   0.0068  -0.0034  -0.0069   0.00    1.1
2018/03/13 13:00:03.000   78.254774507   16.249395213   343.3445   2   9   0.0205   0.0190   0.0298   0.0068  -0.0035  -0.0069   0.00    1.1
2018/03/13 13:00:04.000   78.254774339   16.249395050   343.3507   2   9   0.0204   0.0189   0.0296   0.0068  -0.0035  -0.0069   0.00    1.1
2018/03/13 13:00:05.000   78.254774176   16.249394846   343.3606   2   9   0.0203   0.0188   0.0295   0.0068  -0.0035  -0.0069   0.00    1.1
2018/03/13 13:00:06.000   78.254774013   16.249394635   343.3688   2   9   0.0202   0.0188   0.0293   0.0068  -0.0036  -0.0069   0.00    1.1
2018/03/13 13:00:07.000   78.254773845   16.249394366   343.3792   2   9   0.0202   0.0187   0.0291   0.0068  -0.0036  -0.0069   0.00    1.1
2018/03/13 13:00:08.000   78.254773680   16.249394103   343.3920   2   9   0.0201   0.0186   0.0290   0.0068  -0.0036  -0.0069   0.00    1.1
2018/03/13 13:00:09.000   78.254773527   16.249393751   343.4068   2   9   0.0200   0.0186   0.0288   0.0068  -0.0037  -0.0069   0.00    1.1
2018/03/13 13:00:10.000   78.254773368   16.249393425   343.4231   2   9   0.0199   0.0185   0.0286   0.0067  -0.0037  -0.0069   0.00    1.1
2018/03/13 13:00:11.000   78.254773199   16.249393136   343.4379   2   9   0.0199   0.0184   0.0285   0.0067  -0.0037  -0.0069   0.00    1.1
2018/03/13 13:00:12.000   78.254773014   16.249392804   343.4499   2   9   0.0198   0.0184   0.0283   0.0067  -0.0038  -0.0069   0.00    1.1
2018/03/13 13:00:13.000   78.254772826   16.249392532   343.4632   2   9   0.0197   0.0183   0.0281   0.0067  -0.0038  -0.0069   0.00    1.1
2018/03/13 13:00:14.000   78.254772628   16.249392318   343.4770   2   9   0.0197   0.0182   0.0280   0.0067  -0.0038  -0.0069   0.00    1.1
2018/03/13 13:00:15.000   78.254772414   16.249392263   343.4927   2   9   0.0196   0.0182   0.0278   0.0067  -0.0038  -0.0069   0.00    1.1
2018/03/13 13:00:16.000   78.254772199   16.249392142   343.5099   2   9   0.0195   0.0181   0.0277   0.0067  -0.0039  -0.0069   0.00    1.1
2018/03/13 13:00:17.000   78.254771987   16.249392003   343.5264   2   9   0.0194   0.0180   0.0275   0.0067  -0.0039  -0.0069   0.00    1.0
2018/03/13 13:00:18.000   78.254771774   16.249391955   343.5456   2   9   0.0194   0.0180   0.0274   0.0067  -0.0039  -0.0069   0.00    1.0
2018/03/13 13:00:19.000   78.254771545   16.249392003   343.5662   2   9   0.0193   0.0179   0.0272   0.0067  -0.0039  -0.0069   0.00    1.0
2018/03/13 13:00:20.000   78.254771316   16.249392109   343.5856   2   9   0.0192   0.0178   0.0271   0.0067  -0.0039  -0.0069   0.00    1.0
2018/03/13 13:00:21.000   78.254771091   16.249392253   343.6080   2   9   0.0192   0.0178   0.0269   0.0067  -0.0040  -0.0069   0.00    1.0
2018/03/13 13:00:22.000   78.254770860   16.249392378   343.6291   2   9   0.0191   0.0177   0.0268   0.0067  -0.0040  -0.0069   0.00    1.0
2018/03/13 13:00:23.000   78.254770630   16.249392577   343.6549   2   9   0.0190   0.0176   0.0266   0.0067  -0.0040  -0.0069   0.00    1.0
2018/03/13 13:00:24.000   78.254770409   16.249392709   343.6785   2   9   0.0190   0.0176   0.0265   0.0067  -0.0040  -0.0069   0.00    1.0
2018/03/13 13:00:25.000   78.254770199   16.249392772   343.6973   2   9   0.0189   0.0175   0.0263   0.0067  -0.0040  -0.0069   0.00    1.0
2018/03/13 13:00:26.000   78.254769995   16.249392831   343.7185   2   9   0.0188   0.0174   0.0262   0.0067  -0.0040  -0.0069   0.00    1.0
2018/03/13 13:00:27.000   78.254769820   16.249392887   343.7395   2   9   0.0188   0.0174   0.0261   0.0067  -0.0041  -0.0069   0.00    1.0
2018/03/13 13:00:28.000   78.254769643   16.249392893   343.7604   2   9   0.0187   0.0173   0.0259   0.0067  -0.0041  -0.0069   0.00    1.0
2018/03/13 13:00:29.000   78.254769472   16.249392897   343.7798   2   9   0.0186   0.0173   0.0258   0.0067  -0.0041  -0.0069   0.00    1.0
2018/03/13 13:00:30.000   78.254769302   16.249392935   343.8005   2   9   0.0186   0.0172   0.0256   0.0067  -0.0041  -0.0069   0.00    1.0
2018/03/13 13:00:31.000   78.254769135   16.249392934   343.8179   2   9   0.0185   0.0171   0.0255   0.0067  -0.0041  -0.0069   0.00    1.0
2018/03/13 13:00:32.000   78.254768969   16.249392942   343.8357   2   9   0.0184   0.0171   0.0254   0.0067  -0.0041  -0.0069   0.00    1.0
2018/03/13 13:00:33.000   78.254768816   16.249392909   343.8532   2   9   0.0184   0.0170   0.0252   0.0067  -0.0041  -0.0069   0.00    1.0
2018/03/13 13:00:34.000   78.254768679   16.249392821   343.8663   2   9   0.0183   0.0170   0.0251   0.0067  -0.0042  -0.0069   0.00    1.0
2018/03/13 13:00:35.000   78.254768568   16.249392636   343.8781   2   9   0.0182   0.0169   0.0250   0.0067  -0.0042  -0.0069   0.00    1.0
2018/03/13 13:00:36.000   78.254768461   16.249392380   343.8879   2   9   0.0182   0.0168   0.0248   0.0067  -0.0042  -0.0069   0.00    1.0
2018/03/13 13:00:37.000   78.254768365   16.249392041   343.8935   2   9   0.0181   0.0168   0.0247   0.0067  -0.0042  -0.0069   0.00    1.0
2018/03/13 13:00:38.000   78.254768270   16.249391662   343.8984   2   9   0.0180   0.0167   0.0246   0.0067  -0.0042  -0.0069   0.00    1.0
2018/03/13 13:00:39.000   78.254768187   16.249391235   343.9004   2   9   0.0180   0.0167   0.0245   0.0067  -0.0042  -0.0069   0.00    1.0
2018/03/13 13:00:40.000   78.254768102   16.249390795   343.8996   2   9   0.0179   0.0166   0.0243   0.0067  -0.0042  -0.0069   0.00    1.0
2018/03/13 13:00:41.000   78.254768037   16.249390359   343.8974   2   9   0.0179   0.0166   0.0242   0.0066  -0.0042  -0.0069   0.00    1.0
2018/03/13 13:00:42.000   78.254767985   16.249389930   343.8946   2   9   0.0178   0.0165   0.0241   0.0066  -0.0042  -0.0069   0.00    1.0
2018/03/13 13:00:43.000   78.254767926   16.249389499   343.8908   2   9   0.0177   0.0164   0.0240   0.0066  -0.0042  -0.0069   0.00    1.1
2018/03/13 13:00:44.000   78.254767867   16.249389073   343.8876   2   9   0.0177   0.0164   0.0238   0.0066  -0.0043  -0.0069   0.00    1.1
2018/03/13 13:00:45.000   78.254767804   16.249388660   343.8840   2   9   0.0176   0.0163   0.0237   0.0066  -0.0043  -0.0068   0.00    1.1
2018/03/13 13:00:46.000   78.254767748   16.249388200   343.8800   2   9   0.0176   0.0163   0.0236   0.0066  -0.0043  -0.0068   0.00    1.1
2018/03/13 13:00:47.000   78.254767694   16.249387807   343.8769   2   9   0.0175   0.0162   0.0235   0.0066  -0.0043  -0.0068   0.00    1.1
2018/03/13 13:00:48.000   78.254767640   16.249387507   343.8752   2   9   0.0174   0.0162   0.0234   0.0066  -0.0043  -0.0068   0.00    1.1
2018/03/13 13:00:49.000   78.254767589   16.249387240   343.8752   2   9   0.0174   0.0161   0.0233   0.0066  -0.0043  -0.0068   0.00    1.1
2018/03/13 13:00:50.000   78.254767543   16.249386996   343.8737   2   9   0.0173   0.0161   0.0231   0.0066  -0.0043  -0.0068   0.00    1.1
2018/03/13 13:00:51.000   78.254767503   16.249386820   343.8714   2   9   0.0173   0.0160   0.0230   0.0066  -0.0043  -0.0068   0.00    1.1
2018/03/13 13:00:52.000   78.254767460   16.249386704   343.8679   2   9   0.0172   0.0159   0.0229   0.0066  -0.0043  -0.0068   0.00    1.1
2018/03/13 13:00:53.000   78.254767416   16.249386683   343.8607   2   9   0.0172   0.0159   0.0228   0.0066  -0.0043  -0.0068   0.00    1.1
2018/03/13 13:00:54.000   78.254767374   16.249386725   343.8527   2   9   0.0171   0.0158   0.0227   0.0066  -0.0043  -0.0068   0.00    1.1
2018/03/13 13:00:55.000   78.254767332   16.249386740   343.8442   2   9   0.0170   0.0158   0.0226   0.0066  -0.0043  -0.0068   0.00    1.1
2018/03/13 13:00:56.000   78.254767288   16.249386803   343.8362   2   9   0.0170   0.0157   0.0225   0.0066  -0.0043  -0.0068   0.00    1.1
2018/03/13 13:00:57.000   78.254767254   16.249386939   343.8271   2   9   0.0169   0.0157   0.0224   0.0066  -0.0043  -0.0068   0.00    1.1
2018/03/13 13:00:58.000   78.254767217   16.249387086   343.8172   2   9   0.0169   0.0156   0.0223   0.0065  -0.0043  -0.0067   0.00    1.1
2018/03/13 13:00:59.000   78.254767184   16.249387229   343.8068   2   9   0.0168   0.0156   0.0222   0.0065  -0.0043  -0.0067   0.00    1.1
2018/03/13 13:01:00.000   78.254767162   16.249387404   343.7986   2   9   0.0168   0.0155   0.0220   0.0065  -0.0043  -0.0067   0.00    1.1
2018/03/13 13:01:01.000   78.254767153   16.249387569   343.7897   2   9   0.0167   0.0155   0.0219   0.0065  -0.0043  -0.0067   0.00    1.1
2018/03/13 13:01:02.000   78.254767150   16.249387708   343.7812   2   9   0.0166   0.0154   0.0218   0.0065  -0.0043  -0.0067   0.00    1.1
2018/03/13 13:01:03.000   78.254767155   16.249387903   343.7746   2   9   0.0166   0.0154   0.0217   0.0065  -0.0043  -0.0067   0.00    1.1
2018/03/13 13:01:04.000   78.254767165   16.249388073   343.7689   2   9   0.0165   0.0153   0.0216   0.0065  -0.0043  -0.0067   0.00    1.1
2018/03/13 13:01:05.000   78.254767175   16.249388316   343.7616   2   9   0.0165   0.0153   0.0215   0.0065  -0.0043  -0.0067   0.00    1.1
2018/03/13 13:01:06.000   78.254767183   16.249388639   343.7563   2   9   0.0164   0.0152   0.0214   0.0065  -0.0043  -0.0067   0.00    1.1
2018/03/13 13:01:07.000   78.254767206   16.249389079   343.7521   2   9   0.0164   0.0152   0.0213   0.0065  -0.0043  -0.0067   0.00    1.1
2018/03/13 13:01:08.000   78.254767244   16.249389624   343.7503   2   9   0.0163   0.0151   0.0212   0.0065  -0.0043  -0.0067   0.00    1.1
2018/03/13 13:01:09.000   78.254767297   16.249390194   343.7514   2   9   0.0163   0.0151   0.0211   0.0065  -0.0044  -0.0067   0.00    1.1
2018/03/13 13:01:10.000   78.254767356   16.249390800   343.7536   2   9   0.0162   0.0150   0.0210   0.0065  -0.0044  -0.0066   0.00    1.1
2018/03/13 13:01:11.000   78.254767413   16.249391426   343.7568   2   9   0.0162   0.0150   0.0209   0.0065  -0.0044  -0.0066   0.00    1.1
2018/03/13 13:01:12.000   78.254767480   16.249392039   343.7627   2   9   0.0161   0.0149   0.0208   0.0064  -0.0044  -0.0066   0.00    1.1
2018/03/13 13:01:13.000   78.254767559   16.249392602   343.7682   2   9   0.0161   0.0149   0.0208   0.0064  -0.0044  -0.0066   0.00    1.1
2018/03/13 13:01:14.000   78.254767646   16.249393171   343.7739   2   9   0.0160   0.0148   0.0207   0.0064  -0.0044  -0.0066   0.00    1.1
2018/03/13 13:01:15.000   78.254767733   16.249393776   343.7787   2   9   0.0160   0.0148   0.0206   0.0064  -0.0044  -0.0066   0.00    1.1
2018/03/13 13:01:16.000   78.254767820   16.249394335   343.7811   2   9   0.0159   0.0147   0.0205   0.0064  -0.0044  -0.0066   0.00    1.1
2018/03/13 13:01:17.000   78.254767911   16.249394871   343.7840   2   9   0.0159   0.0147   0.0204   0.0064  -0.0044  -0.0066   0.00    1.1
2018/03/13 13:01:18.000   78.254768005   16.249395358   343.7866   2   9   0.0158   0.0147   0.0203   0.0064  -0.0044  -0.0066   0.00    1.1
2018/03/13 13:01:19.000   78.254768095   16.249395802   343.7896   2   9   0.0158   0.0146   0.0202   0.0064  -0.0044  -0.0066   0.00    1.1
2018/03/13 13:01:20.000   78.254768191   16.249396226   343.7930   2   9   0.0157   0.0146   0.0201   0.0064  -0.0044  -0.0065   0.00    1.1
2018/03/13 13:01:21.000   78.254768285   16.249396674   343.7966   2   9   0.0157   0.0145   0.0200   0.0064  -0.0044  -0.0065   0.00    1.1
2018/03/13 13:01:22.000   78.254768381   16.249397102   343.8013   2   9   0.0156   0.0145   0.0199   0.0064  -0.0044  -0.0065   0.00    1.1
2018/03/13 13:01:23.000   78.254768489   16.249397504   343.8069   2   9   0.0156   0.0144   0.0198   0.0064  -0.0044  -0.0065   0.00    1.1
2018/03/13 13:01:24.000   78.254768599   16.249397904   343.8135   2   9   0.0155   0.0144   0.0198   0.0064  -0.0043  -0.0065   0.00    1.1
2018/03/13 13:01:25.000   78.254768704   16.249398280   343.8201   2   9   0.0155   0.0143   0.0197   0.0063  -0.0043  -0.0065   0.00    1.0
2018/03/13 13:01:26.000   78.254768814   16.249398547   343.8258   2   9   0.0154   0.0143   0.0196   0.0063  -0.0043  -0.0065   0.00    1.0
2018/03/13 13:01:27.000   78.254768916   16.249398819   343.8327   2   9   0.0154   0.0142   0.0195   0.0063  -0.0043  -0.0065   0.00    1.0
2018/03/13 13:01:28.000   78.254769018   16.249399000   343.8386   2   9   0.0153   0.0142   0.0194   0.0063  -0.0043  -0.0065   0.00    1.0
2018/03/13 13:01:29.000   78.254769111   16.249399114   343.8452   2   9   0.0153   0.0142   0.0193   0.0063  -0.0043  -0.0065   0.00    1.0
2018/03/13 13:01:30.000   78.254769200   16.249399226   343.8529   2   9   0.0152   0.0141   0.0192   0.0063  -0.0043  -0.0064   0.00    1.0
2018/03/13 13:01:31.000   78.254769293   16.249399349   343.8601   2   9   0.0152   0.0141   0.0192   0.0063  -0.0043  -0.0064   0.00    1.0
2018/03/13 13:01:32.000   78.254769380   16.249399438   343.8675   2   9   0.0151   0.0140   0.0191   0.0063  -0.0043  -0.0064   0.00    1.0
2018/03/13 13:01:33.000   78.254769469   16.249399493   343.8743   2   9   0.0151   0.0140   0.0190   0.0063  -0.0043  -0.0064   0.00    1.0
2018/03/13 13:01:34.000   78.254769552   16.249399528   343.8820   2   9   0.0150   0.0139   0.0189   0.0063  -0.0043  -0.0064   0.00    1.0
2018/03/13 13:01:35.000   78.254769638   16.249399539   343.8902   2   9   0.0150   0.0139   0.0188   0.0063  -0.0043  -0.0064   0.00    1.0
2018/03/13 13:01:36.000   78.254769712   16.249399541   343.9000   2   9   0.0150   0.0139   0.0188   0.0063  -0.0043  -0.0064   0.00    1.0
2018/03/13 13:01:37.000   78.254769786   16.249399561   343.9090   2   9   0.0149   0.0138   0.0187   0.0062  -0.0043  -0.0064   0.00    1.0
2018/03/13 13:01:38.000   78.254769842   16.249399521   343.9191   2   9   0.0149   0.0138   0.0186   0.0062  -0.0043  -0.0064   0.00    1.0
2018/03/13 13:01:39.000   78.254769892   16.249399445   343.9279   2   9   0.0148   0.0137   0.0185   0.0062  -0.0043  -0.0063   0.00    1.0
2018/03/13 13:01:40.000   78.254769939   16.249399367   343.9360   2   9   0.0148   0.0137   0.0184   0.0062  -0.0043  -0.0063   0.00    1.0
2018/03/13 13:01:41.000   78.254769987   16.249399284   343.9427   2   9   0.0147   0.0136   0.0184   0.0062  -0.0043  -0.0063   0.00    1.0
2018/03/13 13:01:42.000   78.254770024   16.249399212   343.9494   2   9   0.0147   0.0136   0.0183   0.0062  -0.0043  -0.0063   0.00    1.0
2018/03/13 13:01:43.000   78.254770049   16.249399147   343.9548   2   9   0.0146   0.0136   0.0182   0.0062  -0.0043  -0.0063   0.00    1.0
2018/03/13 13:01:44.000   78.254770072   16.249399082   343.9590   2   9   0.0146   0.0135   0.0181   0.0062  -0.0043  -0.0063   0.00    1.0
2018/03/13 13:01:45.000   78.254770096   16.249398988   343.9622   2   9   0.0145   0.0135   0.0181   0.0062  -0.0043  -0.0063   0.00    1.0
2018/03/13 13:01:46.000   78.254770117   16.249398832   343.9646   2   9   0.0145   0.0134   0.0180   0.0062  -0.0043  -0.0063   0.00    1.0
2018/03/13 13:01:47.000   78.254770132   16.249398722   343.9667   2   9   0.0145   0.0134   0.0179   0.0062  -0.0043  -0.0063   0.00    1.1
2018/03/13 13:01:48.000   78.254770134   16.249398621   343.9694   2   9   0.0144   0.0134   0.0179   0.0062  -0.0043  -0.0062   0.00    1.1
2018/03/13 13:01:49.000   78.254770133   16.249398536   343.9724   2   9   0.0144   0.0133   0.0178   0.0061  -0.0043  -0.0062   0.00    1.1
2018/03/13 13:01:50.000   78.254770124   16.249398506   343.9760   2   9   0.0143   0.0133   0.0177   0.0061  -0.0043  -0.0062   0.00    1.1
2018/03/13 13:01:51.000   78.254770107   16.249398535   343.9803   2   9   0.0143   0.0132   0.0176   0.0061  -0.0043  -0.0062   0.00    1.1
2018/03/13 13:01:52.000   78.254770084   16.249398631   343.9837   2   9   0.0142   0.0132   0.0176   0.0061  -0.0043  -0.0062   0.00    1.1
2018/03/13 13:01:53.000   78.254770059   16.249398727   343.9861   2   9   0.0142   0.0132   0.0175   0.0061  -0.0043  -0.0062   0.00    1.0
2018/03/13 13:01:54.000   78.254770034   16.249398835   343.9866   2   9   0.0142   0.0131   0.0174   0.0061  -0.0043  -0.0062   0.00    1.0
2018/03/13 13:01:55.000   78.254770012   16.249398923   343.9865   2   9   0.0141   0.0131   0.0174   0.0061  -0.0043  -0.0062   0.00    1.0
2018/03/13 13:01:56.000   78.254769995   16.249399030   343.9861   2   9   0.0141   0.0131   0.0173   0.0061  -0.0043  -0.0062   0.00    1.0
2018/03/13 13:01:57.000   78.254769986   16.249399210   343.9859   2   9   0.0140   0.0130   0.0172   0.0061  -0.0043  -0.0061   0.00    1.0
2018/03/13 13:01:58.000   78.254769972   16.249399392   343.9870   2   9   0.0140   0.0130   0.0171   0.0061  -0.0043  -0.0061   0.00    1.0
2018/03/13 13:01:59.000   78.254769967   16.249399591   343.9877   2   9   0.0140   0.0129   0.0171   0.0061  -0.0042  -0.0061   0.00    1.0
2018/03/13 13:02:00.000   78.254769960   16.249399720   343.9878   2   9   0.0139   0.0129   0.0170   0.0060  -0.0042  -0.0061   0.00    1.0
2018/03/13 13:02:01.000   78.254769965   16.249399810   343.9872   2   9   0.0139   0.0129   0.0169   0.0060  -0.0042  -0.0061   0.00    1.0
2018/03/13 13:02:02.000   78.254769977   16.249399858   343.9865   2   9   0.0138   0.0128   0.0169   0.0060  -0.0042  -0.0061   0.00    1.0
2018/03/13 13:02:03.000   78.254769995   16.249399878   343.9848   2   9   0.0138   0.0128   0.0168   0.0060  -0.0042  -0.0061   0.00    1.0
2018/03/13 13:02:04.000   78.254770018   16.249399956   343.9825   2   9   0.0138   0.0128   0.0168   0.0060  -0.0042  -0.0061   0.00    1.0
2018/03/13 13:02:05.000   78.254770046   16.249400031   343.9790   2   9   0.0137   0.0127   0.0167   0.0060  -0.0042  -0.0061   0.00    1.0
2018/03/13 13:02:06.000   78.254770077   16.249400086   343.9764   2   9   0.0137   0.0127   0.0166   0.0060  -0.0042  -0.0060   0.00    1.0
2018/03/13 13:02:07.000   78.254770114   16.249400130   343.9725   2   9   0.0136   0.0126   0.0166   0.0060  -0.0042  -0.0060   0.00    1.0
2018/03/13 13:02:08.000   78.254770148   16.249400141   343.9679   2   9   0.0136   0.0126   0.0165   0.0060  -0.0042  -0.0060   0.00    1.0
2018/03/13 13:02:09.000   78.254770187   16.249400159   343.9642   2   9   0.0136   0.0126   0.0164   0.0060  -0.0042  -0.0060   0.00    1.0
2018/03/13 13:02:10.000   78.254770235   16.249400166   343.9593   2   9   0.0135   0.0125   0.0164   0.0060  -0.0042  -0.0060   0.00    1.0
2018/03/13 13:02:11.000   78.254770281   16.249400179   343.9545   2   9   0.0135   0.0125   0.0163   0.0059  -0.0042  -0.0060   0.00    1.0
2018/03/13 13:02:12.000   78.254770330   16.249400231   343.9504   2   9   0.0134   0.0125   0.0162   0.0059  -0.0042  -0.0060   0.00    1.0
2018/03/13 13:02:13.000   78.254770391   16.249400277   343.9458   2   9   0.0134   0.0124   0.0162   0.0059  -0.0042  -0.0060   0.00    1.0
2018/03/13 13:02:14.000   78.254770459   16.249400323   343.9407   2   9   0.0134   0.0124   0.0161   0.0059  -0.0042  -0.0060   0.00    1.0
2018/03/13 13:02:15.000   78.254770528   16.249400395   343.9361   2   9   0.0133   0.0124   0.0161   0.0059  -0.0042  -0.0059   0.00    1.0
2018/03/13 13:02:16.000   78.254770598   16.249400478   343.9313   2   9   0.0133   0.0123   0.0160   0.0059  -0.0042  -0.0059   0.00    1.0
2018/03/13 13:02:17.000   78.254770663   16.249400585   343.9263   2   9   0.0133   0.0123   0.0159   0.0059  -0.0042  -0.0059   0.00    1.0
2018/03/13 13:02:18.000   78.254770722   16.249400752   343.9218   2   9   0.0132   0.0123   0.0159   0.0059  -0.0042  -0.0059   0.00    1.0
2018/03/13 13:02:19.000   78.254770776   16.249400985   343.9178   2   9   0.0132   0.0122   0.0158   0.0059  -0.0042  -0.0059   0.00    1.0
2018/03/13 13:02:20.000   78.254770827   16.249401263   343.9152   2   9   0.0131   0.0122   0.0158   0.0059  -0.0041  -0.0059   0.00    1.0
2018/03/13 13:02:21.000   78.254770893   16.249401580   343.9104   2   9   0.0131   0.0122   0.0157   0.0059  -0.0041  -0.0059   0.00    1.0
2018/03/13 13:02:22.000   78.254770955   16.249401872   343.9066   2   9   0.0131   0.0121   0.0156   0.0058  -0.0041  -0.0059   0.00    1.0
2018/03/13 13:02:23.000   78.254771022   16.249402196   343.9034   2   9   0.0130   0.0121   0.0156   0.0058  -0.0041  -0.0059   0.00    1.0
2018/03/13 13:02:24.000   78.254771085   16.249402523   343.9000   2   9   0.0130   0.0121   0.0155   0.0058  -0.0041  -0.0058   0.00    1.0
2018/03/13 13:02:25.000   78.254771150   16.249402879   343.8978   2   9   0.0130   0.0120   0.0155   0.0058  -0.0041  -0.0058   0.00    1.0
2018/03/13 13:02:26.000   78.254771206   16.249403235   343.8969   2   9   0.0129   0.0120   0.0154   0.0058  -0.0041  -0.0058   0.00    1.0
2018/03/13 13:02:27.000   78.254771262   16.249403611   343.8959   2   9   0.0129   0.0120   0.0154   0.0058  -0.0041  -0.0058   0.00    1.0
2018/03/13 13:02:28.000   78.254771308   16.249403954   343.8949   2   9   0.0129   0.0119   0.0153   0.0058  -0.0041  -0.0058   0.00    1.0
2018/03/13 13:02:29.000   78.254771342   16.249404247   343.8939   2   9   0.0128   0.0119   0.0153   0.0058  -0.0041  -0.0058   0.00    1.0
2018/03/13 13:02:30.000   78.254771372   16.249404475   343.8942   2   9   0.0128   0.0119   0.0152   0.0058  -0.0041  -0.0058   0.00    1.0
2018/03/13 13:02:31.000   78.254771394   16.249404627   343.8952   2   9   0.0128   0.0118   0.0151   0.0058  -0.0041  -0.0058   0.00    1.0
2018/03/13 13:02:32.000   78.254771404   16.249404726   343.8956   2   9   0.0127   0.0118   0.0151   0.0058  -0.0041  -0.0058   0.00    1.0
2018/03/13 13:02:33.000   78.254771403   16.249404818   343.8971   2   9   0.0127   0.0118   0.0150   0.0057  -0.0041  -0.0057   0.00    1.0
2018/03/13 13:02:34.000   78.254771398   16.249404866   343.8974   2   9   0.0126   0.0117   0.0150   0.0057  -0.0041  -0.0057   0.00    1.0
2018/03/13 13:02:35.000   78.254771380   16.249404836   343.8977   2   9   0.0126   0.0117   0.0149   0.0057  -0.0041  -0.0057   0.00    1.0
2018/03/13 13:02:36.000   78.254771364   16.249404757   343.8978   2   9   0.0126   0.0117   0.0149   0.0057  -0.0041  -0.0057   0.00    1.0
2018/03/13 13:02:37.000   78.254771334   16.249404636   343.8978   2   9   0.0125   0.0116   0.0148   0.0057  -0.0041  -0.0057   0.00    1.0
2018/03/13 13:02:38.000   78.254771297   16.249404497   343.8979   2   9   0.0125   0.0116   0.0148   0.0057  -0.0041  -0.0057   0.00    1.0
2018/03/13 13:02:39.000   78.254771258   16.249404342   343.8989   2   9   0.0125   0.0116   0.0147   0.0057  -0.0040  -0.0057   0.00    1.0
2018/03/13 13:02:40.000   78.254771216   16.249404179   343.9003   2   9   0.0124   0.0115   0.0147   0.0057  -0.0040  -0.0057   0.00    1.0
2018/03/13 13:02:41.000   78.254771173   16.249403972   343.8999   2   9   0.0124   0.0115   0.0146   0.0057  -0.0040  -0.0057   0.00    1.0
2018/03/13 13:02:42.000   78.254771126   16.249403725   343.8998   2   9   0.0124   0.0115   0.0146   0.0057  -0.0040  -0.0056   0.00    1.0
2018/03/13 13:02:43.000   78.254771083   16.249403429   343.8989   2   9   0.0123   0.0115   0.0145   0.0057  -0.0040  -0.0056   0.00    1.0
2018/03/13 13:02:44.000   78.254771042   16.249403097   343.8976   2   9   0.0123   0.0114   0.0145   0.0056  -0.0040  -0.0056   0.00    1.0
2018/03/13 13:02:45.000   78.254770999   16.249402729   343.8952   2   9   0.0123   0.0114   0.0144   0.0056  -0.0040  -0.0056   0.00    1.0
2018/03/13 13:02:46.000   78.254770959   16.249402378   343.8920   2   9   0.0122   0.0114   0.0144   0.0056  -0.0040  -0.0056   0.00    1.0
2018/03/13 13:02:47.000   78.254770925   16.249402027   343.8883   2   9   0.0122   0.0113   0.0143   0.0056  -0.0040  -0.0056   0.00    1.0
2018/03/13 13:02:48.000   78.254770903   16.249401696   343.8844   2   9   0.0122   0.0113   0.0143   0.0056  -0.0040  -0.0056   0.00    1.0
2018/03/13 13:02:49.000   78.254770884   16.249401368   343.8799   2   9   0.0121   0.0113   0.0142   0.0056  -0.0040  -0.0056   0.00    1.0
2018/03/13 13:02:50.000   78.254770876   16.249401075   343.8756   2   9   0.0121   0.0112   0.0142   0.0056  -0.0040  -0.0056   0.00    1.0
2018/03/13 13:02:51.000   78.254770873   16.249400777   343.8711   2   9   0.0121   0.0112   0.0141   0.0056  -0.0040  -0.0055   0.00    1.0
2018/03/13 13:02:52.000   78.254770870   16.249400524   343.8664   2   9   0.0121   0.0112   0.0141   0.0056  -0.0040  -0.0055   0.00    1.0
2018/03/13 13:02:53.000   78.254770869   16.249400285   343.8620   2   9   0.0120   0.0112   0.0140   0.0056  -0.0040  -0.0055   0.00    1.0
2018/03/13 13:02:54.000   78.254770872   16.249400052   343.8575   2   9   0.0120   0.0111   0.0140   0.0056  -0.0040  -0.0055   0.00    1.0
2018/03/13 13:02:55.000   78.254770878   16.249399875   343.8536   2   9   0.0120   0.0111   0.0139   0.0055  -0.0040  -0.0055   0.00    1.0
2018/03/13 13:02:56.000   78.254770891   16.249399705   343.8495   2   9   0.0119   0.0111   0.0139   0.0055  -0.0039  -0.0055   0.00    1.0
2018/03/13 13:02:57.000   78.254770909   16.249399606   343.8442   2   9   0.0119   0.0110   0.0138   0.0055  -0.0039  -0.0055   0.00    1.0
2018/03/13 13:02:58.000   78.254770926   16.249399588   343.8399   2   9   0.0119   0.0110   0.0138   0.0055  -0.0039  -0.0055   0.00    1.1
2018/03/13 13:02:59.000   78.254770943   16.249399627   343.8353   2   9   0.0118   0.0110   0.0137   0.0055  -0.0039  -0.0055   0.00    1.1
2018/03/13 13:03:00.000   78.254770955   16.249399666   343.8306   2   9   0.0118   0.0110   0.0137   0.0055  -0.0039  -0.0054   0.00    1.1
2018/03/13 13:03:01.000   78.254770975   16.249399717   343.8259   2   9   0.0118   0.0109   0.0137   0.0055  -0.0039  -0.0054   0.00    1.1
2018/03/13 13:03:02.000   78.254771004   16.249399750   343.8210   2   9   0.0117   0.0109   0.0136   0.0055  -0.0039  -0.0054   0.00    1.1
2018/03/13 13:03:03.000   78.254771032   16.249399797   343.8161   2   9   0.0117   0.0109   0.0136   0.0055  -0.0039  -0.0054   0.00    1.1
2018/03/13 13:03:04.000   78.254771065   16.249399877   343.8097   2   9   0.0117   0.0108   0.0135   0.0055  -0.0039  -0.0054   0.00    1.1
2018/03/13 13:03:05.000   78.254771100   16.249399972   343.8037   2   9   0.0117   0.0108   0.0135   0.0055  -0.0039  -0.0054   0.00    1.1
2018/03/13 13:03:06.000   78.254771130   16.249400075   343.7980   2   9   0.0116   0.0108   0.0134   0.0054  -0.0039  -0.0054   0.00    1.1
2018/03/13 13:03:07.000   78.254771161   16.249400160   343.7913   2   9   0.0116   0.0108   0.0134   0.0054  -0.0039  -0.0054   0.00    1.1
