     2.11           OBSERVATION DATA    M (MIXED)           RINEX VERSION / TYPE
teqc  2018Mar15                         20180319 14:17:34UTCPGM / RUN BY / DATE
Linux 2.6.32-573.12.1.x86_64|x86_64|gcc -static|Linux 64|=+ COMMENT
END OF STATIC MODE OBSERVATION                              COMMENT
BIT 2 OF LLI FLAGS DATA COLLECTED UNDER A/S CONDITION       COMMENT
-Unknown-                                                   MARKER NAME
4625                                                        MARKER NUMBER
-Unknown-           -Unknown-                               OBSERVER / AGENCY
5127468778          TRIMBLE             4.63                REC # / TYPE / VERS
47477114                            NONE                    ANT # / TYPE
   304804.7059        0.0000  6349489.4301                  APPROX POSITION XYZ
        0.0000        0.0000        0.0000                  ANTENNA: DELTA H/E/N
     1     1                                                WAVELENGTH FACT L1/2
     7    L1    L2    C1    P1    P2    S1    S2            # / TYPES OF OBSERV
    18                                                      LEAP SECONDS
 SNR is mapped to RINEX snr flag value [0-9]                COMMENT
  L1 & L2: min(max(int(snr_dBHz/6), 0), 9)                  COMMENT
  2018     3    16    10     2   44.0000000     GPS         TIME OF FIRST OBS
                                                            END OF HEADER
 18  3 16 10  2 44.0000000  0 17R01G27G30G15R10R07R16R17R18R24G20G21
                                R09G08G28G07G13
                  85935318.800 6  20669109.297                    20669112.082
                        37.000
 119648086.420 7  93232306.89645  22768276.664                    22768281.926
        42.800          31.700
 112703602.547 8  87820945.93646  21446782.367                    21446787.895
        50.300          38.800
 115023605.124 8  89628798.81645  21888264.766                    21888268.164
        48.800          35.400
                  89288985.216 6  21536202.453                    21536206.535
                        36.700
                  94955032.065 6  22806508.492                    22806511.523
                        40.500
                  91630964.091 6  22054511.492                    22054513.254
                        36.900
                  87100553.415 6  20927341.234                    20927341.766
                        39.700
                  88698583.007 6  21363726.523                    21363728.250
                        39.500
                                  23549163.930

 114741382.692 7  89408880.97245  21834559.211                    21834562.184
        44.600          32.500
 126018444.172 7  98196222.63444  23980518.359                    23980519.043
        44.000          24.700
                  81150604.339 6  19538873.938                    19538874.301
                        41.700
 117860782.481 8  91839744.03845  22428197.352                    22428203.863
        48.000          35.600
 117844311.259 7  91826749.57745  22425026.219                    22425028.785
        45.500          31.600
 120057226.508 7  93551076.99345  22846129.219                    22846133.309
        45.200          31.200
 109927813.580 8  85658013.01146  20918566.594                    20918569.664
        49.000          36.600
 18  3 16 10  2 45.0000000  0 17R01G27G30G15R10R07R16R17R18R24G20G21
                                R09G08G28G07G13
                  85933545.748 6  20668683.039                    20668685.797
                        36.600
 119650258.527 7  93233999.44845  22768689.320                    22768695.336
        42.500          31.400
 112705556.923 8  87822468.83346  21447153.930                    21447159.891
        50.500          39.000
 115021842.874 8  89627425.67245  21887929.172                    21887932.871
        48.800          35.200
                  89286169.370 6  21535523.070                    21535527.250
                        37.500
                  94958680.051 6  22807384.734                    22807387.680
                        41.100
                  91634294.820 6  22055313.211                    22055314.422
                        36.700
                  87101844.466 6  20927650.680                    20927651.824
                        39.300
                  88696699.350 6  21363272.563                    21363274.766
                        40.200
                  97947565.17013  23550025.984                    23550028.496
                        22.700
 114742658.930 7  89409875.42945  21834802.438                    21834805.078
        44.800          32.100
 126020511.979 7  98197833.91444  23980911.969                    23980912.805
        44.100          25.300
                  81150853.720 6  19538934.289                    19538934.160
                        41.900
 117860196.437 8  91839287.39445  22428085.961                    22428092.262
        48.000          35.800
 117842255.550 7  91825147.73845  22424635.500                    22424637.934
        45.600          31.300
 120060458.940 7  93553595.74545  22846744.508                    22846747.922
        45.200          31.200
 109927716.317 8  85657937.22946  20918548.516                    20918551.477
        49.200          37.100
 18  3 16 10  2 46.0000000  0 17R01G27G30G15R10R07R16R17R18R24G20G21
                                R09G08G28G07G13
                  85931773.150 6  20668256.000                    20668259.055
                        36.700
 119652431.105 6  93235692.37345  22769103.258                    22769108.484
        41.800          31.200
 112707511.721 8  87823992.06446  21447525.750                    21447531.668
        50.300          39.100
 115020081.062 8  89626052.86345  21887594.094                    21887597.633
        48.900          35.200
                  89283353.735 6  21534843.969                    21534848.445
                        37.000
                  94962328.118 6  22808261.047                    22808264.020
                        40.600
                  91637625.705 5  22056114.531                    22056116.355
                        35.900
                  87103136.083 6  20927961.586                    20927962.016
                        39.100
                  88694816.141 6  21362818.758                    21362820.973
                        39.800
                  97951151.35413  23550888.617                    23550890.809
                        23.800
 114743935.701 7  89410870.30945  21835045.477                    21835048.039
        44.700          32.200
 126022580.081 7  98199445.41644  23981305.750                    23981306.059
        44.700          25.400
                  81151103.704 6  19538994.211                    19538994.352
                        41.800
 117859610.944 8  91838831.17945  22427974.766                    22427980.969
        48.200          35.900
 117840200.142 7  91823546.13045  22424243.742                    22424246.871
        45.700          31.500
 120063691.571 7  93556114.63345  22847360.313                    22847362.980
        45.000          32.200
 109927619.630 8  85657861.88746  20918530.016                    20918532.809
        49.500          37.000
 18  3 16 10  2 47.0000000  0 17R01G27G30G15R10R07R16R17R18R24G20G21
                                R09G08G28G07G13
                  85930001.000 6  20667830.469                    20667833.516
                        37.100
 119654604.100 7  93237385.61745  22769516.633                    22769522.031
        42.200          31.200
 112709466.906 8  87825515.59346  21447898.211                    21447903.984
        49.600          39.100
 115018319.622 8  89624680.33745  21887259.016                    21887262.309
        49.200          35.100
                  89280538.273 6  21534164.758                    21534169.379
                        37.200
                  94965976.263 6  22809137.313                    22809140.602
                        41.000
                  91640956.697 6  22056916.766                    22056917.836
                        36.800
                  87104428.296 6  20928271.633                    20928272.445
                        39.300
                  88692933.362 6  21362365.930                    21362367.133
                        39.700
                  97954737.60913  23551750.977                    23551753.031
                        23.800
 114745212.957 7  89411865.56845  21835288.195                    21835291.180
        45.000          32.400
 126024648.436 7  98201057.12444  23981699.281                    23981699.977
        44.800          26.100
                  81151354.248 6  19539055.070                    19539054.391
                        41.800
 117859025.956 8  91838375.36345  22427863.586                    22427869.656
        48.200          35.600
 117838144.984 7  91821944.71445  22423852.648                    22423855.492
        45.800          31.500
 120066924.389 7  93558633.67045  22847975.977                    22847978.184
        45.800          32.100
 109927523.418 8  85657786.91846  20918511.734                    20918514.176
        48.900          37.600
 18  3 16 10  2 48.0000000  0 17R01G27G30G15R10R07R16R17R18R24G20G21
                                R09G08G28G07G13
                  85928229.289 6  20667404.094                    20667407.254
                        36.900
 119656777.574 7  93239079.23945  22769930.273                    22769935.453
        42.000          30.000
 112711422.502 8  87827039.42946  21448270.844                    21448275.711
        50.200          38.600
 115016558.636 8  89623308.14545  21886924.313                    21886927.164
        49.100          35.200
                  89277723.063 6  21533485.977                    21533490.184
                        36.900
                  94969624.484 6  22810013.547                    22810016.523
                        40.600
                  91644287.890 6  22057718.078                    22057719.383
                        36.700
                  87105721.113 6  20928582.117                    20928583.238
                        39.400
                  88691051.083 6  21361911.969                    21361914.051
                        39.700
                  97958324.047 3  23552613.586                    23552615.266
                        23.200
 114746490.768 7  89412861.27145  21835531.250                    21835534.117
        45.100          32.200
 126026717.116 7  98202669.08944  23982092.844                    23982093.633
        45.100          25.200
                  81151605.356 6  19539115.305                    19539115.109
                        41.800
 117858441.491 8  91837919.94845  22427751.930                    22427758.105
        48.000          35.500
 117836090.211 7  91820343.60145  22423461.820                    22423464.258
        45.700          31.300
 120070157.455 7  93561152.91145  22848591.188                    22848593.910
        46.000          32.600
 109927427.780 8  85657712.40246  20918493.406                    20918496.605
        49.000          37.100
 18  3 16 10  2 49.0000000  0 17R01G27G30G15R10R07R16R17R18R24G20G21
                                R09G08G28G07G13
                  85926458.078 6  20666978.398                    20666981.129
                        37.000
 119658951.584 7  93240773.27045  22770344.195                    22770349.410
        42.000          31.000
 112713378.635 8  87828563.68246  21448642.766                    21448647.945
        50.300          38.900
 115014798.104 8  89621936.29045  21886588.828                    21886591.828
        49.300          35.100
                  89274908.114 6  21532806.531                    21532811.246
                        36.700
                  94973272.874 6  22810889.672                    22810892.922
                        40.800
                  91647619.260 6  22058520.531                    22058521.625
                        36.900
                  87107014.549 6  20928892.414                    20928893.438
                        39.600
                  88689169.334 6  21361459.430                    21361460.930
                        39.700
                  97961910.622 4  23553475.352                    23553477.297
                        24.300
 114747769.163 7  89413857.43345  21835774.750                    21835777.461
        45.400          33.100
 126028786.141 7  98204281.32644  23982486.492                    23982487.352
        45.100          25.700
                  81151857.010 7  19539176.133                    19539176.414
                        42.000
 117857857.614 7  91837464.98445  22427641.109                    22427646.875
        47.900          35.600
 117834035.743 7  91818742.72945  22423071.039                    22423073.379
        45.100          32.000
 120073390.786 7  93563672.37345  22849206.633                    22849209.289
        46.700          32.700
 109927332.753 8  85657638.35646  20918475.375                    20918478.234
        49.300          37.000
 18  3 16 10  2 50.0000000  0 17R01G27G30G15R10R07R16R17R18R24G20G21
                                R09G08G28G07G13
                  85924687.291 6  20666552.336                    20666555.090
                        37.000
 119661126.089 6  93242467.67645  22770757.914                    22770763.035
        41.400          30.300
 112715335.242 8  87830088.32146  21449014.852                    21449020.418
        50.200          38.400
 115013038.064 8  89620564.81945  21886253.805                    21886256.895
        48.800          34.900
                  89272093.388 6  21532127.773                    21532132.191
                        36.900
                  94976921.352 6  22811767.516                    22811768.938
                        40.200
                  91650950.851 6  22059321.695                    22059322.727
                        37.100
                  87108308.603 6  20929203.227                    20929205.012
                        39.600
                  88687288.076 6  21361005.516                    21361008.082
                        39.800
                  97965497.316 4  23554338.336                    23554339.777
                        24.500
 114749048.067 7  89414853.98145  21836017.773                    21836020.336
        45.200          32.400
 126030855.492 7  98205893.81344  23982880.188                    23982881.129
        45.100          26.300
                  81152109.258 6  19539236.430                    19539236.738
                        41.900
 117857274.258 7  91837010.41945  22427530.039                    22427536.145
        47.800          35.300
 117831981.599 7  91817142.11045  22422680.242                    22422682.496
        44.400          31.700
 120076624.334 7  93566192.02345  22849822.414                    22849824.691
        47.500          32.100
 109927238.277 8  85657564.75146  20918457.633                    20918460.133
        48.600          37.100
 18  3 16 10  2 51.0000000  0 17R01G27G30G15R10R07R16R17R18R24G20G21
                                R09G08G28G07G13
                  85922916.951 6  20666125.938                    20666129.910
                        36.700
 119663301.048 6  93244162.44545  22771171.938                    22771177.164
        41.700          31.000
 112717292.261 8  87831613.28846  21449387.094                    21449393.215
        50.100          38.600
 115011278.481 8  89619193.72545  21885919.031                    21885921.961
        49.000          35.000
                  89269278.901 6  21531449.680                    21531452.797
                        37.100
                  94980569.906 6  22812643.180                    22812645.883
                        40.400
                  91654282.631 6  22060123.563                    22060125.402
                        36.900
                  87109603.215 6  20929514.305                    20929515.879
                        39.300
                  88685407.295 6  21360553.133                    21360554.559
                        39.900
                  97969084.123 3  23555200.273                    23555202.328
                        22.700
 114750327.528 7  89415850.97045  21836261.773                    21836264.141
        44.900          32.400
 126032925.146 7  98207506.53744  23983274.125                    23983274.898
        44.900          26.100
                  81152362.088 6  19539297.031                    19539297.383
                        41.600
 117856691.470 7  91836556.28245  22427419.570                    22427425.250
        47.900          35.500
 117829927.753 7  91815541.71745  22422289.141                    22422291.762
        45.000          32.000
 120079858.156 7  93568711.88845  22850437.648                    22850440.293
        47.800          32.700
 109927144.354 8  85657491.56946  20918439.469                    20918442.156
        49.100          37.300
 18  3 16 10  2 52.0000000  0 17R01G27G30G15R10R07R16R17R18R24G20G21
                                R09G08G28G07G13
                  85921147.073 5  20665700.672                    20665703.633
                        35.900
 119665476.496 6  93245857.59645  22771585.719                    22771590.676
        41.600          30.400
 112719249.659 8  87833138.54646  21449760.109                    21449765.492
        50.500          38.600
 115009519.307 8  89617822.94945  21885584.172                    21885587.543
        48.800          34.800
                  89266464.659 6  21530770.008                    21530775.027
                        36.100
                  94984218.564 6  22813518.609                    22813521.523
                        40.700
                  91657614.617 6  22060926.500                    22060927.590
                        36.600
                  87110898.453 6  20929824.766                    20929826.855
                        39.500
                  88683526.977 6  21360100.313                    21360101.664
                        39.800
                  97972671.075 3  23556062.250                    23556064.184
                        22.800
 114751607.533 7  89416848.37645  21836505.273                    21836507.813
        45.000          32.400
 126034995.112 7  98209119.50044  23983667.609                    23983668.871
        44.500          26.200
                  81152615.463 6  19539358.383                    19539358.809
                        41.700
 117856109.210 7  91836102.55345  22427308.711                    22427314.484
        47.600          35.300
 117827874.250 7  91813941.58945  22421898.727                    22421901.152
        44.900          31.700
 120083092.172 7  93571231.91445  22851052.867                    22851055.492
        47.500          32.400
 109927050.980 8  85657418.81346  20918421.672                    20918424.906
        49.500          36.900
 18  3 16 10  2 53.0000000  0 17R01G27G30G15R10R07R16R17R18R24G20G21
                                R09G08G28G07G13
                  85919377.643 6  20665273.977                    20665277.887
                        36.800
 119667652.395 6  93247553.10345  22772000.188                    22772005.156
        41.900          30.800
 112721207.491 8  87834664.13346  21450132.195                    21450138.027
        50.000          38.900
 115007760.592 8  89616452.52345  21885249.570                    21885252.742
        48.900          34.900
                  89263650.620 6  21530091.141                    21530095.598
                        36.500
                  94987867.322 6  22814395.422                    22814397.813
                        40.900
                  91660946.755 6  22061727.508                    22061729.336
                        36.300
                  87112194.265 6  20930136.953                    20930138.793
                        39.400
                  88681647.142 6  21359646.906                    21359649.223
                        39.600
                  97976258.168 3  23556925.320                    23556927.055
                        22.700
 114752888.048 7  89417846.17945  21836748.969                    21836751.625
        45.400          32.600
 126037065.396 7  98210732.71444  23984061.180                    23984063.105
        43.600          25.300
                  81152869.411 6  19539419.367                    19539419.648
                        41.700
 117855527.485 8  91835649.25446  22427197.617                    22427203.461
        48.100          36.000
 117825821.062 7  91812341.71745  22421507.820                    22421510.586
        45.000          32.700
 120086326.364 7  93573752.07345  22851667.742                    22851671.293
        47.200          32.000
 109926958.122 8  85657346.45846  20918403.906                    20918406.938
        48.900          36.900
 18  3 16 10  2 54.0000000  0 17R01G27G30G15R10R07R16R17R18R24G20G21
                                R09G08G28G07G13
                  85917608.673 6  20664849.656                    20664852.719
                        36.500
 119669828.784 6  93249248.98245  22772414.258                    22772419.020
        41.700          30.500
 112723165.784 8  87836190.06246  21450504.836                    21450510.305
        49.600          39.100
 115006002.296 8  89615082.43445  21884915.078                    21884918.641
        48.900          35.400
                  89260836.847 6  21529413.797                    21529416.906
                        36.500
                  94991516.174 6  22815271.719                    22815274.383
                        40.900
                  91664279.036 6  22062529.148                    22062532.070
                        36.100
                  87113490.658 6  20930449.461                    20930450.180
                        39.400
                  88679767.784 6  21359194.242                    21359196.840
                        39.800
                  97979845.384 3  23557786.695                    23557789.426
                        22.700
 114754169.098 7  89418844.39645  21836992.977                    21836995.043
        44.900          32.400
 126039135.985 7  98212346.15744  23984455.289                    23984457.070
        43.200          25.600
                  81153123.960 6  19539480.703                    19539481.035
                        41.900
 117854946.326 8  91835196.39646  22427087.328                    22427093.176
        48.200          36.600
 117823768.183 7  91810742.09445  22421116.945                    22421119.961
        45.300          31.800
 120089560.809 7  93576272.41745  22852282.688                    22852286.141
        46.800          31.600
 109926865.852 8  85657274.55846  20918386.656                    20918389.535
        49.100          36.300
 18  3 16 10  2 55.0000000  0 17R01G27G30G15R10R07R16R17R18R24G20G21
                                R09G08G28G07G13
                  85915840.114 6  20664423.820                    20664427.621
                        36.800
 119672005.618 6  93250945.22545  22772828.195                    22772833.363
        41.400          30.400
 112725124.457 8  87837716.29546  21450877.648                    21450883.129
        49.300          38.700
 115004244.448 8  89613712.70146  21884580.453                    21884583.422
        49.100          36.000
                  89258023.263 6  21528734.852                    21528739.156
                        36.700
                  94995165.099 6  22816148.820                    22816150.844
                        41.200
                  91667611.477 6  22063332.125                    22063333.195
                        36.000
                  87114787.640 6  20930760.594                    20930761.660
                        39.600
                  88677888.881 6  21358741.594                    21358743.895
                        39.400
                  97983432.690 3  23558651.633                    23558651.977
                        22.300
 114755450.660 7  89419843.01745  21837236.648                    21837238.859
        44.400          32.600
 126041206.823 7  98213959.80744  23984848.336                    23984851.156
        42.600          26.300
                  81153379.026 6  19539542.336                    19539542.281
                        41.800
 117854365.669 8  91834743.94146  22426976.484                    22426982.742
        48.300          36.200
 117821715.541 7  91809142.65145  22420726.391                    22420729.129
        45.000          32.300
 120092795.441 7  93578792.88545  22852898.641                    22852901.984
        46.200          30.400
 109926774.051 8  85657203.02346  20918369.000                    20918371.969
        49.200          36.400
 18  3 16 10  2 56.0000000  0 17R01G27G30G15R10R07R16R17R18R24G20G21
                                R09G08G28G07G13
                  85914072.002 6  20663998.438                    20664001.887
                        36.600
 119674182.917 6  93252641.81945  22773243.492                    22773247.781
        41.800          30.200
 112727083.518 8  87839242.81346  21451250.547                    21451256.063
        48.400          38.600
 115002487.018 8  89612343.29045  21884246.219                    21884249.219
        49.400          35.700
                  89255209.869 6  21528055.094                    21528059.930
                        36.900
                  94998814.103 6  22817024.445                    22817026.980
                        41.100
                  91670944.080 6  22064134.344                    22064135.957
                        36.700
                  87116085.210 6  20931072.461                    20931073.633
                        39.700
                  88676010.431 6  21358288.461                    21358291.023
                        39.400
                  97987020.122 3  23559513.203                    23559513.949
                        22.800
 114756732.744 7  89420842.04545  21837480.469                    21837482.910
        44.300          32.400
 126043278.005 7  98215573.71644  23985242.539                    23985244.965
        42.100          24.700
                  81153634.673 6  19539604.547                    19539604.344
                        41.900
 117853785.540 8  91834291.89145  22426866.094                    22426872.086
        48.200          35.600
 117819663.205 7  91807543.44545  22420335.500                    22420338.676
        44.900          32.300
 120096030.320 7  93581313.55645  22853513.797                    22853517.652
        46.100          31.600
 109926682.824 8  85657131.92946  20918351.867                    20918354.465
        48.400          36.900
 18  3 16 10  2 57.0000000  0 17R01G27G30G15R10R07R16R17R18R24G20G21
                                R09G08G28G07G13
                  85912304.329 6  20663574.000                    20663576.992
                        36.900
 119676360.688 6  93254338.77045  22773657.500                    22773662.223
        41.700          30.200
 112729043.017 8  87840769.67346  21451623.500                    21451628.813
        48.800          38.900
 115000730.002 8  89610974.19045  21883911.766                    21883914.805
        49.300          35.500
                  89252396.723 6  21527377.656                    21527381.039
                        36.000
                  95002463.176 6  22817901.156                    22817903.406
                        41.000
                  91674276.848 6  22064935.656                    22064937.469
                        36.400
                  87117383.398 6  20931384.820                    20931385.727
                        40.000
                  88674132.445 6  21357836.859                    21357838.727
                        39.400
                  97990607.688 3  23560375.586                    23560376.734
                        22.300
 114758015.365 7  89421841.49445  21837724.664                    21837726.809
        44.000          31.500
 126045349.446 6  98217187.82644  23985636.961                    23985639.445
        41.600          24.500
                  81153890.864 6  19539665.648                    19539665.578
                        41.700
 117853205.961 8  91833840.26846  22426755.813                    22426761.426
        48.100          36.300
 117817611.170 7  91805944.46545  22419945.133                    22419948.633
        44.700          31.800
 120099265.438 7  93583834.40145  22854129.367                    22854132.656
        46.100          31.800
 109926592.140 8  85657061.25746  20918334.375                    20918337.543
        48.900          37.100
 18  3 16 10  2 58.0000000  0 17R01G27G30G15R10R07R16R17R18R24G20G21
                                R09G08G28G07G13
                  85910537.126 6  20663147.867                    20663151.383
                        36.500
 119678538.923 6  93256036.09045  22774072.133                    22774076.734
        41.700          30.400
 112731002.987 8  87842296.89246  21451996.086                    21452001.898
        48.300          38.800
 114998973.456 8  89609605.46345  21883577.469                    21883580.617
        49.200          35.400
                  89249583.824 6  21526698.547                    21526703.535
                        36.000
                  95006112.354 6  22818777.852                    22818779.996
                        41.000
                  91677609.798 5  22065737.750                    22065739.867
                        35.600
                  87118682.146 6  20931696.023                    20931697.152
                        39.700
                  88672254.913 6  21357384.625                    21357386.969
                        39.700
                  97994195.404 3  23561238.859                    23561239.508
                        22.500
 114759298.515 7  89422841.35345  21837968.930                    21837971.445
        44.100          32.300
 126047421.228 6  98218802.20144  23986030.703                    23986034.055
        41.100          25.600
                  81154147.648 6  19539727.156                    19539727.336
                        41.800
 117852626.948 7  91833389.09246  22426646.070                    22426651.805
        47.900          36.300
 117815559.462 7  91804345.73045  22419554.711                    22419557.469
        45.200          33.000
 120102500.778 7  93586355.44045  22854745.469                    22854748.320
        46.200          31.600
 109926502.023 8  85656991.03446  20918317.633                    20918320.215
        49.200          37.300
 18  3 16 10  2 59.0000000  0 17R01G27G30G15R10R07R16R17R18R24G20G21
                                R09G08G28G07G13
                  85908770.355 6  20662723.047                    20662726.750
                        36.700
 119680717.629 6  93257733.76845  22774486.359                    22774491.383
        41.800          30.600
 112732963.395 8  87843824.46646  21452369.180                    21452374.680
        48.600          38.600
 114997217.321 8  89608237.05045  21883243.148                    21883246.340
        49.200          35.700
                  89246771.153 6  21526021.383                    21526024.352
                        37.000
                  95009761.615 6  22819653.484                    22819656.414
                        41.300
                  91680942.937 6  22066541.430                    22066542.410
                        36.700
                  87119981.460 6  20932007.563                    20932009.730
                        39.500
                  88670377.871 6  21356933.703                    21356934.730
                        39.900
                  97997783.238 3  23562101.031                    23562102.387
                        22.800
 114760582.155 7  89423841.59645  21838213.188                    21838215.664
        44.300          32.200
 126049493.320 6  98220416.82644  23986424.625                    23986427.871
        40.900          24.500
                  81154404.951 6  19539788.992                    19539789.359
                        41.600
 117852048.474 8  91832938.34446  22426535.805                    22426541.555
        48.100          36.100
 117813508.030 7  91802747.19745  22419164.836                    22419167.289
        45.500          32.000
 120105736.362 7  93588876.68145  22855361.672                    22855364.047
        46.800          32.400
 109926412.465 8  85656921.25046  20918300.250                    20918303.211
        49.300          37.200
 18  3 16 10  3  0.0000000  0 17R01G27G30G15R10R07R16R17R18R24G20G21
                                R09G08G28G07G13
                  85907004.038 6  20662298.984                    20662302.215
                        36.500
 119682896.835 7  93259431.83745  22774901.133                    22774906.238
        42.600          30.900
 112734924.199 8  87845352.35446  21452742.453                    21452747.684
        48.800          38.800
 114995461.649 8  89606869.00345  21882909.125                    21882911.957
        49.400          35.300
                  89243958.685 6  21525342.594                    21525346.148
                        37.500
                  95013410.991 6  22820530.203                    22820533.488
                        41.300
                  91684276.224 6  22067342.844                    22067344.625
                        36.500
                  87121281.385 6  20932320.211                    20932322.012
                        39.300
                  88668501.322 6  21356481.883                    21356482.555
                        39.600
                  98001371.170 3  23562962.844                    23562964.867
                        23.600
 114761866.358 7  89424842.25945  21838457.688                    21838460.141
        44.700          32.600
 126051565.679 6  98222031.63044  23986818.883                    23986822.477
        40.400          24.700
                  81154662.809 6  19539851.383                    19539851.602
                        41.600
 117851470.533 8  91832488.02645  22426426.164                    22426431.906
        48.000          35.200
 117811456.921 7  91801148.91445  22418774.102                    22418776.902
        45.400          32.200
 120108972.143 7  93591398.08945  22855977.547                    22855979.879
        47.900          31.800
 109926323.436 8  85656851.88446  20918283.258                    20918285.973
        49.300          37.100
 18  3 16 10  3  1.0000000  0 17R01G27G30G15R10R07R16R17R18R24G20G21
                                R09G08G28G07G13
                  85905238.161 6  20661874.719                    20661877.574
                        36.700
 119685076.451 7  93261130.23045  22775315.844                    22775321.219
        42.900          31.100
 112736885.456 8  87846880.58546  21453115.875                    21453121.637
        48.900          38.700
 114993706.407 8  89605501.29545  21882574.820                    21882578.465
        49.100          35.700
                  89241146.418 6  21524663.242                    21524667.820
                        37.000
                  95017060.428 6  22821407.188                    22821409.742
                        41.500
                  91687609.703 6  22068144.727                    22068146.828
                        36.800
                  87122581.897 6  20932632.617                    20932634.492
                        39.300
                  88666625.213 6  21356029.594                    21356030.363
                        39.900
                  98004959.231 3  23563824.633                    23563827.250
                        22.700
 114763151.084 7  89425843.33645  21838701.625                    21838704.652
        44.100          32.300
 126053638.357 6  98223646.69844  23987213.000                    23987216.855
        40.000          25.100
                  81154921.234 6  19539913.445                    19539913.559
                        41.700
 117850893.132 8  91832038.11945  22426316.180                    22426322.039
        48.300          35.800
 117809406.107 7  91799550.87345  22418383.750                    22418386.746
        45.500          31.600
 120112208.117 7  93593919.65245  22856593.633                    22856596.102
        47.600          32.300
 109926234.943 8  85656782.94946  20918266.297                    20918269.727
        49.300          37.200
 18  3 16 10  3  2.0000000  0 17R01G27G30G15R10R07R16R17R18R24G20G21
                                R09G08G28G07G13
                  85903472.709 6  20661449.773                    20661452.633
                        36.900
 119687256.578 7  93262829.03645  22775730.383                    22775735.871
        42.500          31.100
 112738847.199 8  87848409.21246  21453488.883                    21453494.770
        49.100          38.900
 114991951.584 8  89604133.90945  21882241.297                    21882244.262
        49.100          35.000
                  89238334.391 6  21523986.164                    21523989.617
                        37.200
                  95020709.982 6  22822283.859                    22822286.535
                        41.400
                  91690943.324 6  22068947.313                    22068948.605
                        36.300
                  87123882.978 6  20932944.313                    20932947.277
                        39.600
                  88664749.573 6  21355577.367                    21355579.008
                        39.900
                  98008547.416 3  23564688.594                    23564690.070
                        22.500
 114764436.345 7  89426844.83445  21838946.523                    21838949.141
        44.400          31.900
 126055711.354 6  98225262.00143  23987607.742                    23987611.344
        39.400          22.000
                  81155180.205 6  19539975.984                    19539976.328
                        41.700
 117850316.242 8  91831588.60745  22426206.195                    22426211.977
        48.600          35.000
 117807355.579 7  91797953.05745  22417993.258                    22417996.242
        45.800          32.100
 120115444.292 7  93596441.36945  22857208.789                    22857211.680
        47.500          32.300
 109926146.994 8  85656714.43246  20918249.883                    20918252.930
        48.800          37.300
 18  3 16 10  3  3.0000000  0 17R01G27G30G15R10R07R16R17R18R24G20G21
                                R09G08G28G07G13
                  85901707.704 6  20661024.563                    20661027.949
                        36.600
 119689437.143 7  93264528.18245  22776145.508                    22776151.066
        42.400          30.900
 112740809.322 8  87849938.14346  21453862.539                    21453867.977
        49.800          38.600
 114990197.190 8  89602766.85745  21881907.586                    21881910.684
        48.800          35.600
                  89235522.614 6  21523308.109                    21523311.477
                        37.100
                  95024359.635 6  22823160.469                    22823162.988
                        41.200
                  91694277.092 6  22069750.352                    22069751.469
                        36.400
                  87125184.646 6  20933257.227                    20933259.602
                        39.100
                  88662874.425 6  21355125.727                    21355127.328
                        40.200
                  98012135.776 3  23565552.375                    23565553.063
                        21.900
 114765722.133 7  89427846.75545  21839191.023                    21839194.004
        44.100          32.000
 126057784.650 6  98226877.54644  23988002.469                    23988005.906
        39.800          24.000
                  81155439.747 6  19540038.383                    19540038.535
                        41.800
 117849739.891 8  91831139.50345  22426096.406                    22426102.246
        48.500          35.800
 117805305.392 7  91796355.50845  22417603.336                    22417606.109
        45.300          31.900
 120118680.718 7  93598963.27045  22857824.492                    22857827.727
        47.100          31.900
 109926059.604 8  85656646.33846  20918232.961                    20918236.492
        48.700          36.200
 18  3 16 10  3  4.0000000  0 17R01G27G30G15R10R07R16R17R18R24G20G21
                                R09G08G28G07G13
                  85899943.139 6  20660600.930                    20660603.395
                        36.400
 119691618.217 7  93266227.73145  22776560.758                    22776565.750
        42.900          31.300
 112742771.905 8  87851467.43146  21454236.094                    21454241.453
        49.800          38.400
 114988443.262 8  89601400.15745  21881573.563                    21881576.789
        49.200          35.200
                  89232711.048 6  21522629.141                    21522633.316
                        36.900
                  95028009.373 6  22824036.391                    22824039.426
                        40.800
                  91697611.100 5  22070552.773                    22070554.156
                        35.900
                  87126486.924 6  20933569.930                    20933572.531
                        39.100
                  88660999.761 6  21354674.086                    21354675.777
                        39.900
                  98015724.248 3  23566415.539                    23566415.563
                        22.700
 114767008.456 7  89428849.08645  21839435.289                    21839438.352
        44.100          31.800
 126059858.268 6  98228493.34844  23988397.914                    23988400.426
        40.000          24.400
                  81155699.844 6  19540100.766                    19540101.121
                        41.600
 117849164.099 8  91830690.82746  22425986.984                    22425992.797
        49.000          36.100
 117803255.515 7  91794758.20945  22417213.563                    22417215.922
        45.300          31.400
 120121917.343 7  93601485.31045  22858440.156                    22858443.617
        46.400          31.700
 109925972.772 8  85656578.67146  20918216.656                    20918219.906
        48.800          37.100
 18  3 16 10  3  5.0000000  0 17R01G27G30G15R10R07R16R17R18R24G20G21
                                R09G08G28G07G13
                  85898179.071 6  20660176.461                    20660179.250
                        36.800
 119693799.807 7  93267927.66745  22776975.813                    22776981.176
        42.100          30.800
 112744734.967 8  87852997.09346  21454609.164                    21454614.867
        49.300          38.100
 114986689.778 8  89600033.80245  21881240.023                    21881243.023
        49.100          35.200
                  89229899.735 6  21521951.406                    21521954.988
                        36.900
                  95031659.220 6  22824913.289                    22824916.457
                        40.700
                  91700945.279 6  22071354.727                    22071356.719
                        36.400
                  87127789.852 6  20933882.242                    20933885.469
                        39.400
                  88659125.619 6  21354222.359                    21354224.840
                        39.900
                  98019312.865 3  23567278.141                    23567278.145
                        22.800
 114768295.317 7  89429851.83545  21839680.633                    21839683.297
        44.300          32.100
 126061932.225 6  98230109.40743  23988791.867                    23988794.863
        40.400          23.800
                  81155960.541 6  19540164.203                    19540163.816
                        41.800
 117848588.872 8  91830242.59745  22425877.508                    22425883.160
        49.200          35.500
 117801205.982 7  91793161.18345  22416823.648                    22416826.156
        45.500          32.200
 120125154.213 7  93604007.54345  22859055.656                    22859059.633
        45.800          31.600
 109925886.500 8  85656511.44946  20918200.141                    20918203.449
        48.600          37.500
 18  3 16 10  3  6.0000000  0 17R01G27G30G15R10R07R16R17R18R24G20G21
                                R09G08G28G07G13
                  85896415.415 6  20659752.227                    20659755.250
                        36.700
 119695981.834 7  93269627.93345  22777390.539                    22777396.219
        42.100          30.600
 112746698.438 8  87854527.08246  21454983.094                    21454988.695
        49.800          38.300
 114984936.715 8  89598667.77345  21880906.406                    21880909.344
        48.700          35.200
                  89227088.638 6  21521272.898                    21521277.430
                        36.300
                  95035309.125 6  22825789.797                    22825792.664
                        40.900
                  91704279.638 6  22072157.664                    22072159.344
                        36.800
                  87129093.323 6  20934196.016                    20934198.734
                        39.600
                  88657251.960 6  21353770.172                    21353773.344
                        39.600
                  98022901.557 3  23568140.352                    23568141.254
                        23.000
 114769582.684 7  89430854.96945  21839925.641                    21839928.492
        43.600          32.200
 126064006.419 6  98231725.66744  23989187.039                    23989189.617
        41.000          25.900
                  81156221.760 6  19540227.180                    19540226.637
                        41.600
 117848014.168 8  91829794.76945  22425768.102                    22425773.938
        48.900          35.800
 117799156.721 7  91791564.36345  22416433.883                    22416435.945
        46.000          32.300
 120128391.324 7  93606529.95345  22859671.820                    22859675.266
        45.100          31.200
 109925800.779 8  85656444.65346  20918183.625                    20918187.047
        49.100          37.100
 18  3 16 10  3  7.0000000  0 17R01G27G30G15R10R07R16R17R18R24G20G21
                                R09G08G28G07G13
                  85894652.228 6  20659328.258                    20659331.512
                        36.700
 119698164.303 7  93271328.54645  22777805.945                    22777811.223
        42.800          31.200
 112748662.378 8  87856057.44346  21455357.078                    21455362.340
        50.000          38.900
 114983184.082 8  89597302.08045  21880572.664                    21880575.852
        48.500          35.200
                  89224277.794 6  21520595.313                    21520599.227
                        36.600
                  95038959.127 6  22826666.859                    22826669.672
                        41.600
                  91707614.179 6  22072959.133                    22072961.957
                        36.900
                  87130397.390 6  20934510.820                    20934511.984
                        39.600
                  88655378.786 6  21353319.602                    21353322.188
                        39.700
                  98026490.370 3  23569003.477                    23569003.949
                        21.600
 114770870.574 7  89431858.50945  21840170.977                    21840173.387
        44.500          32.400
 126066080.961 6  98233342.17744  23989582.695                    23989584.238
        41.800          27.200
                  81156483.568 6  19540289.008                    19540289.574
                        41.700
 117847440.003 8  91829347.37046  22425658.563                    22425664.902
        48.800          36.000
 117797107.814 7  91789967.82745  22416043.992                    22416046.586
        46.500          32.100
 120131628.627 7  93609052.51245  22860287.891                    22860291.199
        44.500          31.200
 109925715.609 8  85656378.29746  20918167.477                    20918170.922
        48.900          37.200
 18  3 16 10  3  8.0000000  0 17R01G27G30G15R10R07R16R17R18R24G20G21
                                R09G08G28G07G13
                  85892889.480 6  20658903.859                    20658907.063
                        36.700
 119700347.249 7  93273029.53945  22778221.563                    22778226.926
        42.200          31.100
 112750626.677 8  87857588.08946  21455730.555                    21455736.121
        49.900          38.700
 114981431.848 8  89595936.69645  21880239.328                    21880242.246
        48.600          35.900
                  89221467.180 6  21519918.398                    21519921.363
                        36.200
                  95042609.219 6  22827542.945                    22827546.105
                        41.300
                  91710948.856 6  22073763.211                    22073763.980
                        36.600
                  87131701.985 6  20934825.070                    20934825.027
                        39.600
                  88653506.089 6  21352868.688                    21352871.113
                        40.300
                                  23569866.281

 114772158.983 7  89432862.44745  21840416.117                    21840418.734
        44.600          32.600
 126068155.754 6  98234958.89144  23989977.219                    23989979.023
        41.100          26.200
                  81156745.904 6  19540353.016                    19540352.785
                        41.600
 117846866.356 8  91828900.36946  22425549.469                    22425555.875
        48.300          36.100
 117795059.130 7  91788371.45445  22415653.344                    22415656.133
        46.400          32.200
 120134866.134 7  93611575.21845  22860904.773                    22860907.332
        45.800          32.000
 109925630.969 8  85656312.35046  20918151.633                    20918154.773
        48.700          36.900
 18  3 16 10  3  9.0000000  0 17R01G27G30G15R10R07R16R17R18R24G20G21
                                R09G08G28G07G13
                  85891127.180 6  20658480.617                    20658483.500
                        36.600
 119702530.630 7  93274730.87345  22778636.922                    22778642.309
        42.700          31.800
 112752591.399 8  87859119.06246  21456104.297                    21456109.809
        50.300          38.900
 114979680.064 8  89594571.65745  21879906.250                    21879909.199
        49.000          35.400
                  89218656.770 6  21519239.594                    21519243.789
                        36.900
                  95046259.390 6  22828420.031                    22828422.906
                        41.200
                  91714283.691 6  22074565.406                    22074566.883
                        36.800
                  87133007.171 6  20935139.258                    20935139.457
                        39.300
                  88651633.847 6  21352417.938                    21352420.145
                        40.200
                                  23570730.250

 114773447.938 7  89433866.82045  21840661.219                    21840663.914
        44.700          32.200
 126070230.881 6  98236575.87443  23990372.656                    23990374.230
        41.600          23.800
                  81157008.794 6  19540416.188                    19540416.156
                        41.700
 117846293.254 8  91828453.78746  22425440.625                    22425446.684
        48.600          36.000
 117793010.760 7  91786775.32045  22415264.008                    22415266.555
        46.200          32.800
 120138103.860 7  93614098.09445  22861521.305                    22861523.605
        46.800          31.700
 109925546.872 8  85656246.83546  20918135.648                    20918138.551
        49.500          37.700
 18  3 16 10  3 10.0000000  0 17R01G27G30G15R10R07R16R17R18R24G20G21
                                R09G08G28G07G13
                  85889365.355 6  20658056.250                    20658059.734
                        36.200
 119704714.579 7  93276432.65845  22779052.391                    22779057.617
        42.600          31.200
 112754556.621 8  87860650.40646  21456478.375                    21456483.840
        50.500          38.800
 114977928.767 8  89593207.00045  21879572.898                    21879575.918
        48.900          35.200
                  89215846.624 6  21518561.117                    21518565.910
                        36.800
                  95049909.677 6  22829296.586                    22829299.613
                        40.700
                  91717618.709 6  22075368.539                    22075369.703
                        37.200
                  87134313.041 6  20935453.563                    20935453.203
                        39.100
                  88649762.110 6  21351967.219                    21351969.535
                        40.000
                                  23571593.367

 114774737.471 7  89434871.64745  21840906.906                    21840909.172
        44.500          33.300
 126072306.346 6  98238193.12544  23990767.078                    23990768.758
        41.300          25.200
                  81157272.285 6  19540479.781                    19540479.816
                        41.700
 117845720.738 8  91828007.68445  22425331.734                    22425337.754
        48.200          35.900
 117790962.737 7  91785179.44445  22414874.320                    22414876.824
        45.900          32.100
 120141341.784 7  93616621.12845  22862137.555                    22862139.711
        47.200          31.800
 109925463.363 8  85656181.78246  20918119.570                    20918122.746
        49.500          37.000
 18  3 16 10  3 11.0000000  0 17R01G27G30G15R10R07R16R17R18R24G20G21
                                R09G08G28G07G13
                  85887603.979 6  20657632.977                    20657635.836
                        36.600
 119706898.969 7  93278134.78645  22779467.813                    22779473.473
        42.700          30.400
 112756522.268 8  87862182.07946  21456852.914                    21456858.145
        50.800          39.000
 114976177.906 8  89591842.67745  21879239.648                    21879242.773
        49.000          35.700
                  89213036.714 6  21517885.305                    21517888.090
                        36.100
                  95053560.047 6  22830172.641                    22830176.484
                        40.800
                  91720953.919 6  22076170.313                    22076172.086
                        36.400
                  87135619.515 6  20935767.688                    20935767.125
                        39.700
                  88647890.844 6  21351516.969                    21351518.586
                        39.900
                                  23572455.055

 114776027.542 7  89435876.90345  21841152.500                    21841154.699
        44.400          32.300
 126074382.109 6  98239810.61444  23991162.352                    23991163.871
        40.500          25.800
                  81157536.328 6  19540542.617                    19540543.004
                        41.800
 117845148.780 7  91827562.01646  22425222.547                    22425228.801
        47.800          36.500
 117788915.036 7  91783583.81645  22414484.828                    22414487.301
        45.600          31.900
 120144579.985 7  93619144.39645  22862754.023                    22862756.133
        47.300          31.900
 109925380.406 8  85656117.14646  20918103.672                    20918106.840
        49.600          37.100
 18  3 16 10  3 12.0000000  0 17R01G27G30G15R10R07R16R17R18R24G20G21
                                R09G08G28G07G13
                  85885843.057 6  20657209.180                    20657212.516
                        36.700
 119709083.837 7  93279837.27245  22779883.813                    22779889.168
        42.900          30.800
 112758488.330 8  87863714.07246  21457226.500                    21457231.984
        50.700          38.600
 114974427.505 8  89590478.71745  21878906.555                    21878909.320
        49.300          35.400
                  89210227.054 6  21517205.555                    21517211.035
                        36.000
                  95057210.523 6  22831050.289                    22831053.336
                        41.000
                  91724289.268 6  22076973.641                    22076975.035
                        36.500
                  87136926.547 6  20936080.844                    20936081.023
                        39.200
                  88646020.039 6  21351066.273                    21351068.328
                        39.600
                                  23573319.094

 114777318.130 7  89436882.56145  21841397.625                    21841400.367
        44.700          32.700
 126076458.170 6  98241428.32844  23991557.469                    23991559.078
        40.400          27.000
                  81157800.960 6  19540606.805                    19540607.289
                        41.700
 117844577.332 7  91827116.73846  22425113.664                    22425119.891
        47.800          36.000
 117786867.643 7  91781988.43345  22414094.852                    22414098.086
        45.900          31.500
 120147818.374 7  93621667.82445  22863370.133                    22863372.590
        47.800          31.800
 109925298.001 8  85656052.94346  20918088.219                    20918091.105
        49.900          37.300
 18  3 16 10  3 13.0000000  0 17R01G27G30G15R10R07R16R17R18R24G20G21
                                R09G08G28G07G13
                  85884082.604 6  20656785.922                    20656788.648
                        36.500
 119711269.236 7  93281540.17844  22780300.047                    22780304.832
        42.300          29.700
 112760454.871 8  87865246.43846  21457600.633                    21457606.398
        50.500          38.700
 114972677.570 8  89589115.13245  21878573.445                    21878576.555
        49.400          35.500
                  89207417.646 6  21516528.242                    21516533.262
                        37.000
                  95060861.116 6  22831926.914                    22831930.043
                        41.000
                  91727624.809 6  22077776.445                    22077778.258
                        36.800
                  87138234.198 6  20936394.484                    20936395.262
                        39.000
                  88644149.728 6  21350615.703                    21350617.313
                        39.700
                                  23574180.750

 114778609.297 7  89437888.66345  21841643.586                    21841646.492
        44.700          32.500
