% program   : RTKPOST ver.2.4.2
% inp file  : Z:\home\linda\Documents\Spring18\GitHub_Unis\data\processed_data\4625074G.obs
% inp file  : Z:\home\linda\Documents\Spring18\GitHub_Unis\data\base_station_data\lyrs0740.18o
% inp file  : Z:\home\linda\Documents\Spring18\GitHub_Unis\data\processed_data\4625074G.nav
% obs start : 2018/03/15 13:14:46.0 GPST (week1992 393286.0s)
% obs end   : 2018/03/15 13:30:27.0 GPST (week1992 394227.0s)
% pos mode  : static
% freqs     : L1+L2
% solution  : forward
% elev mask : 15.0 deg
% dynamics  : on
% tidecorr  : off
% ionos opt : broadcast
% tropo opt : saastamoinen
% ephemeris : broadcast
% navi sys  : gps glonass galileo qzss sbas
% amb res   : fix and hold
% amb glo   : on
% val thres : 3.0
% antenna1  :                       ( 0.0000  0.0000  0.0000)
% antenna2  :                       ( 0.0000  0.0000  0.0000)
% ref pos   : 78.228825638   15.397310064   495.6816
%
% (lat/lon/height=WGS84/ellipsoidal,Q=1:fix,2:float,3:sbas,4:dgps,5:single,6:ppp,ns=# of satellites)
%  GPST                  latitude(deg) longitude(deg)  height(m)   Q  ns   sdn(m)   sde(m)   sdu(m)  sdne(m)  sdeu(m)  sdun(m) age(s)  ratio
2018/03/15 13:14:46.000   78.256783801   16.230358609   397.5087   2   9   0.4516   0.3814   1.4760  -0.0887  -0.2304   0.5754   0.00    1.4
2018/03/15 13:14:47.000   78.256784532   16.230351341   397.6922   2   9   0.3214   0.2714   1.0499  -0.0624  -0.1635   0.4100   0.00    1.4
2018/03/15 13:14:48.000   78.256784952   16.230347453   397.7601   2   9   0.2630   0.2220   0.8586  -0.0508  -0.1337   0.3355   0.00    1.4
2018/03/15 13:14:49.000   78.256785664   16.230349458   397.8097   2   9   0.2279   0.1925   0.7438  -0.0439  -0.1158   0.2907   0.00    1.2
2018/03/15 13:14:50.000   78.256786612   16.230349031   397.9448   2   9   0.2039   0.1722   0.6652  -0.0392  -0.1036   0.2599   0.00    1.0
2018/03/15 13:14:51.000   78.256786822   16.230348709   397.9929   2   9   0.1862   0.1573   0.6068  -0.0358  -0.0946   0.2371   0.00    1.1
2018/03/15 13:14:52.000   78.256787250   16.230348597   398.2555   2   9   0.1723   0.1457   0.5613  -0.0331  -0.0876   0.2193   0.00    1.1
2018/03/15 13:14:53.000   78.256787680   16.230347301   398.5707   2   9   0.1611   0.1363   0.5244  -0.0309  -0.0819   0.2049   0.00    1.2
2018/03/15 13:14:54.000   78.256787628   16.230346143   398.7287   2   9   0.1518   0.1285   0.4938  -0.0290  -0.0771   0.1928   0.00    1.0
2018/03/15 13:14:55.000   78.256788157   16.230345616   398.9266   2   9   0.1440   0.1219   0.4677  -0.0275  -0.0731   0.1826   0.00    1.0
2018/03/15 13:14:56.000   78.256788816   16.230345359   399.1550   2   9   0.1372   0.1162   0.4451  -0.0261  -0.0696   0.1737   0.00    1.1
2018/03/15 13:14:57.000   78.256789216   16.230343929   399.3958   2   9   0.1312   0.1113   0.4253  -0.0249  -0.0666   0.1659   0.00    1.3
2018/03/15 13:14:58.000   78.256789408   16.230343464   399.6240   2   9   0.1260   0.1069   0.4077  -0.0238  -0.0639   0.1589   0.00    1.6
2018/03/15 13:14:59.000   78.256789738   16.230342604   399.8636   2   9   0.1213   0.1030   0.3919  -0.0229  -0.0615   0.1527   0.00    1.6
2018/03/15 13:15:00.000   78.256790198   16.230342548   400.0798   2   9   0.1170   0.0995   0.3777  -0.0220  -0.0593   0.1471   0.00    1.3
2018/03/15 13:15:01.000   78.256790605   16.230342073   400.3081   2   9   0.1132   0.0963   0.3647  -0.0212  -0.0573   0.1419   0.00    1.1
2018/03/15 13:15:02.000   78.256791214   16.230341966   400.5077   2   9   0.1097   0.0934   0.3527  -0.0205  -0.0555   0.1372   0.00    1.0
2018/03/15 13:15:03.000   78.256791716   16.230341283   400.7019   2   9   0.1064   0.0908   0.3417  -0.0198  -0.0538   0.1328   0.00    1.1
2018/03/15 13:15:04.000   78.256792074   16.230340682   400.8753   2   9   0.1035   0.0883   0.3315  -0.0192  -0.0523   0.1288   0.00    1.2
2018/03/15 13:15:05.000   78.256792403   16.230340085   401.0392   2   9   0.1007   0.0861   0.3221  -0.0186  -0.0508   0.1250   0.00    1.1
2018/03/15 13:15:06.000   78.256792789   16.230338899   401.2731   2   9   0.0981   0.0840   0.3132  -0.0180  -0.0495   0.1214   0.00    1.0
2018/03/15 13:15:07.000   78.256793184   16.230338576   401.4344   2   9   0.0957   0.0820   0.3048  -0.0175  -0.0482   0.1181   0.00    1.0
2018/03/15 13:15:08.000   78.256793598   16.230338462   401.6411   2   9   0.0935   0.0802   0.2970  -0.0170  -0.0470   0.1150   0.00    1.0
2018/03/15 13:15:09.000   78.256793849   16.230338193   401.7699   2   9   0.0914   0.0785   0.2896  -0.0165  -0.0459   0.1120   0.00    1.0
2018/03/15 13:15:10.000   78.256794270   16.230337387   401.9708   2   9   0.0894   0.0769   0.2826  -0.0160  -0.0449   0.1092   0.00    1.0
2018/03/15 13:15:11.000   78.256794696   16.230337160   402.1708   2   9   0.0875   0.0754   0.2759  -0.0156  -0.0439   0.1065   0.00    1.0
2018/03/15 13:15:12.000   78.256795005   16.230336789   402.3959   2   9   0.0857   0.0739   0.2696  -0.0152  -0.0429   0.1039   0.00    1.0
2018/03/15 13:15:13.000   78.256795335   16.230337157   402.5525   2   9   0.0840   0.0726   0.2635  -0.0147  -0.0420   0.1015   0.00    1.0
2018/03/15 13:15:14.000   78.256795706   16.230337946   402.6845   2   9   0.0824   0.0713   0.2577  -0.0144  -0.0411   0.0991   0.00    1.1
2018/03/15 13:15:15.000   78.256795990   16.230338660   402.7840   2   9   0.0808   0.0701   0.2522  -0.0140  -0.0403   0.0969   0.00    1.2
2018/03/15 13:15:16.000   78.256796274   16.230338959   402.8550   2   9   0.0794   0.0689   0.2469  -0.0136  -0.0395   0.0947   0.00    1.3
2018/03/15 13:15:17.000   78.256796598   16.230339869   402.8915   2   9   0.0780   0.0678   0.2418  -0.0133  -0.0388   0.0927   0.00    1.3
2018/03/15 13:15:18.000   78.256796875   16.230340628   402.9026   2   9   0.0766   0.0667   0.2369  -0.0129  -0.0380   0.0907   0.00    1.4
2018/03/15 13:15:19.000   78.256797249   16.230341762   402.9397   2   9   0.0753   0.0657   0.2322  -0.0126  -0.0373   0.0887   0.00    1.3
2018/03/15 13:15:20.000   78.256797430   16.230342793   402.9559   2   9   0.0741   0.0647   0.2276  -0.0122  -0.0367   0.0869   0.00    1.2
2018/03/15 13:15:21.000   78.256797622   16.230343714   403.0050   2   9   0.0729   0.0638   0.2232  -0.0119  -0.0360   0.0851   0.00    1.2
2018/03/15 13:15:22.000   78.256797831   16.230344408   403.0337   2   9   0.0717   0.0629   0.2190  -0.0116  -0.0354   0.0833   0.00    1.1
2018/03/15 13:15:23.000   78.256798074   16.230345007   403.0962   2   9   0.0706   0.0621   0.2149  -0.0113  -0.0348   0.0816   0.00    1.1
2018/03/15 13:15:24.000   78.256798347   16.230345720   403.1833   2   9   0.0696   0.0612   0.2109  -0.0110  -0.0342   0.0800   0.00    1.0
2018/03/15 13:15:25.000   78.256798629   16.230346511   403.2849   2   9   0.0685   0.0604   0.2071  -0.0107  -0.0336   0.0784   0.00    1.1
2018/03/15 13:15:26.000   78.256798899   16.230347489   403.3665   2   9   0.0675   0.0596   0.2034  -0.0104  -0.0331   0.0769   0.00    1.1
2018/03/15 13:15:27.000   78.256799191   16.230348409   403.4365   2   9   0.0666   0.0589   0.1998  -0.0101  -0.0325   0.0754   0.00    1.1
2018/03/15 13:15:28.000   78.256799354   16.230349346   403.5128   2   9   0.0656   0.0582   0.1962  -0.0098  -0.0320   0.0739   0.00    1.1
2018/03/15 13:15:29.000   78.256799542   16.230350289   403.6063   2   9   0.0647   0.0575   0.1928  -0.0095  -0.0315   0.0725   0.00    1.1
2018/03/15 13:15:30.000   78.256799683   16.230350906   403.6869   2   9   0.0639   0.0568   0.1895  -0.0093  -0.0311   0.0711   0.00    1.0
2018/03/15 13:15:31.000   78.256799814   16.230351803   403.7769   2   9   0.0630   0.0562   0.1863  -0.0090  -0.0306   0.0698   0.00    1.0
2018/03/15 13:15:32.000   78.256799858   16.230352479   403.8723   2   9   0.0622   0.0555   0.1832  -0.0087  -0.0301   0.0685   0.00    1.0
2018/03/15 13:15:33.000   78.256799913   16.230353296   403.9763   2   9   0.0614   0.0549   0.1802  -0.0084  -0.0297   0.0672   0.00    1.0
2018/03/15 13:15:34.000   78.256799894   16.230353859   404.0844   2   9   0.0606   0.0543   0.1772  -0.0082  -0.0293   0.0660   0.00    1.0
2018/03/15 13:15:35.000   78.256799927   16.230354562   404.2030   2   9   0.0599   0.0537   0.1743  -0.0079  -0.0288   0.0648   0.00    1.0
2018/03/15 13:15:36.000   78.256799982   16.230355096   404.3173   2   9   0.0591   0.0532   0.1715  -0.0076  -0.0284   0.0636   0.00    1.0
2018/03/15 13:15:37.000   78.256799994   16.230355826   404.4038   2   9   0.0584   0.0526   0.1688  -0.0074  -0.0280   0.0624   0.00    1.1
2018/03/15 13:15:38.000   78.256799959   16.230356402   404.4938   2   9   0.0577   0.0521   0.1661  -0.0071  -0.0276   0.0613   0.00    1.1
2018/03/15 13:15:39.000   78.256799905   16.230357035   404.5744   2   9   0.0571   0.0516   0.1635  -0.0068  -0.0273   0.0602   0.00    1.1
2018/03/15 13:15:40.000   78.256799832   16.230357447   404.6620   2   9   0.0564   0.0511   0.1609  -0.0065  -0.0269   0.0591   0.00    1.1
2018/03/15 13:15:41.000   78.256799785   16.230357815   404.7530   2   9   0.0558   0.0506   0.1584  -0.0063  -0.0265   0.0581   0.00    1.1
2018/03/15 13:15:42.000   78.256799694   16.230357996   404.8586   2   9   0.0551   0.0501   0.1560  -0.0060  -0.0262   0.0571   0.00    1.1
2018/03/15 13:15:43.000   78.256799607   16.230358029   404.9628   2   9   0.0545   0.0496   0.1537  -0.0057  -0.0258   0.0561   0.00    1.1
2018/03/15 13:15:44.000   78.256799528   16.230358068   405.0506   2   9   0.0539   0.0492   0.1514  -0.0054  -0.0255   0.0551   0.00    1.1
2018/03/15 13:15:45.000   78.256799442   16.230358396   405.1478   2   9   0.0533   0.0487   0.1491  -0.0051  -0.0252   0.0541   0.00    1.0
2018/03/15 13:15:46.000   78.256799346   16.230358688   405.2447   2   9   0.0528   0.0483   0.1469  -0.0048  -0.0249   0.0532   0.00    1.0
2018/03/15 13:15:47.000   78.256799249   16.230358820   405.3287   2   9   0.0522   0.0479   0.1447  -0.0045  -0.0246   0.0523   0.00    1.0
2018/03/15 13:15:48.000   78.256799097   16.230359045   405.3839   2   9   0.0517   0.0474   0.1426  -0.0042  -0.0243   0.0514   0.00    1.0
2018/03/15 13:15:49.000   78.256798971   16.230359309   405.3921   2   9   0.0511   0.0470   0.1406  -0.0039  -0.0240   0.0505   0.00    1.0
2018/03/15 13:15:50.000   78.256798865   16.230359587   405.3873   2   9   0.0506   0.0466   0.1385  -0.0035  -0.0237   0.0496   0.00    1.0
2018/03/15 13:15:51.000   78.256798781   16.230359919   405.3774   2   9   0.0501   0.0462   0.1366  -0.0032  -0.0234   0.0488   0.00    1.0
2018/03/15 13:15:52.000   78.256798759   16.230360159   405.3576   2   9   0.0496   0.0459   0.1346  -0.0027  -0.0231   0.0480   0.00    1.0
2018/03/15 13:15:53.000   78.256798722   16.230360438   405.3474   2   9   0.0491   0.0455   0.1328  -0.0023  -0.0229   0.0472   0.00    1.1
2018/03/15 13:15:54.000   78.256798689   16.230360719   405.3252   2   9   0.0487   0.0451   0.1309  -0.0017  -0.0226   0.0464   0.00    1.1
2018/03/15 13:15:55.000   78.256798636   16.230360959   405.3121   2   9   0.0482   0.0448   0.1291  -0.0008  -0.0223   0.0456   0.00    1.1
2018/03/15 13:15:56.000   78.256798602   16.230361329   405.2918   2   9   0.0477   0.0444   0.1273   0.0013  -0.0221   0.0448   0.00    1.1
2018/03/15 13:15:57.000   78.256798608   16.230361721   405.2841   2   9   0.0473   0.0441   0.1256   0.0019  -0.0219   0.0441   0.00    1.1
2018/03/15 13:15:58.000   78.256798603   16.230362187   405.2659   2   9   0.0468   0.0437   0.1239   0.0024  -0.0216   0.0434   0.00    1.1
2018/03/15 13:15:59.000   78.256798642   16.230362568   405.2504   2   9   0.0464   0.0434   0.1222   0.0028  -0.0214   0.0426   0.00    1.1
2018/03/15 13:16:00.000   78.256798706   16.230362986   405.2372   2   9   0.0460   0.0430   0.1206   0.0031  -0.0212   0.0419   0.00    1.1
2018/03/15 13:16:01.000   78.256798752   16.230363410   405.2260   2   9   0.0456   0.0427   0.1190   0.0034  -0.0209   0.0412   0.00    1.0
2018/03/15 13:16:02.000   78.256798831   16.230363699   405.2124   2   9   0.0452   0.0424   0.1175   0.0037  -0.0207   0.0406   0.00    1.0
2018/03/15 13:16:03.000   78.256798849   16.230364114   405.1987   2   9   0.0448   0.0421   0.1159   0.0039  -0.0205   0.0399   0.00    1.0
2018/03/15 13:16:04.000   78.256798808   16.230364322   405.1982   2   9   0.0444   0.0418   0.1144   0.0041  -0.0203   0.0392   0.00    1.0
2018/03/15 13:16:05.000   78.256798730   16.230364215   405.2032   2   9   0.0440   0.0415   0.1129   0.0043  -0.0201   0.0386   0.00    1.0
2018/03/15 13:16:06.000   78.256798664   16.230364151   405.2226   2   9   0.0436   0.0412   0.1115   0.0045  -0.0199   0.0380   0.00    1.0
2018/03/15 13:16:07.000   78.256798591   16.230364060   405.2319   2   9   0.0433   0.0409   0.1101   0.0047  -0.0197   0.0374   0.00    1.0
2018/03/15 13:16:08.000   78.256798523   16.230363960   405.2427   2   9   0.0429   0.0406   0.1087   0.0048  -0.0195   0.0368   0.00    1.0
2018/03/15 13:16:09.000   78.256798507   16.230364010   405.2674   2   9   0.0425   0.0403   0.1073   0.0050  -0.0193   0.0362   0.00    1.0
2018/03/15 13:16:10.000   78.256798467   16.230364125   405.2813   2   9   0.0422   0.0401   0.1060   0.0051  -0.0191   0.0356   0.00    1.0
2018/03/15 13:16:11.000   78.256798378   16.230364264   405.2716   2   9   0.0418   0.0398   0.1047   0.0053  -0.0189   0.0350   0.00    1.0
2018/03/15 13:16:12.000   78.256798270   16.230364345   405.2657   2   9   0.0415   0.0395   0.1034   0.0054  -0.0188   0.0344   0.00    1.0
2018/03/15 13:16:13.000   78.256798112   16.230364228   405.2548   2   9   0.0412   0.0393   0.1022   0.0055  -0.0186   0.0339   0.00    1.0
2018/03/15 13:16:14.000   78.256797943   16.230364192   405.2445   2   9   0.0409   0.0390   0.1009   0.0056  -0.0184   0.0333   0.00    1.0
2018/03/15 13:16:15.000   78.256797741   16.230363991   405.2660   2   9   0.0405   0.0387   0.0997   0.0057  -0.0182   0.0328   0.00    1.1
2018/03/15 13:16:16.000   78.256797490   16.230363709   405.2887   2   9   0.0402   0.0385   0.0985   0.0058  -0.0181   0.0323   0.00    1.1
2018/03/15 13:16:17.000   78.256797295   16.230363401   405.3207   2   9   0.0399   0.0382   0.0973   0.0059  -0.0179   0.0318   0.00    1.1
2018/03/15 13:16:18.000   78.256797082   16.230363073   405.3435   2   9   0.0396   0.0380   0.0962   0.0060  -0.0178   0.0313   0.00    1.1
2018/03/15 13:16:19.000   78.256796937   16.230362848   405.3733   2   9   0.0393   0.0378   0.0951   0.0061  -0.0176   0.0308   0.00    1.1
2018/03/15 13:16:20.000   78.256796801   16.230362615   405.3975   2   9   0.0390   0.0375   0.0940   0.0062  -0.0175   0.0303   0.00    1.1
2018/03/15 13:16:21.000   78.256796655   16.230362653   405.3982   2   9   0.0387   0.0373   0.0929   0.0063  -0.0173   0.0298   0.00    1.1
2018/03/15 13:16:22.000   78.256796520   16.230362656   405.3766   2   9   0.0384   0.0370   0.0918   0.0064  -0.0172   0.0293   0.00    1.1
2018/03/15 13:16:23.000   78.256796396   16.230362612   405.3410   2   9   0.0381   0.0368   0.0908   0.0065  -0.0170   0.0289   0.00    1.1
2018/03/15 13:16:24.000   78.256796306   16.230362568   405.2955   2   9   0.0379   0.0366   0.0897   0.0065  -0.0169   0.0284   0.00    1.1
2018/03/15 13:16:25.000   78.256796190   16.230362372   405.2643   2   9   0.0376   0.0364   0.0887   0.0066  -0.0168   0.0280   0.00    1.1
2018/03/15 13:16:26.000   78.256796078   16.230362194   405.2346   2   9   0.0373   0.0362   0.0877   0.0067  -0.0166   0.0275   0.00    1.1
2018/03/15 13:16:27.000   78.256795991   16.230361878   405.2018   2   9   0.0370   0.0359   0.0868   0.0068  -0.0165   0.0271   0.00    1.1
2018/03/15 13:16:28.000   78.256795949   16.230361467   405.1716   2   9   0.0368   0.0357   0.0858   0.0068  -0.0164   0.0267   0.00    1.1
2018/03/15 13:16:29.000   78.256795883   16.230361208   405.1334   2   9   0.0365   0.0355   0.0849   0.0069  -0.0162   0.0262   0.00    1.2
2018/03/15 13:16:30.000   78.256795813   16.230360850   405.0917   2   9   0.0363   0.0353   0.0839   0.0069  -0.0161   0.0258   0.00    1.2
2018/03/15 13:16:31.000   78.256795778   16.230360444   405.0444   2   9   0.0360   0.0351   0.0830   0.0070  -0.0160   0.0254   0.00    1.2
2018/03/15 13:16:32.000   78.256795718   16.230360066   404.9936   2   9   0.0358   0.0349   0.0821   0.0071  -0.0159   0.0250   0.00    1.2
2018/03/15 13:16:33.000   78.256795685   16.230359707   404.9414   2   9   0.0355   0.0347   0.0812   0.0071  -0.0157   0.0246   0.00    1.2
2018/03/15 13:16:34.000   78.256795678   16.230359217   404.8760   2   9   0.0353   0.0345   0.0804   0.0072  -0.0156   0.0242   0.00    1.1
2018/03/15 13:16:35.000   78.256795687   16.230358827   404.7993   2   9   0.0351   0.0343   0.0795   0.0072  -0.0155   0.0238   0.00    1.1
2018/03/15 13:16:36.000   78.256795695   16.230358570   404.7108   2   9   0.0348   0.0341   0.0787   0.0073  -0.0154   0.0235   0.00    1.1
2018/03/15 13:16:37.000   78.256795774   16.230358217   404.6106   2   9   0.0346   0.0339   0.0779   0.0073  -0.0153   0.0231   0.00    1.1
2018/03/15 13:16:38.000   78.256795845   16.230357948   404.5080   2   9   0.0344   0.0337   0.0771   0.0074  -0.0152   0.0227   0.00    1.1
2018/03/15 13:16:39.000   78.256795932   16.230357622   404.4077   2   9   0.0341   0.0335   0.0763   0.0074  -0.0151   0.0224   0.00    1.1
2018/03/15 13:16:40.000   78.256795992   16.230357132   404.3124   2   9   0.0339   0.0333   0.0755   0.0074  -0.0150   0.0220   0.00    1.1
2018/03/15 13:16:41.000   78.256796011   16.230356605   404.2169   2   9   0.0337   0.0332   0.0747   0.0075  -0.0149   0.0217   0.00    1.0
2018/03/15 13:16:42.000   78.256796017   16.230356031   404.1040   2   9   0.0335   0.0330   0.0740   0.0075  -0.0148   0.0213   0.00    1.0
2018/03/15 13:16:43.000   78.256796020   16.230355644   404.0031   2   9   0.0333   0.0328   0.0732   0.0076  -0.0147   0.0210   0.00    1.0
2018/03/15 13:16:44.000   78.256796019   16.230355173   403.8973   2   9   0.0331   0.0326   0.0725   0.0076  -0.0146   0.0206   0.00    1.0
2018/03/15 13:16:45.000   78.256796035   16.230354771   403.7933   2   9   0.0328   0.0324   0.0718   0.0076  -0.0145   0.0203   0.00    1.0
2018/03/15 13:16:46.000   78.256796026   16.230354536   403.6934   2   9   0.0326   0.0323   0.0711   0.0077  -0.0144   0.0200   0.00    1.0
2018/03/15 13:16:47.000   78.256796016   16.230354154   403.5915   2   9   0.0324   0.0321   0.0704   0.0077  -0.0143   0.0197   0.00    1.0
2018/03/15 13:16:48.000   78.256795958   16.230353778   403.4878   2   9   0.0322   0.0319   0.0697   0.0077  -0.0142   0.0194   0.00    1.0
2018/03/15 13:16:49.000   78.256795895   16.230353565   403.3795   2   9   0.0320   0.0318   0.0690   0.0078  -0.0141   0.0190   0.00    1.0
2018/03/15 13:16:50.000   78.256795830   16.230353379   403.2620   2   9   0.0318   0.0316   0.0683   0.0078  -0.0140   0.0187   0.00    1.0
2018/03/15 13:16:51.000   78.256795791   16.230352994   403.1433   2   9   0.0316   0.0314   0.0677   0.0078  -0.0139   0.0184   0.00    1.0
2018/03/15 13:16:52.000   78.256795714   16.230352656   403.0240   2   9   0.0315   0.0313   0.0670   0.0079  -0.0139   0.0181   0.00    1.0
2018/03/15 13:16:53.000   78.256795640   16.230352337   402.9092   2   9   0.0313   0.0311   0.0664   0.0079  -0.0138   0.0178   0.00    1.0
2018/03/15 13:16:54.000   78.256795547   16.230352096   402.7930   2   9   0.0311   0.0309   0.0658   0.0079  -0.0137   0.0176   0.00    1.0
2018/03/15 13:16:55.000   78.256795460   16.230351770   402.6758   2   9   0.0309   0.0308   0.0652   0.0079  -0.0136   0.0173   0.00    1.0
2018/03/15 13:16:56.000   78.256795390   16.230351505   402.5642   2   9   0.0307   0.0306   0.0645   0.0080  -0.0135   0.0170   0.00    1.0
2018/03/15 13:16:57.000   78.256795313   16.230351171   402.4402   2   9   0.0305   0.0305   0.0639   0.0080  -0.0135   0.0167   0.00    1.0
2018/03/15 13:16:58.000   78.256795257   16.230350944   402.3175   2   9   0.0304   0.0303   0.0634   0.0080  -0.0134   0.0164   0.00    1.0
2018/03/15 13:16:59.000   78.256795202   16.230350668   402.1949   2   9   0.0302   0.0302   0.0628   0.0080  -0.0133   0.0162   0.00    1.0
2018/03/15 13:17:00.000   78.256795154   16.230350324   402.0825   2   9   0.0300   0.0300   0.0622   0.0080  -0.0132   0.0159   0.00    1.0
2018/03/15 13:17:01.000   78.256795082   16.230349956   401.9716   2   9   0.0298   0.0299   0.0616   0.0081  -0.0131   0.0156   0.00    1.0
2018/03/15 13:17:02.000   78.256794990   16.230349602   401.8654   2   9   0.0297   0.0297   0.0611   0.0081  -0.0131   0.0154   0.00    1.1
2018/03/15 13:17:03.000   78.256794854   16.230349285   401.7572   2   9   0.0295   0.0296   0.0605   0.0081  -0.0130   0.0151   0.00    1.1
2018/03/15 13:17:04.000   78.256794735   16.230348929   401.6558   2   9   0.0293   0.0294   0.0600   0.0081  -0.0129   0.0148   0.00    1.1
2018/03/15 13:17:05.000   78.256794611   16.230348523   401.5502   2   9   0.0292   0.0293   0.0595   0.0081  -0.0129   0.0146   0.00    1.1
2018/03/15 13:17:06.000   78.256794439   16.230348186   401.4451   2   9   0.0290   0.0291   0.0589   0.0082  -0.0128   0.0143   0.00    1.1
2018/03/15 13:17:07.000   78.256794271   16.230347948   401.3452   2   9   0.0288   0.0290   0.0584   0.0082  -0.0127   0.0141   0.00    1.1
2018/03/15 13:17:08.000   78.256794078   16.230347646   401.2492   2   9   0.0287   0.0289   0.0579   0.0082  -0.0127   0.0139   0.00    1.1
2018/03/15 13:17:09.000   78.256793907   16.230347235   401.1537   2   9   0.0285   0.0287   0.0574   0.0082  -0.0126   0.0136   0.00    1.1
2018/03/15 13:17:10.000   78.256793705   16.230346801   401.0632   2   9   0.0284   0.0286   0.0569   0.0082  -0.0125   0.0134   0.00    1.1
2018/03/15 13:17:11.000   78.256793494   16.230346313   400.9625   2   9   0.0282   0.0285   0.0564   0.0082  -0.0125   0.0131   0.00    1.1
2018/03/15 13:17:12.000   78.256793289   16.230345861   400.8659   2   9   0.0281   0.0283   0.0560   0.0082  -0.0124   0.0129   0.00    1.1
2018/03/15 13:17:13.000   78.256793075   16.230345351   400.7696   2   9   0.0279   0.0282   0.0555   0.0082  -0.0123   0.0127   0.00    1.1
2018/03/15 13:17:14.000   78.256792865   16.230344917   400.6661   2   9   0.0278   0.0281   0.0550   0.0083  -0.0123   0.0124   0.00    1.1
2018/03/15 13:17:15.000   78.256792653   16.230344368   400.5591   2   9   0.0276   0.0279   0.0546   0.0083  -0.0122   0.0122   0.00    1.1
2018/03/15 13:17:16.000   78.256792432   16.230343942   400.4528   2   9   0.0275   0.0278   0.0541   0.0083  -0.0122   0.0120   0.00    1.1
2018/03/15 13:17:17.000   78.256792204   16.230343274   400.3467   2   9   0.0273   0.0277   0.0537   0.0083  -0.0121   0.0118   0.00    1.1
2018/03/15 13:17:18.000   78.256791964   16.230342600   400.2492   2   9   0.0272   0.0275   0.0532   0.0083  -0.0120   0.0116   0.00    1.0
2018/03/15 13:17:19.000   78.256791710   16.230341958   400.1478   2   9   0.0270   0.0274   0.0528   0.0083  -0.0120   0.0113   0.00    1.0
2018/03/15 13:17:20.000   78.256791470   16.230341391   400.0492   2   9   0.0269   0.0273   0.0523   0.0083  -0.0119   0.0111   0.00    1.0
2018/03/15 13:17:21.000   78.256791239   16.230340870   399.9522   2   9   0.0267   0.0272   0.0519   0.0083  -0.0119   0.0109   0.00    1.0
2018/03/15 13:17:22.000   78.256791004   16.230340421   399.8677   2   9   0.0266   0.0270   0.0515   0.0083  -0.0118   0.0107   0.00    1.0
2018/03/15 13:17:23.000   78.256790780   16.230339890   399.7811   2   9   0.0265   0.0269   0.0511   0.0083  -0.0118   0.0105   0.00    1.0
2018/03/15 13:17:24.000   78.256790540   16.230339415   399.7010   2   9   0.0263   0.0268   0.0507   0.0083  -0.0117   0.0103   0.00    1.0
2018/03/15 13:17:25.000   78.256790321   16.230338939   399.6268   2   9   0.0262   0.0267   0.0503   0.0084  -0.0117   0.0101   0.00    1.0
2018/03/15 13:17:26.000   78.256790095   16.230338472   399.5582   2   9   0.0261   0.0266   0.0499   0.0084  -0.0116   0.0099   0.00    1.0
2018/03/15 13:17:27.000   78.256789873   16.230338084   399.4866   2   9   0.0259   0.0264   0.0495   0.0084  -0.0115   0.0097   0.00    1.0
2018/03/15 13:17:28.000   78.256789662   16.230337754   399.4167   2   9   0.0258   0.0263   0.0491   0.0084  -0.0115   0.0095   0.00    1.0
2018/03/15 13:17:29.000   78.256789464   16.230337429   399.3533   2   9   0.0257   0.0262   0.0487   0.0084  -0.0114   0.0093   0.00    1.0
2018/03/15 13:17:30.000   78.256789276   16.230337093   399.2933   2   9   0.0255   0.0261   0.0483   0.0084  -0.0114   0.0091   0.00    1.0
2018/03/15 13:17:31.000   78.256789115   16.230336805   399.2406   2   9   0.0254   0.0260   0.0480   0.0084  -0.0113   0.0089   0.00    1.0
2018/03/15 13:17:32.000   78.256788968   16.230336409   399.1908   2   9   0.0253   0.0259   0.0476   0.0084  -0.0113   0.0087   0.00    1.0
2018/03/15 13:17:33.000   78.256788819   16.230336138   399.1400   2   9   0.0252   0.0257   0.0472   0.0084  -0.0112   0.0085   0.00    1.0
2018/03/15 13:17:34.000   78.256788682   16.230335880   399.0891   2   9   0.0250   0.0256   0.0469   0.0084  -0.0112   0.0083   0.00    1.0
2018/03/15 13:17:35.000   78.256788558   16.230335680   399.0413   2   9   0.0249   0.0255   0.0465   0.0084  -0.0112   0.0081   0.00    1.0
2018/03/15 13:17:36.000   78.256788436   16.230335511   398.9981   2   9   0.0248   0.0254   0.0462   0.0084  -0.0111   0.0079   0.00    1.0
2018/03/15 13:17:37.000   78.256788308   16.230335363   398.9599   2   9   0.0247   0.0253   0.0458   0.0084  -0.0111   0.0077   0.00    1.1
2018/03/15 13:17:38.000   78.256788199   16.230335242   398.9284   2   9   0.0246   0.0252   0.0455   0.0084  -0.0110   0.0075   0.00    1.1
2018/03/15 13:17:39.000   78.256788082   16.230335110   398.8969   2   9   0.0244   0.0251   0.0451   0.0084  -0.0110   0.0073   0.00    1.1
2018/03/15 13:17:40.000   78.256787958   16.230334998   398.8691   2   9   0.0243   0.0250   0.0448   0.0084  -0.0109   0.0071   0.00    1.1
2018/03/15 13:17:41.000   78.256787856   16.230334814   398.8430   2   9   0.0242   0.0249   0.0445   0.0084  -0.0109   0.0070   0.00    1.1
2018/03/15 13:17:42.000   78.256787762   16.230334559   398.8220   2   9   0.0241   0.0248   0.0442   0.0084  -0.0108   0.0068   0.00    1.1
2018/03/15 13:17:43.000   78.256787691   16.230334352   398.8008   2   9   0.0240   0.0247   0.0438   0.0084  -0.0108   0.0066   0.00    1.1
2018/03/15 13:17:44.000   78.256787636   16.230334164   398.7756   2   9   0.0239   0.0246   0.0435   0.0084  -0.0108   0.0064   0.00    1.1
2018/03/15 13:17:45.000   78.256787575   16.230333945   398.7566   2   9   0.0237   0.0244   0.0432   0.0084  -0.0107   0.0062   0.00    1.1
2018/03/15 13:17:46.000   78.256787518   16.230333748   398.7385   2   9   0.0236   0.0243   0.0429   0.0084  -0.0107   0.0060   0.00    1.1
2018/03/15 13:17:47.000   78.256787472   16.230333490   398.7252   2   9   0.0235   0.0242   0.0426   0.0084  -0.0106   0.0058   0.00    1.1
2018/03/15 13:17:48.000   78.256787420   16.230333245   398.7121   2   9   0.0234   0.0241   0.0423   0.0084  -0.0106   0.0056   0.00    1.1
2018/03/15 13:17:49.000   78.256787389   16.230333017   398.6996   2   9   0.0233   0.0240   0.0420   0.0084  -0.0105   0.0054   0.00    1.1
2018/03/15 13:17:50.000   78.256787374   16.230332861   398.6921   2   9   0.0232   0.0239   0.0417   0.0084  -0.0105   0.0052   0.00    1.1
2018/03/15 13:17:51.000   78.256787385   16.230332771   398.6833   2   9   0.0231   0.0238   0.0414   0.0084  -0.0105   0.0050   0.00    1.1
2018/03/15 13:17:52.000   78.256787388   16.230332666   398.6739   2   9   0.0230   0.0237   0.0411   0.0084  -0.0104   0.0048   0.00    1.1
2018/03/15 13:17:53.000   78.256787377   16.230332542   398.6652   2   9   0.0229   0.0236   0.0408   0.0084  -0.0104   0.0046   0.00    1.1
2018/03/15 13:17:54.000   78.256787367   16.230332405   398.6559   2   9   0.0228   0.0236   0.0406   0.0084  -0.0103   0.0044   0.00    1.1
2018/03/15 13:17:55.000   78.256787369   16.230332366   398.6469   2   9   0.0227   0.0235   0.0403   0.0084  -0.0103   0.0042   0.00    1.1
2018/03/15 13:17:56.000   78.256787383   16.230332347   398.6358   2   9   0.0226   0.0234   0.0400   0.0084  -0.0103   0.0040   0.00    1.1
2018/03/15 13:17:57.000   78.256787392   16.230332342   398.6289   2   9   0.0225   0.0233   0.0397   0.0084  -0.0102   0.0038   0.00    1.1
2018/03/15 13:17:58.000   78.256787390   16.230332254   398.6231   2   9   0.0224   0.0232   0.0395   0.0084  -0.0102   0.0036   0.00    1.1
2018/03/15 13:17:59.000   78.256787389   16.230332213   398.6158   2   9   0.0223   0.0231   0.0392   0.0084  -0.0102   0.0033   0.00    1.1
2018/03/15 13:18:00.000   78.256787400   16.230332213   398.6037   2   9   0.0222   0.0230   0.0389   0.0083  -0.0101   0.0031   0.00    1.1
2018/03/15 13:18:01.000   78.256787409   16.230332292   398.5873   2   9   0.0221   0.0229   0.0387   0.0083  -0.0101   0.0028   0.00    1.1
2018/03/15 13:18:02.000   78.256787417   16.230332348   398.5697   2   9   0.0220   0.0228   0.0384   0.0083  -0.0100   0.0026   0.00    1.1
2018/03/15 13:18:03.000   78.256787438   16.230332459   398.5544   2   9   0.0219   0.0227   0.0382   0.0083  -0.0100   0.0023   0.00    1.1
2018/03/15 13:18:04.000   78.256787458   16.230332549   398.5400   2   9   0.0218   0.0226   0.0379   0.0083  -0.0100   0.0019   0.00    1.1
2018/03/15 13:18:05.000   78.256787469   16.230332630   398.5308   2   9   0.0217   0.0225   0.0377   0.0083  -0.0099   0.0015   0.00    1.1
2018/03/15 13:18:06.000   78.256787464   16.230332667   398.5263   2   9   0.0216   0.0224   0.0374   0.0083  -0.0099   0.0010   0.00    1.1
2018/03/15 13:18:07.000   78.256787454   16.230332724   398.5256   2   9   0.0215   0.0224   0.0372   0.0083  -0.0099  -0.0005   0.00    1.1
2018/03/15 13:18:08.000   78.256787440   16.230332763   398.5278   2   9   0.0214   0.0223   0.0369   0.0083  -0.0098  -0.0012   0.00    1.1
2018/03/15 13:18:09.000   78.256787418   16.230332786   398.5295   2   9   0.0213   0.0222   0.0367   0.0083  -0.0098  -0.0016   0.00    1.1
2018/03/15 13:18:10.000   78.256787386   16.230332798   398.5346   2   9   0.0212   0.0221   0.0365   0.0083  -0.0098  -0.0020   0.00    1.1
2018/03/15 13:18:11.000   78.256787334   16.230332815   398.5478   2   9   0.0211   0.0220   0.0362   0.0083  -0.0097  -0.0022   0.00    1.1
2018/03/15 13:18:12.000   78.256787280   16.230332749   398.5638   2   9   0.0210   0.0219   0.0360   0.0083  -0.0097  -0.0025   0.00    1.1
2018/03/15 13:18:13.000   78.256787216   16.230332695   398.5835   2   9   0.0209   0.0218   0.0358   0.0083  -0.0097  -0.0027   0.00    1.1
2018/03/15 13:18:14.000   78.256787152   16.230332667   398.6049   2   9   0.0208   0.0218   0.0356   0.0083  -0.0096  -0.0029   0.00    1.1
2018/03/15 13:18:15.000   78.256787089   16.230332641   398.6241   2   9   0.0208   0.0217   0.0353   0.0083  -0.0096  -0.0030   0.00    1.1
2018/03/15 13:18:16.000   78.256787030   16.230332679   398.6432   2   9   0.0207   0.0216   0.0351   0.0082  -0.0096  -0.0032   0.00    1.1
2018/03/15 13:18:17.000   78.256786987   16.230332706   398.6631   2   9   0.0206   0.0215   0.0349   0.0082  -0.0095  -0.0034   0.00    1.1
2018/03/15 13:18:18.000   78.256786931   16.230332655   398.6855   2   9   0.0205   0.0214   0.0347   0.0082  -0.0095  -0.0035   0.00    1.1
2018/03/15 13:18:19.000   78.256786874   16.230332615   398.7129   2   9   0.0204   0.0213   0.0345   0.0082  -0.0095  -0.0036   0.00    1.1
2018/03/15 13:18:20.000   78.256786815   16.230332604   398.7352   2   9   0.0203   0.0213   0.0343   0.0082  -0.0094  -0.0037   0.00    1.1
2018/03/15 13:18:21.000   78.256786761   16.230332601   398.7578   2   9   0.0202   0.0212   0.0340   0.0082  -0.0094  -0.0038   0.00    1.1
2018/03/15 13:18:22.000   78.256786726   16.230332643   398.7791   2   9   0.0201   0.0211   0.0338   0.0082  -0.0094  -0.0040   0.00    1.1
2018/03/15 13:18:23.000   78.256786692   16.230332741   398.7967   2   9   0.0201   0.0210   0.0336   0.0082  -0.0094  -0.0041   0.00    1.1
2018/03/15 13:18:24.000   78.256786658   16.230332803   398.8126   2   9   0.0200   0.0209   0.0334   0.0082  -0.0093  -0.0041   0.00    1.1
2018/03/15 13:18:25.000   78.256786639   16.230332864   398.8270   2   9   0.0199   0.0209   0.0332   0.0082  -0.0093  -0.0042   0.00    1.1
2018/03/15 13:18:26.000   78.256786626   16.230332938   398.8424   2   9   0.0198   0.0208   0.0330   0.0082  -0.0093  -0.0043   0.00    1.1
2018/03/15 13:18:27.000   78.256786621   16.230333027   398.8571   2   9   0.0197   0.0207   0.0328   0.0082  -0.0092  -0.0044   0.00    1.1
2018/03/15 13:18:28.000   78.256786603   16.230333147   398.8714   2   9   0.0197   0.0206   0.0326   0.0081  -0.0092  -0.0045   0.00    1.1
2018/03/15 13:18:29.000   78.256786614   16.230333268   398.8813   2   9   0.0196   0.0206   0.0324   0.0081  -0.0092  -0.0046   0.00    1.1
2018/03/15 13:18:30.000   78.256786633   16.230333492   398.8925   2   9   0.0195   0.0205   0.0323   0.0081  -0.0091  -0.0046   0.00    1.1
2018/03/15 13:18:31.000   78.256786677   16.230333699   398.9001   2   9   0.0194   0.0204   0.0321   0.0081  -0.0091  -0.0047   0.00    1.1
2018/03/15 13:18:32.000   78.256786725   16.230333896   398.9036   2   9   0.0193   0.0203   0.0319   0.0081  -0.0091  -0.0048   0.00    1.1
2018/03/15 13:18:33.000   78.256786796   16.230334129   398.9058   2   9   0.0193   0.0203   0.0317   0.0081  -0.0091  -0.0048   0.00    1.0
2018/03/15 13:18:34.000   78.256786883   16.230334376   398.9045   2   9   0.0192   0.0202   0.0315   0.0081  -0.0090  -0.0049   0.00    1.0
2018/03/15 13:18:35.000   78.256786978   16.230334669   398.9029   2   9   0.0191   0.0201   0.0313   0.0081  -0.0090  -0.0049   0.00    1.0
2018/03/15 13:18:36.000   78.256787084   16.230335028   398.9008   2   9   0.0190   0.0200   0.0312   0.0081  -0.0090  -0.0050   0.00    1.0
2018/03/15 13:18:37.000   78.256787208   16.230335376   398.9000   2   9   0.0189   0.0200   0.0310   0.0081  -0.0089  -0.0050   0.00    1.0
2018/03/15 13:18:38.000   78.256787337   16.230335726   398.8975   2   9   0.0189   0.0199   0.0308   0.0080  -0.0089  -0.0051   0.00    1.0
2018/03/15 13:18:39.000   78.256787471   16.230336131   398.8934   2   9   0.0188   0.0198   0.0306   0.0080  -0.0089  -0.0051   0.00    1.0
2018/03/15 13:18:40.000   78.256787610   16.230336552   398.8864   2   9   0.0187   0.0197   0.0304   0.0080  -0.0089  -0.0052   0.00    1.0
2018/03/15 13:18:41.000   78.256787755   16.230336983   398.8790   2   9   0.0186   0.0197   0.0303   0.0080  -0.0088  -0.0052   0.00    1.0
2018/03/15 13:18:42.000   78.256787884   16.230337396   398.8716   2   9   0.0186   0.0196   0.0301   0.0080  -0.0088  -0.0053   0.00    1.0
2018/03/15 13:18:43.000   78.256788037   16.230337825   398.8609   2   9   0.0185   0.0195   0.0299   0.0080  -0.0088  -0.0053   0.00    1.0
2018/03/15 13:18:44.000   78.256788193   16.230338213   398.8511   2   9   0.0184   0.0195   0.0298   0.0080  -0.0088  -0.0053   0.00    1.0
2018/03/15 13:18:45.000   78.256788348   16.230338577   398.8424   2   9   0.0184   0.0194   0.0296   0.0080  -0.0087  -0.0054   0.00    1.0
2018/03/15 13:18:46.000   78.256788521   16.230338918   398.8338   2   9   0.0183   0.0193   0.0294   0.0080  -0.0087  -0.0054   0.00    1.0
2018/03/15 13:18:47.000   78.256788693   16.230339163   398.8233   2   9   0.0182   0.0193   0.0293   0.0080  -0.0087  -0.0055   0.00    1.0
2018/03/15 13:18:48.000   78.256788871   16.230339370   398.8134   2   9   0.0181   0.0192   0.0291   0.0079  -0.0087  -0.0055   0.00    1.0
2018/03/15 13:18:49.000   78.256789057   16.230339544   398.8015   2   9   0.0181   0.0191   0.0290   0.0079  -0.0086  -0.0055   0.00    1.0
2018/03/15 13:18:50.000   78.256789234   16.230339806   398.7882   2   9   0.0180   0.0191   0.0288   0.0079  -0.0086  -0.0055   0.00    1.0
2018/03/15 13:18:51.000   78.256789417   16.230340122   398.7781   2   9   0.0179   0.0190   0.0287   0.0079  -0.0086  -0.0056   0.00    1.0
2018/03/15 13:18:52.000   78.256789620   16.230340484   398.7640   2   9   0.0179   0.0189   0.0285   0.0079  -0.0086  -0.0056   0.00    1.0
2018/03/15 13:18:53.000   78.256789832   16.230340810   398.7496   2   9   0.0178   0.0189   0.0283   0.0079  -0.0085  -0.0056   0.00    1.0
2018/03/15 13:18:54.000   78.256790047   16.230341139   398.7346   2   9   0.0177   0.0188   0.0282   0.0079  -0.0085  -0.0057   0.00    1.0
2018/03/15 13:18:55.000   78.256790262   16.230341455   398.7194   2   9   0.0177   0.0187   0.0280   0.0079  -0.0085  -0.0057   0.00    1.0
2018/03/15 13:18:56.000   78.256790472   16.230341822   398.7029   2   9   0.0176   0.0187   0.0279   0.0079  -0.0085  -0.0057   0.00    1.0
2018/03/15 13:18:57.000   78.256790682   16.230342265   398.6875   2   9   0.0175   0.0186   0.0277   0.0078  -0.0084  -0.0057   0.00    1.0
2018/03/15 13:18:58.000   78.256790905   16.230342705   398.6705   2   9   0.0175   0.0185   0.0276   0.0078  -0.0084  -0.0057   0.00    1.0
2018/03/15 13:18:59.000   78.256791131   16.230343136   398.6543   2   9   0.0174   0.0185   0.0275   0.0078  -0.0084  -0.0058   0.00    1.0
2018/03/15 13:19:00.000   78.256791363   16.230343643   398.6358   2   9   0.0173   0.0184   0.0273   0.0078  -0.0084  -0.0058   0.00    1.0
2018/03/15 13:19:01.000   78.256791594   16.230344160   398.6149   2   9   0.0173   0.0183   0.0272   0.0078  -0.0083  -0.0058   0.00    1.0
2018/03/15 13:19:02.000   78.256791824   16.230344594   398.5930   2   9   0.0172   0.0183   0.0270   0.0078  -0.0083  -0.0058   0.00    1.0
2018/03/15 13:19:03.000   78.256792037   16.230345001   398.5697   2   9   0.0171   0.0182   0.0269   0.0078  -0.0083  -0.0058   0.00    1.0
2018/03/15 13:19:04.000   78.256792254   16.230345397   398.5464   2   9   0.0171   0.0182   0.0268   0.0078  -0.0083  -0.0059   0.00    1.0
2018/03/15 13:19:05.000   78.256792477   16.230345778   398.5215   2   9   0.0170   0.0181   0.0266   0.0077  -0.0082  -0.0059   0.00    1.0
2018/03/15 13:19:06.000   78.256792690   16.230346151   398.4948   2   9   0.0169   0.0180   0.0265   0.0077  -0.0082  -0.0059   0.00    1.0
2018/03/15 13:19:07.000   78.256792904   16.230346580   398.4685   2   9   0.0169   0.0180   0.0263   0.0077  -0.0082  -0.0059   0.00    1.0
2018/03/15 13:19:08.000   78.256793115   16.230346998   398.4403   2   9   0.0168   0.0179   0.0262   0.0077  -0.0082  -0.0059   0.00    1.0
2018/03/15 13:19:09.000   78.256793306   16.230347301   398.4145   2   9   0.0168   0.0178   0.0261   0.0077  -0.0081  -0.0059   0.00    1.0
2018/03/15 13:19:10.000   78.256793482   16.230347586   398.3890   2   9   0.0167   0.0178   0.0259   0.0077  -0.0081  -0.0059   0.00    1.0
2018/03/15 13:19:11.000   78.256793648   16.230347859   398.3634   2   9   0.0166   0.0177   0.0258   0.0077  -0.0081  -0.0060   0.00    1.0
2018/03/15 13:19:12.000   78.256793804   16.230348099   398.3378   2   9   0.0166   0.0177   0.0257   0.0077  -0.0081  -0.0060   0.00    1.0
2018/03/15 13:19:13.000   78.256793943   16.230348252   398.3123   2   9   0.0165   0.0176   0.0256   0.0076  -0.0081  -0.0060   0.00    1.0
2018/03/15 13:19:14.000   78.256794080   16.230348438   398.2878   2   9   0.0165   0.0175   0.0254   0.0076  -0.0080  -0.0060   0.00    1.0
2018/03/15 13:19:15.000   78.256794203   16.230348561   398.2654   2   9   0.0164   0.0175   0.0253   0.0076  -0.0080  -0.0060   0.00    1.0
2018/03/15 13:19:16.000   78.256794306   16.230348639   398.2427   2   9   0.0163   0.0174   0.0252   0.0076  -0.0080  -0.0060   0.00    1.0
2018/03/15 13:19:17.000   78.256794404   16.230348712   398.2215   2   9   0.0163   0.0174   0.0251   0.0076  -0.0080  -0.0060   0.00    1.0
2018/03/15 13:19:18.000   78.256794492   16.230348787   398.2013   2   9   0.0162   0.0173   0.0249   0.0076  -0.0079  -0.0060   0.00    1.0
2018/03/15 13:19:19.000   78.256794558   16.230348830   398.1815   2   9   0.0162   0.0173   0.0248   0.0076  -0.0079  -0.0060   0.00    1.0
2018/03/15 13:19:20.000   78.256794616   16.230348835   398.1625   2   9   0.0161   0.0172   0.0247   0.0076  -0.0079  -0.0060   0.00    1.0
2018/03/15 13:19:21.000   78.256794662   16.230348821   398.1453   2   9   0.0160   0.0171   0.0246   0.0075  -0.0079  -0.0060   0.00    1.0
2018/03/15 13:19:22.000   78.256794701   16.230348755   398.1297   2   9   0.0160   0.0171   0.0245   0.0075  -0.0079  -0.0060   0.00    1.0
2018/03/15 13:19:23.000   78.256794742   16.230348691   398.1147   2   9   0.0159   0.0170   0.0243   0.0075  -0.0078  -0.0061   0.00    1.0
2018/03/15 13:19:24.000   78.256794762   16.230348578   398.1002   2   9   0.0159   0.0170   0.0242   0.0075  -0.0078  -0.0061   0.00    1.0
2018/03/15 13:19:25.000   78.256794773   16.230348414   398.0867   2   9   0.0158   0.0169   0.0241   0.0075  -0.0078  -0.0061   0.00    1.0
2018/03/15 13:19:26.000   78.256794766   16.230348205   398.0742   2   9   0.0158   0.0169   0.0240   0.0075  -0.0078  -0.0061   0.00    1.0
2018/03/15 13:19:27.000   78.256794771   16.230348041   398.0640   2   9   0.0157   0.0168   0.0239   0.0075  -0.0078  -0.0061   0.00    1.0
2018/03/15 13:19:28.000   78.256794771   16.230347908   398.0548   2   9   0.0156   0.0168   0.0238   0.0075  -0.0077  -0.0061   0.00    1.0
2018/03/15 13:19:29.000   78.256794769   16.230347774   398.0501   2   9   0.0156   0.0167   0.0237   0.0074  -0.0077  -0.0061   0.00    1.0
2018/03/15 13:19:30.000   78.256794756   16.230347658   398.0498   2   9   0.0155   0.0167   0.0235   0.0074  -0.0077  -0.0061   0.00    1.0
2018/03/15 13:19:31.000   78.256794745   16.230347529   398.0483   2   9   0.0155   0.0166   0.0234   0.0074  -0.0077  -0.0061   0.00    1.0
2018/03/15 13:19:32.000   78.256794746   16.230347410   398.0453   2   9   0.0154   0.0165   0.0233   0.0074  -0.0076  -0.0061   0.00    1.0
2018/03/15 13:19:33.000   78.256794747   16.230347276   398.0413   2   9   0.0154   0.0165   0.0232   0.0074  -0.0076  -0.0061   0.00    1.0
2018/03/15 13:19:34.000   78.256794751   16.230347131   398.0365   2   9   0.0153   0.0164   0.0231   0.0074  -0.0076  -0.0061   0.00    1.0
2018/03/15 13:19:35.000   78.256794759   16.230346986   398.0322   2   9   0.0153   0.0164   0.0230   0.0074  -0.0076  -0.0061   0.00    1.0
2018/03/15 13:19:36.000   78.256794778   16.230346897   398.0286   2   9   0.0152   0.0163   0.0229   0.0074  -0.0076  -0.0061   0.00    1.0
2018/03/15 13:19:37.000   78.256794805   16.230346811   398.0267   2   9   0.0152   0.0163   0.0228   0.0073  -0.0075  -0.0061   0.00    1.0
2018/03/15 13:19:38.000   78.256794838   16.230346747   398.0223   2   9   0.0151   0.0162   0.0227   0.0073  -0.0075  -0.0061   0.00    1.0
2018/03/15 13:19:39.000   78.256794880   16.230346739   398.0187   2   9   0.0151   0.0162   0.0226   0.0073  -0.0075  -0.0061   0.00    1.1
2018/03/15 13:19:40.000   78.256794928   16.230346782   398.0154   2   9   0.0150   0.0161   0.0225   0.0073  -0.0075  -0.0061   0.00    1.1
2018/03/15 13:19:41.000   78.256794977   16.230346855   398.0118   2   9   0.0150   0.0161   0.0224   0.0073  -0.0075  -0.0061   0.00    1.1
2018/03/15 13:19:42.000   78.256795033   16.230346955   398.0058   2   9   0.0149   0.0160   0.0223   0.0073  -0.0074  -0.0061   0.00    1.1
2018/03/15 13:19:43.000   78.256795097   16.230347077   397.9971   2   9   0.0149   0.0160   0.0222   0.0073  -0.0074  -0.0061   0.00    1.1
2018/03/15 13:19:44.000   78.256795165   16.230347206   397.9906   2   9   0.0148   0.0159   0.0221   0.0072  -0.0074  -0.0061   0.00    1.1
2018/03/15 13:19:45.000   78.256795240   16.230347320   397.9830   2   9   0.0148   0.0159   0.0220   0.0072  -0.0074  -0.0061   0.00    1.1
2018/03/15 13:19:46.000   78.256795317   16.230347413   397.9775   2   9   0.0147   0.0158   0.0219   0.0072  -0.0074  -0.0061   0.00    1.0
2018/03/15 13:19:47.000   78.256795391   16.230347463   397.9706   2   9   0.0147   0.0158   0.0218   0.0072  -0.0074  -0.0061   0.00    1.0
2018/03/15 13:19:48.000   78.256795471   16.230347502   397.9644   2   9   0.0146   0.0157   0.0217   0.0072  -0.0073  -0.0061   0.00    1.0
2018/03/15 13:19:49.000   78.256795554   16.230347591   397.9555   2   9   0.0146   0.0157   0.0216   0.0072  -0.0073  -0.0061   0.00    1.0
2018/03/15 13:19:50.000   78.256795652   16.230347672   397.9475   2   9   0.0145   0.0156   0.0215   0.0072  -0.0073  -0.0061   0.00    1.0
2018/03/15 13:19:51.000   78.256795744   16.230347732   397.9396   2   9   0.0145   0.0156   0.0214   0.0072  -0.0073  -0.0061   0.00    1.0
2018/03/15 13:19:52.000   78.256795834   16.230347765   397.9317   2   9   0.0144   0.0155   0.0213   0.0071  -0.0073  -0.0061   0.00    1.0
2018/03/15 13:19:53.000   78.256795920   16.230347825   397.9249   2   9   0.0144   0.0155   0.0212   0.0071  -0.0072  -0.0061   0.00    1.0
2018/03/15 13:19:54.000   78.256795996   16.230347841   397.9178   2   9   0.0143   0.0154   0.0211   0.0071  -0.0072  -0.0061   0.00    1.0
2018/03/15 13:19:55.000   78.256796068   16.230347881   397.9114   2   9   0.0143   0.0154   0.0210   0.0071  -0.0072  -0.0061   0.00    1.0
2018/03/15 13:19:56.000   78.256796138   16.230347912   397.9066   2   9   0.0142   0.0154   0.0209   0.0071  -0.0072  -0.0060   0.00    1.0
2018/03/15 13:19:57.000   78.256796205   16.230347995   397.9022   2   9   0.0142   0.0153   0.0209   0.0071  -0.0072  -0.0060   0.00    1.0
2018/03/15 13:19:58.000   78.256796276   16.230348062   397.8992   2   9   0.0141   0.0153   0.0208   0.0071  -0.0071  -0.0060   0.00    1.0
2018/03/15 13:19:59.000   78.256796340   16.230348130   397.8973   2   9   0.0141   0.0152   0.0207   0.0070  -0.0071  -0.0060   0.00    1.0
2018/03/15 13:20:00.000   78.256796395   16.230348168   397.8957   2   9   0.0140   0.0152   0.0206   0.0070  -0.0071  -0.0060   0.00    1.0
2018/03/15 13:20:01.000   78.256796460   16.230348318   397.8913   2   9   0.0140   0.0151   0.0205   0.0070  -0.0071  -0.0060   0.00    1.0
2018/03/15 13:20:02.000   78.256796526   16.230348452   397.8858   2   9   0.0139   0.0151   0.0204   0.0070  -0.0071  -0.0060   0.00    1.0
2018/03/15 13:20:03.000   78.256796603   16.230348573   397.8781   2   9   0.0139   0.0150   0.0203   0.0070  -0.0071  -0.0060   0.00    1.0
2018/03/15 13:20:04.000   78.256796680   16.230348701   397.8693   2   9   0.0139   0.0150   0.0202   0.0070  -0.0070  -0.0060   0.00    1.1
2018/03/15 13:20:05.000   78.256796754   16.230348755   397.8591   2   9   0.0138   0.0149   0.0202   0.0070  -0.0070  -0.0060   0.00    1.1
2018/03/15 13:20:06.000   78.256796821   16.230348847   397.8491   2   9   0.0138   0.0149   0.0201   0.0070  -0.0070  -0.0060   0.00    1.1
2018/03/15 13:20:07.000   78.256796883   16.230348930   397.8408   2   9   0.0137   0.0149   0.0200   0.0069  -0.0070  -0.0060   0.00    1.1
2018/03/15 13:20:08.000   78.256796928   16.230349008   397.8318   2   9   0.0137   0.0148   0.0199   0.0069  -0.0070  -0.0060   0.00    1.1
2018/03/15 13:20:09.000   78.256796959   16.230349072   397.8248   2   9   0.0136   0.0148   0.0198   0.0069  -0.0070  -0.0060   0.00    1.1
2018/03/15 13:20:10.000   78.256796995   16.230349189   397.8188   2   9   0.0136   0.0147   0.0197   0.0069  -0.0069  -0.0060   0.00    1.1
2018/03/15 13:20:11.000   78.256797010   16.230349243   397.8159   2   9   0.0136   0.0147   0.0197   0.0069  -0.0069  -0.0060   0.00    1.1
2018/03/15 13:20:12.000   78.256797014   16.230349276   397.8128   2   9   0.0135   0.0146   0.0196   0.0069  -0.0069  -0.0060   0.00    1.1
2018/03/15 13:20:13.000   78.256797008   16.230349304   397.8125   2   9   0.0135   0.0146   0.0195   0.0069  -0.0069  -0.0060   0.00    1.1
2018/03/15 13:20:14.000   78.256797011   16.230349346   397.8128   2   9   0.0134   0.0146   0.0194   0.0069  -0.0069  -0.0060   0.00    1.1
2018/03/15 13:20:15.000   78.256797008   16.230349353   397.8117   2   9   0.0134   0.0145   0.0193   0.0068  -0.0068  -0.0059   0.00    1.1
2018/03/15 13:20:16.000   78.256797012   16.230349363   397.8123   2   9   0.0133   0.0145   0.0193   0.0068  -0.0068  -0.0059   0.00    1.1
2018/03/15 13:20:17.000   78.256797016   16.230349326   397.8116   2   9   0.0133   0.0144   0.0192   0.0068  -0.0068  -0.0059   0.00    1.1
2018/03/15 13:20:18.000   78.256797011   16.230349318   397.8127   2   9   0.0133   0.0144   0.0191   0.0068  -0.0068  -0.0059   0.00    1.1
2018/03/15 13:20:19.000   78.256796981   16.230349198   397.8159   2   9   0.0132   0.0143   0.0190   0.0068  -0.0068  -0.0059   0.00    1.1
2018/03/15 13:20:20.000   78.256796938   16.230349023   397.8201   2   9   0.0132   0.0143   0.0190   0.0068  -0.0068  -0.0059   0.00    1.1
2018/03/15 13:20:21.000   78.256796875   16.230348830   397.8254   2   9   0.0131   0.0143   0.0189   0.0068  -0.0067  -0.0059   0.00    1.1
2018/03/15 13:20:22.000   78.256796797   16.230348564   397.8312   2   9   0.0131   0.0142   0.0188   0.0067  -0.0067  -0.0059   0.00    1.1
2018/03/15 13:20:23.000   78.256796709   16.230348292   397.8378   2   9   0.0130   0.0142   0.0187   0.0067  -0.0067  -0.0059   0.00    1.1
2018/03/15 13:20:24.000   78.256796596   16.230347992   397.8471   2   9   0.0130   0.0141   0.0187   0.0067  -0.0067  -0.0059   0.00    1.1
2018/03/15 13:20:25.000   78.256796478   16.230347693   397.8576   2   9   0.0130   0.0141   0.0186   0.0067  -0.0067  -0.0059   0.00    1.1
2018/03/15 13:20:26.000   78.256796356   16.230347429   397.8679   2   9   0.0129   0.0141   0.0185   0.0067  -0.0067  -0.0059   0.00    1.1
2018/03/15 13:20:27.000   78.256796232   16.230347110   397.8783   2   9   0.0129   0.0140   0.0184   0.0067  -0.0067  -0.0059   0.00    1.1
2018/03/15 13:20:28.000   78.256796104   16.230346747   397.8892   2   9   0.0128   0.0140   0.0184   0.0067  -0.0066  -0.0059   0.00    1.1
2018/03/15 13:20:29.000   78.256795972   16.230346366   397.8999   2   9   0.0128   0.0139   0.0183   0.0067  -0.0066  -0.0058   0.00    1.1
2018/03/15 13:20:30.000   78.256795834   16.230345988   397.9119   2   9   0.0128   0.0139   0.0182   0.0066  -0.0066  -0.0058   0.00    1.1
2018/03/15 13:20:31.000   78.256795689   16.230345597   397.9225   2   9   0.0127   0.0139   0.0181   0.0066  -0.0066  -0.0058   0.00    1.1
2018/03/15 13:20:32.000   78.256795540   16.230345180   397.9322   2   9   0.0127   0.0138   0.0181   0.0066  -0.0066  -0.0058   0.00    1.1
2018/03/15 13:20:33.000   78.256795381   16.230344815   397.9397   2   9   0.0127   0.0138   0.0180   0.0066  -0.0066  -0.0058   0.00    1.1
2018/03/15 13:20:34.000   78.256795227   16.230344514   397.9457   2   9   0.0126   0.0137   0.0179   0.0066  -0.0065  -0.0058   0.00    1.1
2018/03/15 13:20:35.000   78.256795081   16.230344226   397.9539   2   9   0.0126   0.0137   0.0179   0.0066  -0.0065  -0.0058   0.00    1.1
2018/03/15 13:20:36.000   78.256794933   16.230343953   397.9634   2   9   0.0125   0.0137   0.0178   0.0066  -0.0065  -0.0058   0.00    1.1
2018/03/15 13:20:37.000   78.256794783   16.230343723   397.9729   2   9   0.0125   0.0136   0.0177   0.0066  -0.0065  -0.0058   0.00    1.1
2018/03/15 13:20:38.000   78.256794636   16.230343481   397.9825   2   9   0.0125   0.0136   0.0177   0.0065  -0.0065  -0.0058   0.00    1.1
2018/03/15 13:20:39.000   78.256794495   16.230343260   397.9902   2   9   0.0124   0.0136   0.0176   0.0065  -0.0065  -0.0058   0.00    1.1
2018/03/15 13:20:40.000   78.256794360   16.230343056   397.9957   2   9   0.0124   0.0135   0.0175   0.0065  -0.0064  -0.0058   0.00    1.1
2018/03/15 13:20:41.000   78.256794238   16.230342918   397.9997   2   9   0.0123   0.0135   0.0175   0.0065  -0.0064  -0.0057   0.00    1.1
2018/03/15 13:20:42.000   78.256794114   16.230342811   398.0026   2   9   0.0123   0.0134   0.0174   0.0065  -0.0064  -0.0057   0.00    1.1
2018/03/15 13:20:43.000   78.256793990   16.230342657   398.0050   2   9   0.0123   0.0134   0.0173   0.0065  -0.0064  -0.0057   0.00    1.1
2018/03/15 13:20:44.000   78.256793860   16.230342429   398.0089   2   9   0.0122   0.0134   0.0173   0.0065  -0.0064  -0.0057   0.00    1.1
2018/03/15 13:20:45.000   78.256793741   16.230342275   398.0104   2   9   0.0122   0.0133   0.0172   0.0065  -0.0064  -0.0057   0.00    1.1
2018/03/15 13:20:46.000   78.256793626   16.230342109   398.0111   2   9   0.0122   0.0133   0.0171   0.0064  -0.0064  -0.0057   0.00    1.1
2018/03/15 13:20:47.000   78.256793527   16.230341997   398.0081   2   9   0.0121   0.0133   0.0171   0.0064  -0.0063  -0.0057   0.00    1.1
2018/03/15 13:20:48.000   78.256793434   16.230341866   398.0043   2   9   0.0121   0.0132   0.0170   0.0064  -0.0063  -0.0057   0.00    1.1
2018/03/15 13:20:49.000   78.256793347   16.230341729   397.9989   2   9   0.0121   0.0132   0.0170   0.0064  -0.0063  -0.0057   0.00    1.1
2018/03/15 13:20:50.000   78.256793260   16.230341589   397.9940   2   9   0.0120   0.0131   0.0169   0.0064  -0.0063  -0.0057   0.00    1.1
2018/03/15 13:20:51.000   78.256793172   16.230341425   397.9898   2   9   0.0120   0.0131   0.0168   0.0064  -0.0063  -0.0057   0.00    1.1
2018/03/15 13:20:52.000   78.256793087   16.230341283   397.9843   2   9   0.0120   0.0131   0.0168   0.0064  -0.0063  -0.0057   0.00    1.1
2018/03/15 13:20:53.000   78.256793014   16.230341154   397.9771   2   9   0.0119   0.0130   0.0167   0.0064  -0.0063  -0.0056   0.00    1.0
2018/03/15 13:20:54.000   78.256792951   16.230341099   397.9690   2   9   0.0119   0.0130   0.0166   0.0063  -0.0062  -0.0056   0.00    1.0
2018/03/15 13:20:55.000   78.256792897   16.230341047   397.9598   2   9   0.0118   0.0130   0.0166   0.0063  -0.0062  -0.0056   0.00    1.0
2018/03/15 13:20:56.000   78.256792842   16.230341007   397.9513   2   9   0.0118   0.0129   0.0165   0.0063  -0.0062  -0.0056   0.00    1.0
2018/03/15 13:20:57.000   78.256792773   16.230340919   397.9457   2   9   0.0118   0.0129   0.0165   0.0063  -0.0062  -0.0056   0.00    1.0
2018/03/15 13:20:58.000   78.256792702   16.230340812   397.9403   2   9   0.0117   0.0129   0.0164   0.0063  -0.0062  -0.0056   0.00    1.0
2018/03/15 13:20:59.000   78.256792639   16.230340771   397.9322   2   9   0.0117   0.0128   0.0164   0.0063  -0.0062  -0.0056   0.00    1.0
2018/03/15 13:21:00.000   78.256792585   16.230340814   397.9218   2   9   0.0117   0.0128   0.0163   0.0063  -0.0062  -0.0056   0.00    1.0
2018/03/15 13:21:01.000   78.256792540   16.230340889   397.9118   2   9   0.0116   0.0128   0.0162   0.0063  -0.0061  -0.0056   0.00    1.0
2018/03/15 13:21:02.000   78.256792489   16.230340974   397.9022   2   9   0.0116   0.0127   0.0162   0.0062  -0.0061  -0.0056   0.00    1.0
2018/03/15 13:21:03.000   78.256792436   16.230341071   397.8936   2   9   0.0116   0.0127   0.0161   0.0062  -0.0061  -0.0056   0.00    1.0
2018/03/15 13:21:04.000   78.256792395   16.230341125   397.8859   2   9   0.0115   0.0127   0.0161   0.0062  -0.0061  -0.0055   0.00    1.0
2018/03/15 13:21:05.000   78.256792351   16.230341186   397.8784   2   9   0.0115   0.0126   0.0160   0.0062  -0.0061  -0.0055   0.00    1.0
2018/03/15 13:21:06.000   78.256792308   16.230341256   397.8687   2   9   0.0115   0.0126   0.0159   0.0062  -0.0061  -0.0055   0.00    1.0
2018/03/15 13:21:07.000   78.256792263   16.230341314   397.8585   2   9   0.0114   0.0126   0.0159   0.0062  -0.0061  -0.0055   0.00    1.0
2018/03/15 13:21:08.000   78.256792216   16.230341396   397.8491   2   9   0.0114   0.0125   0.0158   0.0062  -0.0060  -0.0055   0.00    1.0
2018/03/15 13:21:09.000   78.256792160   16.230341467   397.8393   2   9   0.0114   0.0125   0.0158   0.0062  -0.0060  -0.0055   0.00    1.0
2018/03/15 13:21:10.000   78.256792106   16.230341534   397.8295   2   9   0.0113   0.0125   0.0157   0.0061  -0.0060  -0.0055   0.00    1.0
2018/03/15 13:21:11.000   78.256792051   16.230341583   397.8201   2   9   0.0113   0.0124   0.0157   0.0061  -0.0060  -0.0055   0.00    1.0
2018/03/15 13:21:12.000   78.256792003   16.230341659   397.8107   2   9   0.0113   0.0124   0.0156   0.0061  -0.0060  -0.0055   0.00    1.0
2018/03/15 13:21:13.000   78.256791961   16.230341750   397.8003   2   9   0.0113   0.0124   0.0156   0.0061  -0.0060  -0.0055   0.00    1.0
2018/03/15 13:21:14.000   78.256791921   16.230341819   397.7899   2   9   0.0112   0.0123   0.0155   0.0061  -0.0060  -0.0054   0.00    1.0
2018/03/15 13:21:15.000   78.256791881   16.230341886   397.7787   2   9   0.0112   0.0123   0.0155   0.0061  -0.0059  -0.0054   0.00    1.0
2018/03/15 13:21:16.000   78.256791836   16.230341943   397.7672   2   9   0.0112   0.0123   0.0154   0.0061  -0.0059  -0.0054   0.00    1.0
2018/03/15 13:21:17.000   78.256791786   16.230341985   397.7562   2   9   0.0111   0.0122   0.0154   0.0061  -0.0059  -0.0054   0.00    1.0
2018/03/15 13:21:18.000   78.256791739   16.230342032   397.7457   2   9   0.0111   0.0122   0.0153   0.0060  -0.0059  -0.0054   0.00    1.0
2018/03/15 13:21:19.000   78.256791697   16.230342089   397.7337   2   9   0.0111   0.0122   0.0152   0.0060  -0.0059  -0.0054   0.00    1.0
2018/03/15 13:21:20.000   78.256791661   16.230342175   397.7197   2   9   0.0110   0.0121   0.0152   0.0060  -0.0059  -0.0054   0.00    1.0
2018/03/15 13:21:21.000   78.256791627   16.230342232   397.7049   2   9   0.0110   0.0121   0.0151   0.0060  -0.0059  -0.0054   0.00    1.1
2018/03/15 13:21:22.000   78.256791593   16.230342276   397.6903   2   9   0.0110   0.0121   0.0151   0.0060  -0.0059  -0.0054   0.00    1.1
2018/03/15 13:21:23.000   78.256791547   16.230342310   397.6759   2   9   0.0109   0.0121   0.0150   0.0060  -0.0058  -0.0054   0.00    1.1
2018/03/15 13:21:24.000   78.256791503   16.230342299   397.6612   2   9   0.0109   0.0120   0.0150   0.0060  -0.0058  -0.0054   0.00    1.1
2018/03/15 13:21:25.000   78.256791459   16.230342316   397.6463   2   9   0.0109   0.0120   0.0149   0.0060  -0.0058  -0.0053   0.00    1.1
2018/03/15 13:21:26.000   78.256791421   16.230342369   397.6306   2   9   0.0109   0.0120   0.0149   0.0060  -0.0058  -0.0053   0.00    1.1
2018/03/15 13:21:27.000   78.256791380   16.230342407   397.6141   2   9   0.0108   0.0119   0.0148   0.0059  -0.0058  -0.0053   0.00    1.1
2018/03/15 13:21:28.000   78.256791339   16.230342479   397.5974   2   9   0.0108   0.0119   0.0148   0.0059  -0.0058  -0.0053   0.00    1.1
2018/03/15 13:21:29.000   78.256791298   16.230342579   397.5804   2   9   0.0108   0.0119   0.0147   0.0059  -0.0058  -0.0053   0.00    1.1
2018/03/15 13:21:30.000   78.256791266   16.230342668   397.5633   2   9   0.0107   0.0118   0.0147   0.0059  -0.0058  -0.0053   0.00    1.1
2018/03/15 13:21:31.000   78.256791235   16.230342755   397.5468   2   9   0.0107   0.0118   0.0146   0.0059  -0.0057  -0.0053   0.00    1.1
2018/03/15 13:21:32.000   78.256791208   16.230342875   397.5306   2   9   0.0107   0.0118   0.0146   0.0059  -0.0057  -0.0053   0.00    1.1
2018/03/15 13:21:33.000   78.256791185   16.230343005   397.5150   2   9   0.0107   0.0117   0.0146   0.0059  -0.0057  -0.0053   0.00    1.1
2018/03/15 13:21:34.000   78.256791158   16.230343185   397.4992   2   9   0.0106   0.0117   0.0145   0.0059  -0.0057  -0.0053   0.00    1.0
2018/03/15 13:21:35.000   78.256791132   16.230343350   397.4848   2   9   0.0106   0.0117   0.0145   0.0058  -0.0057  -0.0053   0.00    1.0
2018/03/15 13:21:36.000   78.256791099   16.230343487   397.4715   2   9   0.0106   0.0117   0.0144   0.0058  -0.0057  -0.0052   0.00    1.0
2018/03/15 13:21:37.000   78.256791059   16.230343587   397.4596   2   9   0.0105   0.0116   0.0144   0.0058  -0.0057  -0.0052   0.00    1.0
2018/03/15 13:21:38.000   78.256791018   16.230343693   397.4484   2   9   0.0105   0.0116   0.0143   0.0058  -0.0057  -0.0052   0.00    1.0
2018/03/15 13:21:39.000   78.256790972   16.230343766   397.4375   2   9   0.0105   0.0116   0.0143   0.0058  -0.0056  -0.0052   0.00    1.0
