% program   : RTKPOST ver.2.4.2
% inp file  : Z:\home\linda\Documents\Spring18\GitHub_Unis\data\processed_data\46250749.obs
% inp file  : Z:\home\linda\Documents\Spring18\GitHub_Unis\data\base_station_data\lyrs0740.18o
% inp file  : Z:\home\linda\Documents\Spring18\GitHub_Unis\data\processed_data\46250749.nav
% obs start : 2018/03/15 10:09:16.0 GPST (week1992 382156.0s)
% obs end   : 2018/03/15 10:24:33.0 GPST (week1992 383073.0s)
% pos mode  : static
% freqs     : L1+L2
% solution  : forward
% elev mask : 15.0 deg
% dynamics  : on
% tidecorr  : off
% ionos opt : iono-free
% tropo opt : saastamoinen
% ephemeris : broadcast
% navi sys  : gps glonass galileo qzss sbas
% amb res   : fix and hold
% amb glo   : on
% val thres : 3.0
% antenna1  :                       ( 0.0000  0.0000  0.0000)
% antenna2  :                       ( 0.0000  0.0000  0.0000)
% ref pos   : 78.228825638   15.397310064   495.6816
%
% (lat/lon/height=WGS84/ellipsoidal,Q=1:fix,2:float,3:sbas,4:dgps,5:single,6:ppp,ns=# of satellites)
%  GPST                  latitude(deg) longitude(deg)  height(m)   Q  ns   sdn(m)   sde(m)   sdu(m)  sdne(m)  sdeu(m)  sdun(m) age(s)  ratio
2018/03/15 10:09:16.000   78.247151248   16.013874929   444.0353   1   9   0.0146   0.0079   0.0490   0.0045   0.0096   0.0216   0.00    3.3
2018/03/15 10:09:17.000   78.247151210   16.013874779   444.0215   1   9   0.0103   0.0056   0.0347   0.0032   0.0068   0.0153   0.00    3.3
2018/03/15 10:09:18.000   78.247151196   16.013874686   444.0142   1   9   0.0084   0.0046   0.0283   0.0026   0.0055   0.0125   0.00    3.1
2018/03/15 10:09:19.000   78.247151200   16.013874650   444.0159   1   9   0.0073   0.0040   0.0245   0.0022   0.0048   0.0108   0.00    3.0
2018/03/15 10:09:20.000   78.247128131   16.013787424   436.8048   2   9   0.6510   0.3546   2.1767   0.1997   0.4249   0.9589   0.00    2.8
2018/03/15 10:09:21.000   78.247127760   16.013778829   436.2488   2   9   0.5938   0.3236   1.9840   0.1820   0.3872   0.8739   0.00    2.6
2018/03/15 10:09:22.000   78.247125463   16.013776128   435.3915   2   9   0.5492   0.2996   1.8330   0.1681   0.3577   0.8073   0.00    2.6
2018/03/15 10:09:23.000   78.247123230   16.013779250   434.9499   2   9   0.5131   0.2802   1.7103   0.1569   0.3337   0.7532   0.00    2.6
2018/03/15 10:09:24.000   78.247119958   16.013781475   434.3288   2   9   0.4830   0.2641   1.6078   0.1475   0.3137   0.7079   0.00    2.6
2018/03/15 10:09:25.000   78.247121390   16.013783310   434.8601   2   9   0.4574   0.2505   1.5203   0.1395   0.2965   0.6692   0.00    2.6
2018/03/15 10:09:26.000   78.247123720   16.013781602   435.6021   2   9   0.4353   0.2387   1.4442   0.1325   0.2816   0.6355   0.00    2.6
2018/03/15 10:09:27.000   78.247125624   16.013778268   435.8254   2   9   0.4159   0.2285   1.3771   0.1264   0.2685   0.6058   0.00    2.5
2018/03/15 10:09:28.000   78.247126520   16.013777491   436.0620   2   9   0.3987   0.2195   1.3173   0.1209   0.2568   0.5794   0.00    2.5
2018/03/15 10:09:29.000   78.247125905   16.013777494   435.7669   2   9   0.3833   0.2114   1.2635   0.1160   0.2462   0.5555   0.00    2.5
2018/03/15 10:09:30.000   78.247124960   16.013779620   435.5027   2   9   0.3693   0.2041   1.2145   0.1115   0.2366   0.5337   0.00    2.5
2018/03/15 10:09:31.000   78.247123405   16.013782162   435.3690   2   9   0.3566   0.1976   1.1697   0.1075   0.2278   0.5138   0.00    2.5
2018/03/15 10:09:32.000   78.247123069   16.013782202   435.5051   2   9   0.3450   0.1916   1.1284   0.1037   0.2197   0.4955   0.00    2.5
2018/03/15 10:09:33.000   78.247123904   16.013783556   435.6453   2   9   0.3343   0.1861   1.0902   0.1002   0.2122   0.4785   0.00    2.6
2018/03/15 10:09:34.000   78.247125025   16.013786030   435.8513   2   9   0.3244   0.1810   1.0546   0.0970   0.2052   0.4626   0.00    2.7
2018/03/15 10:09:35.000   78.247125769   16.013786081   435.9522   2   9   0.3151   0.1764   1.0214   0.0939   0.1986   0.4478   0.00    2.7
2018/03/15 10:09:36.000   78.247126533   16.013789161   436.0693   2   9   0.3065   0.1720   0.9901   0.0911   0.1925   0.4338   0.00    2.8
2018/03/15 10:09:37.000   78.247126749   16.013789594   435.9878   2   9   0.2984   0.1680   0.9607   0.0884   0.1867   0.4207   0.00    2.8
2018/03/15 10:09:38.000   78.247128281   16.013791476   436.4272   2   9   0.2908   0.1642   0.9330   0.0859   0.1812   0.4083   0.00    2.9
2018/03/15 10:09:39.000   78.247151296   16.013874568   444.0140   1   9   0.0030   0.0016   0.0101   0.0009   0.0020   0.0044   0.00    3.0
2018/03/15 10:09:40.000   78.247151301   16.013874574   444.0139   1   9   0.0029   0.0016   0.0099   0.0009   0.0019   0.0043   0.00    3.1
2018/03/15 10:09:41.000   78.247151308   16.013874580   444.0150   1   9   0.0029   0.0016   0.0097   0.0009   0.0019   0.0043   0.00    3.1
2018/03/15 10:09:42.000   78.247151321   16.013874583   444.0177   1   9   0.0028   0.0015   0.0095   0.0009   0.0019   0.0042   0.00    3.1
2018/03/15 10:09:43.000   78.247151332   16.013874589   444.0192   1   9   0.0028   0.0015   0.0093   0.0009   0.0018   0.0041   0.00    3.1
2018/03/15 10:09:44.000   78.247151335   16.013874594   444.0190   1   9   0.0027   0.0015   0.0092   0.0008   0.0018   0.0040   0.00    3.0
2018/03/15 10:09:45.000   78.247151332   16.013874592   444.0180   1   9   0.0027   0.0015   0.0090   0.0008   0.0018   0.0040   0.00    3.1
2018/03/15 10:09:46.000   78.247151330   16.013874596   444.0173   1   9   0.0026   0.0014   0.0089   0.0008   0.0017   0.0039   0.00    3.1
2018/03/15 10:09:47.000   78.247151333   16.013874598   444.0181   1   9   0.0026   0.0014   0.0087   0.0008   0.0017   0.0039   0.00    3.2
2018/03/15 10:09:48.000   78.247151340   16.013874598   444.0196   1   9   0.0026   0.0014   0.0086   0.0008   0.0017   0.0038   0.00    3.2
2018/03/15 10:09:49.000   78.247151346   16.013874597   444.0204   1   9   0.0025   0.0014   0.0085   0.0008   0.0017   0.0037   0.00   26.5
2018/03/15 10:09:50.000   78.247151349   16.013874596   444.0204   1   9   0.0025   0.0014   0.0084   0.0008   0.0016   0.0037   0.00   40.6
2018/03/15 10:09:51.000   78.247151348   16.013874592   444.0194   1   9   0.0025   0.0013   0.0083   0.0008   0.0016   0.0036   0.00   53.9
2018/03/15 10:09:52.000   78.247151347   16.013874587   444.0186   1   9   0.0024   0.0013   0.0082   0.0007   0.0016   0.0036   0.00   66.2
2018/03/15 10:09:53.000   78.247151348   16.013874583   444.0186   1   9   0.0024   0.0013   0.0081   0.0007   0.0016   0.0036   0.00   77.9
2018/03/15 10:09:54.000   78.247151351   16.013874580   444.0191   1   9   0.0024   0.0013   0.0080   0.0007   0.0015   0.0035   0.00   89.5
2018/03/15 10:09:55.000   78.247151356   16.013874573   444.0193   1   9   0.0023   0.0013   0.0079   0.0007   0.0015   0.0035   0.00  100.9
2018/03/15 10:09:56.000   78.247151360   16.013874564   444.0195   1   9   0.0023   0.0013   0.0078   0.0007   0.0015   0.0034   0.00  111.6
2018/03/15 10:09:57.000   78.247151362   16.013874557   444.0195   1   9   0.0023   0.0012   0.0077   0.0007   0.0015   0.0034   0.00  122.9
2018/03/15 10:09:58.000   78.247151361   16.013874552   444.0186   1   9   0.0023   0.0012   0.0076   0.0007   0.0015   0.0034   0.00  129.0
2018/03/15 10:09:59.000   78.247151358   16.013874547   444.0172   1   9   0.0022   0.0012   0.0075   0.0007   0.0015   0.0033   0.00  134.1
2018/03/15 10:10:00.000   78.247151356   16.013874537   444.0162   1   9   0.0022   0.0012   0.0074   0.0007   0.0014   0.0033   0.00  139.4
2018/03/15 10:10:01.000   78.247151356   16.013874529   444.0157   1   9   0.0022   0.0012   0.0074   0.0007   0.0014   0.0032   0.00  143.9
2018/03/15 10:10:02.000   78.247151359   16.013874521   444.0156   1   9   0.0022   0.0012   0.0073   0.0007   0.0014   0.0032   0.00  149.0
2018/03/15 10:10:03.000   78.247151363   16.013874510   444.0160   1   9   0.0021   0.0012   0.0072   0.0007   0.0014   0.0032   0.00  154.7
2018/03/15 10:10:04.000   78.247151367   16.013874505   444.0166   1   9   0.0021   0.0012   0.0071   0.0007   0.0014   0.0032   0.00  159.9
2018/03/15 10:10:05.000   78.247151368   16.013874502   444.0163   1   9   0.0021   0.0011   0.0071   0.0006   0.0014   0.0031   0.00  164.2
2018/03/15 10:10:06.000   78.247151368   16.013874498   444.0151   1   9   0.0021   0.0011   0.0070   0.0006   0.0014   0.0031   0.00  167.2
2018/03/15 10:10:07.000   78.247151369   16.013874492   444.0147   1   9   0.0021   0.0011   0.0070   0.0006   0.0014   0.0031   0.00  170.6
2018/03/15 10:10:08.000   78.247151372   16.013874489   444.0147   1   9   0.0021   0.0011   0.0069   0.0006   0.0013   0.0030   0.00  174.3
2018/03/15 10:10:09.000   78.247151376   16.013874483   444.0146   1   9   0.0020   0.0011   0.0068   0.0006   0.0013   0.0030   0.00  178.2
2018/03/15 10:10:10.000   78.247151379   16.013874479   444.0143   1   9   0.0020   0.0011   0.0068   0.0006   0.0013   0.0030   0.00  182.6
2018/03/15 10:10:11.000   78.247151382   16.013874476   444.0135   1   9   0.0020   0.0011   0.0067   0.0006   0.0013   0.0030   0.00  185.6
2018/03/15 10:10:12.000   78.247151383   16.013874474   444.0128   1   9   0.0020   0.0011   0.0067   0.0006   0.0013   0.0029   0.00  189.2
2018/03/15 10:10:13.000   78.247151384   16.013874475   444.0119   1   9   0.0020   0.0011   0.0066   0.0006   0.0013   0.0029   0.00  191.5
2018/03/15 10:10:14.000   78.247151385   16.013874474   444.0114   1   9   0.0020   0.0011   0.0066   0.0006   0.0013   0.0029   0.00  194.0
2018/03/15 10:10:15.000   78.247151390   16.013874474   444.0118   1   9   0.0019   0.0011   0.0065   0.0006   0.0013   0.0029   0.00  194.6
2018/03/15 10:10:16.000   78.247151396   16.013874473   444.0126   1   9   0.0019   0.0010   0.0065   0.0006   0.0013   0.0029   0.00  194.5
2018/03/15 10:10:17.000   78.247151401   16.013874471   444.0127   1   9   0.0019   0.0010   0.0064   0.0006   0.0012   0.0028   0.00  194.5
2018/03/15 10:10:18.000   78.247151404   16.013874469   444.0124   1   9   0.0019   0.0010   0.0064   0.0006   0.0012   0.0028   0.00  195.7
2018/03/15 10:10:19.000   78.247151405   16.013874466   444.0115   1   9   0.0019   0.0010   0.0063   0.0006   0.0012   0.0028   0.00  196.5
2018/03/15 10:10:20.000   78.247151405   16.013874464   444.0104   1   9   0.0019   0.0010   0.0063   0.0006   0.0012   0.0028   0.00  196.8
2018/03/15 10:10:21.000   78.247151405   16.013874460   444.0096   1   9   0.0019   0.0010   0.0063   0.0006   0.0012   0.0028   0.00  197.0
2018/03/15 10:10:22.000   78.247151407   16.013874456   444.0094   1   9   0.0018   0.0010   0.0062   0.0006   0.0012   0.0027   0.00  196.9
2018/03/15 10:10:23.000   78.247151410   16.013874452   444.0095   1   9   0.0018   0.0010   0.0062   0.0006   0.0012   0.0027   0.00  196.5
2018/03/15 10:10:24.000   78.247151414   16.013874447   444.0094   1   9   0.0018   0.0010   0.0061   0.0006   0.0012   0.0027   0.00  194.8
2018/03/15 10:10:25.000   78.247151417   16.013874442   444.0088   1   9   0.0018   0.0010   0.0061   0.0006   0.0012   0.0027   0.00  193.0
2018/03/15 10:10:26.000   78.247151417   16.013874437   444.0080   1   9   0.0018   0.0010   0.0061   0.0006   0.0012   0.0027   0.00  191.3
2018/03/15 10:10:27.000   78.247151417   16.013874430   444.0073   1   9   0.0018   0.0010   0.0060   0.0005   0.0012   0.0027   0.00  189.0
2018/03/15 10:10:28.000   78.247151417   16.013874423   444.0068   1   9   0.0018   0.0010   0.0060   0.0005   0.0012   0.0026   0.00  186.9
2018/03/15 10:10:29.000   78.247151417   16.013874415   444.0060   1   9   0.0018   0.0010   0.0060   0.0005   0.0012   0.0026   0.00  185.4
2018/03/15 10:10:30.000   78.247151418   16.013874407   444.0056   1   9   0.0018   0.0010   0.0059   0.0005   0.0011   0.0026   0.00  183.9
2018/03/15 10:10:31.000   78.247151419   16.013874397   444.0051   1   9   0.0018   0.0010   0.0059   0.0005   0.0011   0.0026   0.00  182.6
2018/03/15 10:10:32.000   78.247151419   16.013874387   444.0042   1   9   0.0017   0.0009   0.0059   0.0005   0.0011   0.0026   0.00  180.6
2018/03/15 10:10:33.000   78.247151418   16.013874376   444.0030   1   9   0.0017   0.0009   0.0058   0.0005   0.0011   0.0026   0.00  178.8
2018/03/15 10:10:34.000   78.247151417   16.013874364   444.0020   1   9   0.0017   0.0009   0.0058   0.0005   0.0011   0.0026   0.00  176.9
2018/03/15 10:10:35.000   78.247151419   16.013874353   444.0011   1   9   0.0017   0.0009   0.0058   0.0005   0.0011   0.0025   0.00  174.4
2018/03/15 10:10:36.000   78.247151421   16.013874343   444.0007   1   9   0.0017   0.0009   0.0057   0.0005   0.0011   0.0025   0.00  171.8
2018/03/15 10:10:37.000   78.247151423   16.013874332   444.0002   1   9   0.0017   0.0009   0.0057   0.0005   0.0011   0.0025   0.00  169.4
2018/03/15 10:10:38.000   78.247151424   16.013874321   443.9997   1   9   0.0017   0.0009   0.0057   0.0005   0.0011   0.0025   0.00  166.8
2018/03/15 10:10:39.000   78.247151423   16.013874312   443.9987   1   9   0.0017   0.0009   0.0057   0.0005   0.0011   0.0025   0.00  164.3
2018/03/15 10:10:40.000   78.247151423   16.013874306   443.9977   1   9   0.0017   0.0009   0.0056   0.0005   0.0011   0.0025   0.00  162.1
2018/03/15 10:10:41.000   78.247151423   16.013874298   443.9967   1   9   0.0017   0.0009   0.0056   0.0005   0.0011   0.0025   0.00  160.0
2018/03/15 10:10:42.000   78.247151424   16.013874291   443.9960   1   9   0.0017   0.0009   0.0056   0.0005   0.0011   0.0025   0.00  157.8
2018/03/15 10:10:43.000   78.247151428   16.013874282   443.9959   1   9   0.0016   0.0009   0.0055   0.0005   0.0011   0.0024   0.00  155.7
2018/03/15 10:10:44.000   78.247151432   16.013874272   443.9961   1   9   0.0016   0.0009   0.0055   0.0005   0.0011   0.0024   0.00  153.8
2018/03/15 10:10:45.000   78.247151435   16.013874263   443.9960   1   9   0.0016   0.0009   0.0055   0.0005   0.0011   0.0024   0.00  152.2
2018/03/15 10:10:46.000   78.247151436   16.013874256   443.9955   1   9   0.0016   0.0009   0.0055   0.0005   0.0011   0.0024   0.00  151.2
2018/03/15 10:10:47.000   78.247151437   16.013874251   443.9950   1   9   0.0016   0.0009   0.0055   0.0005   0.0011   0.0024   0.00  149.8
2018/03/15 10:10:48.000   78.247151437   16.013874245   443.9942   1   9   0.0016   0.0009   0.0054   0.0005   0.0011   0.0024   0.00  148.3
2018/03/15 10:10:49.000   78.247151439   16.013874241   443.9937   1   9   0.0016   0.0009   0.0054   0.0005   0.0010   0.0024   0.00  146.5
2018/03/15 10:10:50.000   78.247151441   16.013874236   443.9932   1   9   0.0016   0.0009   0.0054   0.0005   0.0010   0.0024   0.00  144.8
2018/03/15 10:10:51.000   78.247151444   16.013874231   443.9931   1   9   0.0016   0.0009   0.0054   0.0005   0.0010   0.0024   0.00  143.0
2018/03/15 10:10:52.000   78.247151446   16.013874226   443.9932   1   9   0.0016   0.0009   0.0053   0.0005   0.0010   0.0024   0.00  142.0
2018/03/15 10:10:53.000   78.247151449   16.013874219   443.9932   1   9   0.0016   0.0009   0.0053   0.0005   0.0010   0.0023   0.00  141.3
2018/03/15 10:10:54.000   78.247151452   16.013874214   443.9932   1   9   0.0016   0.0009   0.0053   0.0005   0.0010   0.0023   0.00  140.6
2018/03/15 10:10:55.000   78.247151456   16.013874209   443.9932   1   9   0.0016   0.0009   0.0053   0.0005   0.0010   0.0023   0.00  139.9
2018/03/15 10:10:56.000   78.247151458   16.013874205   443.9932   1   9   0.0016   0.0008   0.0053   0.0005   0.0010   0.0023   0.00  139.3
2018/03/15 10:10:57.000   78.247151460   16.013874202   443.9929   1   9   0.0016   0.0008   0.0052   0.0005   0.0010   0.0023   0.00  138.2
2018/03/15 10:10:58.000   78.247151462   16.013874200   443.9926   1   9   0.0015   0.0008   0.0052   0.0005   0.0010   0.0023   0.00  137.2
2018/03/15 10:10:59.000   78.247151465   16.013874199   443.9923   1   9   0.0015   0.0008   0.0052   0.0005   0.0010   0.0023   0.00  135.9
2018/03/15 10:11:00.000   78.247151467   16.013874199   443.9922   1   9   0.0015   0.0008   0.0052   0.0005   0.0010   0.0023   0.00  134.7
2018/03/15 10:11:01.000   78.247151470   16.013874198   443.9921   1   9   0.0015   0.0008   0.0052   0.0005   0.0010   0.0023   0.00  133.8
2018/03/15 10:11:02.000   78.247151472   16.013874196   443.9918   1   9   0.0015   0.0008   0.0052   0.0005   0.0010   0.0023   0.00  133.0
2018/03/15 10:11:03.000   78.247151475   16.013874195   443.9918   1   9   0.0015   0.0008   0.0051   0.0005   0.0010   0.0023   0.00  131.9
2018/03/15 10:11:04.000   78.247151477   16.013874193   443.9916   1   9   0.0015   0.0008   0.0051   0.0005   0.0010   0.0023   0.00  131.0
2018/03/15 10:11:05.000   78.247151480   16.013874190   443.9916   1   9   0.0015   0.0008   0.0051   0.0005   0.0010   0.0022   0.00  129.8
2018/03/15 10:11:06.000   78.247151483   16.013874188   443.9915   1   9   0.0015   0.0008   0.0051   0.0005   0.0010   0.0022   0.00  128.4
2018/03/15 10:11:07.000   78.247151486   16.013874185   443.9916   1   9   0.0015   0.0008   0.0051   0.0005   0.0010   0.0022   0.00  127.1
2018/03/15 10:11:08.000   78.247151488   16.013874181   443.9910   1   9   0.0015   0.0008   0.0051   0.0005   0.0010   0.0022   0.00  125.8
2018/03/15 10:11:09.000   78.247151489   16.013874175   443.9904   1   9   0.0015   0.0008   0.0050   0.0005   0.0010   0.0022   0.00  124.4
2018/03/15 10:11:10.000   78.247151488   16.013874169   443.9895   1   9   0.0015   0.0008   0.0050   0.0005   0.0010   0.0022   0.00  123.1
2018/03/15 10:11:11.000   78.247151488   16.013874163   443.9890   1   9   0.0015   0.0008   0.0050   0.0005   0.0010   0.0022   0.00  121.5
2018/03/15 10:11:12.000   78.247151489   16.013874157   443.9883   1   9   0.0015   0.0008   0.0050   0.0005   0.0010   0.0022   0.00  120.0
2018/03/15 10:11:13.000   78.247151490   16.013874152   443.9880   1   9   0.0015   0.0008   0.0050   0.0005   0.0010   0.0022   0.00  118.7
2018/03/15 10:11:14.000   78.247151491   16.013874147   443.9877   1   9   0.0015   0.0008   0.0050   0.0005   0.0010   0.0022   0.00  117.3
2018/03/15 10:11:15.000   78.247151492   16.013874139   443.9874   1   9   0.0015   0.0008   0.0049   0.0005   0.0010   0.0022   0.00  116.0
2018/03/15 10:11:16.000   78.247151492   16.013874131   443.9869   1   9   0.0015   0.0008   0.0049   0.0005   0.0010   0.0022   0.00  114.8
2018/03/15 10:11:17.000   78.247151493   16.013874123   443.9865   1   9   0.0015   0.0008   0.0049   0.0004   0.0010   0.0022   0.00  113.6
2018/03/15 10:11:18.000   78.247151493   16.013874115   443.9862   1   9   0.0015   0.0008   0.0049   0.0004   0.0010   0.0022   0.00  112.3
2018/03/15 10:11:19.000   78.247151495   16.013874108   443.9859   1   9   0.0015   0.0008   0.0049   0.0004   0.0009   0.0022   0.00  111.1
2018/03/15 10:11:20.000   78.247151495   16.013874100   443.9855   1   9   0.0014   0.0008   0.0049   0.0004   0.0009   0.0022   0.00  110.1
2018/03/15 10:11:21.000   78.247151496   16.013874096   443.9850   1   9   0.0014   0.0008   0.0049   0.0004   0.0009   0.0021   0.00  109.0
2018/03/15 10:11:22.000   78.247151496   16.013874093   443.9845   1   9   0.0014   0.0008   0.0049   0.0004   0.0009   0.0021   0.00  108.1
2018/03/15 10:11:23.000   78.247151497   16.013874091   443.9838   1   9   0.0014   0.0008   0.0048   0.0004   0.0009   0.0021   0.00  107.1
2018/03/15 10:11:24.000   78.247151498   16.013874088   443.9835   1   9   0.0014   0.0008   0.0048   0.0004   0.0009   0.0021   0.00  106.2
2018/03/15 10:11:25.000   78.247151501   16.013874083   443.9834   1   9   0.0014   0.0008   0.0048   0.0004   0.0009   0.0021   0.00  105.3
2018/03/15 10:11:26.000   78.247151504   16.013874078   443.9834   1   9   0.0014   0.0008   0.0048   0.0004   0.0009   0.0021   0.00  104.2
2018/03/15 10:11:27.000   78.247151506   16.013874073   443.9833   1   9   0.0014   0.0008   0.0048   0.0004   0.0009   0.0021   0.00  103.3
2018/03/15 10:11:28.000   78.247151508   16.013874068   443.9831   1   9   0.0014   0.0008   0.0048   0.0004   0.0009   0.0021   0.00  102.6
2018/03/15 10:11:29.000   78.247151509   16.013874066   443.9827   1   9   0.0014   0.0008   0.0048   0.0004   0.0009   0.0021   0.00  101.9
2018/03/15 10:11:30.000   78.247151509   16.013874064   443.9820   1   9   0.0014   0.0008   0.0048   0.0004   0.0009   0.0021   0.00  101.4
2018/03/15 10:11:31.000   78.247151510   16.013874063   443.9816   1   9   0.0014   0.0008   0.0047   0.0004   0.0009   0.0021   0.00  100.7
2018/03/15 10:11:32.000   78.247151512   16.013874061   443.9813   1   9   0.0014   0.0008   0.0047   0.0004   0.0009   0.0021   0.00   99.8
2018/03/15 10:11:33.000   78.247151514   16.013874057   443.9811   1   9   0.0014   0.0008   0.0047   0.0004   0.0009   0.0021   0.00   99.0
2018/03/15 10:11:34.000   78.247151516   16.013874053   443.9810   1   9   0.0014   0.0008   0.0047   0.0004   0.0009   0.0021   0.00   97.9
2018/03/15 10:11:35.000   78.247151517   16.013874049   443.9809   1   9   0.0014   0.0008   0.0047   0.0004   0.0009   0.0021   0.00   96.9
2018/03/15 10:11:36.000   78.247151518   16.013874044   443.9805   1   9   0.0014   0.0008   0.0047   0.0004   0.0009   0.0021   0.00   96.1
2018/03/15 10:11:37.000   78.247151519   16.013874039   443.9800   1   9   0.0014   0.0008   0.0047   0.0004   0.0009   0.0021   0.00   95.1
2018/03/15 10:11:38.000   78.247151521   16.013874036   443.9797   1   9   0.0014   0.0008   0.0047   0.0004   0.0009   0.0021   0.00   94.2
2018/03/15 10:11:39.000   78.247151522   16.013874032   443.9793   1   9   0.0014   0.0008   0.0047   0.0004   0.0009   0.0021   0.00   93.3
2018/03/15 10:11:40.000   78.247151523   16.013874029   443.9786   1   9   0.0014   0.0008   0.0046   0.0004   0.0009   0.0021   0.00   92.6
2018/03/15 10:11:41.000   78.247151523   16.013874028   443.9781   1   9   0.0014   0.0007   0.0046   0.0004   0.0009   0.0020   0.00   92.0
2018/03/15 10:11:42.000   78.247151524   16.013874027   443.9776   1   9   0.0014   0.0007   0.0046   0.0004   0.0009   0.0020   0.00   91.2
2018/03/15 10:11:43.000   78.247151524   16.013874026   443.9770   1   9   0.0014   0.0007   0.0046   0.0004   0.0009   0.0020   0.00   90.4
2018/03/15 10:11:44.000   78.247151526   16.013874024   443.9765   1   9   0.0014   0.0007   0.0046   0.0004   0.0009   0.0020   0.00   89.6
2018/03/15 10:11:45.000   78.247151527   16.013874021   443.9762   1   9   0.0014   0.0007   0.0046   0.0004   0.0009   0.0020   0.00   88.6
2018/03/15 10:11:46.000   78.247151530   16.013874016   443.9759   1   9   0.0014   0.0007   0.0046   0.0004   0.0009   0.0020   0.00   87.6
2018/03/15 10:11:47.000   78.247151531   16.013874013   443.9754   1   9   0.0014   0.0007   0.0046   0.0004   0.0009   0.0020   0.00   86.7
2018/03/15 10:11:48.000   78.247151531   16.013874011   443.9746   1   9   0.0014   0.0007   0.0046   0.0004   0.0009   0.0020   0.00   85.9
2018/03/15 10:11:49.000   78.247151532   16.013874009   443.9741   1   9   0.0014   0.0007   0.0046   0.0004   0.0009   0.0020   0.00   85.3
2018/03/15 10:11:50.000   78.247151532   16.013874009   443.9739   1   9   0.0014   0.0007   0.0046   0.0004   0.0009   0.0020   0.00   84.7
2018/03/15 10:11:51.000   78.247151535   16.013874007   443.9739   1   9   0.0013   0.0007   0.0045   0.0004   0.0009   0.0020   0.00   84.0
2018/03/15 10:11:52.000   78.247151537   16.013874005   443.9737   1   9   0.0013   0.0007   0.0045   0.0004   0.0009   0.0020   0.00   83.2
2018/03/15 10:11:53.000   78.247151538   16.013874003   443.9732   1   9   0.0013   0.0007   0.0045   0.0004   0.0009   0.0020   0.00   82.3
2018/03/15 10:11:54.000   78.247151538   16.013873999   443.9724   1   9   0.0013   0.0007   0.0045   0.0004   0.0009   0.0020   0.00   81.4
2018/03/15 10:11:55.000   78.247151538   16.013873994   443.9714   1   9   0.0013   0.0007   0.0045   0.0004   0.0009   0.0020   0.00   80.5
2018/03/15 10:11:56.000   78.247151538   16.013873990   443.9707   1   9   0.0013   0.0007   0.0045   0.0004   0.0009   0.0020   0.00   79.5
2018/03/15 10:11:57.000   78.247151539   16.013873986   443.9701   1   9   0.0013   0.0007   0.0045   0.0004   0.0009   0.0020   0.00   78.5
2018/03/15 10:11:58.000   78.247151540   16.013873983   443.9697   1   9   0.0013   0.0007   0.0045   0.0004   0.0009   0.0020   0.00   77.5
2018/03/15 10:11:59.000   78.247151541   16.013873980   443.9689   1   9   0.0013   0.0007   0.0045   0.0004   0.0009   0.0020   0.00   76.6
2018/03/15 10:12:00.000   78.247151541   16.013873976   443.9680   1   9   0.0013   0.0007   0.0045   0.0004   0.0009   0.0020   0.00   75.9
2018/03/15 10:12:01.000   78.247151542   16.013873973   443.9671   1   9   0.0013   0.0007   0.0045   0.0004   0.0009   0.0020   0.00   75.0
2018/03/15 10:12:02.000   78.247151542   16.013873969   443.9663   1   9   0.0013   0.0007   0.0045   0.0004   0.0009   0.0020   0.00   74.2
2018/03/15 10:12:03.000   78.247151544   16.013873965   443.9658   1   9   0.0013   0.0007   0.0044   0.0004   0.0009   0.0020   0.00   73.2
2018/03/15 10:12:04.000   78.247151547   16.013873961   443.9655   1   9   0.0013   0.0007   0.0044   0.0004   0.0009   0.0020   0.00   72.2
2018/03/15 10:12:05.000   78.247151549   16.013873959   443.9652   1   9   0.0013   0.0007   0.0044   0.0004   0.0009   0.0020   0.00   71.4
2018/03/15 10:12:06.000   78.247151550   16.013873957   443.9645   1   9   0.0013   0.0007   0.0044   0.0004   0.0009   0.0020   0.00   70.7
2018/03/15 10:12:07.000   78.247151551   16.013873956   443.9639   1   9   0.0013   0.0007   0.0044   0.0004   0.0009   0.0020   0.00   70.0
2018/03/15 10:12:08.000   78.247151553   16.013873955   443.9633   1   9   0.0013   0.0007   0.0044   0.0004   0.0009   0.0019   0.00   69.3
2018/03/15 10:12:09.000   78.247151556   16.013873952   443.9628   1   9   0.0013   0.0007   0.0044   0.0004   0.0009   0.0019   0.00   68.5
2018/03/15 10:12:10.000   78.247151558   16.013873949   443.9622   1   9   0.0013   0.0007   0.0044   0.0004   0.0009   0.0019   0.00   67.7
2018/03/15 10:12:11.000   78.247151560   16.013873947   443.9614   1   9   0.0013   0.0007   0.0044   0.0004   0.0009   0.0019   0.00   67.1
2018/03/15 10:12:12.000   78.247151561   16.013873946   443.9603   1   9   0.0013   0.0007   0.0044   0.0004   0.0009   0.0019   0.00   66.4
2018/03/15 10:12:13.000   78.247151562   16.013873944   443.9591   1   9   0.0013   0.0007   0.0044   0.0004   0.0009   0.0019   0.00   65.9
2018/03/15 10:12:14.000   78.247151563   16.013873941   443.9581   1   9   0.0013   0.0007   0.0044   0.0004   0.0009   0.0019   0.00   65.2
2018/03/15 10:12:15.000   78.247151565   16.013873938   443.9575   1   9   0.0013   0.0007   0.0044   0.0004   0.0009   0.0019   0.00   64.5
2018/03/15 10:12:16.000   78.247151568   16.013873935   443.9573   1   9   0.0013   0.0007   0.0044   0.0004   0.0009   0.0019   0.00   63.7
2018/03/15 10:12:17.000   78.247151571   16.013873931   443.9570   1   9   0.0013   0.0007   0.0044   0.0004   0.0009   0.0019   0.00   62.9
2018/03/15 10:12:18.000   78.247151572   16.013873929   443.9565   1   9   0.0013   0.0007   0.0043   0.0004   0.0009   0.0019   0.00   62.2
2018/03/15 10:12:19.000   78.247151573   16.013873928   443.9556   1   9   0.0013   0.0007   0.0043   0.0004   0.0009   0.0019   0.00   61.6
2018/03/15 10:12:20.000   78.247151573   16.013873926   443.9546   1   9   0.0013   0.0007   0.0043   0.0004   0.0009   0.0019   0.00   61.1
2018/03/15 10:12:21.000   78.247151574   16.013873924   443.9536   1   9   0.0013   0.0007   0.0043   0.0004   0.0009   0.0019   0.00   60.5
2018/03/15 10:12:22.000   78.247151575   16.013873920   443.9528   1   9   0.0013   0.0007   0.0043   0.0004   0.0009   0.0019   0.00   59.8
2018/03/15 10:12:23.000   78.247151577   16.013873916   443.9522   1   9   0.0013   0.0007   0.0043   0.0004   0.0009   0.0019   0.00   59.1
2018/03/15 10:12:24.000   78.247151578   16.013873912   443.9514   1   9   0.0013   0.0007   0.0043   0.0004   0.0009   0.0019   0.00   58.4
2018/03/15 10:12:25.000   78.247151578   16.013873907   443.9506   1   9   0.0013   0.0007   0.0043   0.0004   0.0009   0.0019   0.00   57.8
2018/03/15 10:12:26.000   78.247151579   16.013873902   443.9500   1   9   0.0013   0.0007   0.0043   0.0004   0.0008   0.0019   0.00   57.3
2018/03/15 10:12:27.000   78.247151582   16.013873897   443.9497   1   9   0.0013   0.0007   0.0043   0.0004   0.0008   0.0019   0.00   56.6
2018/03/15 10:12:28.000   78.247151584   16.013873892   443.9493   1   9   0.0013   0.0007   0.0043   0.0004   0.0008   0.0019   0.00   56.0
2018/03/15 10:12:29.000   78.247151586   16.013873889   443.9487   1   9   0.0013   0.0007   0.0043   0.0004   0.0008   0.0019   0.00   55.5
2018/03/15 10:12:30.000   78.247151587   16.013873886   443.9479   1   9   0.0013   0.0007   0.0043   0.0004   0.0008   0.0019   0.00   54.9
2018/03/15 10:12:31.000   78.247151587   16.013873885   443.9468   1   9   0.0013   0.0007   0.0043   0.0004   0.0008   0.0019   0.00   54.3
2018/03/15 10:12:32.000   78.247151588   16.013873883   443.9459   1   9   0.0013   0.0007   0.0043   0.0004   0.0008   0.0019   0.00   53.8
2018/03/15 10:12:33.000   78.247151590   16.013873880   443.9451   1   9   0.0013   0.0007   0.0043   0.0004   0.0008   0.0019   0.00   53.1
2018/03/15 10:12:34.000   78.247151591   16.013873875   443.9442   1   9   0.0013   0.0007   0.0042   0.0004   0.0008   0.0019   0.00   52.5
2018/03/15 10:12:35.000   78.247151592   16.013873871   443.9433   1   9   0.0013   0.0007   0.0042   0.0004   0.0008   0.0019   0.00   52.0
2018/03/15 10:12:36.000   78.247151593   16.013873868   443.9424   1   9   0.0013   0.0007   0.0042   0.0004   0.0008   0.0019   0.00   51.4
2018/03/15 10:12:37.000   78.247151593   16.013873865   443.9412   1   9   0.0013   0.0007   0.0042   0.0004   0.0008   0.0019   0.00   50.9
2018/03/15 10:12:38.000   78.247151593   16.013873862   443.9402   1   9   0.0013   0.0007   0.0042   0.0004   0.0008   0.0019   0.00   50.3
2018/03/15 10:12:39.000   78.247151594   16.013873860   443.9393   1   9   0.0013   0.0007   0.0042   0.0004   0.0008   0.0019   0.00   49.8
2018/03/15 10:12:40.000   78.247151595   16.013873857   443.9384   1   9   0.0013   0.0007   0.0042   0.0004   0.0008   0.0019   0.00   49.1
2018/03/15 10:12:41.000   78.247151596   16.013873853   443.9375   1   9   0.0013   0.0007   0.0042   0.0004   0.0008   0.0019   0.00   48.5
2018/03/15 10:12:42.000   78.247151596   16.013873850   443.9365   1   9   0.0013   0.0007   0.0042   0.0004   0.0008   0.0019   0.00   48.0
2018/03/15 10:12:43.000   78.247151597   16.013873847   443.9356   1   9   0.0013   0.0007   0.0042   0.0004   0.0008   0.0019   0.00   47.6
2018/03/15 10:12:44.000   78.247151597   16.013873843   443.9347   1   9   0.0012   0.0007   0.0042   0.0004   0.0008   0.0019   0.00   47.1
2018/03/15 10:12:45.000   78.247151599   16.013873839   443.9339   1   9   0.0012   0.0007   0.0042   0.0004   0.0008   0.0019   0.00   46.5
2018/03/15 10:12:46.000   78.247151600   16.013873835   443.9330   1   9   0.0012   0.0007   0.0042   0.0004   0.0008   0.0018   0.00   46.0
2018/03/15 10:12:47.000   78.247151602   16.013873832   443.9324   1   9   0.0012   0.0007   0.0042   0.0004   0.0008   0.0018   0.00   45.5
2018/03/15 10:12:48.000   78.247151604   16.013873829   443.9318   1   9   0.0012   0.0007   0.0042   0.0004   0.0008   0.0018   0.00   45.1
2018/03/15 10:12:49.000   78.247151605   16.013873825   443.9313   1   9   0.0012   0.0007   0.0042   0.0004   0.0008   0.0018   0.00   44.6
2018/03/15 10:12:50.000   78.247151607   16.013873822   443.9305   1   9   0.0012   0.0007   0.0042   0.0004   0.0008   0.0018   0.00   44.2
2018/03/15 10:12:51.000   78.247151609   16.013873818   443.9300   1   9   0.0012   0.0007   0.0042   0.0004   0.0008   0.0018   0.00   43.7
2018/03/15 10:12:52.000   78.247151611   16.013873815   443.9295   1   9   0.0012   0.0007   0.0042   0.0004   0.0008   0.0018   0.00   43.3
2018/03/15 10:12:53.000   78.247151612   16.013873813   443.9286   1   9   0.0012   0.0007   0.0041   0.0004   0.0008   0.0018   0.00   42.8
2018/03/15 10:12:54.000   78.247151613   16.013873810   443.9275   1   9   0.0012   0.0007   0.0041   0.0004   0.0008   0.0018   0.00   42.4
2018/03/15 10:12:55.000   78.247151614   16.013873807   443.9266   1   9   0.0012   0.0007   0.0041   0.0004   0.0008   0.0018   0.00   42.1
2018/03/15 10:12:56.000   78.247151615   16.013873803   443.9256   1   9   0.0012   0.0007   0.0041   0.0004   0.0008   0.0018   0.00   41.7
2018/03/15 10:12:57.000   78.247151618   16.013873798   443.9249   1   9   0.0012   0.0007   0.0041   0.0004   0.0008   0.0018   0.00   41.3
2018/03/15 10:12:58.000   78.247151620   16.013873794   443.9245   1   9   0.0012   0.0007   0.0041   0.0004   0.0008   0.0018   0.00   40.9
2018/03/15 10:12:59.000   78.247151622   16.013873790   443.9241   1   9   0.0012   0.0007   0.0041   0.0004   0.0008   0.0018   0.00   40.5
2018/03/15 10:13:00.000   78.247151623   16.013873787   443.9234   1   9   0.0012   0.0007   0.0041   0.0004   0.0008   0.0018   0.00   40.2
2018/03/15 10:13:01.000   78.247151624   16.013873784   443.9227   1   9   0.0012   0.0007   0.0041   0.0004   0.0008   0.0018   0.00   39.9
2018/03/15 10:13:02.000   78.247151626   16.013873782   443.9219   1   9   0.0012   0.0007   0.0041   0.0004   0.0008   0.0018   0.00   39.5
2018/03/15 10:13:03.000   78.247151628   16.013873779   443.9212   1   9   0.0012   0.0007   0.0041   0.0004   0.0008   0.0018   0.00   39.1
2018/03/15 10:13:04.000   78.247151630   16.013873775   443.9208   1   9   0.0012   0.0007   0.0041   0.0004   0.0008   0.0018   0.00   38.7
2018/03/15 10:13:05.000   78.247151632   16.013873771   443.9201   1   9   0.0012   0.0007   0.0041   0.0004   0.0008   0.0018   0.00   38.4
2018/03/15 10:13:06.000   78.247151633   16.013873767   443.9191   1   9   0.0012   0.0007   0.0041   0.0004   0.0008   0.0018   0.00   38.0
2018/03/15 10:13:07.000   78.247151634   16.013873762   443.9181   1   9   0.0012   0.0007   0.0041   0.0004   0.0008   0.0018   0.00   37.7
2018/03/15 10:13:08.000   78.247151636   16.013873756   443.9171   1   9   0.0012   0.0007   0.0041   0.0004   0.0008   0.0018   0.00   37.4
2018/03/15 10:13:09.000   78.247151638   16.013873752   443.9161   1   9   0.0012   0.0007   0.0041   0.0004   0.0008   0.0018   0.00   37.0
2018/03/15 10:13:10.000   78.247151640   16.013873747   443.9150   1   9   0.0012   0.0007   0.0041   0.0004   0.0008   0.0018   0.00   36.7
2018/03/15 10:13:11.000   78.247151641   16.013873743   443.9141   1   9   0.0012   0.0007   0.0041   0.0004   0.0008   0.0018   0.00   36.4
2018/03/15 10:13:12.000   78.247151642   16.013873741   443.9132   1   9   0.0012   0.0007   0.0041   0.0004   0.0008   0.0018   0.00   36.2
2018/03/15 10:13:13.000   78.247151643   16.013873737   443.9123   1   9   0.0012   0.0007   0.0041   0.0004   0.0008   0.0018   0.00   35.9
2018/03/15 10:13:14.000   78.247151644   16.013873733   443.9115   1   9   0.0012   0.0007   0.0040   0.0004   0.0008   0.0018   0.00   35.6
2018/03/15 10:13:15.000   78.247151646   16.013873729   443.9109   1   9   0.0012   0.0007   0.0040   0.0004   0.0008   0.0018   0.00   35.2
2018/03/15 10:13:16.000   78.247151648   16.013873724   443.9104   1   9   0.0012   0.0007   0.0040   0.0004   0.0008   0.0018   0.00   34.9
2018/03/15 10:13:17.000   78.247151650   16.013873720   443.9098   1   9   0.0012   0.0007   0.0040   0.0004   0.0008   0.0018   0.00   34.5
2018/03/15 10:13:18.000   78.247151651   16.013873717   443.9091   1   9   0.0012   0.0007   0.0040   0.0004   0.0008   0.0018   0.00   34.3
2018/03/15 10:13:19.000   78.247151653   16.013873714   443.9084   1   9   0.0012   0.0007   0.0040   0.0004   0.0008   0.0018   0.00   33.9
2018/03/15 10:13:20.000   78.247151654   16.013873710   443.9075   1   9   0.0012   0.0007   0.0040   0.0004   0.0008   0.0018   0.00   33.7
2018/03/15 10:13:21.000   78.247151656   16.013873708   443.9070   1   9   0.0012   0.0007   0.0040   0.0004   0.0008   0.0018   0.00   33.3
2018/03/15 10:13:22.000   78.247151657   16.013873705   443.9063   1   9   0.0012   0.0007   0.0040   0.0004   0.0008   0.0018   0.00   33.0
2018/03/15 10:13:23.000   78.247151658   16.013873702   443.9054   1   9   0.0012   0.0007   0.0040   0.0004   0.0008   0.0018   0.00   32.8
2018/03/15 10:13:24.000   78.247151658   16.013873698   443.9044   1   9   0.0012   0.0007   0.0040   0.0004   0.0008   0.0018   0.00   32.5
2018/03/15 10:13:25.000   78.247151659   16.013873694   443.9035   1   9   0.0012   0.0007   0.0040   0.0004   0.0008   0.0018   0.00   32.2
2018/03/15 10:13:26.000   78.247151660   16.013873690   443.9029   1   9   0.0012   0.0007   0.0040   0.0004   0.0008   0.0018   0.00   31.9
2018/03/15 10:13:27.000   78.247151662   16.013873685   443.9020   1   9   0.0012   0.0007   0.0040   0.0004   0.0008   0.0018   0.00   31.5
2018/03/15 10:13:28.000   78.247151663   16.013873682   443.9014   1   9   0.0012   0.0007   0.0040   0.0004   0.0008   0.0018   0.00   31.2
2018/03/15 10:13:29.000   78.247151664   16.013873680   443.9008   1   9   0.0012   0.0007   0.0040   0.0004   0.0008   0.0018   0.00   30.9
2018/03/15 10:13:30.000   78.247151665   16.013873677   443.9002   1   9   0.0012   0.0006   0.0040   0.0004   0.0008   0.0018   0.00   30.6
2018/03/15 10:13:31.000   78.247151666   16.013873674   443.8997   1   9   0.0012   0.0006   0.0040   0.0004   0.0008   0.0018   0.00   30.3
2018/03/15 10:13:32.000   78.247151668   16.013873671   443.8992   1   9   0.0012   0.0006   0.0040   0.0004   0.0008   0.0018   0.00   30.1
2018/03/15 10:13:33.000   78.247151669   16.013873668   443.8985   1   9   0.0012   0.0006   0.0040   0.0004   0.0008   0.0018   0.00   29.8
2018/03/15 10:13:34.000   78.247151670   16.013873665   443.8979   1   9   0.0012   0.0006   0.0040   0.0004   0.0008   0.0018   0.00   29.5
2018/03/15 10:13:35.000   78.247151672   16.013873660   443.8972   1   9   0.0012   0.0006   0.0040   0.0004   0.0008   0.0018   0.00   29.2
2018/03/15 10:13:36.000   78.247151673   16.013873656   443.8966   1   9   0.0012   0.0006   0.0040   0.0004   0.0008   0.0018   0.00   29.0
2018/03/15 10:13:37.000   78.247151674   16.013873651   443.8960   1   9   0.0012   0.0006   0.0040   0.0004   0.0008   0.0018   0.00   28.7
2018/03/15 10:13:38.000   78.247151676   16.013873648   443.8956   1   9   0.0012   0.0006   0.0039   0.0004   0.0008   0.0018   0.00   28.4
2018/03/15 10:13:39.000   78.247151678   16.013873645   443.8951   1   9   0.0012   0.0006   0.0039   0.0004   0.0008   0.0017   0.00   28.2
2018/03/15 10:13:40.000   78.247151679   16.013873640   443.8946   1   9   0.0012   0.0006   0.0039   0.0004   0.0008   0.0017   0.00   27.9
2018/03/15 10:13:41.000   78.247151681   16.013873637   443.8939   1   9   0.0012   0.0006   0.0039   0.0004   0.0008   0.0017   0.00   27.7
2018/03/15 10:13:42.000   78.247151682   16.013873634   443.8930   1   9   0.0012   0.0006   0.0039   0.0004   0.0008   0.0017   0.00   27.4
2018/03/15 10:13:43.000   78.247151684   16.013873631   443.8920   1   9   0.0012   0.0006   0.0039   0.0004   0.0008   0.0017   0.00   27.2
2018/03/15 10:13:44.000   78.247151686   16.013873626   443.8911   1   9   0.0012   0.0006   0.0039   0.0004   0.0008   0.0017   0.00   27.0
2018/03/15 10:13:45.000   78.247151687   16.013873621   443.8901   1   9   0.0012   0.0006   0.0039   0.0004   0.0008   0.0017   0.00   26.8
2018/03/15 10:13:46.000   78.247151689   16.013873616   443.8892   1   9   0.0012   0.0006   0.0039   0.0004   0.0008   0.0017   0.00   26.6
2018/03/15 10:13:47.000   78.247151689   16.013873613   443.8882   1   9   0.0012   0.0006   0.0039   0.0004   0.0008   0.0017   0.00   26.4
2018/03/15 10:13:48.000   78.247151690   16.013873610   443.8874   1   9   0.0012   0.0006   0.0039   0.0004   0.0008   0.0017   0.00   26.2
2018/03/15 10:13:49.000   78.247151692   16.013873607   443.8868   1   9   0.0012   0.0006   0.0039   0.0004   0.0008   0.0017   0.00   26.0
2018/03/15 10:13:50.000   78.247151694   16.013873603   443.8863   1   9   0.0012   0.0006   0.0039   0.0004   0.0008   0.0017   0.00   25.7
2018/03/15 10:13:51.000   78.247151696   16.013873599   443.8855   1   9   0.0012   0.0006   0.0039   0.0004   0.0008   0.0017   0.00   25.5
2018/03/15 10:13:52.000   78.247151697   16.013873595   443.8845   1   9   0.0012   0.0006   0.0039   0.0004   0.0008   0.0017   0.00   25.3
2018/03/15 10:13:53.000   78.247151698   16.013873591   443.8832   1   9   0.0012   0.0006   0.0039   0.0004   0.0008   0.0017   0.00   25.1
2018/03/15 10:13:54.000   78.247151699   16.013873586   443.8819   1   9   0.0012   0.0006   0.0039   0.0004   0.0008   0.0017   0.00   24.9
2018/03/15 10:13:55.000   78.247151700   16.013873581   443.8810   1   9   0.0012   0.0006   0.0039   0.0004   0.0008   0.0017   0.00   24.7
2018/03/15 10:13:56.000   78.247151702   16.013873577   443.8803   1   9   0.0012   0.0006   0.0039   0.0004   0.0008   0.0017   0.00   24.5
2018/03/15 10:13:57.000   78.247151703   16.013873572   443.8795   1   9   0.0012   0.0006   0.0039   0.0004   0.0008   0.0017   0.00   24.3
2018/03/15 10:13:58.000   78.247151704   16.013873567   443.8786   1   9   0.0012   0.0006   0.0039   0.0004   0.0008   0.0017   0.00   24.1
2018/03/15 10:13:59.000   78.247151704   16.013873562   443.8777   1   9   0.0012   0.0006   0.0039   0.0004   0.0008   0.0017   0.00   23.9
2018/03/15 10:14:00.000   78.247151705   16.013873558   443.8767   1   9   0.0012   0.0006   0.0039   0.0004   0.0008   0.0017   0.00   23.7
2018/03/15 10:14:01.000   78.247151706   16.013873553   443.8756   1   9   0.0012   0.0006   0.0039   0.0004   0.0008   0.0017   0.00   23.5
2018/03/15 10:14:02.000   78.247151708   16.013873547   443.8744   1   9   0.0012   0.0006   0.0039   0.0004   0.0008   0.0017   0.00   23.3
2018/03/15 10:14:03.000   78.247151708   16.013873541   443.8733   1   9   0.0012   0.0006   0.0039   0.0004   0.0008   0.0017   0.00   23.1
2018/03/15 10:14:04.000   78.247151708   16.013873535   443.8723   1   9   0.0012   0.0006   0.0039   0.0004   0.0008   0.0017   0.00   22.9
2018/03/15 10:14:05.000   78.247151709   16.013873529   443.8712   1   9   0.0012   0.0006   0.0039   0.0004   0.0008   0.0017   0.00   22.8
2018/03/15 10:14:06.000   78.247151709   16.013873523   443.8702   1   9   0.0012   0.0006   0.0038   0.0004   0.0008   0.0017   0.00   22.5
2018/03/15 10:14:07.000   78.247151710   16.013873516   443.8693   1   9   0.0012   0.0006   0.0038   0.0004   0.0008   0.0017   0.00   22.3
2018/03/15 10:14:08.000   78.247151711   16.013873510   443.8684   1   9   0.0012   0.0006   0.0038   0.0004   0.0008   0.0017   0.00   22.1
2018/03/15 10:14:09.000   78.247151711   16.013873505   443.8673   1   9   0.0012   0.0006   0.0038   0.0004   0.0008   0.0017   0.00   21.9
2018/03/15 10:14:10.000   78.247151711   16.013873500   443.8662   1   9   0.0012   0.0006   0.0038   0.0004   0.0008   0.0017   0.00   21.7
2018/03/15 10:14:11.000   78.247151711   16.013873495   443.8649   1   9   0.0012   0.0006   0.0038   0.0004   0.0008   0.0017   0.00   21.5
2018/03/15 10:14:12.000   78.247151712   16.013873489   443.8638   1   9   0.0012   0.0006   0.0038   0.0004   0.0008   0.0017   0.00   21.3
2018/03/15 10:14:13.000   78.247151712   16.013873483   443.8627   1   9   0.0012   0.0006   0.0038   0.0004   0.0008   0.0017   0.00   21.0
2018/03/15 10:14:14.000   78.247151713   16.013873477   443.8618   1   9   0.0012   0.0006   0.0038   0.0004   0.0008   0.0017   0.00   20.8
2018/03/15 10:14:15.000   78.247151714   16.013873472   443.8610   1   9   0.0012   0.0006   0.0038   0.0004   0.0008   0.0017   0.00   20.7
2018/03/15 10:14:16.000   78.247151715   16.013873467   443.8601   1   9   0.0012   0.0006   0.0038   0.0004   0.0008   0.0017   0.00   20.5
2018/03/15 10:14:17.000   78.247151716   16.013873463   443.8593   1   9   0.0012   0.0006   0.0038   0.0004   0.0008   0.0017   0.00   20.3
2018/03/15 10:14:18.000   78.247151718   16.013873460   443.8585   1   9   0.0012   0.0006   0.0038   0.0004   0.0008   0.0017   0.00   20.1
2018/03/15 10:14:19.000   78.247151720   16.013873457   443.8577   1   9   0.0011   0.0006   0.0038   0.0004   0.0008   0.0017   0.00   19.9
2018/03/15 10:14:20.000   78.247151722   16.013873454   443.8567   1   9   0.0011   0.0006   0.0038   0.0004   0.0008   0.0017   0.00   19.8
2018/03/15 10:14:21.000   78.247151722   16.013873451   443.8556   1   9   0.0011   0.0006   0.0038   0.0004   0.0008   0.0017   0.00   19.6
2018/03/15 10:14:22.000   78.247151723   16.013873447   443.8544   1   9   0.0011   0.0006   0.0038   0.0004   0.0008   0.0017   0.00   19.5
2018/03/15 10:14:23.000   78.247151724   16.013873442   443.8533   1   9   0.0011   0.0006   0.0038   0.0004   0.0008   0.0017   0.00   19.4
2018/03/15 10:14:24.000   78.247151726   16.013873437   443.8525   1   9   0.0011   0.0006   0.0038   0.0004   0.0008   0.0017   0.00   19.2
2018/03/15 10:14:25.000   78.247151728   16.013873433   443.8519   1   9   0.0011   0.0006   0.0038   0.0004   0.0008   0.0017   0.00   19.0
2018/03/15 10:14:26.000   78.247151730   16.013873430   443.8513   1   9   0.0011   0.0006   0.0038   0.0004   0.0008   0.0017   0.00   18.8
2018/03/15 10:14:27.000   78.247151732   16.013873427   443.8507   1   9   0.0011   0.0006   0.0038   0.0004   0.0008   0.0017   0.00   18.7
2018/03/15 10:14:28.000   78.247151733   16.013873423   443.8498   1   9   0.0011   0.0006   0.0038   0.0004   0.0008   0.0017   0.00   18.6
2018/03/15 10:14:29.000   78.247151735   16.013873419   443.8490   1   9   0.0011   0.0006   0.0038   0.0004   0.0008   0.0017   0.00   18.4
2018/03/15 10:14:30.000   78.247151736   16.013873417   443.8482   1   9   0.0011   0.0006   0.0038   0.0004   0.0008   0.0017   0.00   18.3
2018/03/15 10:14:31.000   78.247151737   16.013873413   443.8474   1   9   0.0011   0.0006   0.0038   0.0004   0.0008   0.0017   0.00   18.1
2018/03/15 10:14:32.000   78.247151738   16.013873409   443.8466   1   9   0.0011   0.0006   0.0038   0.0004   0.0008   0.0017   0.00   18.0
2018/03/15 10:14:33.000   78.247151739   16.013873405   443.8456   1   9   0.0011   0.0006   0.0038   0.0004   0.0008   0.0017   0.00   17.8
2018/03/15 10:14:34.000   78.247151739   16.013873400   443.8446   1   9   0.0011   0.0006   0.0038   0.0004   0.0008   0.0017   0.00   17.7
2018/03/15 10:14:35.000   78.247151740   16.013873394   443.8435   1   9   0.0011   0.0006   0.0038   0.0004   0.0008   0.0017   0.00   17.5
2018/03/15 10:14:36.000   78.247151741   16.013873389   443.8425   1   9   0.0011   0.0006   0.0037   0.0004   0.0008   0.0017   0.00   17.4
2018/03/15 10:14:37.000   78.247151742   16.013873383   443.8413   1   9   0.0011   0.0006   0.0037   0.0004   0.0008   0.0017   0.00   17.2
2018/03/15 10:14:38.000   78.247151743   16.013873377   443.8401   1   9   0.0011   0.0006   0.0037   0.0004   0.0008   0.0017   0.00   17.1
2018/03/15 10:14:39.000   78.247151744   16.013873372   443.8390   1   9   0.0011   0.0006   0.0037   0.0004   0.0008   0.0017   0.00   16.9
2018/03/15 10:14:40.000   78.247151745   16.013873367   443.8381   1   9   0.0011   0.0006   0.0037   0.0004   0.0008   0.0017   0.00   16.8
2018/03/15 10:14:41.000   78.247151746   16.013873363   443.8370   1   9   0.0011   0.0006   0.0037   0.0004   0.0008   0.0017   0.00   16.6
2018/03/15 10:14:42.000   78.247151747   16.013873359   443.8359   1   9   0.0011   0.0006   0.0037   0.0004   0.0008   0.0017   0.00   16.5
2018/03/15 10:14:43.000   78.247151747   16.013873355   443.8348   1   9   0.0011   0.0006   0.0037   0.0004   0.0008   0.0017   0.00   16.4
2018/03/15 10:14:44.000   78.247151748   16.013873350   443.8337   1   9   0.0011   0.0006   0.0037   0.0004   0.0008   0.0017   0.00   16.3
2018/03/15 10:14:45.000   78.247151750   16.013873347   443.8327   1   9   0.0011   0.0006   0.0037   0.0004   0.0008   0.0017   0.00   16.1
2018/03/15 10:14:46.000   78.247151752   16.013873343   443.8317   1   9   0.0011   0.0006   0.0037   0.0004   0.0008   0.0017   0.00   16.0
2018/03/15 10:14:47.000   78.247151753   16.013873338   443.8306   1   9   0.0011   0.0006   0.0037   0.0004   0.0008   0.0017   0.00   15.9
2018/03/15 10:14:48.000   78.247151754   16.013873333   443.8294   1   9   0.0011   0.0006   0.0037   0.0004   0.0008   0.0017   0.00   15.8
2018/03/15 10:14:49.000   78.247151755   16.013873328   443.8284   1   9   0.0011   0.0006   0.0037   0.0004   0.0008   0.0017   0.00   15.6
2018/03/15 10:14:50.000   78.247151756   16.013873325   443.8276   1   9   0.0011   0.0006   0.0037   0.0004   0.0008   0.0016   0.00   15.5
2018/03/15 10:14:51.000   78.247151758   16.013873321   443.8269   1   9   0.0011   0.0006   0.0037   0.0004   0.0008   0.0016   0.00   15.4
2018/03/15 10:14:52.000   78.247151760   16.013873317   443.8262   1   9   0.0011   0.0006   0.0037   0.0004   0.0008   0.0016   0.00   15.3
2018/03/15 10:14:53.000   78.247151761   16.013873313   443.8253   1   9   0.0011   0.0006   0.0037   0.0004   0.0008   0.0016   0.00   15.2
2018/03/15 10:14:54.000   78.247151762   16.013873309   443.8243   1   9   0.0011   0.0006   0.0037   0.0004   0.0008   0.0016   0.00   15.1
2018/03/15 10:14:55.000   78.247151762   16.013873307   443.8234   1   9   0.0011   0.0006   0.0037   0.0004   0.0008   0.0016   0.00   14.9
2018/03/15 10:14:56.000   78.247151763   16.013873304   443.8226   1   9   0.0011   0.0006   0.0037   0.0004   0.0008   0.0016   0.00   14.8
2018/03/15 10:14:57.000   78.247151765   16.013873300   443.8217   1   9   0.0011   0.0006   0.0037   0.0004   0.0008   0.0016   0.00   14.7
2018/03/15 10:14:58.000   78.247151766   16.013873294   443.8208   1   9   0.0011   0.0006   0.0037   0.0004   0.0008   0.0016   0.00   14.6
2018/03/15 10:14:59.000   78.247151768   16.013873289   443.8200   1   9   0.0011   0.0006   0.0037   0.0004   0.0008   0.0016   0.00   14.5
2018/03/15 10:15:00.000   78.247151769   16.013873284   443.8189   1   9   0.0011   0.0006   0.0037   0.0004   0.0008   0.0016   0.00   14.3
2018/03/15 10:15:01.000   78.247151770   16.013873281   443.8179   1   9   0.0011   0.0006   0.0037   0.0004   0.0008   0.0016   0.00   14.2
2018/03/15 10:15:02.000   78.247151770   16.013873277   443.8167   1   9   0.0011   0.0006   0.0037   0.0004   0.0008   0.0016   0.00   14.1
2018/03/15 10:15:03.000   78.247151772   16.013873274   443.8157   1   9   0.0011   0.0006   0.0037   0.0004   0.0008   0.0016   0.00   14.0
2018/03/15 10:15:04.000   78.247151773   16.013873271   443.8147   1   9   0.0011   0.0006   0.0037   0.0004   0.0008   0.0016   0.00   13.9
2018/03/15 10:15:05.000   78.247151774   16.013873267   443.8135   1   9   0.0011   0.0006   0.0037   0.0004   0.0008   0.0016   0.00   13.8
2018/03/15 10:15:06.000   78.247151774   16.013873262   443.8122   1   9   0.0011   0.0006   0.0037   0.0004   0.0008   0.0016   0.00   13.7
2018/03/15 10:15:07.000   78.247151775   16.013873258   443.8111   1   9   0.0011   0.0006   0.0037   0.0004   0.0008   0.0016   0.00   13.6
2018/03/15 10:15:08.000   78.247151777   16.013873254   443.8102   1   9   0.0011   0.0006   0.0037   0.0004   0.0008   0.0016   0.00   13.5
2018/03/15 10:15:09.000   78.247151779   16.013873250   443.8095   1   9   0.0011   0.0006   0.0037   0.0004   0.0008   0.0016   0.00   13.4
2018/03/15 10:15:10.000   78.247151781   16.013873245   443.8085   1   9   0.0011   0.0006   0.0036   0.0004   0.0008   0.0016   0.00   13.3
2018/03/15 10:15:11.000   78.247151782   16.013873240   443.8072   1   9   0.0011   0.0006   0.0036   0.0004   0.0008   0.0016   0.00   13.2
2018/03/15 10:15:12.000   78.247151783   16.013873235   443.8059   1   9   0.0011   0.0006   0.0036   0.0004   0.0008   0.0016   0.00   13.1
2018/03/15 10:15:13.000   78.247151784   16.013873231   443.8047   1   9   0.0011   0.0006   0.0036   0.0004   0.0008   0.0016   0.00   13.0
2018/03/15 10:15:14.000   78.247151786   16.013873226   443.8035   1   9   0.0011   0.0006   0.0036   0.0004   0.0008   0.0016   0.00   12.9
2018/03/15 10:15:15.000   78.247151788   16.013873221   443.8024   1   9   0.0011   0.0006   0.0036   0.0004   0.0008   0.0016   0.00   12.8
2018/03/15 10:15:16.000   78.247151789   16.013873217   443.8011   1   9   0.0011   0.0006   0.0036   0.0004   0.0008   0.0016   0.00   12.7
2018/03/15 10:15:17.000   78.247151790   16.013873214   443.8001   1   9   0.0011   0.0006   0.0036   0.0004   0.0008   0.0016   0.00   12.6
2018/03/15 10:15:18.000   78.247151790   16.013873210   443.7989   1   9   0.0011   0.0006   0.0036   0.0004   0.0008   0.0016   0.00   12.5
2018/03/15 10:15:19.000   78.247151791   16.013873205   443.7977   1   9   0.0011   0.0006   0.0036   0.0004   0.0008   0.0016   0.00   12.4
2018/03/15 10:15:20.000   78.247151792   16.013873199   443.7964   1   9   0.0011   0.0006   0.0036   0.0004   0.0008   0.0016   0.00   12.3
2018/03/15 10:15:21.000   78.247151794   16.013873192   443.7953   1   9   0.0011   0.0006   0.0036   0.0004   0.0008   0.0016   0.00   12.2
2018/03/15 10:15:22.000   78.247151795   16.013873187   443.7944   1   9   0.0011   0.0006   0.0036   0.0004   0.0008   0.0016   0.00   12.2
2018/03/15 10:15:23.000   78.247151796   16.013873184   443.7936   1   9   0.0011   0.0006   0.0036   0.0004   0.0008   0.0016   0.00   12.1
2018/03/15 10:15:24.000   78.247151797   16.013873181   443.7928   1   9   0.0011   0.0006   0.0036   0.0004   0.0008   0.0016   0.00   12.0
2018/03/15 10:15:25.000   78.247151798   16.013873177   443.7918   1   9   0.0011   0.0006   0.0036   0.0004   0.0008   0.0016   0.00   11.9
2018/03/15 10:15:26.000   78.247151799   16.013873172   443.7908   1   9   0.0011   0.0006   0.0036   0.0004   0.0008   0.0016   0.00   11.8
2018/03/15 10:15:27.000   78.247151800   16.013873167   443.7896   1   9   0.0011   0.0006   0.0036   0.0004   0.0008   0.0016   0.00   11.8
2018/03/15 10:15:28.000   78.247151801   16.013873162   443.7883   1   9   0.0011   0.0006   0.0036   0.0004   0.0008   0.0016   0.00   11.7
2018/03/15 10:15:29.000   78.247151802   16.013873158   443.7872   1   9   0.0011   0.0006   0.0036   0.0004   0.0008   0.0016   0.00   11.6
2018/03/15 10:15:30.000   78.247151804   16.013873152   443.7860   1   9   0.0011   0.0006   0.0036   0.0004   0.0008   0.0016   0.00   11.5
2018/03/15 10:15:31.000   78.247151805   16.013873146   443.7848   1   9   0.0011   0.0006   0.0036   0.0004   0.0008   0.0016   0.00   11.4
2018/03/15 10:15:32.000   78.247151806   16.013873141   443.7835   1   9   0.0011   0.0006   0.0036   0.0004   0.0008   0.0016   0.00   11.3
2018/03/15 10:15:33.000   78.247151807   16.013873136   443.7823   1   9   0.0011   0.0006   0.0036   0.0004   0.0008   0.0016   0.00   11.2
2018/03/15 10:15:34.000   78.247151808   16.013873132   443.7812   1   9   0.0011   0.0006   0.0036   0.0004   0.0008   0.0016   0.00   11.2
2018/03/15 10:15:35.000   78.247151810   16.013873129   443.7802   1   9   0.0011   0.0006   0.0036   0.0004   0.0008   0.0016   0.00   11.1
2018/03/15 10:15:36.000   78.247151812   16.013873126   443.7792   1   9   0.0011   0.0006   0.0036   0.0004   0.0008   0.0016   0.00   11.0
2018/03/15 10:15:37.000   78.247151813   16.013873122   443.7781   1   9   0.0011   0.0006   0.0036   0.0004   0.0008   0.0016   0.00   10.9
2018/03/15 10:15:38.000   78.247151815   16.013873120   443.7769   1   9   0.0011   0.0006   0.0036   0.0004   0.0008   0.0016   0.00   10.9
2018/03/15 10:15:39.000   78.247151816   16.013873117   443.7759   1   9   0.0011   0.0006   0.0036   0.0004   0.0008   0.0016   0.00   10.8
2018/03/15 10:15:40.000   78.247151818   16.013873114   443.7751   1   9   0.0011   0.0006   0.0036   0.0004   0.0008   0.0016   0.00   10.7
2018/03/15 10:15:41.000   78.247151821   16.013873111   443.7744   1   9   0.0011   0.0006   0.0036   0.0004   0.0008   0.0016   0.00   10.6
2018/03/15 10:15:42.000   78.247151822   16.013873109   443.7735   1   9   0.0011   0.0006   0.0036   0.0004   0.0008   0.0016   0.00   10.5
2018/03/15 10:15:43.000   78.247151823   16.013873106   443.7725   1   9   0.0011   0.0006   0.0036   0.0004   0.0008   0.0016   0.00   10.5
2018/03/15 10:15:44.000   78.247151824   16.013873104   443.7712   1   9   0.0011   0.0006   0.0036   0.0004   0.0008   0.0016   0.00   10.4
2018/03/15 10:15:45.000   78.247151824   16.013873101   443.7698   1   9   0.0011   0.0006   0.0036   0.0004   0.0008   0.0016   0.00   10.3
2018/03/15 10:15:46.000   78.247151824   16.013873097   443.7685   1   9   0.0011   0.0006   0.0035   0.0004   0.0008   0.0016   0.00   10.3
2018/03/15 10:15:47.000   78.247151825   16.013873092   443.7674   1   9   0.0011   0.0006   0.0035   0.0004   0.0008   0.0016   0.00   10.2
2018/03/15 10:15:48.000   78.247151825   16.013873087   443.7661   1   9   0.0011   0.0006   0.0035   0.0004   0.0008   0.0016   0.00   10.1
2018/03/15 10:15:49.000   78.247151825   16.013873081   443.7649   1   9   0.0011   0.0006   0.0035   0.0004   0.0008   0.0016   0.00   10.0
2018/03/15 10:15:50.000   78.247151825   16.013873078   443.7637   1   9   0.0011   0.0006   0.0035   0.0004   0.0008   0.0016   0.00   10.0
2018/03/15 10:15:51.000   78.247151826   16.013873074   443.7626   1   9   0.0011   0.0006   0.0035   0.0004   0.0008   0.0016   0.00    9.9
2018/03/15 10:15:52.000   78.247151826   16.013873070   443.7616   1   9   0.0011   0.0006   0.0035   0.0004   0.0008   0.0016   0.00    9.8
2018/03/15 10:15:53.000   78.247151827   16.013873066   443.7606   1   9   0.0011   0.0006   0.0035   0.0004   0.0008   0.0016   0.00    9.7
2018/03/15 10:15:54.000   78.247151827   16.013873060   443.7595   1   9   0.0011   0.0006   0.0035   0.0004   0.0008   0.0016   0.00    9.7
2018/03/15 10:15:55.000   78.247151828   16.013873055   443.7581   1   9   0.0011   0.0006   0.0035   0.0004   0.0008   0.0016   0.00    9.6
2018/03/15 10:15:56.000   78.247151827   16.013873050   443.7567   1   9   0.0011   0.0006   0.0035   0.0004   0.0008   0.0016   0.00    9.5
2018/03/15 10:15:57.000   78.247151828   16.013873046   443.7553   1   9   0.0011   0.0006   0.0035   0.0004   0.0008   0.0016   0.00    9.5
2018/03/15 10:15:58.000   78.247151828   16.013873042   443.7541   1   9   0.0011   0.0006   0.0035   0.0004   0.0008   0.0016   0.00    9.4
2018/03/15 10:15:59.000   78.247151829   16.013873037   443.7529   1   9   0.0011   0.0006   0.0035   0.0004   0.0008   0.0016   0.00    9.3
2018/03/15 10:16:00.000   78.247151829   16.013873032   443.7517   1   9   0.0011   0.0006   0.0035   0.0004   0.0008   0.0016   0.00    9.3
2018/03/15 10:16:01.000   78.247151829   16.013873028   443.7505   1   9   0.0011   0.0006   0.0035   0.0004   0.0008   0.0016   0.00    9.2
2018/03/15 10:16:02.000   78.247151830   16.013873024   443.7494   1   9   0.0011   0.0006   0.0035   0.0004   0.0008   0.0016   0.00    9.2
2018/03/15 10:16:03.000   78.247151831   16.013873021   443.7484   1   9   0.0011   0.0006   0.0035   0.0004   0.0008   0.0016   0.00    9.1
2018/03/15 10:16:04.000   78.247151831   16.013873018   443.7472   1   9   0.0011   0.0006   0.0035   0.0004   0.0008   0.0016   0.00    9.1
2018/03/15 10:16:05.000   78.247151832   16.013873014   443.7460   1   9   0.0011   0.0006   0.0035   0.0004   0.0008   0.0016   0.00    9.0
2018/03/15 10:16:06.000   78.247151832   16.013873010   443.7447   1   9   0.0011   0.0006   0.0035   0.0004   0.0008   0.0016   0.00    8.9
2018/03/15 10:16:07.000   78.247151833   16.013873006   443.7436   1   9   0.0011   0.0006   0.0035   0.0004   0.0008   0.0016   0.00    8.9
2018/03/15 10:16:08.000   78.247151833   16.013873002   443.7423   1   9   0.0011   0.0006   0.0035   0.0004   0.0008   0.0016   0.00    8.8
2018/03/15 10:16:09.000   78.247151833   16.013872998   443.7410   1   9   0.0011   0.0006   0.0035   0.0004   0.0008   0.0016   0.00    8.8
