% program   : RTKPOST ver.2.4.2
% inp file  : Z:\home\linda\Documents\Spring18\GitHub_Unis\data\processed_data\46250707.obs
% inp file  : Z:\home\linda\Documents\Spring18\GitHub_Unis\data\processed_data\46250707.nav
% obs start : 2018/03/11 13:16:20.0 GPST (week1992  47780.0s)
% obs end   : 2018/03/11 13:31:22.0 GPST (week1992  48682.0s)
% pos mode  : single
% elev mask : 15.0 deg
% ionos opt : broadcast
% tropo opt : saastamoinen
% ephemeris : broadcast
% navi sys  : gps glonass galileo qzss sbas
%
% (lat/lon/height=WGS84/ellipsoidal,Q=1:fix,2:float,3:sbas,4:dgps,5:single,6:ppp,ns=# of satellites)
%  GPST                  latitude(deg) longitude(deg)  height(m)   Q  ns   sdn(m)   sde(m)   sdu(m)  sdne(m)  sdeu(m)  sdun(m) age(s)  ratio
2018/03/11 13:16:20.000   78.253598256   16.174576158   535.4883   5  10   1.5494   1.7048   5.7653  -0.3814  -1.4457  -0.3821   0.00    0.0
2018/03/11 13:16:21.000   78.253600318   16.174572196   535.3918   5  10   1.5494   1.7048   5.7652  -0.3815  -1.4460  -0.3808   0.00    0.0
2018/03/11 13:16:22.000   78.253597300   16.174587497   535.0670   5  10   1.5494   1.7049   5.7650  -0.3816  -1.4463  -0.3795   0.00    0.0
2018/03/11 13:16:23.000   78.253594477   16.174587307   536.1248   5  10   1.5494   1.7049   5.7648  -0.3817  -1.4466  -0.3782   0.00    0.0
2018/03/11 13:16:24.000   78.253593873   16.174596482   535.5721   5  10   1.5494   1.7050   5.7647  -0.3818  -1.4468  -0.3769   0.00    0.0
2018/03/11 13:16:25.000   78.253591641   16.174598403   535.1759   5  10   1.5494   1.7050   5.7645  -0.3819  -1.4471  -0.3756   0.00    0.0
2018/03/11 13:16:26.000   78.253589004   16.174576700   536.7278   5  10   1.5494   1.7051   5.7643  -0.3820  -1.4474  -0.3743   0.00    0.0
2018/03/11 13:16:27.000   78.253590782   16.174591259   535.8173   5  10   1.5494   1.7051   5.7642  -0.3821  -1.4476  -0.3730   0.00    0.0
2018/03/11 13:16:28.000   78.253591275   16.174596310   535.6948   5  10   1.5494   1.7052   5.7640  -0.3822  -1.4479  -0.3717   0.00    0.0
2018/03/11 13:16:29.000   78.253597227   16.174607959   535.2354   5  10   1.5495   1.7052   5.7638  -0.3823  -1.4482  -0.3703   0.00    0.0
2018/03/11 13:16:30.000   78.253604026   16.174607477   535.2128   5  10   1.5495   1.7053   5.7637  -0.3823  -1.4484  -0.3690   0.00    0.0
2018/03/11 13:16:31.000   78.253598896   16.174568986   535.1599   5  10   1.5495   1.7053   5.7635  -0.3824  -1.4487  -0.3677   0.00    0.0
2018/03/11 13:16:32.000   78.253597493   16.174562816   536.6571   5  10   1.5495   1.7054   5.7633  -0.3825  -1.4490  -0.3663   0.00    0.0
2018/03/11 13:16:33.000   78.253594492   16.174564648   538.2911   5  10   1.5495   1.7054   5.7632  -0.3826  -1.4492  -0.3650   0.00    0.0
2018/03/11 13:16:34.000   78.253596590   16.174564245   536.5524   5  10   1.5495   1.7055   5.7630  -0.3827  -1.4495  -0.3636   0.00    0.0
2018/03/11 13:16:35.000   78.253594128   16.174607596   537.3851   5  10   1.5495   1.7055   5.7628  -0.3828  -1.4498  -0.3623   0.00    0.0
2018/03/11 13:16:36.000   78.253596298   16.174621723   536.3632   5  10   1.5495   1.7056   5.7627  -0.3829  -1.4501  -0.3609   0.00    0.0
2018/03/11 13:16:37.000   78.253598821   16.174607658   535.8181   5  10   1.5495   1.7056   5.7625  -0.3830  -1.4503  -0.3595   0.00    0.0
2018/03/11 13:16:38.000   78.253593836   16.174594628   536.4563   5  10   1.5495   1.7057   5.7623  -0.3831  -1.4506  -0.3581   0.00    0.0
2018/03/11 13:16:39.000   78.253593257   16.174607865   536.6044   5  10   1.5495   1.7057   5.7622  -0.3832  -1.4509  -0.3567   0.00    0.0
2018/03/11 13:16:40.000   78.253594290   16.174583316   536.8100   5  10   1.5496   1.7058   5.7620  -0.3833  -1.4511  -0.3554   0.00    0.0
2018/03/11 13:16:41.000   78.253597158   16.174565038   535.8506   5  10   1.5496   1.7058   5.7618  -0.3834  -1.4514  -0.3540   0.00    0.0
2018/03/11 13:16:42.000   78.253597558   16.174565699   535.9250   5  10   1.5496   1.7059   5.7616  -0.3835  -1.4516  -0.3526   0.00    0.0
2018/03/11 13:16:43.000   78.253597284   16.174582589   536.1479   5  10   1.5496   1.7059   5.7615  -0.3836  -1.4519  -0.3511   0.00    0.0
2018/03/11 13:16:44.000   78.253595656   16.174581723   535.9416   5  10   1.5496   1.7060   5.7613  -0.3837  -1.4522  -0.3497   0.00    0.0
2018/03/11 13:16:45.000   78.253594517   16.174592806   535.2533   5  10   1.5496   1.7060   5.7611  -0.3838  -1.4524  -0.3483   0.00    0.0
2018/03/11 13:16:46.000   78.253596241   16.174583938   536.3080   5  10   1.5496   1.7061   5.7609  -0.3839  -1.4527  -0.3469   0.00    0.0
2018/03/11 13:16:47.000   78.253593864   16.174610948   537.4199   5  10   1.5496   1.7061   5.7608  -0.3840  -1.4530  -0.3454   0.00    0.0
2018/03/11 13:16:48.000   78.253596199   16.174598152   537.1127   5  10   1.5496   1.7062   5.7606  -0.3841  -1.4532  -0.3440   0.00    0.0
2018/03/11 13:16:49.000   78.253594094   16.174565344   537.5404   5  10   1.5496   1.7062   5.7604  -0.3842  -1.4535  -0.3425   0.00    0.0
2018/03/11 13:16:50.000   78.253594614   16.174584732   537.3362   5  10   1.5496   1.7063   5.7602  -0.3843  -1.4538  -0.3411   0.00    0.0
2018/03/11 13:16:51.000   78.253598419   16.174584054   537.3756   5  10   1.5497   1.7063   5.7601  -0.3844  -1.4540  -0.3396   0.00    0.0
2018/03/11 13:16:52.000   78.253601584   16.174589915   535.9212   5  10   1.5497   1.7064   5.7599  -0.3845  -1.4543  -0.3381   0.00    0.0
2018/03/11 13:16:53.000   78.253601944   16.174578293   535.5312   5  10   1.5497   1.7064   5.7597  -0.3846  -1.4546  -0.3366   0.00    0.0
2018/03/11 13:16:54.000   78.253599194   16.174563354   535.7276   5  10   1.5497   1.7065   5.7595  -0.3847  -1.4548  -0.3352   0.00    0.0
2018/03/11 13:16:55.000   78.253592940   16.174563057   536.3733   5  10   1.5497   1.7065   5.7594  -0.3848  -1.4551  -0.3337   0.00    0.0
2018/03/11 13:16:56.000   78.253592317   16.174582532   536.2873   5  10   1.5497   1.7066   5.7592  -0.3849  -1.4553  -0.3321   0.00    0.0
2018/03/11 13:16:57.000   78.253593231   16.174581573   536.9554   5  10   1.5497   1.7066   5.7590  -0.3850  -1.4556  -0.3306   0.00    0.0
2018/03/11 13:16:58.000   78.253593510   16.174580190   536.6588   5  10   1.5497   1.7067   5.7588  -0.3851  -1.4559  -0.3291   0.00    0.0
2018/03/11 13:16:59.000   78.253593785   16.174610889   536.4278   5   9   1.7541   1.7069   6.5115  -0.4091  -1.4801   1.5460   0.00    0.0
2018/03/11 13:17:00.000   78.253599086   16.174606757   536.4027   5   9   1.7541   1.7069   6.5122  -0.4095  -1.4806   1.5469   0.00    0.0
2018/03/11 13:17:01.000   78.253597150   16.174581993   535.7076   5   9   1.7542   1.7070   6.5129  -0.4098  -1.4811   1.5478   0.00    0.0
2018/03/11 13:17:02.000   78.253600791   16.174568335   537.1532   5   9   1.7543   1.7070   6.5135  -0.4101  -1.4816   1.5487   0.00    0.0
2018/03/11 13:17:03.000   78.253600518   16.174565370   537.2591   5   9   1.7544   1.7071   6.5142  -0.4105  -1.4821   1.5496   0.00    0.0
2018/03/11 13:17:04.000   78.253598045   16.174570608   536.5785   5   9   1.7544   1.7071   6.5149  -0.4108  -1.4827   1.5506   0.00    0.0
2018/03/11 13:17:05.000   78.253594393   16.174566126   537.0048   5   9   1.7545   1.7072   6.5155  -0.4111  -1.4832   1.5515   0.00    0.0
2018/03/11 13:17:06.000   78.253595734   16.174592759   536.7245   5   9   1.7546   1.7072   6.5162  -0.4114  -1.4837   1.5524   0.00    0.0
2018/03/11 13:17:07.000   78.253594513   16.174614669   535.6107   5   9   1.7546   1.7073   6.5169  -0.4118  -1.4842   1.5533   0.00    0.0
2018/03/11 13:17:08.000   78.253598653   16.174589935   537.3042   5   9   1.7547   1.7073   6.5175  -0.4121  -1.4847   1.5542   0.00    0.0
2018/03/11 13:17:09.000   78.253598769   16.174579009   536.4832   5   9   1.7548   1.7074   6.5182  -0.4124  -1.4852   1.5551   0.00    0.0
2018/03/11 13:17:10.000   78.253601596   16.174578171   538.1006   5   9   1.7548   1.7075   6.5189  -0.4127  -1.4857   1.5561   0.00    0.0
2018/03/11 13:17:11.000   78.253598464   16.174577045   536.4940   5   9   1.7549   1.7075   6.5195  -0.4131  -1.4862   1.5570   0.00    0.0
2018/03/11 13:17:12.000   78.253594885   16.174570453   536.1203   5   9   1.7550   1.7076   6.5202  -0.4134  -1.4867   1.5579   0.00    0.0
2018/03/11 13:17:13.000   78.253601688   16.174554491   537.1941   5   9   1.7550   1.7076   6.5209  -0.4137  -1.4872   1.5588   0.00    0.0
2018/03/11 13:17:14.000   78.253597672   16.174575782   536.1996   5   9   1.7551   1.7077   6.5215  -0.4141  -1.4877   1.5597   0.00    0.0
2018/03/11 13:17:15.000   78.253599742   16.174578719   535.8855   5   9   1.7552   1.7077   6.5222  -0.4144  -1.4882   1.5606   0.00    0.0
2018/03/11 13:17:16.000   78.253600443   16.174579917   537.0440   5   9   1.7553   1.7078   6.5228  -0.4147  -1.4887   1.5616   0.00    0.0
2018/03/11 13:17:17.000   78.253595332   16.174578392   536.4492   5   9   1.7553   1.7078   6.5235  -0.4150  -1.4892   1.5625   0.00    0.0
2018/03/11 13:17:18.000   78.253595695   16.174576263   537.0326   5   9   1.7554   1.7079   6.5242  -0.4154  -1.4898   1.5634   0.00    0.0
2018/03/11 13:17:19.000   78.253594985   16.174587634   536.3936   5   9   1.7555   1.7079   6.5248  -0.4157  -1.4903   1.5643   0.00    0.0
2018/03/11 13:17:20.000   78.253593539   16.174594164   536.0387   5   9   1.7555   1.7080   6.5255  -0.4160  -1.4908   1.5652   0.00    0.0
2018/03/11 13:17:21.000   78.253596150   16.174583528   535.6213   5   9   1.7556   1.7080   6.5262  -0.4163  -1.4913   1.5661   0.00    0.0
2018/03/11 13:17:22.000   78.253598751   16.174574007   536.1706   5   9   1.7557   1.7081   6.5268  -0.4167  -1.4918   1.5670   0.00    0.0
2018/03/11 13:17:23.000   78.253600122   16.174566596   536.4794   5   9   1.7557   1.7082   6.5275  -0.4170  -1.4923   1.5680   0.00    0.0
2018/03/11 13:17:24.000   78.253598952   16.174572175   536.4588   5   9   1.7558   1.7082   6.5282  -0.4173  -1.4928   1.5689   0.00    0.0
2018/03/11 13:17:25.000   78.253595058   16.174561416   536.3076   5   9   1.7559   1.7083   6.5288  -0.4177  -1.4933   1.5698   0.00    0.0
2018/03/11 13:17:26.000   78.253595522   16.174574923   536.2927   5   9   1.7560   1.7083   6.5295  -0.4180  -1.4938   1.5707   0.00    0.0
2018/03/11 13:17:27.000   78.253592458   16.174581883   537.4694   5   9   1.7560   1.7084   6.5301  -0.4183  -1.4943   1.5716   0.00    0.0
2018/03/11 13:17:28.000   78.253593910   16.174569971   536.9215   5   9   1.7561   1.7084   6.5308  -0.4186  -1.4948   1.5725   0.00    0.0
2018/03/11 13:17:29.000   78.253599243   16.174575303   537.7059   5   9   1.7562   1.7085   6.5315  -0.4190  -1.4953   1.5734   0.00    0.0
2018/03/11 13:17:30.000   78.253601697   16.174575662   535.8645   5   9   1.7562   1.7085   6.5321  -0.4193  -1.4958   1.5743   0.00    0.0
2018/03/11 13:17:31.000   78.253606162   16.174605067   536.2521   5   9   1.7563   1.7086   6.5328  -0.4196  -1.4963   1.5753   0.00    0.0
2018/03/11 13:17:32.000   78.253601668   16.174581158   536.7350   5   9   1.7564   1.7086   6.5334  -0.4199  -1.4968   1.5762   0.00    0.0
2018/03/11 13:17:33.000   78.253598933   16.174561375   537.0743   5   9   1.7565   1.7087   6.5341  -0.4203  -1.4973   1.5771   0.00    0.0
2018/03/11 13:17:34.000   78.253596933   16.174567955   537.6861   5   9   1.7565   1.7087   6.5348  -0.4206  -1.4979   1.5780   0.00    0.0
2018/03/11 13:17:35.000   78.253596611   16.174589203   536.4346   5   9   1.7566   1.7088   6.5354  -0.4209  -1.4984   1.5789   0.00    0.0
2018/03/11 13:17:36.000   78.253595249   16.174586419   537.0816   5   9   1.7567   1.7089   6.5361  -0.4213  -1.4989   1.5798   0.00    0.0
2018/03/11 13:17:37.000   78.253594452   16.174586774   536.7019   5   9   1.7568   1.7089   6.5368  -0.4216  -1.4994   1.5807   0.00    0.0
2018/03/11 13:17:38.000   78.253594278   16.174594853   536.6869   5   9   1.7568   1.7090   6.5374  -0.4219  -1.4999   1.5816   0.00    0.0
2018/03/11 13:17:39.000   78.253593066   16.174595545   536.2721   5   9   1.7569   1.7090   6.5381  -0.4222  -1.5004   1.5826   0.00    0.0
2018/03/11 13:17:40.000   78.253596233   16.174558851   536.8943   5   9   1.7570   1.7091   6.5387  -0.4226  -1.5009   1.5835   0.00    0.0
2018/03/11 13:17:41.000   78.253598224   16.174566079   536.9139   5   9   1.7571   1.7091   6.5394  -0.4229  -1.5014   1.5844   0.00    0.0
2018/03/11 13:17:42.000   78.253600790   16.174572858   536.2826   5   9   1.7571   1.7092   6.5401  -0.4232  -1.5019   1.5853   0.00    0.0
2018/03/11 13:17:43.000   78.253598428   16.174581113   536.2155   5   9   1.7572   1.7092   6.5407  -0.4235  -1.5024   1.5862   0.00    0.0
2018/03/11 13:17:44.000   78.253594927   16.174584801   535.8865   5   9   1.7573   1.7093   6.5414  -0.4239  -1.5029   1.5871   0.00    0.0
2018/03/11 13:17:45.000   78.253594712   16.174563773   537.0760   5   9   1.7574   1.7093   6.5420  -0.4242  -1.5034   1.5880   0.00    0.0
2018/03/11 13:17:46.000   78.253595585   16.174582270   536.4040   5   9   1.7574   1.7094   6.5427  -0.4245  -1.5039   1.5889   0.00    0.0
2018/03/11 13:17:47.000   78.253597586   16.174611385   537.2451   5   9   1.7575   1.7095   6.5433  -0.4248  -1.5044   1.5898   0.00    0.0
2018/03/11 13:17:48.000   78.253597678   16.174605094   537.5571   5   9   1.7576   1.7095   6.5440  -0.4252  -1.5049   1.5908   0.00    0.0
2018/03/11 13:17:49.000   78.253598766   16.174589387   536.7775   5   9   1.7576   1.7096   6.5447  -0.4255  -1.5054   1.5917   0.00    0.0
2018/03/11 13:17:50.000   78.253594766   16.174583594   536.4277   5   9   1.7577   1.7096   6.5453  -0.4258  -1.5059   1.5926   0.00    0.0
2018/03/11 13:17:51.000   78.253593966   16.174597516   536.5245   5   9   1.7578   1.7097   6.5460  -0.4262  -1.5064   1.5935   0.00    0.0
2018/03/11 13:17:52.000   78.253595581   16.174572459   538.1324   5   9   1.7579   1.7097   6.5466  -0.4265  -1.5069   1.5944   0.00    0.0
2018/03/11 13:17:53.000   78.253604009   16.174566039   536.8733   5   9   1.7579   1.7098   6.5473  -0.4268  -1.5075   1.5953   0.00    0.0
2018/03/11 13:17:54.000   78.253602410   16.174590480   536.7069   5   9   1.7580   1.7098   6.5480  -0.4271  -1.5080   1.5962   0.00    0.0
2018/03/11 13:17:55.000   78.253602176   16.174612015   537.1494   5   9   1.7581   1.7099   6.5486  -0.4275  -1.5085   1.5971   0.00    0.0
2018/03/11 13:17:56.000   78.253598034   16.174601477   537.0697   5   9   1.7582   1.7100   6.5493  -0.4278  -1.5090   1.5980   0.00    0.0
2018/03/11 13:17:57.000   78.253593985   16.174586375   537.5754   5   9   1.7583   1.7100   6.5499  -0.4281  -1.5095   1.5989   0.00    0.0
2018/03/11 13:17:58.000   78.253596310   16.174602037   537.8498   5   9   1.7583   1.7101   6.5506  -0.4284  -1.5100   1.5999   0.00    0.0
2018/03/11 13:17:59.000   78.253596626   16.174610538   537.5324   5   9   1.7584   1.7101   6.5512  -0.4288  -1.5105   1.6008   0.00    0.0
2018/03/11 13:18:00.000   78.253598620   16.174589405   537.6953   5   9   1.7585   1.7102   6.5519  -0.4291  -1.5110   1.6017   0.00    0.0
2018/03/11 13:18:01.000   78.253598963   16.174577864   535.9447   5   9   1.7586   1.7102   6.5526  -0.4294  -1.5115   1.6026   0.00    0.0
2018/03/11 13:18:02.000   78.253600208   16.174567830   536.2090   5   9   1.7586   1.7103   6.5532  -0.4297  -1.5120   1.6035   0.00    0.0
2018/03/11 13:18:03.000   78.253599835   16.174567691   536.5631   5   9   1.7587   1.7103   6.5539  -0.4301  -1.5125   1.6044   0.00    0.0
2018/03/11 13:18:04.000   78.253597960   16.174586168   536.9417   5   9   1.7588   1.7104   6.5545  -0.4304  -1.5130   1.6053   0.00    0.0
2018/03/11 13:18:05.000   78.253596409   16.174561569   537.0407   5   9   1.7589   1.7105   6.5552  -0.4307  -1.5135   1.6062   0.00    0.0
2018/03/11 13:18:06.000   78.253591585   16.174604262   537.6653   5   9   1.7589   1.7105   6.5558  -0.4310  -1.5140   1.6071   0.00    0.0
2018/03/11 13:18:07.000   78.253591061   16.174609402   537.4710   5   9   1.7590   1.7106   6.5565  -0.4314  -1.5145   1.6080   0.00    0.0
2018/03/11 13:18:08.000   78.253593765   16.174599289   537.2445   5   9   1.7591   1.7106   6.5572  -0.4317  -1.5150   1.6089   0.00    0.0
2018/03/11 13:18:09.000   78.253594463   16.174606959   536.5047   5   9   1.7592   1.7107   6.5578  -0.4320  -1.5155   1.6098   0.00    0.0
2018/03/11 13:18:10.000   78.253600882   16.174600995   537.3545   5   9   1.7593   1.7107   6.5585  -0.4324  -1.5160   1.6107   0.00    0.0
2018/03/11 13:18:11.000   78.253602481   16.174601245   536.4657   5   9   1.7593   1.7108   6.5591  -0.4327  -1.5165   1.6116   0.00    0.0
2018/03/11 13:18:12.000   78.253599665   16.174581675   537.1753   5   9   1.7594   1.7108   6.5598  -0.4330  -1.5170   1.6126   0.00    0.0
2018/03/11 13:18:13.000   78.253592553   16.174567728   536.5857   5   9   1.7595   1.7109   6.5604  -0.4333  -1.5175   1.6135   0.00    0.0
2018/03/11 13:18:14.000   78.253588731   16.174573695   535.7404   5   9   1.7596   1.7110   6.5611  -0.4337  -1.5180   1.6144   0.00    0.0
2018/03/11 13:18:15.000   78.253592336   16.174563404   537.8520   5   9   1.7596   1.7110   6.5617  -0.4340  -1.5185   1.6153   0.00    0.0
2018/03/11 13:18:16.000   78.253596311   16.174566470   535.9863   5   9   1.7597   1.7111   6.5624  -0.4343  -1.5190   1.6162   0.00    0.0
2018/03/11 13:18:17.000   78.253603767   16.174579814   536.8802   5   9   1.7598   1.7111   6.5630  -0.4346  -1.5195   1.6171   0.00    0.0
2018/03/11 13:18:18.000   78.253600650   16.174612726   536.1998   5   9   1.7599   1.7112   6.5637  -0.4350  -1.5200   1.6180   0.00    0.0
2018/03/11 13:18:19.000   78.253598454   16.174590765   535.3908   5   9   1.7600   1.7112   6.5644  -0.4353  -1.5206   1.6189   0.00    0.0
2018/03/11 13:18:20.000   78.253593208   16.174578309   536.2335   5   9   1.7600   1.7113   6.5650  -0.4356  -1.5211   1.6198   0.00    0.0
2018/03/11 13:18:21.000   78.253588856   16.174602190   536.3546   5   9   1.7601   1.7113   6.5657  -0.4359  -1.5216   1.6207   0.00    0.0
2018/03/11 13:18:22.000   78.253592321   16.174572751   536.5474   5   9   1.7602   1.7114   6.5663  -0.4363  -1.5221   1.6216   0.00    0.0
2018/03/11 13:18:23.000   78.253599244   16.174554343   537.3710   5   9   1.7603   1.7115   6.5670  -0.4366  -1.5226   1.6225   0.00    0.0
2018/03/11 13:18:24.000   78.253602681   16.174551364   538.1891   5   9   1.7604   1.7115   6.5676  -0.4369  -1.5231   1.6234   0.00    0.0
2018/03/11 13:18:25.000   78.253601850   16.174582650   536.2843   5   9   1.7604   1.7116   6.5683  -0.4372  -1.5236   1.6243   0.00    0.0
2018/03/11 13:18:26.000   78.253597865   16.174613118   535.4463   5   9   1.7605   1.7116   6.5689  -0.4376  -1.5241   1.6252   0.00    0.0
2018/03/11 13:18:27.000   78.253592099   16.174612310   535.4133   5   9   1.7606   1.7117   6.5696  -0.4379  -1.5246   1.6261   0.00    0.0
2018/03/11 13:18:28.000   78.253592860   16.174605178   535.2954   5   9   1.7607   1.7117   6.5702  -0.4382  -1.5251   1.6270   0.00    0.0
2018/03/11 13:18:29.000   78.253591810   16.174596375   536.5655   5   9   1.7608   1.7118   6.5709  -0.4385  -1.5256   1.6279   0.00    0.0
2018/03/11 13:18:30.000   78.253594998   16.174566919   537.9678   5   9   1.7608   1.7119   6.5715  -0.4389  -1.5261   1.6289   0.00    0.0
2018/03/11 13:18:31.000   78.253597118   16.174559615   538.0010   5   9   1.7609   1.7119   6.5722  -0.4392  -1.5266   1.6298   0.00    0.0
2018/03/11 13:18:32.000   78.253596925   16.174584882   537.2558   5   9   1.7610   1.7120   6.5728  -0.4395  -1.5271   1.6307   0.00    0.0
2018/03/11 13:18:33.000   78.253599266   16.174606187   536.6932   5   9   1.7611   1.7120   6.5735  -0.4398  -1.5276   1.6316   0.00    0.0
2018/03/11 13:18:34.000   78.253603410   16.174591521   534.7855   5   9   1.7612   1.7121   6.5741  -0.4402  -1.5281   1.6325   0.00    0.0
2018/03/11 13:18:35.000   78.253604587   16.174576260   537.2084   5   9   1.7613   1.7121   6.5748  -0.4405  -1.5286   1.6334   0.00    0.0
2018/03/11 13:18:36.000   78.253600513   16.174570244   538.3851   5   9   1.7613   1.7122   6.5754  -0.4408  -1.5291   1.6343   0.00    0.0
2018/03/11 13:18:37.000   78.253594962   16.174570555   538.2818   5   9   1.7614   1.7122   6.5761  -0.4411  -1.5296   1.6352   0.00    0.0
2018/03/11 13:18:38.000   78.253593723   16.174594102   537.3108   5   9   1.7615   1.7123   6.5767  -0.4415  -1.5301   1.6361   0.00    0.0
2018/03/11 13:18:39.000   78.253592970   16.174616495   536.7682   5   9   1.7616   1.7124   6.5774  -0.4418  -1.5306   1.6370   0.00    0.0
2018/03/11 13:18:40.000   78.253595045   16.174623334   536.9207   5   9   1.7617   1.7124   6.5780  -0.4421  -1.5311   1.6379   0.00    0.0
2018/03/11 13:18:41.000   78.253599059   16.174598499   536.9249   5   9   1.7617   1.7125   6.5787  -0.4424  -1.5316   1.6388   0.00    0.0
2018/03/11 13:18:42.000   78.253598158   16.174571826   535.9111   5   9   1.7618   1.7125   6.5793  -0.4428  -1.5321   1.6397   0.00    0.0
2018/03/11 13:18:43.000   78.253596883   16.174577257   536.3266   5   9   1.7619   1.7126   6.5800  -0.4431  -1.5326   1.6406   0.00    0.0
2018/03/11 13:18:44.000   78.253593851   16.174601551   537.0729   5   9   1.7620   1.7126   6.5806  -0.4434  -1.5331   1.6415   0.00    0.0
2018/03/11 13:18:45.000   78.253591415   16.174576248   536.4457   5   9   1.7621   1.7127   6.5813  -0.4437  -1.5336   1.6424   0.00    0.0
2018/03/11 13:18:46.000   78.253595139   16.174573076   536.1636   5   9   1.7622   1.7128   6.5819  -0.4441  -1.5341   1.6433   0.00    0.0
2018/03/11 13:18:47.000   78.253595367   16.174595919   536.4650   5   9   1.7622   1.7128   6.5826  -0.4444  -1.5346   1.6442   0.00    0.0
2018/03/11 13:18:48.000   78.253597139   16.174587868   537.0585   5   9   1.7623   1.7129   6.5832  -0.4447  -1.5351   1.6451   0.00    0.0
2018/03/11 13:18:49.000   78.253597436   16.174584034   536.3599   5   9   1.7624   1.7129   6.5839  -0.4450  -1.5356   1.6460   0.00    0.0
2018/03/11 13:18:50.000   78.253598728   16.174587031   537.2757   5   9   1.7625   1.7130   6.5845  -0.4454  -1.5361   1.6469   0.00    0.0
2018/03/11 13:18:51.000   78.253595084   16.174607773   537.6802   5   9   1.7626   1.7130   6.5852  -0.4457  -1.5366   1.6478   0.00    0.0
2018/03/11 13:18:52.000   78.253593337   16.174571549   536.0630   5   9   1.7627   1.7131   6.5858  -0.4460  -1.5371   1.6487   0.00    0.0
2018/03/11 13:18:53.000   78.253596616   16.174560250   537.6454   5   9   1.7628   1.7132   6.5865  -0.4463  -1.5376   1.6496   0.00    0.0
2018/03/11 13:18:54.000   78.253594770   16.174584104   537.0777   5   9   1.7628   1.7132   6.5871  -0.4467  -1.5381   1.6505   0.00    0.0
2018/03/11 13:18:55.000   78.253595193   16.174599368   536.7378   5   9   1.7629   1.7133   6.5878  -0.4470  -1.5386   1.6514   0.00    0.0
2018/03/11 13:18:56.000   78.253595733   16.174601813   536.4320   5   9   1.7630   1.7133   6.5884  -0.4473  -1.5391   1.6523   0.00    0.0
2018/03/11 13:18:57.000   78.253604939   16.174572461   536.1795   5   9   1.7631   1.7134   6.5891  -0.4476  -1.5396   1.6532   0.00    0.0
2018/03/11 13:18:58.000   78.253604555   16.174599902   538.2013   5   9   1.7632   1.7134   6.5897  -0.4480  -1.5401   1.6541   0.00    0.0
2018/03/11 13:18:59.000   78.253597027   16.174596056   537.0109   5   9   1.7633   1.7135   6.5904  -0.4483  -1.5406   1.6550   0.00    0.0
2018/03/11 13:19:00.000   78.253594518   16.174585700   537.2006   5   9   1.7633   1.7136   6.5910  -0.4486  -1.5411   1.6559   0.00    0.0
2018/03/11 13:19:01.000   78.253590720   16.174574457   536.9088   5   9   1.7634   1.7136   6.5916  -0.4489  -1.5416   1.6568   0.00    0.0
2018/03/11 13:19:02.000   78.253591543   16.174596229   535.9664   5   9   1.7635   1.7137   6.5923  -0.4493  -1.5421   1.6577   0.00    0.0
2018/03/11 13:19:03.000   78.253594703   16.174590562   536.2599   5   9   1.7636   1.7137   6.5929  -0.4496  -1.5426   1.6586   0.00    0.0
2018/03/11 13:19:04.000   78.253602988   16.174573137   536.6089   5   9   1.7637   1.7138   6.5936  -0.4499  -1.5431   1.6595   0.00    0.0
2018/03/11 13:19:05.000   78.253603844   16.174564438   536.6419   5   9   1.7638   1.7139   6.5942  -0.4502  -1.5436   1.6604   0.00    0.0
2018/03/11 13:19:06.000   78.253601381   16.174581898   536.8107   5   9   1.7639   1.7139   6.5949  -0.4506  -1.5441   1.6613   0.00    0.0
2018/03/11 13:19:07.000   78.253595292   16.174598674   535.7151   5   9   1.7639   1.7140   6.5955  -0.4509  -1.5446   1.6622   0.00    0.0
2018/03/11 13:19:08.000   78.253590448   16.174598114   534.6077   5   9   1.7640   1.7140   6.5962  -0.4512  -1.5451   1.6631   0.00    0.0
2018/03/11 13:19:09.000   78.253592562   16.174583492   535.1537   5   9   1.7641   1.7141   6.5968  -0.4515  -1.5456   1.6640   0.00    0.0
2018/03/11 13:19:10.000   78.253594757   16.174573009   537.0502   5   9   1.7642   1.7141   6.5975  -0.4519  -1.5461   1.6649   0.00    0.0
2018/03/11 13:19:11.000   78.253595918   16.174568597   536.2098   5   9   1.7643   1.7142   6.5981  -0.4522  -1.5466   1.6658   0.00    0.0
2018/03/11 13:19:12.000   78.253599727   16.174561160   537.0711   5   9   1.7644   1.7143   6.5987  -0.4525  -1.5471   1.6667   0.00    0.0
2018/03/11 13:19:13.000   78.253595285   16.174577339   535.4816   5   9   1.7645   1.7143   6.5994  -0.4528  -1.5476   1.6676   0.00    0.0
2018/03/11 13:19:14.000   78.253590317   16.174596193   534.6095   5   9   1.7646   1.7144   6.6000  -0.4532  -1.5481   1.6685   0.00    0.0
2018/03/11 13:19:15.000   78.253594225   16.174597058   535.3236   5   9   1.7646   1.7144   6.6007  -0.4535  -1.5486   1.6694   0.00    0.0
2018/03/11 13:19:16.000   78.253597921   16.174601462   536.3419   5   9   1.7647   1.7145   6.6013  -0.4538  -1.5491   1.6703   0.00    0.0
2018/03/11 13:19:17.000   78.253597233   16.174592180   537.6738   5   9   1.7648   1.7145   6.6020  -0.4541  -1.5496   1.6712   0.00    0.0
2018/03/11 13:19:18.000   78.253597402   16.174579682   535.9945   5   9   1.7649   1.7146   6.6026  -0.4545  -1.5501   1.6721   0.00    0.0
2018/03/11 13:19:19.000   78.253594178   16.174586253   534.9059   5   9   1.7650   1.7147   6.6032  -0.4548  -1.5506   1.6730   0.00    0.0
2018/03/11 13:19:20.000   78.253591888   16.174598153   534.7799   5   9   1.7651   1.7147   6.6039  -0.4551  -1.5511   1.6739   0.00    0.0
2018/03/11 13:19:21.000   78.253594246   16.174590682   535.4880   5   9   1.7652   1.7148   6.6045  -0.4554  -1.5516   1.6748   0.00    0.0
2018/03/11 13:19:22.000   78.253588967   16.174561262   535.6615   5   9   1.7653   1.7148   6.6052  -0.4558  -1.5521   1.6757   0.00    0.0
2018/03/11 13:19:23.000   78.253594411   16.174579676   535.6962   5   9   1.7653   1.7149   6.6058  -0.4561  -1.5526   1.6765   0.00    0.0
2018/03/11 13:19:24.000   78.253596772   16.174551701   537.0348   5   9   1.7654   1.7150   6.6064  -0.4564  -1.5531   1.6774   0.00    0.0
2018/03/11 13:19:25.000   78.253596760   16.174567035   538.5326   5   9   1.7655   1.7150   6.6071  -0.4567  -1.5536   1.6783   0.00    0.0
2018/03/11 13:19:26.000   78.253594252   16.174569923   534.8683   5   9   1.7656   1.7151   6.6077  -0.4571  -1.5541   1.6792   0.00    0.0
2018/03/11 13:19:27.000   78.253594512   16.174583364   534.5312   5   9   1.7657   1.7151   6.6084  -0.4574  -1.5546   1.6801   0.00    0.0
2018/03/11 13:19:28.000   78.253592231   16.174606428   535.4558   5   9   1.7658   1.7152   6.6090  -0.4577  -1.5551   1.6810   0.00    0.0
2018/03/11 13:19:29.000   78.253595092   16.174580829   535.9413   5   9   1.7659   1.7152   6.6097  -0.4580  -1.5556   1.6819   0.00    0.0
2018/03/11 13:19:30.000   78.253596517   16.174558146   536.8445   5   9   1.7660   1.7153   6.6103  -0.4584  -1.5561   1.6828   0.00    0.0
2018/03/11 13:19:31.000   78.253594574   16.174564452   537.7856   5   9   1.7661   1.7154   6.6109  -0.4587  -1.5566   1.6837   0.00    0.0
2018/03/11 13:19:32.000   78.253591680   16.174559371   537.2702   5   9   1.7662   1.7154   6.6116  -0.4590  -1.5571   1.6846   0.00    0.0
2018/03/11 13:19:33.000   78.253597220   16.174583426   536.2269   5   9   1.7662   1.7155   6.6122  -0.4593  -1.5576   1.6855   0.00    0.0
2018/03/11 13:19:34.000   78.253594676   16.174579294   535.9390   5   9   1.7663   1.7155   6.6128  -0.4597  -1.5581   1.6864   0.00    0.0
2018/03/11 13:19:35.000   78.253595968   16.174604853   535.5704   5   9   1.7664   1.7156   6.6135  -0.4600  -1.5586   1.6873   0.00    0.0
2018/03/11 13:19:36.000   78.253598512   16.174612520   536.0027   5   9   1.7665   1.7157   6.6141  -0.4603  -1.5591   1.6882   0.00    0.0
2018/03/11 13:19:37.000   78.253596952   16.174591661   537.2493   5   9   1.7666   1.7157   6.6148  -0.4606  -1.5596   1.6891   0.00    0.0
2018/03/11 13:19:38.000   78.253597582   16.174575372   536.6481   5   9   1.7667   1.7158   6.6154  -0.4609  -1.5601   1.6900   0.00    0.0
2018/03/11 13:19:39.000   78.253589397   16.174583709   536.7661   5   9   1.7668   1.7158   6.6160  -0.4613  -1.5606   1.6909   0.00    0.0
2018/03/11 13:19:40.000   78.253587541   16.174606377   536.0731   5   9   1.7669   1.7159   6.6167  -0.4616  -1.5611   1.6918   0.00    0.0
2018/03/11 13:19:41.000   78.253591332   16.174590170   536.3971   5   9   1.7670   1.7160   6.6173  -0.4619  -1.5616   1.6927   0.00    0.0
2018/03/11 13:19:42.000   78.253596083   16.174571199   536.5854   5   9   1.7671   1.7160   6.6180  -0.4622  -1.5621   1.6935   0.00    0.0
2018/03/11 13:19:43.000   78.253600619   16.174579945   536.2379   5   9   1.7672   1.7161   6.6186  -0.4626  -1.5626   1.6944   0.00    0.0
2018/03/11 13:19:44.000   78.253608091   16.174561576   538.0077   5   9   1.7672   1.7161   6.6192  -0.4629  -1.5631   1.6953   0.00    0.0
2018/03/11 13:19:45.000   78.253601746   16.174579227   538.0049   5   9   1.7673   1.7162   6.6199  -0.4632  -1.5636   1.6962   0.00    0.0
2018/03/11 13:19:46.000   78.253596024   16.174565976   537.4509   5   9   1.7674   1.7162   6.6205  -0.4635  -1.5641   1.6971   0.00    0.0
2018/03/11 13:19:47.000   78.253590745   16.174592878   536.1136   5   9   1.7675   1.7163   6.6211  -0.4639  -1.5646   1.6980   0.00    0.0
2018/03/11 13:19:48.000   78.253591748   16.174602077   537.2466   5   9   1.7676   1.7164   6.6218  -0.4642  -1.5650   1.6989   0.00    0.0
2018/03/11 13:19:49.000   78.253598909   16.174573710   538.0094   5   9   1.7677   1.7164   6.6224  -0.4645  -1.5655   1.6998   0.00    0.0
2018/03/11 13:19:50.000   78.253601930   16.174571031   536.5803   5   9   1.7678   1.7165   6.6230  -0.4648  -1.5660   1.7007   0.00    0.0
2018/03/11 13:19:51.000   78.253602190   16.174571294   536.5628   5   9   1.7679   1.7165   6.6237  -0.4652  -1.5665   1.7016   0.00    0.0
2018/03/11 13:19:52.000   78.253601332   16.174578415   536.7085   5   9   1.7680   1.7166   6.6243  -0.4655  -1.5670   1.7025   0.00    0.0
2018/03/11 13:19:53.000   78.253596648   16.174579213   535.6392   5   9   1.7681   1.7167   6.6249  -0.4658  -1.5675   1.7034   0.00    0.0
2018/03/11 13:19:54.000   78.253590838   16.174590984   537.4140   5   9   1.7682   1.7167   6.6256  -0.4661  -1.5680   1.7043   0.00    0.0
2018/03/11 13:19:55.000   78.253593141   16.174572333   537.3665   5   9   1.7683   1.7168   6.6262  -0.4665  -1.5685   1.7051   0.00    0.0
2018/03/11 13:19:56.000   78.253598939   16.174569972   538.0311   5   9   1.7684   1.7168   6.6268  -0.4668  -1.5690   1.7060   0.00    0.0
2018/03/11 13:19:57.000   78.253596816   16.174569275   537.5383   5   9   1.7685   1.7169   6.6275  -0.4671  -1.5695   1.7069   0.00    0.0
2018/03/11 13:19:58.000   78.253599427   16.174586646   537.0739   5   9   1.7685   1.7170   6.6281  -0.4674  -1.5700   1.7078   0.00    0.0
2018/03/11 13:19:59.000   78.253597414   16.174590895   535.8477   5   9   1.7686   1.7170   6.6288  -0.4677  -1.5705   1.7087   0.00    0.0
2018/03/11 13:20:00.000   78.253597219   16.174583156   535.9910   5   9   1.7687   1.7171   6.6294  -0.4681  -1.5710   1.7096   0.00    0.0
2018/03/11 13:20:01.000   78.253595304   16.174581429   536.6067   5   9   1.7688   1.7171   6.6300  -0.4684  -1.5715   1.7105   0.00    0.0
2018/03/11 13:20:02.000   78.253595119   16.174582251   537.2653   5   9   1.7689   1.7172   6.6306  -0.4687  -1.5720   1.7114   0.00    0.0
2018/03/11 13:20:03.000   78.253595651   16.174560596   538.3010   5   9   1.7690   1.7173   6.6313  -0.4690  -1.5725   1.7123   0.00    0.0
2018/03/11 13:20:04.000   78.253596752   16.174568666   537.4624   5   9   1.7691   1.7173   6.6319  -0.4694  -1.5730   1.7132   0.00    0.0
2018/03/11 13:20:05.000   78.253597846   16.174592912   538.3011   5   9   1.7692   1.7174   6.6325  -0.4697  -1.5735   1.7140   0.00    0.0
2018/03/11 13:20:06.000   78.253597528   16.174590307   536.2287   5   9   1.7693   1.7174   6.6332  -0.4700  -1.5740   1.7149   0.00    0.0
2018/03/11 13:20:07.000   78.253599919   16.174599455   536.9923   5   9   1.7694   1.7175   6.6338  -0.4703  -1.5745   1.7158   0.00    0.0
2018/03/11 13:20:08.000   78.253597680   16.174594635   537.3099   5   9   1.7695   1.7176   6.6344  -0.4707  -1.5750   1.7167   0.00    0.0
2018/03/11 13:20:09.000   78.253596318   16.174602660   535.4955   5   9   1.7696   1.7176   6.6351  -0.4710  -1.5755   1.7176   0.00    0.0
2018/03/11 13:20:10.000   78.253597651   16.174599613   537.6834   5   9   1.7697   1.7177   6.6357  -0.4713  -1.5760   1.7185   0.00    0.0
2018/03/11 13:20:11.000   78.253597308   16.174573245   538.7315   5   9   1.7698   1.7177   6.6363  -0.4716  -1.5765   1.7194   0.00    0.0
2018/03/11 13:20:12.000   78.253600748   16.174571664   537.3690   5   9   1.7699   1.7178   6.6370  -0.4720  -1.5769   1.7203   0.00    0.0
2018/03/11 13:20:13.000   78.253593773   16.174586788   537.4126   5   9   1.7700   1.7179   6.6376  -0.4723  -1.5774   1.7212   0.00    0.0
2018/03/11 13:20:14.000   78.253590184   16.174611122   536.6628   5   9   1.7701   1.7179   6.6382  -0.4726  -1.5779   1.7220   0.00    0.0
2018/03/11 13:20:15.000   78.253593440   16.174590776   536.3167   5   9   1.7702   1.7180   6.6388  -0.4729  -1.5784   1.7229   0.00    0.0
2018/03/11 13:20:16.000   78.253597860   16.174568615   536.8689   5   9   1.7703   1.7180   6.6395  -0.4732  -1.5789   1.7238   0.00    0.0
2018/03/11 13:20:17.000   78.253600634   16.174595926   537.4016   5   9   1.7704   1.7181   6.6401  -0.4736  -1.5794   1.7247   0.00    0.0
2018/03/11 13:20:18.000   78.253596890   16.174576394   538.1565   5   9   1.7705   1.7182   6.6407  -0.4739  -1.5799   1.7256   0.00    0.0
2018/03/11 13:20:19.000   78.253600161   16.174575871   536.5692   5   9   1.7706   1.7182   6.6414  -0.4742  -1.5804   1.7265   0.00    0.0
2018/03/11 13:20:20.000   78.253595701   16.174577560   535.5643   5   9   1.7707   1.7183   6.6420  -0.4745  -1.5809   1.7274   0.00    0.0
2018/03/11 13:20:21.000   78.253594198   16.174592754   536.4565   5   9   1.7707   1.7183   6.6426  -0.4749  -1.5814   1.7283   0.00    0.0
2018/03/11 13:20:22.000   78.253596757   16.174589673   537.0482   5   9   1.7708   1.7184   6.6432  -0.4752  -1.5819   1.7291   0.00    0.0
2018/03/11 13:20:23.000   78.253602458   16.174580241   537.5697   5   9   1.7709   1.7185   6.6439  -0.4755  -1.5824   1.7300   0.00    0.0
2018/03/11 13:20:24.000   78.253601161   16.174573959   537.2832   5   9   1.7710   1.7185   6.6445  -0.4758  -1.5829   1.7309   0.00    0.0
2018/03/11 13:20:25.000   78.253599163   16.174587761   538.2077   5   9   1.7711   1.7186   6.6451  -0.4762  -1.5834   1.7318   0.00    0.0
2018/03/11 13:20:26.000   78.253595252   16.174591312   536.5274   5   9   1.7712   1.7186   6.6458  -0.4765  -1.5839   1.7327   0.00    0.0
2018/03/11 13:20:27.000   78.253588896   16.174595304   535.5032   5   9   1.7713   1.7187   6.6464  -0.4768  -1.5844   1.7336   0.00    0.0
2018/03/11 13:20:28.000   78.253592344   16.174603615   536.6998   5   9   1.7714   1.7188   6.6470  -0.4771  -1.5849   1.7345   0.00    0.0
2018/03/11 13:20:29.000   78.253601662   16.174564840   537.8280   5   9   1.7715   1.7188   6.6476  -0.4774  -1.5853   1.7353   0.00    0.0
2018/03/11 13:20:30.000   78.253606931   16.174557073   537.1855   5   9   1.7716   1.7189   6.6483  -0.4778  -1.5858   1.7362   0.00    0.0
2018/03/11 13:20:31.000   78.253604229   16.174567032   537.3257   5   9   1.7717   1.7189   6.6489  -0.4781  -1.5863   1.7371   0.00    0.0
2018/03/11 13:20:32.000   78.253596210   16.174581495   537.5925   5   9   1.7718   1.7190   6.6495  -0.4784  -1.5868   1.7380   0.00    0.0
2018/03/11 13:20:33.000   78.253592279   16.174602466   536.7562   5   9   1.7719   1.7191   6.6501  -0.4787  -1.5873   1.7389   0.00    0.0
2018/03/11 13:20:34.000   78.253591002   16.174600476   536.9478   5   9   1.7720   1.7191   6.6508  -0.4791  -1.5878   1.7398   0.00    0.0
2018/03/11 13:20:35.000   78.253595766   16.174590588   537.6629   5   9   1.7721   1.7192   6.6514  -0.4794  -1.5883   1.7407   0.00    0.0
2018/03/11 13:20:36.000   78.253593631   16.174602953   537.3948   5   9   1.7722   1.7192   6.6520  -0.4797  -1.5888   1.7415   0.00    0.0
2018/03/11 13:20:37.000   78.253598459   16.174602211   537.0700   5   9   1.7723   1.7193   6.6526  -0.4800  -1.5893   1.7424   0.00    0.0
2018/03/11 13:20:38.000   78.253597867   16.174585754   536.4694   5   9   1.7724   1.7194   6.6533  -0.4804  -1.5898   1.7433   0.00    0.0
2018/03/11 13:20:39.000   78.253599418   16.174588362   537.7517   5   9   1.7725   1.7194   6.6539  -0.4807  -1.5903   1.7442   0.00    0.0
2018/03/11 13:20:40.000   78.253597263   16.174607279   536.7659   5   9   1.7726   1.7195   6.6545  -0.4810  -1.5908   1.7451   0.00    0.0
2018/03/11 13:20:41.000   78.253600424   16.174583616   536.8972   5   9   1.7727   1.7196   6.6551  -0.4813  -1.5913   1.7460   0.00    0.0
2018/03/11 13:20:42.000   78.253597571   16.174580848   536.9018   5   9   1.7728   1.7196   6.6557  -0.4816  -1.5918   1.7469   0.00    0.0
2018/03/11 13:20:43.000   78.253595224   16.174598635   537.5228   5   9   1.7729   1.7197   6.6564  -0.4820  -1.5922   1.7477   0.00    0.0
2018/03/11 13:20:44.000   78.253594124   16.174610847   537.3073   5   9   1.7730   1.7197   6.6570  -0.4823  -1.5927   1.7486   0.00    0.0
2018/03/11 13:20:45.000   78.253594662   16.174584232   537.1490   5   9   1.7731   1.7198   6.6576  -0.4826  -1.5932   1.7495   0.00    0.0
2018/03/11 13:20:46.000   78.253594538   16.174575973   536.9710   5   9   1.7732   1.7199   6.6582  -0.4829  -1.5937   1.7504   0.00    0.0
2018/03/11 13:20:47.000   78.253597920   16.174593346   537.9731   5   9   1.7733   1.7199   6.6589  -0.4833  -1.5942   1.7513   0.00    0.0
2018/03/11 13:20:48.000   78.253597735   16.174624928   536.5048   5   9   1.7734   1.7200   6.6595  -0.4836  -1.5947   1.7522   0.00    0.0
2018/03/11 13:20:49.000   78.253600344   16.174578328   536.9596   5   9   1.7735   1.7200   6.6601  -0.4839  -1.5952   1.7530   0.00    0.0
2018/03/11 13:20:50.000   78.253603510   16.174573309   538.0053   5   9   1.7736   1.7201   6.6607  -0.4842  -1.5957   1.7539   0.00    0.0
2018/03/11 13:20:51.000   78.253602305   16.174571499   537.0821   5   9   1.7737   1.7202   6.6613  -0.4846  -1.5962   1.7548   0.00    0.0
2018/03/11 13:20:52.000   78.253602754   16.174573725   536.9102   5   9   1.7738   1.7202   6.6620  -0.4849  -1.5967   1.7557   0.00    0.0
2018/03/11 13:20:53.000   78.253594628   16.174591212   536.7795   5   9   1.7739   1.7203   6.6626  -0.4852  -1.5972   1.7566   0.00    0.0
2018/03/11 13:20:54.000   78.253591607   16.174597605   536.5941   5   9   1.7740   1.7203   6.6632  -0.4855  -1.5977   1.7574   0.00    0.0
2018/03/11 13:20:55.000   78.253587994   16.174582695   536.3944   5   9   1.7741   1.7204   6.6638  -0.4858  -1.5981   1.7583   0.00    0.0
2018/03/11 13:20:56.000   78.253592450   16.174593220   537.2766   5   9   1.7742   1.7205   6.6644  -0.4862  -1.5986   1.7592   0.00    0.0
2018/03/11 13:20:57.000   78.253597093   16.174599949   537.2032   5   9   1.7744   1.7205   6.6651  -0.4865  -1.5991   1.7601   0.00    0.0
2018/03/11 13:20:58.000   78.253597618   16.174595617   536.9863   5   9   1.7745   1.7206   6.6657  -0.4868  -1.5996   1.7610   0.00    0.0
2018/03/11 13:20:59.000   78.253601399   16.174560338   537.6579   5   9   1.7746   1.7207   6.6663  -0.4871  -1.6001   1.7619   0.00    0.0
2018/03/11 13:21:00.000   78.253603527   16.174574561   536.8636   5   9   1.7747   1.7207   6.6669  -0.4875  -1.6006   1.7627   0.00    0.0
2018/03/11 13:21:01.000   78.253602157   16.174578685   536.7650   5   9   1.7748   1.7208   6.6675  -0.4878  -1.6011   1.7636   0.00    0.0
2018/03/11 13:21:02.000   78.253598595   16.174598172   536.5593   5   9   1.7749   1.7208   6.6681  -0.4881  -1.6016   1.7645   0.00    0.0
2018/03/11 13:21:03.000   78.253598873   16.174596009   536.9115   5   9   1.7750   1.7209   6.6688  -0.4884  -1.6021   1.7654   0.00    0.0
2018/03/11 13:21:04.000   78.253596153   16.174597543   537.4954   5   9   1.7751   1.7210   6.6694  -0.4887  -1.6026   1.7663   0.00    0.0
2018/03/11 13:21:05.000   78.253593142   16.174608497   537.3122   5   9   1.7752   1.7210   6.6700  -0.4891  -1.6030   1.7671   0.00    0.0
2018/03/11 13:21:06.000   78.253595343   16.174589498   537.4890   5   9   1.7753   1.7211   6.6706  -0.4894  -1.6035   1.7680   0.00    0.0
2018/03/11 13:21:07.000   78.253596705   16.174591031   537.1564   5   9   1.7754   1.7211   6.6712  -0.4897  -1.6040   1.7689   0.00    0.0
2018/03/11 13:21:08.000   78.253599483   16.174575875   537.7933   5   9   1.7755   1.7212   6.6718  -0.4900  -1.6045   1.7698   0.00    0.0
2018/03/11 13:21:09.000   78.253599853   16.174591050   536.0713   5   9   1.7756   1.7213   6.6725  -0.4904  -1.6050   1.7707   0.00    0.0
2018/03/11 13:21:10.000   78.253599733   16.174595987   536.7948   5   9   1.7757   1.7213   6.6731  -0.4907  -1.6055   1.7715   0.00    0.0
2018/03/11 13:21:11.000   78.253599604   16.174601557   536.1760   5   9   1.7758   1.7214   6.6737  -0.4910  -1.6060   1.7724   0.00    0.0
2018/03/11 13:21:12.000   78.253601032   16.174581540   538.0298   5   9   1.7759   1.7215   6.6743  -0.4913  -1.6065   1.7733   0.00    0.0
2018/03/11 13:21:13.000   78.253595689   16.174586415   538.1137   5   9   1.7760   1.7215   6.6749  -0.4917  -1.6070   1.7742   0.00    0.0
2018/03/11 13:21:14.000   78.253596118   16.174598729   538.9246   5   9   1.7761   1.7216   6.6755  -0.4920  -1.6075   1.7751   0.00    0.0
2018/03/11 13:21:15.000   78.253597366   16.174592428   537.6095   5   9   1.7762   1.7216   6.6761  -0.4923  -1.6079   1.7759   0.00    0.0
2018/03/11 13:21:16.000   78.253594200   16.174592696   535.4697   5   9   1.7763   1.7217   6.6768  -0.4926  -1.6084   1.7768   0.00    0.0
2018/03/11 13:21:17.000   78.253597701   16.174601001   535.8915   5   9   1.7764   1.7218   6.6774  -0.4929  -1.6089   1.7777   0.00    0.0
2018/03/11 13:21:18.000   78.253600126   16.174591546   537.2237   5   9   1.7765   1.7218   6.6780  -0.4933  -1.6094   1.7786   0.00    0.0
2018/03/11 13:21:19.000   78.253601906   16.174573383   538.2025   5   9   1.7766   1.7219   6.6786  -0.4936  -1.6099   1.7794   0.00    0.0
2018/03/11 13:21:20.000   78.253600850   16.174550587   537.6661   5   9   1.7768   1.7220   6.6792  -0.4939  -1.6104   1.7803   0.00    0.0
2018/03/11 13:21:21.000   78.253596612   16.174587907   537.8626   5   9   1.7769   1.7220   6.6798  -0.4942  -1.6109   1.7812   0.00    0.0
2018/03/11 13:21:22.000   78.253595044   16.174605811   537.0772   5   9   1.7770   1.7221   6.6804  -0.4946  -1.6114   1.7821   0.00    0.0
2018/03/11 13:21:23.000   78.253595595   16.174617098   535.3472   5   9   1.7771   1.7221   6.6810  -0.4949  -1.6119   1.7830   0.00    0.0
2018/03/11 13:21:24.000   78.253602662   16.174591304   537.6726   5   9   1.7772   1.7222   6.6817  -0.4952  -1.6123   1.7838   0.00    0.0
2018/03/11 13:21:25.000   78.253605906   16.174553183   538.5178   5   9   1.7773   1.7223   6.6823  -0.4955  -1.6128   1.7847   0.00    0.0
2018/03/11 13:21:26.000   78.253601876   16.174580410   538.0652   5   9   1.7774   1.7223   6.6829  -0.4958  -1.6133   1.7856   0.00    0.0
2018/03/11 13:21:27.000   78.253599390   16.174595220   538.1181   5   9   1.7775   1.7224   6.6835  -0.4962  -1.6138   1.7865   0.00    0.0
2018/03/11 13:21:28.000   78.253593701   16.174609472   535.6241   5   9   1.7776   1.7225   6.6841  -0.4965  -1.6143   1.7873   0.00    0.0
2018/03/11 13:21:29.000   78.253595068   16.174594898   536.3921   5   9   1.7777   1.7225   6.6847  -0.4968  -1.6148   1.7882   0.00    0.0
2018/03/11 13:21:30.000   78.253599741   16.174591334   537.1034   5   9   1.7778   1.7226   6.6853  -0.4971  -1.6153   1.7891   0.00    0.0
2018/03/11 13:21:31.000   78.253602817   16.174584137   537.6557   5   9   1.7779   1.7226   6.6859  -0.4975  -1.6158   1.7900   0.00    0.0
2018/03/11 13:21:32.000   78.253599685   16.174581536   538.0650   5   9   1.7780   1.7227   6.6865  -0.4978  -1.6162   1.7908   0.00    0.0
2018/03/11 13:21:33.000   78.253596913   16.174600183   536.7814   5   9   1.7781   1.7228   6.6871  -0.4981  -1.6167   1.7917   0.00    0.0
2018/03/11 13:21:34.000   78.253595136   16.174586219   535.5983   5   9   1.7782   1.7228   6.6877  -0.4984  -1.6172   1.7926   0.00    0.0
2018/03/11 13:21:35.000   78.253595219   16.174596808   536.9334   5   9   1.7784   1.7229   6.6884  -0.4987  -1.6177   1.7935   0.00    0.0
2018/03/11 13:21:36.000   78.253599210   16.174582216   537.8705   5   9   1.7785   1.7230   6.6890  -0.4991  -1.6182   1.7943   0.00    0.0
2018/03/11 13:21:37.000   78.253600380   16.174560251   537.5909   5   9   1.7786   1.7230   6.6896  -0.4994  -1.6187   1.7952   0.00    0.0
2018/03/11 13:21:38.000   78.253601239   16.174587987   538.2659   5   9   1.7787   1.7231   6.6902  -0.4997  -1.6192   1.7961   0.00    0.0
2018/03/11 13:21:39.000   78.253596886   16.174605127   536.6367   5   9   1.7788   1.7231   6.6908  -0.5000  -1.6197   1.7970   0.00    0.0
2018/03/11 13:21:40.000   78.253595766   16.174614590   537.2982   5   9   1.7789   1.7232   6.6914  -0.5004  -1.6201   1.7978   0.00    0.0
2018/03/11 13:21:41.000   78.253594932   16.174612064   537.2541   5   9   1.7790   1.7233   6.6920  -0.5007  -1.6206   1.7987   0.00    0.0
2018/03/11 13:21:42.000   78.253598404   16.174596921   537.8787   5   9   1.7791   1.7233   6.6926  -0.5010  -1.6211   1.7996   0.00    0.0
2018/03/11 13:21:43.000   78.253598630   16.174577306   537.6613   5   9   1.7792   1.7234   6.6932  -0.5013  -1.6216   1.8005   0.00    0.0
2018/03/11 13:21:44.000   78.253600335   16.174578827   537.7156   5   9   1.7793   1.7235   6.6938  -0.5016  -1.6221   1.8013   0.00    0.0
2018/03/11 13:21:45.000   78.253600502   16.174574953   536.5249   5   9   1.7794   1.7235   6.6944  -0.5020  -1.6226   1.8022   0.00    0.0
2018/03/11 13:21:46.000   78.253600571   16.174578883   537.4602   5   9   1.7796   1.7236   6.6950  -0.5023  -1.6231   1.8031   0.00    0.0
2018/03/11 13:21:47.000   78.253596722   16.174587642   537.7596   5   9   1.7797   1.7236   6.6956  -0.5026  -1.6236   1.8040   0.00    0.0
2018/03/11 13:21:48.000   78.253598206   16.174581224   536.7570   5   9   1.7798   1.7237   6.6962  -0.5029  -1.6240   1.8048   0.00    0.0
2018/03/11 13:21:49.000   78.253594092   16.174598058   536.3252   5   9   1.7799   1.7238   6.6968  -0.5032  -1.6245   1.8057   0.00    0.0
2018/03/11 13:21:50.000   78.253592360   16.174611578   536.9347   5   9   1.7800   1.7238   6.6974  -0.5036  -1.6250   1.8066   0.00    0.0
2018/03/11 13:21:51.000   78.253594551   16.174596927   537.2078   5   9   1.7801   1.7239   6.6980  -0.5039  -1.6255   1.8074   0.00    0.0
2018/03/11 13:21:52.000   78.253599537   16.174589373   537.6683   5   9   1.7802   1.7240   6.6986  -0.5042  -1.6260   1.8083   0.00    0.0
2018/03/11 13:21:53.000   78.253602916   16.174581972   537.3186   5   9   1.7803   1.7240   6.6992  -0.5045  -1.6265   1.8092   0.00    0.0
2018/03/11 13:21:54.000   78.253602938   16.174610470   536.9694   5   9   1.7804   1.7241   6.6998  -0.5049  -1.6270   1.8101   0.00    0.0
2018/03/11 13:21:55.000   78.253601721   16.174605144   537.4597   5   9   1.7806   1.7242   6.7005  -0.5052  -1.6274   1.8109   0.00    0.0
2018/03/11 13:21:56.000   78.253597448   16.174593941   537.0045   5   9   1.7807   1.7242   6.7011  -0.5055  -1.6279   1.8118   0.00    0.0
2018/03/11 13:21:57.000   78.253595310   16.174591047   536.8293   5   9   1.7808   1.7243   6.7017  -0.5058  -1.6284   1.8127   0.00    0.0
2018/03/11 13:21:58.000   78.253595515   16.174588026   538.4572   5   9   1.7809   1.7243   6.7023  -0.5061  -1.6289   1.8136   0.00    0.0
2018/03/11 13:21:59.000   78.253594638   16.174591488   538.2999   5   9   1.7810   1.7244   6.7029  -0.5065  -1.6294   1.8144   0.00    0.0
2018/03/11 13:22:00.000   78.253593597   16.174595967   537.5676   5   9   1.7811   1.7245   6.7035  -0.5068  -1.6299   1.8153   0.00    0.0
2018/03/11 13:22:01.000   78.253594663   16.174611095   536.6033   5   9   1.7812   1.7245   6.7041  -0.5071  -1.6303   1.8162   0.00    0.0
2018/03/11 13:22:02.000   78.253598301   16.174591441   537.0834   5   9   1.7813   1.7246   6.7047  -0.5074  -1.6308   1.8170   0.00    0.0
2018/03/11 13:22:03.000   78.253601478   16.174591689   536.3532   5   9   1.7814   1.7247   6.7053  -0.5078  -1.6313   1.8179   0.00    0.0
2018/03/11 13:22:04.000   78.253604610   16.174551604   537.9708   5   9   1.7816   1.7247   6.7059  -0.5081  -1.6318   1.8188   0.00    0.0
2018/03/11 13:22:05.000   78.253601949   16.174565225   538.3004   5   9   1.7817   1.7248   6.7065  -0.5084  -1.6323   1.8196   0.00    0.0
2018/03/11 13:22:06.000   78.253596013   16.174587954   538.8475   5   9   1.7818   1.7249   6.7071  -0.5087  -1.6328   1.8205   0.00    0.0
2018/03/11 13:22:07.000   78.253590744   16.174607310   535.3764   5   9   1.7819   1.7249   6.7076  -0.5090  -1.6333   1.8214   0.00    0.0
2018/03/11 13:22:08.000   78.253594781   16.174605682   537.7004   5   9   1.7820   1.7250   6.7082  -0.5094  -1.6337   1.8223   0.00    0.0
2018/03/11 13:22:09.000   78.253598038   16.174589644   537.7468   5   9   1.7821   1.7250   6.7088  -0.5097  -1.6342   1.8231   0.00    0.0
2018/03/11 13:22:10.000   78.253601576   16.174579829   537.3306   5   9   1.7822   1.7251   6.7094  -0.5100  -1.6347   1.8240   0.00    0.0
2018/03/11 13:22:11.000   78.253596973   16.174584530   537.0224   5   9   1.7824   1.7252   6.7100  -0.5103  -1.6352   1.8249   0.00    0.0
2018/03/11 13:22:12.000   78.253596007   16.174606685   537.2642   5   9   1.7825   1.7252   6.7106  -0.5106  -1.6357   1.8257   0.00    0.0
2018/03/11 13:22:13.000   78.253599087   16.174586465   537.4443   5   9   1.7826   1.7253   6.7112  -0.5110  -1.6362   1.8266   0.00    0.0
2018/03/11 13:22:14.000   78.253596158   16.174566767   536.4392   5   9   1.7827   1.7254   6.7118  -0.5113  -1.6366   1.8275   0.00    0.0
2018/03/11 13:22:15.000   78.253599582   16.174562222   538.2081   5   9   1.7828   1.7254   6.7124  -0.5116  -1.6371   1.8283   0.00    0.0
2018/03/11 13:22:16.000   78.253596434   16.174585883   537.0911   5   9   1.7829   1.7255   6.7130  -0.5119  -1.6376   1.8292   0.00    0.0
2018/03/11 13:22:17.000   78.253595883   16.174597071   536.6981   5   9   1.7830   1.7256   6.7136  -0.5123  -1.6381   1.8301   0.00    0.0
2018/03/11 13:22:18.000   78.253597052   16.174607490   536.5987   5   9   1.7831   1.7256   6.7142  -0.5126  -1.6386   1.8309   0.00    0.0
2018/03/11 13:22:19.000   78.253600081   16.174592890   537.9095   5   9   1.7833   1.7257   6.7148  -0.5129  -1.6391   1.8318   0.00    0.0
2018/03/11 13:22:20.000   78.253600904   16.174588663   537.3586   5   9   1.7834   1.7258   6.7154  -0.5132  -1.6395   1.8327   0.00    0.0
2018/03/11 13:22:21.000   78.253601525   16.174588351   538.0159   5   9   1.7835   1.7258   6.7160  -0.5135  -1.6400   1.8335   0.00    0.0
2018/03/11 13:22:22.000   78.253597168   16.174580517   537.5324   5   9   1.7836   1.7259   6.7166  -0.5139  -1.6405   1.8344   0.00    0.0
2018/03/11 13:22:23.000   78.253595342   16.174580698   536.3689   5   9   1.7837   1.7259   6.7172  -0.5142  -1.6410   1.8353   0.00    0.0
2018/03/11 13:22:24.000   78.253596771   16.174578142   537.8714   5   9   1.7838   1.7260   6.7178  -0.5145  -1.6415   1.8361   0.00    0.0
2018/03/11 13:22:25.000   78.253597310   16.174593020   537.2413   5   9   1.7840   1.7261   6.7184  -0.5148  -1.6420   1.8370   0.00    0.0
2018/03/11 13:22:26.000   78.253601627   16.174582349   537.8472   5   9   1.7841   1.7261   6.7190  -0.5151  -1.6424   1.8379   0.00    0.0
2018/03/11 13:22:27.000   78.253599339   16.174590194   537.3765   5   9   1.7842   1.7262   6.7195  -0.5155  -1.6429   1.8387   0.00    0.0
2018/03/11 13:22:28.000   78.253598331   16.174588370   537.6203   5   9   1.7843   1.7263   6.7201  -0.5158  -1.6434   1.8396   0.00    0.0
2018/03/11 13:22:29.000   78.253593202   16.174591328   537.3697   5   9   1.7844   1.7263   6.7207  -0.5161  -1.6439   1.8405   0.00    0.0
2018/03/11 13:22:30.000   78.253596114   16.174576612   537.7743   5   9   1.7845   1.7264   6.7213  -0.5164  -1.6444   1.8413   0.00    0.0
2018/03/11 13:22:31.000   78.253599768   16.174566184   538.9884   5   9   1.7846   1.7265   6.7219  -0.5168  -1.6448   1.8422   0.00    0.0
2018/03/11 13:22:32.000   78.253604173   16.174546382   538.0655   5   9   1.7848   1.7265   6.7225  -0.5171  -1.6453   1.8431   0.00    0.0
2018/03/11 13:22:33.000   78.253602376   16.174575706   536.9952   5   9   1.7849   1.7266   6.7231  -0.5174  -1.6458   1.8439   0.00    0.0
2018/03/11 13:22:34.000   78.253595852   16.174600059   537.7249   5   9   1.7850   1.7267   6.7237  -0.5177  -1.6463   1.8448   0.00    0.0
2018/03/11 13:22:35.000   78.253593995   16.174612344   536.1051   5   9   1.7851   1.7267   6.7243  -0.5180  -1.6468   1.8457   0.00    0.0
2018/03/11 13:22:36.000   78.253597767   16.174579850   537.7296   5   9   1.7852   1.7268   6.7249  -0.5184  -1.6472   1.8465   0.00    0.0
2018/03/11 13:22:37.000   78.253597199   16.174567499   537.6275   5   9   1.7854   1.7268   6.7254  -0.5187  -1.6477   1.8474   0.00    0.0
2018/03/11 13:22:38.000   78.253596527   16.174564976   537.9604   5   9   1.7855   1.7269   6.7260  -0.5190  -1.6482   1.8483   0.00    0.0
2018/03/11 13:22:39.000   78.253599270   16.174590307   537.5609   5   9   1.7856   1.7270   6.7266  -0.5193  -1.6487   1.8491   0.00    0.0
2018/03/11 13:22:40.000   78.253592696   16.174606738   536.7600   5   9   1.7857   1.7270   6.7272  -0.5196  -1.6492   1.8500   0.00    0.0
2018/03/11 13:22:41.000   78.253595689   16.174595935   536.6061   5   9   1.7858   1.7271   6.7278  -0.5200  -1.6497   1.8509   0.00    0.0
2018/03/11 13:22:42.000   78.253604027   16.174573163   538.2896   5   9   1.7859   1.7272   6.7284  -0.5203  -1.6501   1.8517   0.00    0.0
2018/03/11 13:22:43.000   78.253601598   16.174574821   538.4169   5   9   1.7861   1.7272   6.7290  -0.5206  -1.6506   1.8526   0.00    0.0
2018/03/11 13:22:44.000   78.253599738   16.174595948   538.1507   5   9   1.7862   1.7273   6.7296  -0.5209  -1.6511   1.8534   0.00    0.0
2018/03/11 13:22:45.000   78.253597904   16.174592058   536.6781   5   9   1.7863   1.7274   6.7301  -0.5212  -1.6516   1.8543   0.00    0.0
2018/03/11 13:22:46.000   78.253594813   16.174591189   535.9827   5   9   1.7864   1.7274   6.7307  -0.5216  -1.6521   1.8552   0.00    0.0
2018/03/11 13:22:47.000   78.253596835   16.174578906   538.0149   5   9   1.7865   1.7275   6.7313  -0.5219  -1.6525   1.8560   0.00    0.0
2018/03/11 13:22:48.000   78.253601041   16.174580872   537.7536   5   9   1.7867   1.7276   6.7319  -0.5222  -1.6530   1.8569   0.00    0.0
2018/03/11 13:22:49.000   78.253602160   16.174563338   538.2449   5   9   1.7868   1.7276   6.7325  -0.5225  -1.6535   1.8578   0.00    0.0
2018/03/11 13:22:50.000   78.253599105   16.174573830   537.1725   5   9   1.7869   1.7277   6.7331  -0.5229  -1.6540   1.8586   0.00    0.0
2018/03/11 13:22:51.000   78.253595622   16.174584785   537.1276   5   9   1.7870   1.7278   6.7336  -0.5232  -1.6545   1.8595   0.00    0.0
2018/03/11 13:22:52.000   78.253597603   16.174593366   537.2729   5   9   1.7871   1.7278   6.7342  -0.5235  -1.6549   1.8604   0.00    0.0
2018/03/11 13:22:53.000   78.253594797   16.174608574   537.8052   5   9   1.7872   1.7279   6.7348  -0.5238  -1.6554   1.8612   0.00    0.0
2018/03/11 13:22:54.000   78.253594170   16.174594546   537.6230   5   9   1.7874   1.7280   6.7354  -0.5241  -1.6559   1.8621   0.00    0.0
2018/03/11 13:22:55.000   78.253596396   16.174584699   537.2562   5   9   1.7875   1.7280   6.7360  -0.5245  -1.6564   1.8629   0.00    0.0
2018/03/11 13:22:56.000   78.253600935   16.174578685   537.4039   5   9   1.7876   1.7281   6.7366  -0.5248  -1.6568   1.8638   0.00    0.0
2018/03/11 13:22:57.000   78.253602568   16.174587258   536.5612   5   9   1.7877   1.7282   6.7371  -0.5251  -1.6573   1.8647   0.00    0.0
2018/03/11 13:22:58.000   78.253599907   16.174589820   536.8780   5   9   1.7878   1.7282   6.7377  -0.5254  -1.6578   1.8655   0.00    0.0
2018/03/11 13:22:59.000   78.253594117   16.174587861   536.3935   5   9   1.7880   1.7283   6.7383  -0.5257  -1.6583   1.8664   0.00    0.0
2018/03/11 13:23:00.000   78.253593569   16.174578634   536.9321   5   9   1.7881   1.7283   6.7389  -0.5261  -1.6588   1.8672   0.00    0.0
2018/03/11 13:23:01.000   78.253593393   16.174576023   538.3947   5   9   1.7882   1.7284   6.7395  -0.5264  -1.6592   1.8681   0.00    0.0
2018/03/11 13:23:02.000   78.253595904   16.174585499   538.3010   5   9   1.7883   1.7285   6.7400  -0.5267  -1.6597   1.8690   0.00    0.0
2018/03/11 13:23:03.000   78.253595237   16.174581660   537.1721   5   9   1.7885   1.7285   6.7406  -0.5270  -1.6602   1.8698   0.00    0.0
2018/03/11 13:23:04.000   78.253596863   16.174584566   536.7347   5   9   1.7886   1.7286   6.7412  -0.5273  -1.6607   1.8707   0.00    0.0
2018/03/11 13:23:05.000   78.253598046   16.174592871   535.2913   5   9   1.7887   1.7287   6.7418  -0.5277  -1.6612   1.8715   0.00    0.0
2018/03/11 13:23:06.000   78.253600303   16.174597406   536.8759   5   9   1.7888   1.7287   6.7424  -0.5280  -1.6616   1.8724   0.00    0.0
2018/03/11 13:23:07.000   78.253601695   16.174588669   538.2675   5   9   1.7889   1.7288   6.7429  -0.5283  -1.6621   1.8733   0.00    0.0
2018/03/11 13:23:08.000   78.253599826   16.174564661   537.8324   5   9   1.7891   1.7289   6.7435  -0.5286  -1.6626   1.8741   0.00    0.0
2018/03/11 13:23:09.000   78.253594962   16.174564056   538.1122   5   9   1.7892   1.7289   6.7441  -0.5289  -1.6631   1.8750   0.00    0.0
2018/03/11 13:23:10.000   78.253594261   16.174595303   537.1025   5   9   1.7893   1.7290   6.7447  -0.5293  -1.6635   1.8758   0.00    0.0
2018/03/11 13:23:11.000   78.253592007   16.174603303   537.6322   5   9   1.7894   1.7291   6.7452  -0.5296  -1.6640   1.8767   0.00    0.0
2018/03/11 13:23:12.000   78.253598188   16.174610093   537.1357   5   9   1.7895   1.7291   6.7458  -0.5299  -1.6645   1.8776   0.00    0.0
2018/03/11 13:23:13.000   78.253601172   16.174583879   537.7139   5   9   1.7897   1.7292   6.7464  -0.5302  -1.6650   1.8784   0.00    0.0
2018/03/11 13:23:14.000   78.253598986   16.174575191   537.7362   5   9   1.7898   1.7293   6.7470  -0.5306  -1.6654   1.8793   0.00    0.0
2018/03/11 13:23:15.000   78.253596437   16.174586852   536.5258   5   9   1.7899   1.7293   6.7475  -0.5309  -1.6659   1.8801   0.00    0.0
2018/03/11 13:23:16.000   78.253595493   16.174577355   536.8930   5   9   1.7900   1.7294   6.7481  -0.5312  -1.6664   1.8810   0.00    0.0
