% program   : RTKPOST ver.2.4.2
% inp file  : Z:\home\linda\Documents\Spring18\GitHub_Unis\data\processed_data\46250728.obs
% inp file  : Z:\home\linda\Documents\Spring18\GitHub_Unis\data\processed_data\46250728.nav
% obs start : 2018/03/13 15:07:39.0 GPST (week1992 227259.0s)
% obs end   : 2018/03/13 15:14:54.0 GPST (week1992 227694.0s)
% pos mode  : single
% elev mask : 15.0 deg
% ionos opt : broadcast
% tropo opt : saastamoinen
% ephemeris : broadcast
% navi sys  : gps glonass galileo qzss sbas
%
% (lat/lon/height=WGS84/ellipsoidal,Q=1:fix,2:float,3:sbas,4:dgps,5:single,6:ppp,ns=# of satellites)
%  GPST                  latitude(deg) longitude(deg)  height(m)   Q  ns   sdn(m)   sde(m)   sdu(m)  sdne(m)  sdeu(m)  sdun(m) age(s)  ratio
2018/03/13 15:07:39.000   78.255293759   16.193819283   486.0427   5  11   1.6915   1.4091   6.0280  -0.1063  -0.5080   1.7330   0.00    0.0
2018/03/13 15:07:40.000   78.255296165   16.193811441   486.9502   5  11   1.6915   1.4091   6.0282  -0.1062  -0.5072   1.7330   0.00    0.0
2018/03/13 15:07:41.000   78.255295015   16.193798874   486.2885   5  11   1.6915   1.4091   6.0285  -0.1061  -0.5065   1.7331   0.00    0.0
2018/03/13 15:07:42.000   78.255293569   16.193817880   486.0226   5  11   1.6916   1.4090   6.0287  -0.1060  -0.5057   1.7332   0.00    0.0
2018/03/13 15:07:43.000   78.255296025   16.193817218   486.2607   5  11   1.6916   1.4090   6.0289  -0.1059  -0.5050   1.7333   0.00    0.0
2018/03/13 15:07:44.000   78.255296132   16.193816763   486.6468   5  11   1.6916   1.4090   6.0291  -0.1058  -0.5043   1.7333   0.00    0.0
2018/03/13 15:07:45.000   78.255291551   16.193814473   486.0600   5  11   1.6916   1.4090   6.0293  -0.1057  -0.5035   1.7334   0.00    0.0
2018/03/13 15:07:46.000   78.255292692   16.193808164   485.6857   5  11   1.6917   1.4090   6.0295  -0.1055  -0.5028   1.7335   0.00    0.0
2018/03/13 15:07:47.000   78.255292214   16.193814688   485.1654   5  11   1.6917   1.4089   6.0297  -0.1054  -0.5020   1.7336   0.00    0.0
2018/03/13 15:07:48.000   78.255294530   16.193805488   484.7249   5  11   1.6917   1.4089   6.0299  -0.1053  -0.5013   1.7337   0.00    0.0
2018/03/13 15:07:49.000   78.255294350   16.193809334   485.5240   5  11   1.6918   1.4089   6.0301  -0.1052  -0.5006   1.7337   0.00    0.0
2018/03/13 15:07:50.000   78.255294654   16.193803114   485.1900   5  11   1.6918   1.4089   6.0303  -0.1051  -0.4998   1.7338   0.00    0.0
2018/03/13 15:07:51.000   78.255293812   16.193816744   485.7415   5  11   1.6918   1.4089   6.0305  -0.1050  -0.4991   1.7339   0.00    0.0
2018/03/13 15:07:52.000   78.255295334   16.193816753   486.5763   5  11   1.6919   1.4089   6.0307  -0.1049  -0.4983   1.7340   0.00    0.0
2018/03/13 15:07:53.000   78.255296039   16.193804557   485.7453   5  11   1.6919   1.4088   6.0308  -0.1048  -0.4976   1.7340   0.00    0.0
2018/03/13 15:07:54.000   78.255295019   16.193793085   485.8141   5  11   1.6919   1.4088   6.0310  -0.1047  -0.4968   1.7341   0.00    0.0
2018/03/13 15:07:55.000   78.255294722   16.193812082   485.2879   5  11   1.6920   1.4088   6.0312  -0.1046  -0.4961   1.7342   0.00    0.0
2018/03/13 15:07:56.000   78.255293912   16.193820356   485.7626   5  11   1.6920   1.4088   6.0314  -0.1045  -0.4953   1.7343   0.00    0.0
2018/03/13 15:07:57.000   78.255293785   16.193821877   486.4119   5  11   1.6920   1.4088   6.0316  -0.1044  -0.4945   1.7344   0.00    0.0
2018/03/13 15:07:58.000   78.255293774   16.193803835   485.8013   5  11   1.6921   1.4088   6.0318  -0.1043  -0.4938   1.7344   0.00    0.0
2018/03/13 15:07:59.000   78.255293654   16.193815471   485.9885   5  11   1.6921   1.4087   6.0320  -0.1042  -0.4930   1.7345   0.00    0.0
2018/03/13 15:08:00.000   78.255294210   16.193819522   487.3083   5  11   1.6921   1.4087   6.0322  -0.1040  -0.4923   1.7346   0.00    0.0
2018/03/13 15:08:01.000   78.255293378   16.193815169   485.3371   5  11   1.6922   1.4087   6.0324  -0.1039  -0.4915   1.7347   0.00    0.0
2018/03/13 15:08:02.000   78.255294489   16.193817182   485.8372   5  11   1.6922   1.4087   6.0326  -0.1038  -0.4908   1.7347   0.00    0.0
2018/03/13 15:08:03.000   78.255295579   16.193808548   486.4286   5  11   1.6922   1.4087   6.0328  -0.1037  -0.4900   1.7348   0.00    0.0
2018/03/13 15:08:04.000   78.255293668   16.193816194   486.4693   5  11   1.6922   1.4087   6.0329  -0.1036  -0.4892   1.7349   0.00    0.0
2018/03/13 15:08:05.000   78.255293070   16.193814751   485.4675   5  11   1.6923   1.4086   6.0331  -0.1035  -0.4885   1.7350   0.00    0.0
2018/03/13 15:08:06.000   78.255294414   16.193817656   486.3091   5  11   1.6923   1.4086   6.0333  -0.1034  -0.4877   1.7350   0.00    0.0
2018/03/13 15:08:07.000   78.255293611   16.193804023   485.9334   5  10   1.7489   1.6051   6.2314  -0.5918  -1.1984   1.9230   0.00    0.0
2018/03/13 15:08:08.000   78.255295035   16.193817982   485.9737   5  11   1.6924   1.4086   6.0337  -0.1032  -0.4862   1.7352   0.00    0.0
2018/03/13 15:08:09.000   78.255294661   16.193807961   485.9712   5  11   1.6924   1.4086   6.0339  -0.1031  -0.4854   1.7353   0.00    0.0
2018/03/13 15:08:10.000   78.255293622   16.193806252   485.1456   5  11   1.6924   1.4086   6.0340  -0.1030  -0.4846   1.7354   0.00    0.0
2018/03/13 15:08:11.000   78.255295169   16.193814792   485.6113   5  11   1.6925   1.4085   6.0342  -0.1029  -0.4839   1.7354   0.00    0.0
2018/03/13 15:08:12.000   78.255294353   16.193803696   485.2320   5  11   1.6925   1.4085   6.0344  -0.1028  -0.4831   1.7355   0.00    0.0
2018/03/13 15:08:13.000   78.255291715   16.193814445   484.8748   5  11   1.6925   1.4085   6.0346  -0.1027  -0.4823   1.7356   0.00    0.0
2018/03/13 15:08:14.000   78.255295539   16.193812732   485.9521   5  11   1.6926   1.4085   6.0348  -0.1026  -0.4815   1.7357   0.00    0.0
2018/03/13 15:08:15.000   78.255295865   16.193807591   485.6577   5  11   1.6926   1.4085   6.0349  -0.1024  -0.4808   1.7357   0.00    0.0
2018/03/13 15:08:16.000   78.255293757   16.193810693   485.1676   5  11   1.6926   1.4085   6.0351  -0.1023  -0.4800   1.7358   0.00    0.0
2018/03/13 15:08:17.000   78.255293372   16.193806641   484.9279   5  11   1.6927   1.4085   6.0353  -0.1022  -0.4792   1.7359   0.00    0.0
2018/03/13 15:08:18.000   78.255293321   16.193812048   485.2668   5  11   1.6927   1.4084   6.0355  -0.1021  -0.4784   1.7360   0.00    0.0
2018/03/13 15:08:19.000   78.255296631   16.193810155   486.2004   5  11   1.6927   1.4084   6.0356  -0.1020  -0.4777   1.7360   0.00    0.0
2018/03/13 15:08:20.000   78.255294495   16.193798926   485.8860   5  11   1.6928   1.4084   6.0358  -0.1019  -0.4769   1.7361   0.00    0.0
2018/03/13 15:08:21.000   78.255296976   16.193804969   484.8922   5  11   1.6928   1.4084   6.0360  -0.1018  -0.4761   1.7362   0.00    0.0
2018/03/13 15:08:22.000   78.255294409   16.193814880   485.0881   5  11   1.6928   1.4084   6.0362  -0.1017  -0.4753   1.7363   0.00    0.0
2018/03/13 15:08:23.000   78.255294486   16.193811349   485.5035   5  11   1.6929   1.4084   6.0363  -0.1016  -0.4745   1.7363   0.00    0.0
2018/03/13 15:08:24.000   78.255294149   16.193799509   485.0779   5  11   1.6929   1.4083   6.0365  -0.1015  -0.4737   1.7364   0.00    0.0
2018/03/13 15:08:25.000   78.255293426   16.193814193   485.9122   5  11   1.6929   1.4083   6.0367  -0.1014  -0.4729   1.7365   0.00    0.0
2018/03/13 15:08:26.000   78.255295746   16.193811425   486.1420   5  11   1.6929   1.4083   6.0368  -0.1013  -0.4722   1.7365   0.00    0.0
2018/03/13 15:08:27.000   78.255293987   16.193813318   485.3498   5  11   1.6930   1.4083   6.0370  -0.1012  -0.4714   1.7366   0.00    0.0
2018/03/13 15:08:28.000   78.255294599   16.193818900   487.2253   5  11   1.6930   1.4083   6.0372  -0.1011  -0.4706   1.7367   0.00    0.0
2018/03/13 15:08:29.000   78.255293976   16.193808507   485.7074   5  11   1.6930   1.4083   6.0373  -0.1010  -0.4698   1.7368   0.00    0.0
2018/03/13 15:08:30.000   78.255294503   16.193817565   486.0333   5  11   1.6931   1.4082   6.0375  -0.1009  -0.4690   1.7368   0.00    0.0
2018/03/13 15:08:31.000   78.255293187   16.193803172   485.5220   5  11   1.6931   1.4082   6.0377  -0.1007  -0.4682   1.7369   0.00    0.0
2018/03/13 15:08:32.000   78.255293552   16.193799013   485.6237   5  11   1.6931   1.4082   6.0378  -0.1006  -0.4674   1.7370   0.00    0.0
2018/03/13 15:08:33.000   78.255295252   16.193800516   486.1147   5  11   1.6932   1.4082   6.0380  -0.1005  -0.4666   1.7371   0.00    0.0
2018/03/13 15:08:34.000   78.255297306   16.193807604   485.7697   5  11   1.6932   1.4082   6.0382  -0.1004  -0.4658   1.7371   0.00    0.0
2018/03/13 15:08:35.000   78.255293950   16.193801774   484.7066   5  11   1.6932   1.4082   6.0383  -0.1003  -0.4650   1.7372   0.00    0.0
2018/03/13 15:08:36.000   78.255295890   16.193807669   485.8868   5  11   1.6933   1.4081   6.0385  -0.1002  -0.4642   1.7373   0.00    0.0
2018/03/13 15:08:37.000   78.255293815   16.193814624   486.0445   5  11   1.6933   1.4081   6.0386  -0.1001  -0.4634   1.7374   0.00    0.0
2018/03/13 15:08:38.000   78.255292453   16.193812036   486.0149   5  11   1.6933   1.4081   6.0388  -0.1000  -0.4626   1.7374   0.00    0.0
2018/03/13 15:08:39.000   78.255295026   16.193810542   485.5130   5  11   1.6934   1.4081   6.0390  -0.0999  -0.4618   1.7375   0.00    0.0
2018/03/13 15:08:40.000   78.255294073   16.193803069   485.9754   5  11   1.6934   1.4081   6.0391  -0.0998  -0.4610   1.7376   0.00    0.0
2018/03/13 15:08:41.000   78.255294401   16.193812759   486.0553   5  11   1.6934   1.4081   6.0393  -0.0997  -0.4602   1.7376   0.00    0.0
2018/03/13 15:08:42.000   78.255292193   16.193813172   485.2932   5  11   1.6935   1.4081   6.0394  -0.0996  -0.4593   1.7377   0.00    0.0
2018/03/13 15:08:43.000   78.255295187   16.193815098   486.3144   5  11   1.6935   1.4080   6.0396  -0.0995  -0.4585   1.7378   0.00    0.0
2018/03/13 15:08:44.000   78.255296196   16.193814795   486.9891   5  11   1.6935   1.4080   6.0397  -0.0994  -0.4577   1.7379   0.00    0.0
2018/03/13 15:08:45.000   78.255294957   16.193812403   486.9441   5  11   1.6936   1.4080   6.0399  -0.0993  -0.4569   1.7379   0.00    0.0
2018/03/13 15:08:46.000   78.255293767   16.193816728   485.8504   5  11   1.6936   1.4080   6.0400  -0.0992  -0.4561   1.7380   0.00    0.0
2018/03/13 15:08:47.000   78.255293715   16.193813394   485.8121   5  11   1.6936   1.4080   6.0402  -0.0991  -0.4553   1.7381   0.00    0.0
2018/03/13 15:08:48.000   78.255294998   16.193809561   486.1618   5  11   1.6937   1.4080   6.0404  -0.0989  -0.4545   1.7381   0.00    0.0
2018/03/13 15:08:49.000   78.255294382   16.193808993   486.4703   5  11   1.6937   1.4079   6.0405  -0.0988  -0.4536   1.7382   0.00    0.0
2018/03/13 15:08:50.000   78.255293659   16.193813549   485.8608   5  11   1.6937   1.4079   6.0407  -0.0987  -0.4528   1.7383   0.00    0.0
2018/03/13 15:08:51.000   78.255294559   16.193814100   486.2296   5  11   1.6938   1.4079   6.0408  -0.0986  -0.4520   1.7384   0.00    0.0
2018/03/13 15:08:52.000   78.255293524   16.193803980   484.8867   5  11   1.6938   1.4079   6.0409  -0.0985  -0.4512   1.7384   0.00    0.0
2018/03/13 15:08:53.000   78.255294371   16.193803808   486.2949   5  11   1.6938   1.4079   6.0411  -0.0984  -0.4503   1.7385   0.00    0.0
2018/03/13 15:08:54.000   78.255293595   16.193815596   486.4186   5  11   1.6939   1.4079   6.0412  -0.0983  -0.4495   1.7386   0.00    0.0
2018/03/13 15:08:55.000   78.255291807   16.193827390   485.3138   5  11   1.6939   1.4079   6.0414  -0.0982  -0.4487   1.7386   0.00    0.0
2018/03/13 15:08:56.000   78.255294246   16.193816432   486.6853   5  11   1.6939   1.4078   6.0415  -0.0981  -0.4479   1.7387   0.00    0.0
2018/03/13 15:08:57.000   78.255294166   16.193814976   487.3006   5  11   1.6939   1.4078   6.0417  -0.0980  -0.4470   1.7388   0.00    0.0
2018/03/13 15:08:58.000   78.255294875   16.193811398   486.7860   5  11   1.6940   1.4078   6.0418  -0.0979  -0.4462   1.7389   0.00    0.0
2018/03/13 15:08:59.000   78.255294816   16.193811101   486.1677   5  11   1.6940   1.4078   6.0420  -0.0978  -0.4454   1.7389   0.00    0.0
2018/03/13 15:09:00.000   78.255291955   16.193802850   485.0337   5  11   1.6940   1.4078   6.0421  -0.0977  -0.4445   1.7390   0.00    0.0
2018/03/13 15:09:01.000   78.255290786   16.193814620   484.6695   5  11   1.6941   1.4078   6.0422  -0.0976  -0.4437   1.7391   0.00    0.0
2018/03/13 15:09:02.000   78.255294290   16.193810110   485.4088   5  11   1.6941   1.4077   6.0424  -0.0975  -0.4428   1.7391   0.00    0.0
2018/03/13 15:09:03.000   78.255294947   16.193821883   485.1018   5  11   1.6941   1.4077   6.0425  -0.0974  -0.4420   1.7392   0.00    0.0
2018/03/13 15:09:04.000   78.255292807   16.193816829   486.3549   5  11   1.6942   1.4077   6.0427  -0.0973  -0.4412   1.7393   0.00    0.0
2018/03/13 15:09:05.000   78.255293996   16.193817927   486.0912   5  11   1.6942   1.4077   6.0428  -0.0972  -0.4403   1.7393   0.00    0.0
2018/03/13 15:09:06.000   78.255292945   16.193809379   486.2031   5  11   1.6942   1.4077   6.0429  -0.0971  -0.4395   1.7394   0.00    0.0
2018/03/13 15:09:07.000   78.255294612   16.193812291   485.7081   5  11   1.6943   1.4077   6.0431  -0.0970  -0.4386   1.7395   0.00    0.0
2018/03/13 15:09:08.000   78.255296839   16.193815898   486.4735   5  11   1.6943   1.4077   6.0432  -0.0969  -0.4378   1.7396   0.00    0.0
2018/03/13 15:09:09.000   78.255293023   16.193813133   486.2475   5  11   1.6943   1.4076   6.0433  -0.0968  -0.4369   1.7396   0.00    0.0
2018/03/13 15:09:10.000   78.255294093   16.193822402   484.9851   5  11   1.6944   1.4076   6.0435  -0.0966  -0.4361   1.7397   0.00    0.0
2018/03/13 15:09:11.000   78.255293938   16.193802489   485.1980   5  11   1.6944   1.4076   6.0436  -0.0965  -0.4352   1.7398   0.00    0.0
2018/03/13 15:09:12.000   78.255293174   16.193812657   485.4285   5  11   1.6944   1.4076   6.0437  -0.0964  -0.4344   1.7398   0.00    0.0
2018/03/13 15:09:13.000   78.255292045   16.193814453   485.3216   5  11   1.6945   1.4076   6.0439  -0.0963  -0.4335   1.7399   0.00    0.0
2018/03/13 15:09:14.000   78.255292258   16.193817503   485.5528   5  11   1.6945   1.4076   6.0440  -0.0962  -0.4327   1.7400   0.00    0.0
2018/03/13 15:09:15.000   78.255292691   16.193808186   486.0520   5  11   1.6945   1.4075   6.0441  -0.0961  -0.4318   1.7400   0.00    0.0
2018/03/13 15:09:16.000   78.255294167   16.193808982   486.3976   5  11   1.6946   1.4075   6.0442  -0.0960  -0.4309   1.7401   0.00    0.0
2018/03/13 15:09:17.000   78.255294016   16.193807062   486.0721   5  11   1.6946   1.4075   6.0444  -0.0959  -0.4301   1.7402   0.00    0.0
2018/03/13 15:09:18.000   78.255294048   16.193808011   486.9376   5  11   1.6946   1.4075   6.0445  -0.0958  -0.4292   1.7402   0.00    0.0
2018/03/13 15:09:19.000   78.255293095   16.193815703   485.4443   5  11   1.6947   1.4075   6.0446  -0.0957  -0.4283   1.7403   0.00    0.0
2018/03/13 15:09:20.000   78.255294071   16.193824381   485.8626   5  11   1.6947   1.4075   6.0447  -0.0956  -0.4275   1.7404   0.00    0.0
2018/03/13 15:09:21.000   78.255293082   16.193802989   485.3318   5  11   1.6947   1.4075   6.0449  -0.0955  -0.4266   1.7404   0.00    0.0
2018/03/13 15:09:22.000   78.255293885   16.193808665   485.9693   5  11   1.6948   1.4074   6.0450  -0.0954  -0.4257   1.7405   0.00    0.0
2018/03/13 15:09:23.000   78.255291847   16.193820949   485.4625   5  11   1.6948   1.4074   6.0451  -0.0953  -0.4249   1.7406   0.00    0.0
2018/03/13 15:09:24.000   78.255291973   16.193809972   485.0752   5  11   1.6948   1.4074   6.0452  -0.0952  -0.4240   1.7406   0.00    0.0
2018/03/13 15:09:25.000   78.255293359   16.193814393   486.6356   5  11   1.6949   1.4074   6.0454  -0.0951  -0.4231   1.7407   0.00    0.0
2018/03/13 15:09:26.000   78.255293570   16.193813090   485.4775   5  11   1.6949   1.4074   6.0455  -0.0950  -0.4222   1.7408   0.00    0.0
2018/03/13 15:09:27.000   78.255293319   16.193806338   485.2951   5  11   1.6949   1.4074   6.0456  -0.0949  -0.4214   1.7408   0.00    0.0
2018/03/13 15:09:28.000   78.255294601   16.193801541   485.2086   5  11   1.6950   1.4074   6.0457  -0.0948  -0.4205   1.7409   0.00    0.0
2018/03/13 15:09:29.000   78.255293307   16.193808128   485.2503   5  11   1.6950   1.4073   6.0458  -0.0947  -0.4196   1.7410   0.00    0.0
2018/03/13 15:09:30.000   78.255292155   16.193802491   484.7970   5  11   1.6950   1.4073   6.0459  -0.0946  -0.4187   1.7410   0.00    0.0
2018/03/13 15:09:31.000   78.255291983   16.193814593   485.3933   5  11   1.6951   1.4073   6.0461  -0.0945  -0.4178   1.7411   0.00    0.0
2018/03/13 15:09:32.000   78.255291711   16.193824977   485.0841   5  11   1.6951   1.4073   6.0462  -0.0944  -0.4169   1.7412   0.00    0.0
2018/03/13 15:09:33.000   78.255291935   16.193814409   486.0280   5  11   1.6951   1.4073   6.0463  -0.0943  -0.4160   1.7412   0.00    0.0
2018/03/13 15:09:34.000   78.255292569   16.193816903   485.8794   5  11   1.6952   1.4073   6.0464  -0.0942  -0.4152   1.7413   0.00    0.0
2018/03/13 15:09:35.000   78.255292320   16.193813849   485.3808   5  11   1.6952   1.4073   6.0465  -0.0941  -0.4143   1.7414   0.00    0.0
2018/03/13 15:09:36.000   78.255292752   16.193808233   485.5345   5  11   1.6952   1.4072   6.0466  -0.0940  -0.4134   1.7414   0.00    0.0
2018/03/13 15:09:37.000   78.255288447   16.193806944   485.2124   5  11   1.6953   1.4072   6.0467  -0.0939  -0.4125   1.7415   0.00    0.0
2018/03/13 15:09:38.000   78.255292000   16.193807768   486.4862   5  11   1.6953   1.4072   6.0469  -0.0938  -0.4116   1.7416   0.00    0.0
2018/03/13 15:09:39.000   78.255292404   16.193816130   485.6012   5  11   1.6953   1.4072   6.0470  -0.0937  -0.4107   1.7416   0.00    0.0
2018/03/13 15:09:40.000   78.255292416   16.193813496   487.0549   5  11   1.6954   1.4072   6.0471  -0.0935  -0.4098   1.7417   0.00    0.0
2018/03/13 15:09:41.000   78.255291653   16.193815670   485.8684   5  11   1.6954   1.4072   6.0472  -0.0934  -0.4089   1.7418   0.00    0.0
2018/03/13 15:09:42.000   78.255293219   16.193815116   486.8223   5  11   1.6954   1.4072   6.0473  -0.0933  -0.4080   1.7418   0.00    0.0
2018/03/13 15:09:43.000   78.255293409   16.193806209   486.0504   5  11   1.6955   1.4071   6.0474  -0.0932  -0.4070   1.7419   0.00    0.0
2018/03/13 15:09:44.000   78.255291584   16.193810657   486.6539   5  11   1.6955   1.4071   6.0475  -0.0931  -0.4061   1.7420   0.00    0.0
2018/03/13 15:09:45.000   78.255291891   16.193813482   485.8042   5  11   1.6955   1.4071   6.0476  -0.0930  -0.4052   1.7420   0.00    0.0
2018/03/13 15:09:46.000   78.255293003   16.193811569   486.3179   5  11   1.6956   1.4071   6.0477  -0.0929  -0.4043   1.7421   0.00    0.0
2018/03/13 15:09:47.000   78.255292084   16.193811491   485.5765   5  11   1.6956   1.4071   6.0478  -0.0928  -0.4034   1.7422   0.00    0.0
2018/03/13 15:09:48.000   78.255293367   16.193811697   486.3254   5  11   1.6956   1.4071   6.0479  -0.0927  -0.4025   1.7422   0.00    0.0
2018/03/13 15:09:49.000   78.255291404   16.193819293   485.1854   5  11   1.6957   1.4071   6.0480  -0.0926  -0.4016   1.7423   0.00    0.0
2018/03/13 15:09:50.000   78.255293638   16.193817299   486.4843   5  11   1.6957   1.4070   6.0481  -0.0925  -0.4006   1.7424   0.00    0.0
2018/03/13 15:09:51.000   78.255297081   16.193809762   487.4948   5  11   1.6957   1.4070   6.0482  -0.0924  -0.3997   1.7424   0.00    0.0
2018/03/13 15:09:52.000   78.255289723   16.193806382   483.9486   5  11   1.6958   1.4070   6.0483  -0.0923  -0.3988   1.7425   0.00    0.0
2018/03/13 15:09:53.000   78.255292227   16.193815224   485.1182   5  11   1.6958   1.4070   6.0484  -0.0922  -0.3979   1.7426   0.00    0.0
2018/03/13 15:09:54.000   78.255293459   16.193821146   485.5720   5  11   1.6958   1.4070   6.0485  -0.0921  -0.3969   1.7426   0.00    0.0
2018/03/13 15:09:55.000   78.255291501   16.193817567   485.3313   5  11   1.6959   1.4070   6.0486  -0.0920  -0.3960   1.7427   0.00    0.0
2018/03/13 15:09:56.000   78.255292684   16.193822486   486.0603   5  11   1.6959   1.4070   6.0487  -0.0919  -0.3951   1.7427   0.00    0.0
2018/03/13 15:09:57.000   78.255293250   16.193818242   486.5365   5  11   1.6959   1.4069   6.0488  -0.0918  -0.3941   1.7428   0.00    0.0
2018/03/13 15:09:58.000   78.255291978   16.193812931   485.7557   5  11   1.6960   1.4069   6.0489  -0.0917  -0.3932   1.7429   0.00    0.0
2018/03/13 15:09:59.000   78.255293003   16.193801354   485.7934   5  11   1.6960   1.4069   6.0490  -0.0916  -0.3922   1.7429   0.00    0.0
2018/03/13 15:10:00.000   78.255293844   16.193815098   485.3407   5  11   1.6960   1.4069   6.0491  -0.0915  -0.3913   1.7430   0.00    0.0
2018/03/13 15:10:01.000   78.255292899   16.193804287   484.6571   5  11   1.6961   1.4069   6.0491  -0.0914  -0.3904   1.7431   0.00    0.0
2018/03/13 15:10:02.000   78.255292078   16.193820313   485.1827   5  11   1.6961   1.4069   6.0492  -0.0913  -0.3894   1.7431   0.00    0.0
2018/03/13 15:10:03.000   78.255293623   16.193809658   485.3825   5  11   1.6961   1.4069   6.0493  -0.0912  -0.3885   1.7432   0.00    0.0
2018/03/13 15:10:04.000   78.255294340   16.193810291   486.0102   5  11   1.6962   1.4068   6.0494  -0.0911  -0.3875   1.7432   0.00    0.0
2018/03/13 15:10:05.000   78.255291528   16.193807158   485.4770   5  11   1.6962   1.4068   6.0495  -0.0910  -0.3866   1.7433   0.00    0.0
2018/03/13 15:10:06.000   78.255291523   16.193820140   485.0212   5  11   1.6962   1.4068   6.0496  -0.0909  -0.3856   1.7434   0.00    0.0
2018/03/13 15:10:07.000   78.255290940   16.193808363   485.5741   5  11   1.6963   1.4068   6.0497  -0.0908  -0.3846   1.7434   0.00    0.0
2018/03/13 15:10:08.000   78.255293361   16.193793324   484.9010   5  11   1.6963   1.4068   6.0498  -0.0907  -0.3837   1.7435   0.00    0.0
2018/03/13 15:10:09.000   78.255291977   16.193808781   485.6303   5  11   1.6963   1.4068   6.0498  -0.0906  -0.3827   1.7436   0.00    0.0
2018/03/13 15:10:10.000   78.255290266   16.193804847   484.8676   5  11   1.6964   1.4068   6.0499  -0.0905  -0.3818   1.7436   0.00    0.0
2018/03/13 15:10:11.000   78.255291736   16.193816316   485.5918   5  11   1.6964   1.4068   6.0500  -0.0904  -0.3808   1.7437   0.00    0.0
2018/03/13 15:10:12.000   78.255292039   16.193810766   485.6160   5  11   1.6964   1.4067   6.0501  -0.0903  -0.3798   1.7437   0.00    0.0
2018/03/13 15:10:13.000   78.255288334   16.193816345   485.8397   5  11   1.6965   1.4067   6.0502  -0.0902  -0.3789   1.7438   0.00    0.0
2018/03/13 15:10:14.000   78.255291310   16.193818659   485.4005   5  11   1.6965   1.4067   6.0502  -0.0901  -0.3779   1.7439   0.00    0.0
2018/03/13 15:10:15.000   78.255293198   16.193817648   485.4068   5  11   1.6965   1.4067   6.0503  -0.0900  -0.3769   1.7439   0.00    0.0
2018/03/13 15:10:16.000   78.255293668   16.193805007   485.1286   5  11   1.6966   1.4067   6.0504  -0.0899  -0.3759   1.7440   0.00    0.0
2018/03/13 15:10:17.000   78.255292197   16.193802119   484.3945   5  11   1.6966   1.4067   6.0505  -0.0898  -0.3749   1.7441   0.00    0.0
2018/03/13 15:10:18.000   78.255293543   16.193806858   485.2549   5  11   1.6966   1.4067   6.0506  -0.0897  -0.3740   1.7441   0.00    0.0
2018/03/13 15:10:19.000   78.255294168   16.193812600   486.2684   5  11   1.6967   1.4066   6.0506  -0.0896  -0.3730   1.7442   0.00    0.0
2018/03/13 15:10:20.000   78.255291361   16.193809521   486.1409   5  11   1.6967   1.4066   6.0507  -0.0895  -0.3720   1.7442   0.00    0.0
2018/03/13 15:10:21.000   78.255292523   16.193825710   486.3782   5  11   1.6967   1.4066   6.0508  -0.0894  -0.3710   1.7443   0.00    0.0
2018/03/13 15:10:22.000   78.255291752   16.193818249   485.8516   5  11   1.6968   1.4066   6.0509  -0.0893  -0.3700   1.7444   0.00    0.0
2018/03/13 15:10:23.000   78.255292090   16.193803422   485.7335   5  11   1.6968   1.4066   6.0509  -0.0892  -0.3690   1.7444   0.00    0.0
2018/03/13 15:10:24.000   78.255290713   16.193804079   485.7318   5  11   1.6968   1.4066   6.0510  -0.0891  -0.3680   1.7445   0.00    0.0
2018/03/13 15:10:25.000   78.255291809   16.193811470   486.0118   5  11   1.6969   1.4066   6.0511  -0.0890  -0.3670   1.7445   0.00    0.0
2018/03/13 15:10:26.000   78.255293932   16.193810305   485.9027   5  11   1.6969   1.4065   6.0511  -0.0889  -0.3660   1.7446   0.00    0.0
2018/03/13 15:10:27.000   78.255295673   16.193795533   484.9476   5  11   1.6969   1.4065   6.0512  -0.0888  -0.3650   1.7447   0.00    0.0
2018/03/13 15:10:28.000   78.255290615   16.193806848   485.3941   5  11   1.6970   1.4065   6.0513  -0.0887  -0.3640   1.7447   0.00    0.0
2018/03/13 15:10:29.000   78.255294067   16.193791487   485.3968   5  10   1.7461   1.5980   6.1932  -0.5655  -1.0637   1.8937   0.00    0.0
2018/03/13 15:10:30.000   78.255288461   16.193807642   485.3650   5  11   1.6970   1.4065   6.0514  -0.0885  -0.3620   1.7448   0.00    0.0
2018/03/13 15:10:31.000   78.255293635   16.193803299   485.7877   5  11   1.6971   1.4065   6.0515  -0.0884  -0.3610   1.7449   0.00    0.0
2018/03/13 15:10:32.000   78.255292233   16.193809465   486.5589   5  11   1.6971   1.4065   6.0515  -0.0883  -0.3600   1.7450   0.00    0.0
2018/03/13 15:10:33.000   78.255292818   16.193804892   486.2091   5  11   1.6971   1.4065   6.0516  -0.0882  -0.3589   1.7450   0.00    0.0
2018/03/13 15:10:34.000   78.255293126   16.193805865   486.0334   5  11   1.6972   1.4064   6.0517  -0.0881  -0.3579   1.7451   0.00    0.0
2018/03/13 15:10:35.000   78.255290907   16.193813030   485.6119   5  11   1.6972   1.4064   6.0517  -0.0880  -0.3569   1.7451   0.00    0.0
2018/03/13 15:10:36.000   78.255291115   16.193812187   485.9825   5  11   1.6972   1.4064   6.0518  -0.0879  -0.3559   1.7452   0.00    0.0
2018/03/13 15:10:37.000   78.255292886   16.193804540   486.0624   5  11   1.6973   1.4064   6.0519  -0.0878  -0.3548   1.7453   0.00    0.0
2018/03/13 15:10:38.000   78.255290996   16.193814235   485.3972   5  11   1.6973   1.4064   6.0519  -0.0877  -0.3538   1.7453   0.00    0.0
2018/03/13 15:10:39.000   78.255290267   16.193805715   485.3303   5  11   1.6973   1.4064   6.0520  -0.0876  -0.3527   1.7454   0.00    0.0
2018/03/13 15:10:40.000   78.255290994   16.193799879   485.5419   5  11   1.6974   1.4064   6.0520  -0.0875  -0.3517   1.7454   0.00    0.0
2018/03/13 15:10:41.000   78.255292785   16.193809820   485.2967   5  11   1.6974   1.4064   6.0521  -0.0874  -0.3507   1.7455   0.00    0.0
2018/03/13 15:10:42.000   78.255292883   16.193805088   485.7824   5  11   1.6974   1.4063   6.0521  -0.0873  -0.3496   1.7455   0.00    0.0
2018/03/13 15:10:43.000   78.255293117   16.193807170   485.9106   5  11   1.6975   1.4063   6.0522  -0.0872  -0.3486   1.7456   0.00    0.0
2018/03/13 15:10:44.000   78.255291647   16.193803448   486.5789   5  11   1.6975   1.4063   6.0523  -0.0872  -0.3475   1.7457   0.00    0.0
2018/03/13 15:10:45.000   78.255291051   16.193814895   486.0301   5  11   1.6975   1.4063   6.0523  -0.0871  -0.3465   1.7457   0.00    0.0
2018/03/13 15:10:46.000   78.255295865   16.193800906   486.3253   5  11   1.6976   1.4063   6.0524  -0.0870  -0.3454   1.7458   0.00    0.0
2018/03/13 15:10:47.000   78.255292424   16.193802441   485.5575   5  11   1.6976   1.4063   6.0524  -0.0869  -0.3443   1.7458   0.00    0.0
2018/03/13 15:10:48.000   78.255293259   16.193805322   485.9553   5  11   1.6976   1.4063   6.0525  -0.0868  -0.3433   1.7459   0.00    0.0
2018/03/13 15:10:49.000   78.255294255   16.193811844   486.4147   5  11   1.6977   1.4062   6.0525  -0.0867  -0.3422   1.7459   0.00    0.0
2018/03/13 15:10:50.000   78.255292175   16.193806760   484.9114   5  10   2.4837   1.4454   8.0039  -0.7829  -1.3659   3.5416   0.00    0.0
2018/03/13 15:10:51.000   78.255298110   16.193813135   486.6756   5  11   1.6978   1.4062   6.0526  -0.0865  -0.3401   1.7461   0.00    0.0
2018/03/13 15:10:52.000   78.255294864   16.193789809   486.1903   5  11   1.6978   1.4062   6.0527  -0.0864  -0.3390   1.7461   0.00    0.0
2018/03/13 15:10:53.000   78.255291826   16.193809899   485.6759   5  11   1.6978   1.4062   6.0527  -0.0863  -0.3379   1.7462   0.00    0.0
2018/03/13 15:10:54.000   78.255292654   16.193814637   485.5662   5  11   1.6979   1.4062   6.0528  -0.0862  -0.3368   1.7462   0.00    0.0
2018/03/13 15:10:55.000   78.255291493   16.193796954   485.1449   5  11   1.6979   1.4062   6.0528  -0.0861  -0.3357   1.7463   0.00    0.0
2018/03/13 15:10:56.000   78.255292230   16.193798001   486.4480   5  11   1.6979   1.4062   6.0528  -0.0860  -0.3347   1.7463   0.00    0.0
2018/03/13 15:10:57.000   78.255292218   16.193806239   486.1985   5  11   1.6980   1.4061   6.0529  -0.0859  -0.3336   1.7464   0.00    0.0
2018/03/13 15:10:58.000   78.255294385   16.193799793   487.3492   5  11   1.6980   1.4061   6.0529  -0.0858  -0.3325   1.7465   0.00    0.0
2018/03/13 15:10:59.000   78.255291523   16.193806137   485.0029   5  11   1.6980   1.4061   6.0530  -0.0857  -0.3314   1.7465   0.00    0.0
2018/03/13 15:11:00.000   78.255292840   16.193804819   484.7337   5  11   1.6981   1.4061   6.0530  -0.0856  -0.3303   1.7466   0.00    0.0
2018/03/13 15:11:01.000   78.255291481   16.193813113   485.1156   5  11   1.6981   1.4061   6.0531  -0.0855  -0.3292   1.7466   0.00    0.0
2018/03/13 15:11:02.000   78.255292066   16.193803563   485.2216   5  11   1.6981   1.4061   6.0531  -0.0854  -0.3281   1.7467   0.00    0.0
2018/03/13 15:11:03.000   78.255292061   16.193793106   486.0517   5  11   1.6982   1.4061   6.0531  -0.0853  -0.3269   1.7467   0.00    0.0
2018/03/13 15:11:04.000   78.255293935   16.193803916   485.1012   5  11   1.6982   1.4061   6.0532  -0.0852  -0.3258   1.7468   0.00    0.0
2018/03/13 15:11:05.000   78.255294127   16.193799793   484.9534   5  11   1.6982   1.4060   6.0532  -0.0851  -0.3247   1.7468   0.00    0.0
2018/03/13 15:11:06.000   78.255294918   16.193798298   485.6628   5  11   1.6983   1.4060   6.0532  -0.0850  -0.3236   1.7469   0.00    0.0
2018/03/13 15:11:07.000   78.255295294   16.193802367   485.6007   5  11   1.6983   1.4060   6.0533  -0.0849  -0.3225   1.7470   0.00    0.0
2018/03/13 15:11:08.000   78.255291967   16.193806505   485.4317   5  11   1.6983   1.4060   6.0533  -0.0848  -0.3213   1.7470   0.00    0.0
2018/03/13 15:11:09.000   78.255293365   16.193818564   486.1947   5  11   1.6984   1.4060   6.0533  -0.0848  -0.3202   1.7471   0.00    0.0
2018/03/13 15:11:10.000   78.255294944   16.193804872   485.8607   5  11   1.6984   1.4060   6.0534  -0.0847  -0.3191   1.7471   0.00    0.0
2018/03/13 15:11:11.000   78.255290594   16.193808250   485.9284   5  11   1.6984   1.4060   6.0534  -0.0846  -0.3179   1.7472   0.00    0.0
2018/03/13 15:11:12.000   78.255289849   16.193812021   485.1131   5  11   1.6985   1.4060   6.0534  -0.0845  -0.3168   1.7472   0.00    0.0
2018/03/13 15:11:13.000   78.255292580   16.193806008   485.2465   5  11   1.6985   1.4059   6.0535  -0.0844  -0.3156   1.7473   0.00    0.0
2018/03/13 15:11:14.000   78.255295401   16.193803397   486.6919   5  11   1.6985   1.4059   6.0535  -0.0843  -0.3145   1.7473   0.00    0.0
2018/03/13 15:11:15.000   78.255292318   16.193810782   486.5692   5  11   1.6986   1.4059   6.0535  -0.0842  -0.3133   1.7474   0.00    0.0
2018/03/13 15:11:16.000   78.255294296   16.193808678   485.9796   5  11   1.6986   1.4059   6.0536  -0.0841  -0.3121   1.7475   0.00    0.0
2018/03/13 15:11:17.000   78.255291946   16.193800760   485.6204   5  11   1.6986   1.4059   6.0536  -0.0840  -0.3110   1.7475   0.00    0.0
2018/03/13 15:11:18.000   78.255292542   16.193801093   485.2201   5  11   1.6987   1.4059   6.0536  -0.0839  -0.3098   1.7476   0.00    0.0
2018/03/13 15:11:19.000   78.255292362   16.193795837   486.6136   5  11   1.6987   1.4059   6.0536  -0.0838  -0.3086   1.7476   0.00    0.0
2018/03/13 15:11:20.000   78.255292093   16.193805811   485.9065   5  11   1.6987   1.4059   6.0537  -0.0837  -0.3075   1.7477   0.00    0.0
2018/03/13 15:11:21.000   78.255294716   16.193811872   485.0770   5  11   1.6988   1.4059   6.0537  -0.0836  -0.3063   1.7477   0.00    0.0
2018/03/13 15:11:22.000   78.255292486   16.193808109   485.0311   5  11   1.6988   1.4058   6.0537  -0.0835  -0.3051   1.7478   0.00    0.0
2018/03/13 15:11:23.000   78.255292738   16.193805582   486.1881   5  11   1.6989   1.4058   6.0537  -0.0834  -0.3039   1.7478   0.00    0.0
2018/03/13 15:11:24.000   78.255293355   16.193806886   486.0818   5  11   1.6989   1.4058   6.0537  -0.0833  -0.3027   1.7479   0.00    0.0
2018/03/13 15:11:25.000   78.255292624   16.193817916   485.4011   5  11   1.6989   1.4058   6.0538  -0.0833  -0.3015   1.7479   0.00    0.0
2018/03/13 15:11:26.000   78.255293611   16.193812570   485.5113   5  11   1.6990   1.4058   6.0538  -0.0832  -0.3003   1.7480   0.00    0.0
2018/03/13 15:11:27.000   78.255291232   16.193813159   485.2369   5  11   1.6990   1.4058   6.0538  -0.0831  -0.2991   1.7480   0.00    0.0
2018/03/13 15:11:28.000   78.255292838   16.193819669   485.5199   5  11   1.6990   1.4058   6.0538  -0.0830  -0.2979   1.7481   0.00    0.0
2018/03/13 15:11:29.000   78.255291403   16.193808127   485.9158   5  11   1.6991   1.4058   6.0538  -0.0829  -0.2967   1.7481   0.00    0.0
2018/03/13 15:11:30.000   78.255292442   16.193804639   485.7571   5  11   1.6991   1.4057   6.0539  -0.0828  -0.2954   1.7482   0.00    0.0
2018/03/13 15:11:31.000   78.255292299   16.193813625   486.3584   5  11   1.6991   1.4057   6.0539  -0.0827  -0.2942   1.7482   0.00    0.0
2018/03/13 15:11:32.000   78.255292548   16.193810037   485.0331   5  11   1.6992   1.4057   6.0539  -0.0826  -0.2930   1.7483   0.00    0.0
2018/03/13 15:11:33.000   78.255294726   16.193809953   486.4923   5  11   1.6992   1.4057   6.0539  -0.0825  -0.2917   1.7484   0.00    0.0
2018/03/13 15:11:34.000   78.255292874   16.193801998   484.3566   5  11   1.6992   1.4057   6.0539  -0.0824  -0.2905   1.7484   0.00    0.0
2018/03/13 15:11:35.000   78.255293906   16.193799260   486.2918   5  11   1.6993   1.4057   6.0539  -0.0823  -0.2893   1.7485   0.00    0.0
2018/03/13 15:11:36.000   78.255294809   16.193795613   486.3439   5  11   1.6993   1.4057   6.0539  -0.0822  -0.2880   1.7485   0.00    0.0
2018/03/13 15:11:37.000   78.255293418   16.193810167   485.7042   5  11   1.6993   1.4057   6.0539  -0.0821  -0.2867   1.7486   0.00    0.0
2018/03/13 15:11:38.000   78.255292560   16.193803354   485.8372   5  11   1.6994   1.4057   6.0539  -0.0821  -0.2855   1.7486   0.00    0.0
2018/03/13 15:11:39.000   78.255293910   16.193801086   485.2914   5  11   1.6994   1.4056   6.0540  -0.0820  -0.2842   1.7487   0.00    0.0
2018/03/13 15:11:40.000   78.255292594   16.193812837   485.9981   5  11   1.6994   1.4056   6.0540  -0.0819  -0.2829   1.7487   0.00    0.0
2018/03/13 15:11:41.000   78.255291794   16.193816165   486.5016   5  11   1.6995   1.4056   6.0540  -0.0818  -0.2817   1.7488   0.00    0.0
2018/03/13 15:11:42.000   78.255291659   16.193807429   485.9817   5  11   1.6995   1.4056   6.0540  -0.0817  -0.2804   1.7488   0.00    0.0
2018/03/13 15:11:43.000   78.255292039   16.193798790   484.0629   5  11   1.6995   1.4056   6.0540  -0.0816  -0.2791   1.7489   0.00    0.0
2018/03/13 15:11:44.000   78.255293225   16.193798401   485.7876   5  11   1.6996   1.4056   6.0540  -0.0815  -0.2778   1.7489   0.00    0.0
2018/03/13 15:11:45.000   78.255296173   16.193811341   486.2290   5  11   1.6996   1.4056   6.0540  -0.0814  -0.2765   1.7490   0.00    0.0
2018/03/13 15:11:46.000   78.255293302   16.193802835   484.9975   5  11   1.6997   1.4056   6.0540  -0.0813  -0.2752   1.7490   0.00    0.0
2018/03/13 15:11:47.000   78.255293500   16.193806884   484.8207   5  11   1.6997   1.4055   6.0540  -0.0812  -0.2739   1.7491   0.00    0.0
2018/03/13 15:11:48.000   78.255291621   16.193808545   485.4789   5  11   1.6997   1.4055   6.0540  -0.0812  -0.2726   1.7491   0.00    0.0
2018/03/13 15:11:49.000   78.255293034   16.193810594   485.3457   5  11   1.6998   1.4055   6.0540  -0.0811  -0.2712   1.7492   0.00    0.0
2018/03/13 15:11:50.000   78.255292162   16.193804794   484.2345   5  11   1.6998   1.4055   6.0540  -0.0810  -0.2699   1.7492   0.00    0.0
2018/03/13 15:11:51.000   78.255290646   16.193811518   485.5701   5  11   1.6998   1.4055   6.0540  -0.0809  -0.2686   1.7493   0.00    0.0
2018/03/13 15:11:52.000   78.255293181   16.193809843   484.9726   5  11   1.6999   1.4055   6.0540  -0.0808  -0.2672   1.7493   0.00    0.0
2018/03/13 15:11:53.000   78.255292192   16.193805235   485.6875   5  11   1.6999   1.4055   6.0540  -0.0807  -0.2659   1.7494   0.00    0.0
2018/03/13 15:11:54.000   78.255289418   16.193803193   486.3859   5  11   1.6999   1.4055   6.0540  -0.0806  -0.2645   1.7494   0.00    0.0
2018/03/13 15:11:55.000   78.255293775   16.193805340   486.1026   5  11   1.7000   1.4055   6.0540  -0.0805  -0.2632   1.7495   0.00    0.0
2018/03/13 15:11:56.000   78.255291087   16.193810234   485.5721   5  11   1.7000   1.4054   6.0540  -0.0804  -0.2618   1.7495   0.00    0.0
2018/03/13 15:11:57.000   78.255295555   16.193805987   486.9329   5  11   1.7000   1.4054   6.0540  -0.0804  -0.2604   1.7496   0.00    0.0
2018/03/13 15:11:58.000   78.255291260   16.193805456   485.3610   5  11   1.7001   1.4054   6.0540  -0.0803  -0.2590   1.7496   0.00    0.0
2018/03/13 15:11:59.000   78.255291361   16.193810362   485.5587   5  11   1.7001   1.4054   6.0539  -0.0802  -0.2577   1.7497   0.00    0.0
2018/03/13 15:12:00.000   78.255293190   16.193796891   485.6926   5  11   1.7001   1.4054   6.0539  -0.0801  -0.2563   1.7497   0.00    0.0
2018/03/13 15:12:01.000   78.255292709   16.193799733   484.9886   5  11   1.7002   1.4054   6.0539  -0.0800  -0.2549   1.7498   0.00    0.0
2018/03/13 15:12:02.000   78.255292335   16.193810795   486.2307   5  11   1.7002   1.4054   6.0539  -0.0799  -0.2534   1.7498   0.00    0.0
2018/03/13 15:12:03.000   78.255293383   16.193801376   484.3254   5  11   1.7002   1.4054   6.0539  -0.0798  -0.2520   1.7499   0.00    0.0
2018/03/13 15:12:04.000   78.255289156   16.193813316   484.6828   5  11   1.7003   1.4054   6.0539  -0.0797  -0.2506   1.7499   0.00    0.0
2018/03/13 15:12:05.000   78.255291279   16.193813592   485.8701   5  11   1.7003   1.4053   6.0539  -0.0796  -0.2492   1.7499   0.00    0.0
2018/03/13 15:12:06.000   78.255292304   16.193809967   484.3296   5  11   1.7004   1.4053   6.0539  -0.0796  -0.2477   1.7500   0.00    0.0
2018/03/13 15:12:07.000   78.255290815   16.193809817   484.5803   5  11   1.7004   1.4053   6.0538  -0.0795  -0.2463   1.7500   0.00    0.0
2018/03/13 15:12:08.000   78.255292226   16.193802499   484.7979   5  11   1.7004   1.4053   6.0538  -0.0794  -0.2448   1.7501   0.00    0.0
2018/03/13 15:12:09.000   78.255291808   16.193808947   485.7551   5  11   1.7005   1.4053   6.0538  -0.0793  -0.2434   1.7501   0.00    0.0
2018/03/13 15:12:10.000   78.255292064   16.193817456   485.2205   5  11   1.7005   1.4053   6.0538  -0.0792  -0.2419   1.7502   0.00    0.0
2018/03/13 15:12:11.000   78.255292281   16.193790031   484.5042   5  11   1.7005   1.4053   6.0538  -0.0791  -0.2404   1.7502   0.00    0.0
2018/03/13 15:12:12.000   78.255294297   16.193795200   484.6092   5  11   1.7006   1.4053   6.0537  -0.0790  -0.2389   1.7503   0.00    0.0
2018/03/13 15:12:13.000   78.255295965   16.193795308   485.9267   5  11   1.7006   1.4053   6.0537  -0.0790  -0.2374   1.7503   0.00    0.0
2018/03/13 15:12:14.000   78.255292893   16.193802040   485.0581   5  11   1.7006   1.4052   6.0537  -0.0789  -0.2359   1.7504   0.00    0.0
2018/03/13 15:12:15.000   78.255294022   16.193792549   485.5372   5  11   1.7007   1.4052   6.0537  -0.0788  -0.2344   1.7504   0.00    0.0
2018/03/13 15:12:16.000   78.255292684   16.193798994   485.3275   5  11   1.7007   1.4052   6.0537  -0.0787  -0.2329   1.7505   0.00    0.0
2018/03/13 15:12:17.000   78.255292901   16.193798352   485.3173   5  11   1.7007   1.4052   6.0536  -0.0786  -0.2313   1.7505   0.00    0.0
2018/03/13 15:12:18.000   78.255291900   16.193811414   485.5054   5  11   1.7008   1.4052   6.0536  -0.0785  -0.2298   1.7506   0.00    0.0
2018/03/13 15:12:19.000   78.255292148   16.193800287   485.1159   5  11   1.7008   1.4052   6.0536  -0.0784  -0.2282   1.7506   0.00    0.0
2018/03/13 15:12:20.000   78.255286710   16.193805209   483.3756   5  11   1.7008   1.4052   6.0536  -0.0784  -0.2266   1.7507   0.00    0.0
2018/03/13 15:12:21.000   78.255290990   16.193802989   484.6255   5  11   1.7009   1.4052   6.0535  -0.0783  -0.2251   1.7507   0.00    0.0
2018/03/13 15:12:22.000   78.255291019   16.193801032   484.4217   5  11   1.7009   1.4052   6.0535  -0.0782  -0.2235   1.7507   0.00    0.0
2018/03/13 15:12:23.000   78.255289087   16.193801403   484.7250   5  11   1.7010   1.4051   6.0535  -0.0781  -0.2219   1.7508   0.00    0.0
2018/03/13 15:12:24.000   78.255292126   16.193808947   484.8321   5  11   1.7010   1.4051   6.0534  -0.0780  -0.2203   1.7508   0.00    0.0
2018/03/13 15:12:25.000   78.255292640   16.193811162   484.7511   5  11   1.7010   1.4051   6.0534  -0.0779  -0.2187   1.7509   0.00    0.0
2018/03/13 15:12:26.000   78.255291470   16.193812545   484.7729   5  11   1.7011   1.4051   6.0534  -0.0778  -0.2170   1.7509   0.00    0.0
2018/03/13 15:12:27.000   78.255289915   16.193803343   484.2536   5  11   1.7011   1.4051   6.0533  -0.0778  -0.2154   1.7510   0.00    0.0
2018/03/13 15:12:28.000   78.255293290   16.193809776   485.2670   5  11   1.7011   1.4051   6.0533  -0.0777  -0.2137   1.7510   0.00    0.0
2018/03/13 15:12:29.000   78.255291926   16.193797238   485.1098   5  11   1.7012   1.4051   6.0533  -0.0776  -0.2120   1.7511   0.00    0.0
2018/03/13 15:12:30.000   78.255294742   16.193795338   485.3272   5  11   1.7012   1.4051   6.0532  -0.0775  -0.2104   1.7511   0.00    0.0
2018/03/13 15:12:31.000   78.255288944   16.193809975   485.0211   5  11   1.7012   1.4051   6.0532  -0.0774  -0.2087   1.7512   0.00    0.0
2018/03/13 15:12:32.000   78.255291316   16.193808271   485.0948   5  11   1.7013   1.4051   6.0532  -0.0773  -0.2070   1.7512   0.00    0.0
2018/03/13 15:12:33.000   78.255294158   16.193797582   485.5181   5  11   1.7013   1.4050   6.0531  -0.0773  -0.2052   1.7512   0.00    0.0
2018/03/13 15:12:34.000   78.255291670   16.193806227   485.2068   5  11   1.7013   1.4050   6.0531  -0.0772  -0.2035   1.7513   0.00    0.0
2018/03/13 15:12:35.000   78.255292200   16.193802694   485.1417   5  11   1.7014   1.4050   6.0531  -0.0771  -0.2018   1.7513   0.00    0.0
2018/03/13 15:12:36.000   78.255292552   16.193805092   485.3298   5  11   1.7014   1.4050   6.0530  -0.0770  -0.2000   1.7514   0.00    0.0
2018/03/13 15:12:37.000   78.255292304   16.193810526   485.7759   5  11   1.7015   1.4050   6.0530  -0.0769  -0.1982   1.7514   0.00    0.0
2018/03/13 15:12:38.000   78.255291870   16.193806330   484.5131   5  11   1.7015   1.4050   6.0529  -0.0769  -0.1964   1.7515   0.00    0.0
2018/03/13 15:12:39.000   78.255290310   16.193802260   484.2014   5  11   1.7015   1.4050   6.0529  -0.0768  -0.1946   1.7515   0.00    0.0
2018/03/13 15:12:40.000   78.255291594   16.193803927   485.1589   5  11   1.7016   1.4050   6.0528  -0.0767  -0.1928   1.7515   0.00    0.0
2018/03/13 15:12:41.000   78.255290946   16.193813729   484.9835   5  11   1.7016   1.4050   6.0528  -0.0766  -0.1909   1.7516   0.00    0.0
2018/03/13 15:12:42.000   78.255291917   16.193808392   485.1093   5  11   1.7016   1.4049   6.0528  -0.0765  -0.1891   1.7516   0.00    0.0
2018/03/13 15:12:43.000   78.255293609   16.193803768   485.4677   5  11   1.7017   1.4049   6.0527  -0.0764  -0.1872   1.7517   0.00    0.0
2018/03/13 15:12:44.000   78.255294599   16.193802894   485.8949   5  11   1.7017   1.4049   6.0527  -0.0764  -0.1853   1.7517   0.00    0.0
2018/03/13 15:12:45.000   78.255292280   16.193805703   484.2914   5  11   1.7017   1.4049   6.0526  -0.0763  -0.1834   1.7518   0.00    0.0
2018/03/13 15:12:46.000   78.255295173   16.193814257   484.8350   5  11   1.7018   1.4049   6.0526  -0.0762  -0.1815   1.7518   0.00    0.0
2018/03/13 15:12:47.000   78.255290079   16.193807681   484.0037   5  11   1.7018   1.4049   6.0525  -0.0761  -0.1795   1.7518   0.00    0.0
2018/03/13 15:12:48.000   78.255294816   16.193806635   485.0528   5  11   1.7018   1.4049   6.0525  -0.0760  -0.1775   1.7519   0.00    0.0
2018/03/13 15:12:49.000   78.255290336   16.193814298   484.2927   5  11   1.7019   1.4049   6.0524  -0.0760  -0.1755   1.7519   0.00    0.0
2018/03/13 15:12:50.000   78.255290943   16.193798023   483.8554   5  11   1.7019   1.4049   6.0524  -0.0759  -0.1735   1.7520   0.00    0.0
2018/03/13 15:12:51.000   78.255293799   16.193796244   485.7645   5  11   1.7020   1.4049   6.0523  -0.0758  -0.1715   1.7520   0.00    0.0
2018/03/13 15:12:52.000   78.255292464   16.193800507   485.0618   5  11   1.7020   1.4048   6.0523  -0.0757  -0.1694   1.7521   0.00    0.0
2018/03/13 15:12:53.000   78.255290185   16.193813512   484.5974   5  11   1.7020   1.4048   6.0522  -0.0756  -0.1673   1.7521   0.00    0.0
2018/03/13 15:12:54.000   78.255290264   16.193809376   484.0087   5  11   1.7021   1.4048   6.0521  -0.0756  -0.1652   1.7521   0.00    0.0
2018/03/13 15:12:55.000   78.255293238   16.193807602   484.7898   5  11   1.7021   1.4048   6.0521  -0.0755  -0.1630   1.7522   0.00    0.0
2018/03/13 15:12:56.000   78.255293940   16.193801282   485.1995   5  11   1.7021   1.4048   6.0520  -0.0754  -0.1609   1.7522   0.00    0.0
2018/03/13 15:12:57.000   78.255294718   16.193795357   485.8927   5  11   1.7022   1.4048   6.0520  -0.0753  -0.1587   1.7523   0.00    0.0
2018/03/13 15:12:58.000   78.255290707   16.193792706   484.4822   5  11   1.7022   1.4048   6.0519  -0.0752  -0.1564   1.7523   0.00    0.0
2018/03/13 15:12:59.000   78.255293536   16.193796503   484.9275   5  11   1.7022   1.4048   6.0519  -0.0752  -0.1542   1.7524   0.00    0.0
2018/03/13 15:13:00.000   78.255291863   16.193801179   484.2758   5  11   1.7023   1.4048   6.0518  -0.0751  -0.1519   1.7524   0.00    0.0
2018/03/13 15:13:01.000   78.255293273   16.193797108   485.6273   5  11   1.7023   1.4048   6.0517  -0.0750  -0.1495   1.7524   0.00    0.0
2018/03/13 15:13:02.000   78.255293346   16.193802425   484.9568   5  11   1.7023   1.4047   6.0517  -0.0749  -0.1472   1.7525   0.00    0.0
2018/03/13 15:13:03.000   78.255292869   16.193799724   485.1316   5  11   1.7024   1.4047   6.0516  -0.0749  -0.1448   1.7525   0.00    0.0
2018/03/13 15:13:04.000   78.255290550   16.193814227   485.0175   5  11   1.7024   1.4047   6.0515  -0.0748  -0.1423   1.7526   0.00    0.0
2018/03/13 15:13:05.000   78.255291299   16.193802594   483.9433   5  11   1.7025   1.4047   6.0515  -0.0747  -0.1398   1.7526   0.00    0.0
2018/03/13 15:13:06.000   78.255291024   16.193808726   485.0299   5  11   1.7025   1.4047   6.0514  -0.0746  -0.1373   1.7526   0.00    0.0
2018/03/13 15:13:07.000   78.255293261   16.193815583   485.4752   5  11   1.7025   1.4047   6.0513  -0.0745  -0.1347   1.7527   0.00    0.0
2018/03/13 15:13:08.000   78.255295562   16.193789469   484.9269   5  11   1.7026   1.4047   6.0513  -0.0745  -0.1321   1.7527   0.00    0.0
2018/03/13 15:13:09.000   78.255291237   16.193801892   484.5638   5  11   1.7026   1.4047   6.0512  -0.0744  -0.1294   1.7528   0.00    0.0
2018/03/13 15:13:10.000   78.255291625   16.193798444   484.1993   5  11   1.7026   1.4047   6.0511  -0.0743  -0.1267   1.7528   0.00    0.0
2018/03/13 15:13:11.000   78.255292794   16.193789329   484.1172   5  11   1.7027   1.4047   6.0511  -0.0742  -0.1239   1.7528   0.00    0.0
2018/03/13 15:13:12.000   78.255292533   16.193787869   484.2275   5  11   1.7027   1.4046   6.0510  -0.0742  -0.1211   1.7529   0.00    0.0
2018/03/13 15:13:13.000   78.255294237   16.193800680   483.8323   5  11   1.7027   1.4046   6.0509  -0.0741  -0.1181   1.7529   0.00    0.0
2018/03/13 15:13:14.000   78.255294196   16.193799907   485.3937   5  11   1.7028   1.4046   6.0509  -0.0740  -0.1151   1.7530   0.00    0.0
2018/03/13 15:13:15.000   78.255294728   16.193794410   484.8206   5  11   1.7028   1.4046   6.0508  -0.0739  -0.1121   1.7530   0.00    0.0
2018/03/13 15:13:16.000   78.255292831   16.193813779   485.0105   5  11   1.7029   1.4046   6.0507  -0.0739  -0.1089   1.7530   0.00    0.0
2018/03/13 15:13:17.000   78.255290700   16.193809460   484.0018   5  11   1.7029   1.4046   6.0506  -0.0738  -0.1057   1.7531   0.00    0.0
2018/03/13 15:13:18.000   78.255291128   16.193809301   484.3644   5  11   1.7029   1.4046   6.0506  -0.0737  -0.1023   1.7531   0.00    0.0
2018/03/13 15:13:19.000   78.255291578   16.193800141   484.0566   5  11   1.7030   1.4046   6.0505  -0.0736  -0.0988   1.7531   0.00    0.0
2018/03/13 15:13:20.000   78.255293194   16.193811526   484.9945   5  11   1.7030   1.4046   6.0504  -0.0736  -0.0953   1.7532   0.00    0.0
2018/03/13 15:13:21.000   78.255292867   16.193809904   485.4360   5  11   1.7030   1.4046   6.0503  -0.0735  -0.0915   1.7532   0.00    0.0
2018/03/13 15:13:22.000   78.255292095   16.193806123   485.2232   5  11   1.7031   1.4045   6.0502  -0.0734  -0.0876   1.7533   0.00    0.0
2018/03/13 15:13:23.000   78.255291733   16.193804746   485.3942   5  11   1.7031   1.4045   6.0502  -0.0733  -0.0836   1.7533   0.00    0.0
2018/03/13 15:13:24.000   78.255292467   16.193810488   485.3111   5  11   1.7031   1.4045   6.0501  -0.0733  -0.0793   1.7533   0.00    0.0
2018/03/13 15:13:25.000   78.255290652   16.193804746   484.4664   5  11   1.7032   1.4045   6.0500  -0.0732  -0.0748   1.7534   0.00    0.0
2018/03/13 15:13:26.000   78.255288997   16.193804478   484.4882   5  11   1.7032   1.4045   6.0499  -0.0731  -0.0700   1.7534   0.00    0.0
2018/03/13 15:13:27.000   78.255293397   16.193814627   485.6027   5  11   1.7033   1.4045   6.0498  -0.0731  -0.0648   1.7535   0.00    0.0
2018/03/13 15:13:28.000   78.255292227   16.193797922   485.0542   5  11   1.7033   1.4045   6.0498  -0.0730  -0.0592   1.7535   0.00    0.0
2018/03/13 15:13:29.000   78.255293337   16.193812618   485.1588   5  11   1.7033   1.4045   6.0497  -0.0729  -0.0530   1.7535   0.00    0.0
2018/03/13 15:13:30.000   78.255293800   16.193793748   484.7805   5  11   1.7034   1.4045   6.0496  -0.0728  -0.0460   1.7536   0.00    0.0
2018/03/13 15:13:31.000   78.255292921   16.193796575   485.3056   5  11   1.7034   1.4045   6.0495  -0.0728  -0.0377   1.7536   0.00    0.0
2018/03/13 15:13:32.000   78.255291635   16.193801073   485.6715   5  11   1.7034   1.4045   6.0494  -0.0727  -0.0271   1.7536   0.00    0.0
2018/03/13 15:13:33.000   78.255290738   16.193806245   485.6222   5  11   1.7035   1.4044   6.0493  -0.0726  -0.0063   1.7537   0.00    0.0
2018/03/13 15:13:34.000   78.255293318   16.193810994   486.1168   5  11   1.7035   1.4044   6.0492  -0.0726   0.0256   1.7537   0.00    0.0
2018/03/13 15:13:35.000   78.255292241   16.193805934   485.5923   5  11   1.7035   1.4044   6.0491  -0.0725   0.0367   1.7538   0.00    0.0
2018/03/13 15:13:36.000   78.255290506   16.193810840   485.5490   5  11   1.7036   1.4044   6.0490  -0.0724   0.0451   1.7538   0.00    0.0
2018/03/13 15:13:37.000   78.255290194   16.193806815   484.5356   5  11   1.7036   1.4044   6.0490  -0.0723   0.0523   1.7538   0.00    0.0
2018/03/13 15:13:38.000   78.255287983   16.193802164   484.3791   5  11   1.7037   1.4044   6.0489  -0.0723   0.0585   1.7539   0.00    0.0
2018/03/13 15:13:39.000   78.255291905   16.193805841   485.0315   5  11   1.7037   1.4044   6.0488  -0.0722   0.0641   1.7539   0.00    0.0
2018/03/13 15:13:40.000   78.255290250   16.193797262   485.6890   5  11   1.7037   1.4044   6.0487  -0.0721   0.0693   1.7539   0.00    0.0
2018/03/13 15:13:41.000   78.255293557   16.193799840   484.9854   5  11   1.7038   1.4044   6.0486  -0.0721   0.0741   1.7540   0.00    0.0
2018/03/13 15:13:42.000   78.255288298   16.193809679   483.8586   5  11   1.7038   1.4044   6.0485  -0.0720   0.0786   1.7540   0.00    0.0
2018/03/13 15:13:43.000   78.255293215   16.193803668   484.7769   5  11   1.7038   1.4044   6.0484  -0.0719   0.0829   1.7540   0.00    0.0
2018/03/13 15:13:44.000   78.255296105   16.193794269   485.2488   5  11   1.7039   1.4043   6.0483  -0.0719   0.0870   1.7541   0.00    0.0
2018/03/13 15:13:45.000   78.255295048   16.193801311   485.3653   5  11   1.7039   1.4043   6.0482  -0.0718   0.0909   1.7541   0.00    0.0
2018/03/13 15:13:46.000   78.255289531   16.193802014   484.7260   5  11   1.7039   1.4043   6.0481  -0.0717   0.0946   1.7541   0.00    0.0
2018/03/13 15:13:47.000   78.255292797   16.193805581   484.9349   5  11   1.7040   1.4043   6.0480  -0.0717   0.0981   1.7542   0.00    0.0
2018/03/13 15:13:48.000   78.255291193   16.193806496   484.6946   5  11   1.7040   1.4043   6.0479  -0.0716   0.1016   1.7542   0.00    0.0
2018/03/13 15:13:49.000   78.255292202   16.193801738   485.0184   5  11   1.7041   1.4043   6.0478  -0.0715   0.1049   1.7542   0.00    0.0
2018/03/13 15:13:50.000   78.255291087   16.193800780   485.0945   5  11   1.7041   1.4043   6.0477  -0.0714   0.1082   1.7543   0.00    0.0
2018/03/13 15:13:51.000   78.255290042   16.193806227   485.8731   5  11   1.7041   1.4043   6.0476  -0.0714   0.1113   1.7543   0.00    0.0
2018/03/13 15:13:52.000   78.255291572   16.193811783   484.7521   5  11   1.7042   1.4043   6.0475  -0.0713   0.1143   1.7544   0.00    0.0
2018/03/13 15:13:53.000   78.255287440   16.193804761   485.0383   5  11   1.7042   1.4043   6.0474  -0.0712   0.1173   1.7544   0.00    0.0
2018/03/13 15:13:54.000   78.255289398   16.193805908   484.2102   5  11   1.7042   1.4043   6.0473  -0.0712   0.1202   1.7544   0.00    0.0
2018/03/13 15:13:55.000   78.255291588   16.193799461   484.1196   5  11   1.7043   1.4042   6.0472  -0.0711   0.1230   1.7545   0.00    0.0
2018/03/13 15:13:56.000   78.255292631   16.193801796   486.0399   5  11   1.7043   1.4042   6.0470  -0.0711   0.1258   1.7545   0.00    0.0
2018/03/13 15:13:57.000   78.255291388   16.193806664   485.3707   5  11   1.7044   1.4042   6.0469  -0.0710   0.1285   1.7545   0.00    0.0
2018/03/13 15:13:58.000   78.255292639   16.193803704   486.0131   5  11   1.7044   1.4042   6.0468  -0.0709   0.1311   1.7546   0.00    0.0
2018/03/13 15:13:59.000   78.255296012   16.193803784   486.1482   5  11   1.7044   1.4042   6.0467  -0.0709   0.1337   1.7546   0.00    0.0
2018/03/13 15:14:00.000   78.255292093   16.193801191   485.5463   5  11   1.7045   1.4042   6.0466  -0.0708   0.1362   1.7546   0.00    0.0
2018/03/13 15:14:01.000   78.255291650   16.193795533   484.7432   5  11   1.7045   1.4042   6.0465  -0.0707   0.1387   1.7547   0.00    0.0
2018/03/13 15:14:02.000   78.255293664   16.193801319   485.3485   5  11   1.7045   1.4042   6.0464  -0.0707   0.1412   1.7547   0.00    0.0
2018/03/13 15:14:03.000   78.255291607   16.193801622   485.5805   5  11   1.7046   1.4042   6.0463  -0.0706   0.1436   1.7547   0.00    0.0
2018/03/13 15:14:04.000   78.255290292   16.193798578   484.5839   5  11   1.7046   1.4042   6.0461  -0.0705   0.1459   1.7548   0.00    0.0
2018/03/13 15:14:05.000   78.255291523   16.193793444   484.1635   5  11   1.7046   1.4042   6.0460  -0.0705   0.1483   1.7548   0.00    0.0
2018/03/13 15:14:06.000   78.255288567   16.193805639   484.2286   5  11   1.7047   1.4042   6.0459  -0.0704   0.1505   1.7548   0.00    0.0
2018/03/13 15:14:07.000   78.255292614   16.193806596   485.3254   5  11   1.7047   1.4041   6.0458  -0.0703   0.1528   1.7549   0.00    0.0
2018/03/13 15:14:08.000   78.255292106   16.193805836   485.6834   5  11   1.7048   1.4041   6.0457  -0.0703   0.1550   1.7549   0.00    0.0
2018/03/13 15:14:09.000   78.255292592   16.193802059   485.5136   5  11   1.7048   1.4041   6.0456  -0.0702   0.1572   1.7549   0.00    0.0
2018/03/13 15:14:10.000   78.255293401   16.193791981   485.8319   5  11   1.7048   1.4041   6.0454  -0.0702   0.1593   1.7550   0.00    0.0
2018/03/13 15:14:11.000   78.255292615   16.193802359   485.2778   5  11   1.7049   1.4041   6.0453  -0.0701   0.1615   1.7550   0.00    0.0
2018/03/13 15:14:12.000   78.255292485   16.193803574   485.6638   5  11   1.7049   1.4041   6.0452  -0.0700   0.1636   1.7550   0.00    0.0
2018/03/13 15:14:13.000   78.255296754   16.193798043   486.3557   5  11   1.7049   1.4041   6.0451  -0.0700   0.1656   1.7550   0.00    0.0
2018/03/13 15:14:14.000   78.255290186   16.193811858   484.6475   5  11   1.7050   1.4041   6.0450  -0.0699   0.1677   1.7551   0.00    0.0
2018/03/13 15:14:15.000   78.255291498   16.193792375   484.8717   5  11   1.7050   1.4041   6.0448  -0.0698   0.1697   1.7551   0.00    0.0
2018/03/13 15:14:16.000   78.255293183   16.193796907   485.1900   5  11   1.7051   1.4041   6.0447  -0.0698   0.1717   1.7551   0.00    0.0
2018/03/13 15:14:17.000   78.255292695   16.193810654   486.0757   5  11   1.7051   1.4041   6.0446  -0.0697   0.1736   1.7552   0.00    0.0
2018/03/13 15:14:18.000   78.255293184   16.193804282   486.2028   5  11   1.7051   1.4040   6.0445  -0.0697   0.1756   1.7552   0.00    0.0
2018/03/13 15:14:19.000   78.255290553   16.193801903   485.1567   5  11   1.7052   1.4040   6.0443  -0.0696   0.1775   1.7552   0.00    0.0
2018/03/13 15:14:20.000   78.255288510   16.193793729   484.5272   5  11   1.7052   1.4040   6.0442  -0.0695   0.1794   1.7553   0.00    0.0
2018/03/13 15:14:21.000   78.255290946   16.193796617   484.2355   5  11   1.7052   1.4040   6.0441  -0.0695   0.1813   1.7553   0.00    0.0
2018/03/13 15:14:22.000   78.255293250   16.193793780   484.5065   5  11   1.7053   1.4040   6.0439  -0.0694   0.1831   1.7553   0.00    0.0
2018/03/13 15:14:23.000   78.255292917   16.193802162   484.8293   5  11   1.7053   1.4040   6.0438  -0.0694   0.1850   1.7554   0.00    0.0
2018/03/13 15:14:24.000   78.255293528   16.193800148   484.5015   5  11   1.7053   1.4040   6.0437  -0.0693   0.1868   1.7554   0.00    0.0
2018/03/13 15:14:25.000   78.255291238   16.193799073   483.2850   5  11   1.7054   1.4040   6.0435  -0.0692   0.1886   1.7554   0.00    0.0
2018/03/13 15:14:26.000   78.255294048   16.193791780   485.1505   5  11   1.7054   1.4040   6.0434  -0.0692   0.1904   1.7554   0.00    0.0
2018/03/13 15:14:27.000   78.255293394   16.193793422   484.9998   5  11   1.7055   1.4040   6.0433  -0.0691   0.1922   1.7555   0.00    0.0
2018/03/13 15:14:28.000   78.255292439   16.193797522   484.6416   5  11   1.7055   1.4040   6.0431  -0.0691   0.1939   1.7555   0.00    0.0
2018/03/13 15:14:29.000   78.255294844   16.193791500   485.3086   5  11   1.7055   1.4040   6.0430  -0.0690   0.1956   1.7555   0.00    0.0
2018/03/13 15:14:30.000   78.255292374   16.193788487   484.1701   5  11   1.7056   1.4040   6.0429  -0.0690   0.1974   1.7556   0.00    0.0
2018/03/13 15:14:31.000   78.255290342   16.193784686   483.5806   5  11   1.7056   1.4039   6.0427  -0.0689   0.1991   1.7556   0.00    0.0
2018/03/13 15:14:32.000   78.255292959   16.193794656   486.0469   5  11   1.7056   1.4039   6.0426  -0.0688   0.2007   1.7556   0.00    0.0
2018/03/13 15:14:33.000   78.255291950   16.193799100   486.1080   5  11   1.7057   1.4039   6.0425  -0.0688   0.2024   1.7557   0.00    0.0
2018/03/13 15:14:34.000   78.255290006   16.193803580   485.8159   5  11   1.7057   1.4039   6.0423  -0.0687   0.2041   1.7557   0.00    0.0
2018/03/13 15:14:35.000   78.255291480   16.193791783   485.3536   5  11   1.7058   1.4039   6.0422  -0.0687   0.2057   1.7557   0.00    0.0
