% program   : RTKPOST ver.2.4.2
% inp file  : Z:\home\linda\Documents\Spring18\GitHub_Unis\data\processed_data\46250726.obs
% inp file  : Z:\home\linda\Documents\Spring18\GitHub_Unis\data\processed_data\46250726.nav
% obs start : 2018/03/13 14:13:00.0 GPST (week1992 223980.0s)
% obs end   : 2018/03/13 14:38:39.0 GPST (week1992 225519.0s)
% pos mode  : single
% elev mask : 15.0 deg
% ionos opt : broadcast
% tropo opt : saastamoinen
% ephemeris : broadcast
% navi sys  : gps glonass galileo qzss sbas
%
% (lat/lon/height=WGS84/ellipsoidal,Q=1:fix,2:float,3:sbas,4:dgps,5:single,6:ppp,ns=# of satellites)
%  GPST                  latitude(deg) longitude(deg)  height(m)   Q  ns   sdn(m)   sde(m)   sdu(m)  sdne(m)  sdeu(m)  sdun(m) age(s)  ratio
2018/03/13 14:13:00.000   78.256758821   16.230338964   387.8094   5   9   2.9990   1.9334  11.8431  -0.7348  -1.5123   5.4937   0.00    0.0
2018/03/13 14:13:01.000   78.256763402   16.230336320   390.7511   5   9   2.9992   1.9334  11.8448  -0.7346  -1.5119   5.4943   0.00    0.0
2018/03/13 14:13:02.000   78.256762994   16.230323649   390.1578   5   9   2.9994   1.9334  11.8465  -0.7344  -1.5115   5.4949   0.00    0.0
2018/03/13 14:13:03.000   78.256761766   16.230339808   389.9966   5   9   2.9995   1.9334  11.8481  -0.7342  -1.5111   5.4954   0.00    0.0
2018/03/13 14:13:04.000   78.256757051   16.230343118   389.6223   5   9   2.9997   1.9334  11.8498  -0.7340  -1.5108   5.4960   0.00    0.0
2018/03/13 14:13:05.000   78.256766821   16.230310042   392.1388   5   9   2.9999   1.9334  11.8514  -0.7338  -1.5104   5.4966   0.00    0.0
2018/03/13 14:13:06.000   78.256765766   16.230316308   390.8403   5   9   3.0000   1.9334  11.8531  -0.7336  -1.5100   5.4972   0.00    0.0
2018/03/13 14:13:07.000   78.256757239   16.230325492   387.7560   5   9   3.0002   1.9334  11.8548  -0.7334  -1.5096   5.4978   0.00    0.0
2018/03/13 14:13:08.000   78.256759040   16.230337731   388.1949   5   9   3.0003   1.9334  11.8564  -0.7332  -1.5092   5.4984   0.00    0.0
2018/03/13 14:13:09.000   78.256760139   16.230327509   389.8247   5   9   3.0005   1.9333  11.8580  -0.7330  -1.5088   5.4989   0.00    0.0
2018/03/13 14:13:10.000   78.256763476   16.230337048   390.8931   5   9   3.0007   1.9333  11.8597  -0.7328  -1.5085   5.4995   0.00    0.0
2018/03/13 14:13:11.000   78.256764676   16.230326786   391.0766   5   9   3.0008   1.9333  11.8613  -0.7326  -1.5081   5.5001   0.00    0.0
2018/03/13 14:13:12.000   78.256763502   16.230344930   390.4077   5   9   3.0010   1.9333  11.8629  -0.7324  -1.5077   5.5007   0.00    0.0
2018/03/13 14:13:13.000   78.256763850   16.230322675   390.6294   5   9   3.0011   1.9333  11.8646  -0.7321  -1.5073   5.5012   0.00    0.0
2018/03/13 14:13:14.000   78.256765324   16.230322225   391.1994   5   9   3.0013   1.9333  11.8662  -0.7319  -1.5069   5.5018   0.00    0.0
2018/03/13 14:13:15.000   78.256764209   16.230329762   389.6899   5   9   3.0015   1.9333  11.8678  -0.7317  -1.5065   5.5024   0.00    0.0
2018/03/13 14:13:16.000   78.256762561   16.230319911   390.4849   5   9   3.0016   1.9333  11.8694  -0.7315  -1.5061   5.5029   0.00    0.0
2018/03/13 14:13:17.000   78.256764473   16.230330739   390.3376   5   9   3.0018   1.9332  11.8710  -0.7313  -1.5057   5.5035   0.00    0.0
2018/03/13 14:13:18.000   78.256769659   16.230319002   394.1401   5   9   3.0019   1.9332  11.8726  -0.7311  -1.5053   5.5040   0.00    0.0
2018/03/13 14:13:19.000   78.256766561   16.230323983   392.4234   5   9   3.0021   1.9332  11.8742  -0.7309  -1.5049   5.5046   0.00    0.0
2018/03/13 14:13:20.000   78.256767247   16.230315235   391.6033   5   9   3.0022   1.9332  11.8758  -0.7307  -1.5046   5.5051   0.00    0.0
2018/03/13 14:13:21.000   78.256765956   16.230319057   390.9110   5   9   3.0024   1.9332  11.8773  -0.7305  -1.5042   5.5057   0.00    0.0
2018/03/13 14:13:22.000   78.256763040   16.230318034   391.9927   5   9   3.0025   1.9332  11.8789  -0.7302  -1.5038   5.5062   0.00    0.0
2018/03/13 14:13:23.000   78.256766230   16.230316384   391.0740   5   9   3.0027   1.9332  11.8805  -0.7300  -1.5034   5.5068   0.00    0.0
2018/03/13 14:13:24.000   78.256765533   16.230323035   391.6809   5   9   3.0028   1.9332  11.8820  -0.7298  -1.5030   5.5073   0.00    0.0
2018/03/13 14:13:25.000   78.256766890   16.230314724   392.9702   5   9   3.0030   1.9332  11.8836  -0.7296  -1.5026   5.5078   0.00    0.0
2018/03/13 14:13:26.000   78.256764823   16.230313671   391.2683   5   9   3.0031   1.9331  11.8852  -0.7294  -1.5022   5.5084   0.00    0.0
2018/03/13 14:13:27.000   78.256763142   16.230327399   391.1412   5   9   3.0032   1.9331  11.8867  -0.7292  -1.5018   5.5089   0.00    0.0
2018/03/13 14:13:28.000   78.256763246   16.230325461   391.1263   5   9   3.0034   1.9331  11.8883  -0.7289  -1.5013   5.5094   0.00    0.0
2018/03/13 14:13:29.000   78.256764776   16.230314795   390.5099   5   9   3.0035   1.9331  11.8898  -0.7287  -1.5009   5.5100   0.00    0.0
2018/03/13 14:13:30.000   78.256763170   16.230325253   391.2630   5   9   3.0037   1.9331  11.8913  -0.7285  -1.5005   5.5105   0.00    0.0
2018/03/13 14:13:31.000   78.256762728   16.230309247   390.4018   5   9   3.0038   1.9331  11.8929  -0.7283  -1.5001   5.5110   0.00    0.0
2018/03/13 14:13:32.000   78.256762489   16.230322086   389.0679   5   9   3.0039   1.9331  11.8944  -0.7281  -1.4997   5.5115   0.00    0.0
2018/03/13 14:13:33.000   78.256763163   16.230335650   391.3809   5   9   3.0041   1.9331  11.8959  -0.7279  -1.4993   5.5120   0.00    0.0
2018/03/13 14:13:34.000   78.256760414   16.230327478   390.6236   5   9   3.0042   1.9330  11.8974  -0.7276  -1.4989   5.5126   0.00    0.0
2018/03/13 14:13:35.000   78.256764311   16.230318921   390.3040   5   9   3.0043   1.9330  11.8989  -0.7274  -1.4985   5.5131   0.00    0.0
2018/03/13 14:13:36.000   78.256762939   16.230319827   389.2136   5   9   3.0045   1.9330  11.9004  -0.7272  -1.4981   5.5136   0.00    0.0
2018/03/13 14:13:37.000   78.256765341   16.230323246   391.9766   5   9   3.0046   1.9330  11.9019  -0.7270  -1.4977   5.5141   0.00    0.0
2018/03/13 14:13:38.000   78.256763081   16.230334538   389.3832   5   9   3.0047   1.9330  11.9034  -0.7267  -1.4973   5.5146   0.00    0.0
2018/03/13 14:13:39.000   78.256766325   16.230317549   392.0768   5   9   3.0049   1.9330  11.9049  -0.7265  -1.4968   5.5151   0.00    0.0
2018/03/13 14:13:40.000   78.256769800   16.230317080   393.0280   5   9   3.0050   1.9330  11.9064  -0.7263  -1.4964   5.5156   0.00    0.0
2018/03/13 14:13:41.000   78.256763941   16.230320468   390.0512   5   9   3.0051   1.9330  11.9079  -0.7261  -1.4960   5.5161   0.00    0.0
2018/03/13 14:13:42.000   78.256763634   16.230322939   390.3654   5   9   3.0053   1.9329  11.9093  -0.7259  -1.4956   5.5166   0.00    0.0
2018/03/13 14:13:43.000   78.256765635   16.230326506   391.0288   5   9   3.0054   1.9329  11.9108  -0.7256  -1.4952   5.5171   0.00    0.0
2018/03/13 14:13:44.000   78.256760294   16.230324693   387.8040   5   9   3.0055   1.9329  11.9123  -0.7254  -1.4948   5.5175   0.00    0.0
2018/03/13 14:13:45.000   78.256761299   16.230315247   387.7586   5   9   3.0056   1.9329  11.9137  -0.7252  -1.4943   5.5180   0.00    0.0
2018/03/13 14:13:46.000   78.256764801   16.230306997   389.8423   5   9   3.0058   1.9329  11.9152  -0.7250  -1.4939   5.5185   0.00    0.0
2018/03/13 14:13:47.000   78.256773945   16.230311651   393.2618   5   9   3.0059   1.9329  11.9166  -0.7247  -1.4935   5.5190   0.00    0.0
2018/03/13 14:13:48.000   78.256762612   16.230343237   389.3919   5   9   3.0060   1.9329  11.9181  -0.7245  -1.4931   5.5195   0.00    0.0
2018/03/13 14:13:49.000   78.256759452   16.230338197   388.4280   5   9   3.0061   1.9329  11.9195  -0.7243  -1.4926   5.5199   0.00    0.0
2018/03/13 14:13:50.000   78.256759183   16.230351304   386.4209   5   9   3.0062   1.9329  11.9209  -0.7241  -1.4922   5.5204   0.00    0.0
2018/03/13 14:13:51.000   78.256760128   16.230340729   387.9348   5   9   3.0063   1.9328  11.9223  -0.7238  -1.4918   5.5209   0.00    0.0
2018/03/13 14:13:52.000   78.256756872   16.230334761   385.4939   5   9   3.0065   1.9328  11.9238  -0.7236  -1.4914   5.5214   0.00    0.0
2018/03/13 14:13:53.000   78.256763054   16.230330578   390.3236   5   9   3.0066   1.9328  11.9252  -0.7234  -1.4909   5.5218   0.00    0.0
2018/03/13 14:13:54.000   78.256763722   16.230327460   389.4247   5   9   3.0067   1.9328  11.9266  -0.7231  -1.4905   5.5223   0.00    0.0
2018/03/13 14:13:55.000   78.256761846   16.230336988   388.4898   5   9   3.0068   1.9328  11.9280  -0.7229  -1.4901   5.5227   0.00    0.0
2018/03/13 14:13:56.000   78.256761563   16.230323035   387.6637   5   9   3.0069   1.9328  11.9294  -0.7227  -1.4896   5.5232   0.00    0.0
2018/03/13 14:13:57.000   78.256761359   16.230320166   387.6802   5   9   3.0070   1.9328  11.9308  -0.7225  -1.4892   5.5237   0.00    0.0
2018/03/13 14:13:58.000   78.256765801   16.230320474   390.6195   5   9   3.0071   1.9328  11.9322  -0.7222  -1.4888   5.5241   0.00    0.0
2018/03/13 14:13:59.000   78.256765764   16.230307851   389.4164   5   9   3.0072   1.9327  11.9336  -0.7220  -1.4883   5.5245   0.00    0.0
2018/03/13 14:14:00.000   78.256763385   16.230316618   389.5852   5   9   3.0073   1.9327  11.9349  -0.7218  -1.4879   5.5250   0.00    0.0
2018/03/13 14:14:01.000   78.256763168   16.230316473   390.0653   5   9   3.0075   1.9327  11.9363  -0.7215  -1.4875   5.5254   0.00    0.0
2018/03/13 14:14:02.000   78.256767096   16.230316544   390.7198   5   9   3.0076   1.9327  11.9377  -0.7213  -1.4870   5.5259   0.00    0.0
2018/03/13 14:14:03.000   78.256764796   16.230316346   389.2442   5   9   3.0077   1.9327  11.9390  -0.7211  -1.4866   5.5263   0.00    0.0
2018/03/13 14:14:04.000   78.256766645   16.230317276   388.8865   5   9   3.0078   1.9327  11.9404  -0.7208  -1.4861   5.5267   0.00    0.0
2018/03/13 14:14:05.000   78.256761777   16.230317277   387.3745   5   9   3.0079   1.9327  11.9417  -0.7206  -1.4857   5.5272   0.00    0.0
2018/03/13 14:14:06.000   78.256759889   16.230325536   387.3087   5   9   3.0080   1.9327  11.9431  -0.7204  -1.4853   5.5276   0.00    0.0
2018/03/13 14:14:07.000   78.256760971   16.230327513   388.8537   5   9   3.0081   1.9326  11.9444  -0.7201  -1.4848   5.5280   0.00    0.0
2018/03/13 14:14:08.000   78.256763685   16.230322020   389.5059   5   9   3.0082   1.9326  11.9458  -0.7199  -1.4844   5.5285   0.00    0.0
2018/03/13 14:14:09.000   78.256767052   16.230308877   391.9967   5   9   3.0083   1.9326  11.9471  -0.7196  -1.4839   5.5289   0.00    0.0
2018/03/13 14:14:10.000   78.256764191   16.230325007   389.2258   5   9   3.0084   1.9326  11.9484  -0.7194  -1.4835   5.5293   0.00    0.0
2018/03/13 14:14:11.000   78.256764656   16.230313509   391.4969   5   9   3.0084   1.9326  11.9497  -0.7192  -1.4830   5.5297   0.00    0.0
2018/03/13 14:14:12.000   78.256762329   16.230315938   389.8002   5   9   3.0085   1.9326  11.9510  -0.7189  -1.4826   5.5301   0.00    0.0
2018/03/13 14:14:13.000   78.256765161   16.230318221   390.0499   5   9   3.0086   1.9326  11.9523  -0.7187  -1.4821   5.5305   0.00    0.0
2018/03/13 14:14:14.000   78.256764827   16.230309673   390.8471   5   9   3.0087   1.9326  11.9536  -0.7185  -1.4817   5.5310   0.00    0.0
2018/03/13 14:14:15.000   78.256768388   16.230309244   392.8458   5   9   3.0088   1.9325  11.9549  -0.7182  -1.4812   5.5314   0.00    0.0
2018/03/13 14:14:16.000   78.256763918   16.230325033   390.5864   5   9   3.0089   1.9325  11.9562  -0.7180  -1.4808   5.5318   0.00    0.0
2018/03/13 14:14:17.000   78.256761823   16.230317732   389.9345   5   9   3.0090   1.9325  11.9575  -0.7177  -1.4803   5.5322   0.00    0.0
2018/03/13 14:14:18.000   78.256760972   16.230318972   389.4473   5   9   3.0091   1.9325  11.9588  -0.7175  -1.4799   5.5326   0.00    0.0
2018/03/13 14:14:19.000   78.256756022   16.230329638   386.6297   5   9   3.0092   1.9325  11.9601  -0.7173  -1.4794   5.5330   0.00    0.0
2018/03/13 14:14:20.000   78.256761865   16.230334266   387.6618   5   9   3.0093   1.9325  11.9613  -0.7170  -1.4790   5.5333   0.00    0.0
2018/03/13 14:14:21.000   78.256761945   16.230332859   386.9504   5   9   3.0093   1.9325  11.9626  -0.7168  -1.4785   5.5337   0.00    0.0
2018/03/13 14:14:22.000   78.256763987   16.230324229   389.2330   5   9   3.0094   1.9325  11.9639  -0.7165  -1.4780   5.5341   0.00    0.0
2018/03/13 14:14:23.000   78.256763935   16.230317640   390.1604   5   9   3.0095   1.9324  11.9651  -0.7163  -1.4776   5.5345   0.00    0.0
2018/03/13 14:14:24.000   78.256761000   16.230313361   388.1121   5   9   3.0096   1.9324  11.9664  -0.7161  -1.4771   5.5349   0.00    0.0
2018/03/13 14:14:25.000   78.256760476   16.230323052   387.3912   5   9   3.0097   1.9324  11.9676  -0.7158  -1.4767   5.5353   0.00    0.0
2018/03/13 14:14:26.000   78.256764424   16.230320847   388.0247   5   9   3.0097   1.9324  11.9688  -0.7156  -1.4762   5.5356   0.00    0.0
2018/03/13 14:14:27.000   78.256763846   16.230321064   388.4996   5   9   3.0098   1.9324  11.9701  -0.7153  -1.4757   5.5360   0.00    0.0
2018/03/13 14:14:28.000   78.256765233   16.230319504   389.4120   5   9   3.0099   1.9324  11.9713  -0.7151  -1.4753   5.5364   0.00    0.0
2018/03/13 14:14:29.000   78.256767623   16.230314230   391.3790   5   9   3.0100   1.9324  11.9725  -0.7148  -1.4748   5.5368   0.00    0.0
2018/03/13 14:14:30.000   78.256768548   16.230304731   392.9826   5   9   3.0100   1.9324  11.9737  -0.7146  -1.4743   5.5371   0.00    0.0
2018/03/13 14:14:31.000   78.256763697   16.230309099   388.7483   5   9   3.0101   1.9323  11.9749  -0.7143  -1.4739   5.5375   0.00    0.0
2018/03/13 14:14:32.000   78.256761583   16.230317294   388.5968   5   9   3.0102   1.9323  11.9761  -0.7141  -1.4734   5.5378   0.00    0.0
2018/03/13 14:14:33.000   78.256759000   16.230321756   385.9196   5   9   3.0102   1.9323  11.9773  -0.7138  -1.4729   5.5382   0.00    0.0
2018/03/13 14:14:34.000   78.256760286   16.230328319   387.6741   5   9   3.0103   1.9323  11.9785  -0.7136  -1.4724   5.5386   0.00    0.0
2018/03/13 14:14:35.000   78.256764277   16.230313059   388.7782   5   9   3.0104   1.9323  11.9797  -0.7134  -1.4720   5.5389   0.00    0.0
2018/03/13 14:14:36.000   78.256762321   16.230318881   388.9538   5   9   3.0104   1.9323  11.9809  -0.7131  -1.4715   5.5393   0.00    0.0
2018/03/13 14:14:37.000   78.256769523   16.230325021   393.0675   5   9   3.0105   1.9323  11.9821  -0.7129  -1.4710   5.5396   0.00    0.0
2018/03/13 14:14:38.000   78.256761852   16.230317926   388.8714   5   9   3.0106   1.9323  11.9833  -0.7126  -1.4706   5.5399   0.00    0.0
2018/03/13 14:14:39.000   78.256760129   16.230316829   389.0785   5   9   3.0106   1.9322  11.9844  -0.7124  -1.4701   5.5403   0.00    0.0
2018/03/13 14:14:40.000   78.256763677   16.230325612   389.2140   5   9   3.0107   1.9322  11.9856  -0.7121  -1.4696   5.5406   0.00    0.0
2018/03/13 14:14:41.000   78.256758268   16.230314618   389.6740   5   9   3.0108   1.9322  11.9867  -0.7119  -1.4691   5.5410   0.00    0.0
2018/03/13 14:14:42.000   78.256763639   16.230297900   389.8858   5   9   3.0108   1.9322  11.9879  -0.7116  -1.4686   5.5413   0.00    0.0
2018/03/13 14:14:43.000   78.256764811   16.230322094   392.3855   5   9   3.0109   1.9322  11.9890  -0.7114  -1.4682   5.5416   0.00    0.0
2018/03/13 14:14:44.000   78.256763050   16.230321997   390.6906   5   9   3.0109   1.9322  11.9902  -0.7111  -1.4677   5.5419   0.00    0.0
2018/03/13 14:14:45.000   78.256760339   16.230326043   389.0653   5   9   3.0110   1.9322  11.9913  -0.7108  -1.4672   5.5423   0.00    0.0
2018/03/13 14:14:46.000   78.256763200   16.230307746   387.5539   5   9   3.0110   1.9322  11.9924  -0.7106  -1.4667   5.5426   0.00    0.0
2018/03/13 14:14:47.000   78.256767030   16.230332644   389.0369   5   9   3.0111   1.9321  11.9935  -0.7103  -1.4662   5.5429   0.00    0.0
2018/03/13 14:14:48.000   78.256765482   16.230325089   390.5041   5   8   3.9167   1.9381  13.4484  -0.9403  -1.7524   6.7794   0.00    0.0
2018/03/13 14:14:49.000   78.256756557   16.230339222   387.2435   5   9   3.0112   1.9321  11.9958  -0.7098  -1.4653   5.5435   0.00    0.0
2018/03/13 14:14:50.000   78.256759119   16.230335458   389.7760   5   9   3.0113   1.9321  11.9969  -0.7096  -1.4648   5.5438   0.00    0.0
2018/03/13 14:14:51.000   78.256759816   16.230329553   385.9887   5   9   3.0113   1.9321  11.9980  -0.7093  -1.4643   5.5442   0.00    0.0
2018/03/13 14:14:52.000   78.256762182   16.230316941   387.2018   5   9   3.0114   1.9321  11.9991  -0.7091  -1.4638   5.5445   0.00    0.0
2018/03/13 14:14:53.000   78.256766507   16.230323665   389.6243   5   9   3.0114   1.9321  12.0001  -0.7088  -1.4633   5.5448   0.00    0.0
2018/03/13 14:14:54.000   78.256761939   16.230316434   387.1994   5   9   3.0114   1.9321  12.0012  -0.7086  -1.4628   5.5451   0.00    0.0
2018/03/13 14:14:55.000   78.256764696   16.230325904   388.8375   5   9   3.0115   1.9320  12.0023  -0.7083  -1.4623   5.5454   0.00    0.0
2018/03/13 14:14:56.000   78.256762534   16.230327683   388.8403   5   9   3.0115   1.9320  12.0034  -0.7080  -1.4618   5.5456   0.00    0.0
2018/03/13 14:14:57.000   78.256760127   16.230315925   386.8175   5   9   3.0116   1.9320  12.0044  -0.7078  -1.4613   5.5459   0.00    0.0
2018/03/13 14:14:58.000   78.256759481   16.230340538   386.5935   5   9   3.0116   1.9320  12.0055  -0.7075  -1.4608   5.5462   0.00    0.0
2018/03/13 14:14:59.000   78.256761151   16.230333332   386.2480   5   9   3.0117   1.9320  12.0065  -0.7073  -1.4603   5.5465   0.00    0.0
2018/03/13 14:15:00.000   78.256759121   16.230344295   387.2037   5   9   3.0117   1.9320  12.0076  -0.7070  -1.4598   5.5468   0.00    0.0
2018/03/13 14:15:01.000   78.256762251   16.230322678   388.0159   5   9   3.0117   1.9320  12.0086  -0.7067  -1.4593   5.5471   0.00    0.0
2018/03/13 14:15:02.000   78.256766378   16.230319730   389.0349   5   9   3.0118   1.9319  12.0097  -0.7065  -1.4588   5.5473   0.00    0.0
2018/03/13 14:15:03.000   78.256767353   16.230312751   389.2940   5   9   3.0118   1.9319  12.0107  -0.7062  -1.4583   5.5476   0.00    0.0
2018/03/13 14:15:04.000   78.256765411   16.230313689   389.9969   5   9   3.0118   1.9319  12.0117  -0.7060  -1.4578   5.5479   0.00    0.0
2018/03/13 14:15:05.000   78.256764662   16.230323307   389.3387   5   9   3.0119   1.9319  12.0127  -0.7057  -1.4573   5.5482   0.00    0.0
2018/03/13 14:15:06.000   78.256765795   16.230314474   389.9351   5   9   3.0119   1.9319  12.0137  -0.7054  -1.4568   5.5484   0.00    0.0
2018/03/13 14:15:07.000   78.256759750   16.230334384   387.5476   5   9   3.0119   1.9319  12.0148  -0.7052  -1.4563   5.5487   0.00    0.0
2018/03/13 14:15:08.000   78.256759493   16.230340190   388.7718   5   9   3.0120   1.9319  12.0158  -0.7049  -1.4558   5.5489   0.00    0.0
2018/03/13 14:15:09.000   78.256757246   16.230340714   387.8526   5   9   3.0120   1.9319  12.0168  -0.7046  -1.4553   5.5492   0.00    0.0
2018/03/13 14:15:10.000   78.256759179   16.230332877   389.1393   5   9   3.0120   1.9318  12.0177  -0.7044  -1.4548   5.5495   0.00    0.0
2018/03/13 14:15:11.000   78.256760975   16.230324240   390.2799   5   9   3.0120   1.9318  12.0187  -0.7041  -1.4543   5.5497   0.00    0.0
2018/03/13 14:15:12.000   78.256763905   16.230328547   391.2754   5   9   3.0121   1.9318  12.0197  -0.7039  -1.4538   5.5500   0.00    0.0
2018/03/13 14:15:13.000   78.256762601   16.230323243   390.5466   5   9   3.0121   1.9318  12.0207  -0.7036  -1.4533   5.5502   0.00    0.0
2018/03/13 14:15:14.000   78.256761528   16.230311982   390.7048   5   9   3.0121   1.9318  12.0216  -0.7033  -1.4528   5.5504   0.00    0.0
2018/03/13 14:15:15.000   78.256759472   16.230329226   389.3277   5   9   3.0121   1.9318  12.0226  -0.7031  -1.4522   5.5507   0.00    0.0
2018/03/13 14:15:16.000   78.256763114   16.230322196   390.7315   5   9   3.0122   1.9318  12.0236  -0.7028  -1.4517   5.5509   0.00    0.0
2018/03/13 14:15:17.000   78.256758295   16.230328697   389.3559   5   9   3.0122   1.9318  12.0245  -0.7025  -1.4512   5.5512   0.00    0.0
2018/03/13 14:15:18.000   78.256761501   16.230330239   390.9019   5   9   3.0122   1.9317  12.0255  -0.7023  -1.4507   5.5514   0.00    0.0
2018/03/13 14:15:19.000   78.256760510   16.230313684   390.0698   5   9   3.0122   1.9317  12.0264  -0.7020  -1.4502   5.5516   0.00    0.0
2018/03/13 14:15:20.000   78.256759842   16.230309675   390.8188   5   9   3.0122   1.9317  12.0273  -0.7017  -1.4497   5.5518   0.00    0.0
2018/03/13 14:15:21.000   78.256758176   16.230332603   389.3954   5   9   3.0122   1.9317  12.0283  -0.7014  -1.4491   5.5521   0.00    0.0
2018/03/13 14:15:22.000   78.256758272   16.230307532   389.0322   5   9   3.0123   1.9317  12.0292  -0.7012  -1.4486   5.5523   0.00    0.0
2018/03/13 14:15:23.000   78.256761690   16.230333275   390.9626   5   9   3.0123   1.9317  12.0301  -0.7009  -1.4481   5.5525   0.00    0.0
2018/03/13 14:15:24.000   78.256759549   16.230316567   389.4124   5   9   3.0123   1.9317  12.0310  -0.7006  -1.4476   5.5527   0.00    0.0
2018/03/13 14:15:25.000   78.256763496   16.230314691   391.0741   5   9   3.0123   1.9316  12.0319  -0.7004  -1.4471   5.5529   0.00    0.0
2018/03/13 14:15:26.000   78.256761407   16.230327630   390.2404   5   9   3.0123   1.9316  12.0328  -0.7001  -1.4465   5.5531   0.00    0.0
2018/03/13 14:15:27.000   78.256761474   16.230318658   391.8658   5   9   3.0123   1.9316  12.0337  -0.6998  -1.4460   5.5534   0.00    0.0
2018/03/13 14:15:28.000   78.256761871   16.230316836   390.5988   5   9   3.0123   1.9316  12.0346  -0.6995  -1.4455   5.5536   0.00    0.0
2018/03/13 14:15:29.000   78.256761283   16.230300114   389.9314   5   9   3.0123   1.9316  12.0355  -0.6993  -1.4450   5.5538   0.00    0.0
2018/03/13 14:15:30.000   78.256764528   16.230315403   391.7168   5   9   3.0123   1.9316  12.0363  -0.6990  -1.4444   5.5540   0.00    0.0
2018/03/13 14:15:31.000   78.256761568   16.230323288   389.2140   5   9   3.0123   1.9316  12.0372  -0.6987  -1.4439   5.5542   0.00    0.0
2018/03/13 14:15:32.000   78.256760510   16.230322717   388.7535   5   9   3.0123   1.9316  12.0381  -0.6985  -1.4434   5.5543   0.00    0.0
2018/03/13 14:15:33.000   78.256759699   16.230323887   388.3896   5   9   3.0123   1.9315  12.0389  -0.6982  -1.4428   5.5545   0.00    0.0
2018/03/13 14:15:34.000   78.256759802   16.230332263   388.1645   5   9   3.0123   1.9315  12.0398  -0.6979  -1.4423   5.5547   0.00    0.0
2018/03/13 14:15:35.000   78.256764825   16.230326889   389.9037   5   9   3.0123   1.9315  12.0406  -0.6976  -1.4418   5.5549   0.00    0.0
2018/03/13 14:15:36.000   78.256761968   16.230314937   390.6738   5   9   3.0123   1.9315  12.0415  -0.6974  -1.4412   5.5551   0.00    0.0
2018/03/13 14:15:37.000   78.256760210   16.230325866   391.6024   5   9   3.0123   1.9315  12.0423  -0.6971  -1.4407   5.5553   0.00    0.0
2018/03/13 14:15:38.000   78.256764807   16.230337495   390.8978   5   9   3.0123   1.9315  12.0431  -0.6968  -1.4402   5.5554   0.00    0.0
2018/03/13 14:15:39.000   78.256762645   16.230321159   391.2485   5   9   3.0123   1.9315  12.0440  -0.6965  -1.4396   5.5556   0.00    0.0
2018/03/13 14:15:40.000   78.256758259   16.230315404   388.4480   5   9   3.0123   1.9315  12.0448  -0.6962  -1.4391   5.5558   0.00    0.0
2018/03/13 14:15:41.000   78.256755142   16.230322668   386.9305   5   9   3.0123   1.9314  12.0456  -0.6960  -1.4385   5.5559   0.00    0.0
2018/03/13 14:15:42.000   78.256762078   16.230304729   388.8635   5   9   3.0123   1.9314  12.0464  -0.6957  -1.4380   5.5561   0.00    0.0
2018/03/13 14:15:43.000   78.256762036   16.230325288   388.7565   5   9   3.0123   1.9314  12.0472  -0.6954  -1.4375   5.5563   0.00    0.0
2018/03/13 14:15:44.000   78.256759165   16.230318142   391.0995   5   9   3.0122   1.9314  12.0480  -0.6951  -1.4369   5.5564   0.00    0.0
2018/03/13 14:15:45.000   78.256762725   16.230325413   391.4321   5   9   3.0122   1.9314  12.0488  -0.6948  -1.4364   5.5566   0.00    0.0
2018/03/13 14:15:46.000   78.256759039   16.230324247   390.1137   5   9   3.0122   1.9314  12.0496  -0.6946  -1.4358   5.5567   0.00    0.0
2018/03/13 14:15:47.000   78.256760471   16.230318609   390.3317   5   9   3.0122   1.9314  12.0503  -0.6943  -1.4353   5.5569   0.00    0.0
2018/03/13 14:15:48.000   78.256761854   16.230319305   390.0882   5   9   3.0122   1.9313  12.0511  -0.6940  -1.4347   5.5570   0.00    0.0
2018/03/13 14:15:49.000   78.256762936   16.230328837   391.2749   5   9   3.0122   1.9313  12.0519  -0.6937  -1.4342   5.5572   0.00    0.0
2018/03/13 14:15:50.000   78.256767933   16.230313460   393.5160   5   9   3.0121   1.9313  12.0526  -0.6934  -1.4336   5.5573   0.00    0.0
2018/03/13 14:15:51.000   78.256766971   16.230325433   392.0573   5   9   3.0121   1.9313  12.0534  -0.6932  -1.4331   5.5575   0.00    0.0
2018/03/13 14:15:52.000   78.256761769   16.230333268   390.2377   5   9   3.0121   1.9313  12.0541  -0.6929  -1.4325   5.5576   0.00    0.0
2018/03/13 14:15:53.000   78.256761326   16.230318605   389.4630   5   9   3.0121   1.9313  12.0549  -0.6926  -1.4320   5.5577   0.00    0.0
2018/03/13 14:15:54.000   78.256760409   16.230311165   389.3385   5   9   3.0121   1.9313  12.0556  -0.6923  -1.4314   5.5578   0.00    0.0
2018/03/13 14:15:55.000   78.256762763   16.230325677   390.8716   5   9   3.0120   1.9313  12.0563  -0.6920  -1.4309   5.5580   0.00    0.0
2018/03/13 14:15:56.000   78.256760938   16.230316275   390.9106   5   9   3.0120   1.9312  12.0571  -0.6917  -1.4303   5.5581   0.00    0.0
2018/03/13 14:15:57.000   78.256761473   16.230314184   390.9166   5   9   3.0120   1.9312  12.0578  -0.6914  -1.4298   5.5582   0.00    0.0
2018/03/13 14:15:58.000   78.256763188   16.230329133   392.7377   5   9   3.0119   1.9312  12.0585  -0.6912  -1.4292   5.5583   0.00    0.0
2018/03/13 14:15:59.000   78.256759790   16.230314611   390.0472   5   9   3.0119   1.9312  12.0592  -0.6909  -1.4287   5.5585   0.00    0.0
2018/03/13 14:16:00.000   78.256763882   16.230332611   388.9765   5   9   3.0119   1.9312  12.0599  -0.6906  -1.4281   5.5586   0.00    0.0
2018/03/13 14:16:01.000   78.256757664   16.230339342   388.9513   5   9   3.0118   1.9312  12.0606  -0.6903  -1.4275   5.5587   0.00    0.0
2018/03/13 14:16:02.000   78.256758750   16.230338895   388.9402   5   9   3.0118   1.9312  12.0613  -0.6900  -1.4270   5.5588   0.00    0.0
2018/03/13 14:16:03.000   78.256760713   16.230333811   389.4088   5   9   3.0118   1.9311  12.0620  -0.6897  -1.4264   5.5589   0.00    0.0
2018/03/13 14:16:04.000   78.256760731   16.230327577   389.3759   5   9   3.0117   1.9311  12.0626  -0.6894  -1.4259   5.5590   0.00    0.0
2018/03/13 14:16:05.000   78.256760061   16.230320383   390.1275   5   9   3.0117   1.9311  12.0633  -0.6891  -1.4253   5.5591   0.00    0.0
2018/03/13 14:16:06.000   78.256761388   16.230337367   390.3753   5   9   3.0117   1.9311  12.0640  -0.6889  -1.4247   5.5592   0.00    0.0
2018/03/13 14:16:07.000   78.256763616   16.230330528   389.0844   5   9   3.0116   1.9311  12.0646  -0.6886  -1.4242   5.5593   0.00    0.0
2018/03/13 14:16:08.000   78.256765088   16.230336147   390.7215   5   9   3.0116   1.9311  12.0653  -0.6883  -1.4236   5.5594   0.00    0.0
2018/03/13 14:16:09.000   78.256764751   16.230324559   390.1592   5   9   3.0115   1.9311  12.0659  -0.6880  -1.4230   5.5594   0.00    0.0
2018/03/13 14:16:10.000   78.256759323   16.230325968   387.8972   5   9   3.0115   1.9311  12.0666  -0.6877  -1.4225   5.5595   0.00    0.0
2018/03/13 14:16:11.000   78.256761531   16.230324984   388.1057   5   9   3.0115   1.9310  12.0672  -0.6874  -1.4219   5.5596   0.00    0.0
2018/03/13 14:16:12.000   78.256755792   16.230341545   385.9834   5   9   3.0114   1.9310  12.0678  -0.6871  -1.4213   5.5597   0.00    0.0
2018/03/13 14:16:13.000   78.256758834   16.230319924   388.9485   5   9   3.0114   1.9310  12.0684  -0.6868  -1.4207   5.5598   0.00    0.0
2018/03/13 14:16:14.000   78.256764663   16.230334298   389.0823   5   9   3.0113   1.9310  12.0691  -0.6865  -1.4202   5.5598   0.00    0.0
2018/03/13 14:16:15.000   78.256767819   16.230332083   391.0683   5   9   3.0113   1.9310  12.0697  -0.6862  -1.4196   5.5599   0.00    0.0
2018/03/13 14:16:16.000   78.256765429   16.230326550   392.2092   5   9   3.0112   1.9310  12.0703  -0.6859  -1.4190   5.5600   0.00    0.0
2018/03/13 14:16:17.000   78.256762544   16.230318829   389.2677   5   9   3.0112   1.9310  12.0709  -0.6856  -1.4184   5.5600   0.00    0.0
2018/03/13 14:16:18.000   78.256762508   16.230329106   387.5783   5   9   3.0111   1.9309  12.0715  -0.6853  -1.4179   5.5601   0.00    0.0
2018/03/13 14:16:19.000   78.256758229   16.230329205   387.7739   5   9   3.0111   1.9309  12.0721  -0.6851  -1.4173   5.5601   0.00    0.0
2018/03/13 14:16:20.000   78.256760493   16.230306795   388.9182   5   9   3.0110   1.9309  12.0726  -0.6848  -1.4167   5.5602   0.00    0.0
2018/03/13 14:16:21.000   78.256758471   16.230323273   388.2272   5   9   3.0109   1.9309  12.0732  -0.6845  -1.4161   5.5603   0.00    0.0
2018/03/13 14:16:22.000   78.256758579   16.230336343   389.5330   5   9   3.0109   1.9309  12.0738  -0.6842  -1.4155   5.5603   0.00    0.0
2018/03/13 14:16:23.000   78.256762307   16.230329596   391.1682   5   9   3.0108   1.9309  12.0743  -0.6839  -1.4150   5.5603   0.00    0.0
2018/03/13 14:16:24.000   78.256761190   16.230328696   389.5353   5   9   3.0108   1.9309  12.0749  -0.6836  -1.4144   5.5604   0.00    0.0
2018/03/13 14:16:25.000   78.256766302   16.230311104   391.3759   5   9   3.0107   1.9308  12.0755  -0.6833  -1.4138   5.5604   0.00    0.0
2018/03/13 14:16:26.000   78.256768262   16.230306212   392.1666   5   9   3.0106   1.9308  12.0760  -0.6830  -1.4132   5.5605   0.00    0.0
2018/03/13 14:16:27.000   78.256769610   16.230321171   392.0360   5   9   3.0106   1.9308  12.0765  -0.6827  -1.4126   5.5605   0.00    0.0
2018/03/13 14:16:28.000   78.256764429   16.230311037   391.0366   5   9   3.0105   1.9308  12.0771  -0.6824  -1.4120   5.5605   0.00    0.0
2018/03/13 14:16:29.000   78.256765888   16.230313623   391.3091   5   9   3.0104   1.9308  12.0776  -0.6821  -1.4114   5.5606   0.00    0.0
2018/03/13 14:16:30.000   78.256761494   16.230322436   390.7681   5   9   3.0104   1.9308  12.0781  -0.6818  -1.4109   5.5606   0.00    0.0
2018/03/13 14:16:31.000   78.256758934   16.230322806   390.0850   5   9   3.0103   1.9308  12.0786  -0.6815  -1.4103   5.5606   0.00    0.0
2018/03/13 14:16:32.000   78.256761384   16.230326563   391.7280   5   9   3.0102   1.9308  12.0792  -0.6812  -1.4097   5.5606   0.00    0.0
2018/03/13 14:16:33.000   78.256759521   16.230313656   390.4610   5   9   3.0102   1.9307  12.0797  -0.6809  -1.4091   5.5606   0.00    0.0
2018/03/13 14:16:34.000   78.256764630   16.230316825   391.7834   5   9   3.0101   1.9307  12.0802  -0.6806  -1.4085   5.5607   0.00    0.0
2018/03/13 14:16:35.000   78.256763778   16.230314815   390.9874   5   9   3.0100   1.9307  12.0806  -0.6803  -1.4079   5.5607   0.00    0.0
2018/03/13 14:16:36.000   78.256765813   16.230314584   392.4454   5   9   3.0099   1.9307  12.0811  -0.6800  -1.4073   5.5607   0.00    0.0
2018/03/13 14:16:37.000   78.256761782   16.230318571   389.0449   5   9   3.0099   1.9307  12.0816  -0.6797  -1.4067   5.5607   0.00    0.0
2018/03/13 14:16:38.000   78.256762477   16.230331828   390.4979   5   9   3.0098   1.9307  12.0821  -0.6794  -1.4061   5.5607   0.00    0.0
2018/03/13 14:16:39.000   78.256767688   16.230310245   391.7253   5   9   3.0097   1.9307  12.0825  -0.6790  -1.4055   5.5607   0.00    0.0
2018/03/13 14:16:40.000   78.256759871   16.230319175   390.0419   5   9   3.0096   1.9306  12.0830  -0.6787  -1.4049   5.5607   0.00    0.0
2018/03/13 14:16:41.000   78.256758496   16.230325612   388.5223   5   9   3.0096   1.9306  12.0835  -0.6784  -1.4043   5.5607   0.00    0.0
2018/03/13 14:16:42.000   78.256763499   16.230319510   390.9096   5   9   3.0095   1.9306  12.0839  -0.6781  -1.4037   5.5607   0.00    0.0
2018/03/13 14:16:43.000   78.256766354   16.230320778   392.9431   5   9   3.0094   1.9306  12.0844  -0.6778  -1.4031   5.5606   0.00    0.0
2018/03/13 14:16:44.000   78.256763731   16.230322211   391.6406   5   9   3.0093   1.9306  12.0848  -0.6775  -1.4025   5.5606   0.00    0.0
2018/03/13 14:16:45.000   78.256762996   16.230314172   391.1789   5   9   3.0092   1.9306  12.0852  -0.6772  -1.4019   5.5606   0.00    0.0
2018/03/13 14:16:46.000   78.256761525   16.230319084   390.3429   5   9   3.0091   1.9306  12.0857  -0.6769  -1.4013   5.5606   0.00    0.0
2018/03/13 14:16:47.000   78.256761723   16.230313454   389.6384   5   9   3.0091   1.9305  12.0861  -0.6766  -1.4007   5.5606   0.00    0.0
2018/03/13 14:16:48.000   78.256762251   16.230329911   391.3971   5   9   3.0090   1.9305  12.0865  -0.6763  -1.4001   5.5605   0.00    0.0
2018/03/13 14:16:49.000   78.256761929   16.230318965   389.1142   5   9   3.0089   1.9305  12.0869  -0.6760  -1.3995   5.5605   0.00    0.0
2018/03/13 14:16:50.000   78.256761460   16.230324426   391.0023   5   9   3.0088   1.9305  12.0873  -0.6757  -1.3989   5.5605   0.00    0.0
2018/03/13 14:16:51.000   78.256762330   16.230328617   389.7985   5   9   3.0087   1.9305  12.0877  -0.6754  -1.3983   5.5604   0.00    0.0
2018/03/13 14:16:52.000   78.256766255   16.230319419   391.0078   5   9   3.0086   1.9305  12.0881  -0.6751  -1.3976   5.5604   0.00    0.0
2018/03/13 14:16:53.000   78.256764239   16.230321357   391.4817   5   9   3.0085   1.9305  12.0885  -0.6747  -1.3970   5.5604   0.00    0.0
2018/03/13 14:16:54.000   78.256763076   16.230311349   389.8346   5   9   3.0084   1.9304  12.0888  -0.6744  -1.3964   5.5603   0.00    0.0
2018/03/13 14:16:55.000   78.256766640   16.230297798   391.6227   5   9   3.0083   1.9304  12.0892  -0.6741  -1.3958   5.5603   0.00    0.0
2018/03/13 14:16:56.000   78.256761239   16.230332447   388.9419   5   9   3.0082   1.9304  12.0896  -0.6738  -1.3952   5.5602   0.00    0.0
2018/03/13 14:16:57.000   78.256763875   16.230312901   390.1437   5   9   3.0081   1.9304  12.0899  -0.6735  -1.3946   5.5602   0.00    0.0
2018/03/13 14:16:58.000   78.256764016   16.230318953   390.8686   5   9   3.0080   1.9304  12.0903  -0.6732  -1.3940   5.5601   0.00    0.0
2018/03/13 14:16:59.000   78.256762111   16.230324153   390.0116   5   9   3.0079   1.9304  12.0906  -0.6729  -1.3933   5.5600   0.00    0.0
2018/03/13 14:17:00.000   78.256765293   16.230325558   392.0100   5   9   3.0078   1.9304  12.0910  -0.6726  -1.3927   5.5600   0.00    0.0
2018/03/13 14:17:35.000   78.256764179   16.230315826   389.0721   5   9   3.0034   1.9299  12.0991  -0.6613  -1.3704   5.5559   0.00    0.0
2018/03/13 14:17:36.000   78.256762621   16.230333107   389.1748   5   9   3.0033   1.9299  12.0992  -0.6610  -1.3698   5.5558   0.00    0.0
2018/03/13 14:17:37.000   78.256766221   16.230303181   392.2574   5   9   3.0031   1.9298  12.0993  -0.6607  -1.3691   5.5556   0.00    0.0
2018/03/13 14:17:38.000   78.256762904   16.230310642   390.3779   5   9   3.0030   1.9298  12.0994  -0.6603  -1.3684   5.5554   0.00    0.0
2018/03/13 14:17:39.000   78.256761954   16.230305962   390.3373   5   9   3.0028   1.9298  12.0995  -0.6600  -1.3678   5.5553   0.00    0.0
2018/03/13 14:17:40.000   78.256762572   16.230322991   389.0787   5   9   3.0027   1.9298  12.0996  -0.6597  -1.3671   5.5551   0.00    0.0
2018/03/13 14:17:41.000   78.256766914   16.230334363   391.4666   5   9   3.0025   1.9298  12.0997  -0.6593  -1.3665   5.5549   0.00    0.0
2018/03/13 14:17:42.000   78.256767472   16.230320821   392.6793   5   9   3.0024   1.9298  12.0998  -0.6590  -1.3658   5.5547   0.00    0.0
2018/03/13 14:17:43.000   78.256763739   16.230312653   391.6381   5   9   3.0022   1.9298  12.0999  -0.6587  -1.3652   5.5545   0.00    0.0
2018/03/13 14:17:44.000   78.256763405   16.230318913   391.4580   5   9   3.0021   1.9297  12.1000  -0.6583  -1.3645   5.5543   0.00    0.0
2018/03/13 14:17:45.000   78.256765845   16.230322253   391.5922   5   9   3.0019   1.9297  12.1000  -0.6580  -1.3638   5.5541   0.00    0.0
2018/03/13 14:17:46.000   78.256759081   16.230327009   389.2772   5   9   3.0018   1.9297  12.1001  -0.6577  -1.3632   5.5539   0.00    0.0
2018/03/13 14:17:47.000   78.256755261   16.230327026   386.1648   5   9   3.0016   1.9297  12.1002  -0.6573  -1.3625   5.5537   0.00    0.0
2018/03/13 14:17:48.000   78.256763838   16.230329923   389.9124   5   9   3.0014   1.9297  12.1002  -0.6570  -1.3618   5.5535   0.00    0.0
2018/03/13 14:17:49.000   78.256764924   16.230331010   390.8684   5   9   3.0013   1.9297  12.1003  -0.6567  -1.3612   5.5533   0.00    0.0
2018/03/13 14:17:50.000   78.256764685   16.230315876   389.7734   5   9   3.0011   1.9297  12.1003  -0.6563  -1.3605   5.5531   0.00    0.0
2018/03/13 14:17:51.000   78.256761577   16.230325559   388.9053   5   9   3.0010   1.9297  12.1003  -0.6560  -1.3598   5.5529   0.00    0.0
2018/03/13 14:17:52.000   78.256755907   16.230348838   386.6567   5   9   3.0008   1.9296  12.1004  -0.6557  -1.3592   5.5527   0.00    0.0
2018/03/13 14:17:53.000   78.256758336   16.230329577   387.2895   5   9   3.0006   1.9296  12.1004  -0.6553  -1.3585   5.5525   0.00    0.0
2018/03/13 14:17:54.000   78.256761043   16.230323936   388.8496   5   9   3.0005   1.9296  12.1004  -0.6550  -1.3578   5.5523   0.00    0.0
2018/03/13 14:17:55.000   78.256768204   16.230316774   392.2879   5   9   3.0003   1.9296  12.1004  -0.6547  -1.3571   5.5520   0.00    0.0
2018/03/13 14:17:56.000   78.256759309   16.230325719   389.2206   5   9   3.0001   1.9296  12.1004  -0.6543  -1.3565   5.5518   0.00    0.0
2018/03/13 14:17:57.000   78.256765621   16.230313501   390.7634   5   9   3.0000   1.9296  12.1004  -0.6540  -1.3558   5.5516   0.00    0.0
2018/03/13 14:17:58.000   78.256763807   16.230324080   389.5935   5   9   2.9998   1.9296  12.1004  -0.6536  -1.3551   5.5513   0.00    0.0
2018/03/13 14:17:59.000   78.256762241   16.230324104   388.9933   5   9   2.9996   1.9295  12.1004  -0.6533  -1.3544   5.5511   0.00    0.0
2018/03/13 14:18:00.000   78.256765914   16.230324151   390.2521   5   9   2.9994   1.9295  12.1003  -0.6530  -1.3538   5.5509   0.00    0.0
2018/03/13 14:18:01.000   78.256766202   16.230318569   390.2651   5   9   2.9993   1.9295  12.1003  -0.6526  -1.3531   5.5506   0.00    0.0
2018/03/13 14:18:02.000   78.256764119   16.230288037   391.0263   5   9   2.9991   1.9295  12.1003  -0.6523  -1.3524   5.5504   0.00    0.0
2018/03/13 14:18:03.000   78.256764257   16.230318403   390.0756   5   9   2.9989   1.9295  12.1002  -0.6519  -1.3517   5.5501   0.00    0.0
2018/03/13 14:18:04.000   78.256761525   16.230335957   388.9645   5   9   2.9987   1.9295  12.1002  -0.6516  -1.3510   5.5499   0.00    0.0
2018/03/13 14:18:05.000   78.256765290   16.230330793   390.0666   5   9   2.9985   1.9295  12.1001  -0.6513  -1.3504   5.5496   0.00    0.0
2018/03/13 14:18:06.000   78.256770273   16.230332482   391.6820   5   9   2.9984   1.9294  12.1001  -0.6509  -1.3497   5.5494   0.00    0.0
2018/03/13 14:18:07.000   78.256761760   16.230343230   389.2549   5   9   2.9982   1.9294  12.1000  -0.6506  -1.3490   5.5491   0.00    0.0
2018/03/13 14:18:08.000   78.256765443   16.230328559   390.0305   5   9   2.9980   1.9294  12.0999  -0.6502  -1.3483   5.5489   0.00    0.0
2018/03/13 14:18:09.000   78.256762429   16.230337999   387.9895   5   9   2.9978   1.9294  12.0999  -0.6499  -1.3476   5.5486   0.00    0.0
2018/03/13 14:18:10.000   78.256763589   16.230322776   388.5135   5   9   2.9976   1.9294  12.0998  -0.6495  -1.3469   5.5483   0.00    0.0
2018/03/13 14:18:11.000   78.256762574   16.230326708   388.9431   5   9   2.9974   1.9294  12.0997  -0.6492  -1.3462   5.5481   0.00    0.0
2018/03/13 14:18:12.000   78.256765089   16.230322200   389.1867   5   9   2.9972   1.9294  12.0996  -0.6489  -1.3456   5.5478   0.00    0.0
2018/03/13 14:18:13.000   78.256763917   16.230321564   390.3932   5   9   2.9971   1.9293  12.0995  -0.6485  -1.3449   5.5475   0.00    0.0
2018/03/13 14:18:14.000   78.256761377   16.230325167   390.0131   5   9   2.9969   1.9293  12.0994  -0.6482  -1.3442   5.5472   0.00    0.0
2018/03/13 14:18:15.000   78.256765489   16.230311202   391.4315   5   9   2.9967   1.9293  12.0993  -0.6478  -1.3435   5.5469   0.00    0.0
2018/03/13 14:18:16.000   78.256763734   16.230327729   390.2873   5   9   2.9965   1.9293  12.0991  -0.6475  -1.3428   5.5467   0.00    0.0
2018/03/13 14:18:17.000   78.256767338   16.230319066   391.2411   5   9   2.9963   1.9293  12.0990  -0.6471  -1.3421   5.5464   0.00    0.0
2018/03/13 14:18:18.000   78.256764313   16.230344392   389.8277   5   9   2.9961   1.9293  12.0989  -0.6468  -1.3414   5.5461   0.00    0.0
2018/03/13 14:18:19.000   78.256767208   16.230332680   390.5341   5   9   2.9959   1.9293  12.0987  -0.6464  -1.3407   5.5458   0.00    0.0
2018/03/13 14:18:20.000   78.256761228   16.230335844   390.5235   5   9   2.9957   1.9292  12.0986  -0.6461  -1.3400   5.5455   0.00    0.0
2018/03/13 14:18:21.000   78.256764881   16.230320726   391.5545   5   9   2.9955   1.9292  12.0984  -0.6457  -1.3393   5.5452   0.00    0.0
2018/03/13 14:18:22.000   78.256766575   16.230308496   391.5755   5   9   2.9953   1.9292  12.0983  -0.6454  -1.3386   5.5449   0.00    0.0
2018/03/13 14:18:23.000   78.256767088   16.230314182   389.6425   5   9   2.9951   1.9292  12.0981  -0.6451  -1.3379   5.5446   0.00    0.0
2018/03/13 14:18:24.000   78.256764365   16.230313845   388.0287   5   9   2.9949   1.9292  12.0979  -0.6447  -1.3372   5.5443   0.00    0.0
2018/03/13 14:18:25.000   78.256763687   16.230333066   388.1835   5   9   2.9947   1.9292  12.0978  -0.6444  -1.3365   5.5440   0.00    0.0
2018/03/13 14:18:26.000   78.256764237   16.230329124   389.7961   5   9   2.9945   1.9292  12.0976  -0.6440  -1.3358   5.5436   0.00    0.0
2018/03/13 14:18:27.000   78.256763083   16.230311673   388.9356   5   9   2.9943   1.9291  12.0974  -0.6437  -1.3351   5.5433   0.00    0.0
2018/03/13 14:18:28.000   78.256765184   16.230319269   389.8674   5   9   2.9941   1.9291  12.0972  -0.6433  -1.3344   5.5430   0.00    0.0
2018/03/13 14:18:29.000   78.256763836   16.230321458   389.6590   5   9   2.9939   1.9291  12.0970  -0.6430  -1.3337   5.5427   0.00    0.0
2018/03/13 14:18:30.000   78.256761466   16.230333271   388.8413   5   9   2.9937   1.9291  12.0968  -0.6426  -1.3330   5.5424   0.00    0.0
2018/03/13 14:18:31.000   78.256760797   16.230330376   388.2816   5   9   2.9934   1.9291  12.0966  -0.6423  -1.3323   5.5420   0.00    0.0
2018/03/13 14:18:32.000   78.256762657   16.230316618   389.6946   5   9   2.9932   1.9291  12.0964  -0.6419  -1.3316   5.5417   0.00    0.0
2018/03/13 14:18:33.000   78.256766342   16.230321723   390.6793   5   9   2.9930   1.9291  12.0961  -0.6415  -1.3309   5.5414   0.00    0.0
2018/03/13 14:18:34.000   78.256762658   16.230324393   388.6481   5   9   2.9928   1.9290  12.0959  -0.6412  -1.3302   5.5410   0.00    0.0
2018/03/13 14:18:35.000   78.256761127   16.230319710   388.5216   5   9   2.9926   1.9290  12.0957  -0.6408  -1.3294   5.5407   0.00    0.0
2018/03/13 14:18:36.000   78.256764974   16.230324754   389.4223   5   9   2.9924   1.9290  12.0954  -0.6405  -1.3287   5.5403   0.00    0.0
2018/03/13 14:18:37.000   78.256764378   16.230338742   390.3686   5   9   2.9922   1.9290  12.0952  -0.6401  -1.3280   5.5400   0.00    0.0
2018/03/13 14:18:38.000   78.256762995   16.230327202   389.3476   5   9   2.9919   1.9290  12.0949  -0.6398  -1.3273   5.5397   0.00    0.0
2018/03/13 14:18:39.000   78.256758467   16.230336320   386.1320   5   9   2.9917   1.9290  12.0947  -0.6394  -1.3266   5.5393   0.00    0.0
2018/03/13 14:18:40.000   78.256765897   16.230315437   390.2433   5   9   2.9915   1.9290  12.0944  -0.6391  -1.3259   5.5389   0.00    0.0
2018/03/13 14:18:41.000   78.256762286   16.230332641   388.4392   5   9   2.9913   1.9289  12.0941  -0.6387  -1.3252   5.5386   0.00    0.0
2018/03/13 14:18:42.000   78.256761724   16.230325369   388.4647   5   9   2.9910   1.9289  12.0939  -0.6384  -1.3244   5.5382   0.00    0.0
2018/03/13 14:18:43.000   78.256760856   16.230337259   387.8653   5   9   2.9908   1.9289  12.0936  -0.6380  -1.3237   5.5379   0.00    0.0
2018/03/13 14:18:44.000   78.256761320   16.230331277   388.6472   5   9   2.9906   1.9289  12.0933  -0.6376  -1.3230   5.5375   0.00    0.0
2018/03/13 14:18:45.000   78.256764842   16.230320394   391.8765   5   9   2.9904   1.9289  12.0930  -0.6373  -1.3223   5.5371   0.00    0.0
2018/03/13 14:18:46.000   78.256758773   16.230329657   390.0091   5   9   2.9901   1.9289  12.0927  -0.6369  -1.3216   5.5368   0.00    0.0
2018/03/13 14:18:47.000   78.256758962   16.230329439   388.4983   5   9   2.9899   1.9289  12.0924  -0.6366  -1.3208   5.5364   0.00    0.0
2018/03/13 14:18:48.000   78.256757627   16.230319315   388.1975   5   9   2.9897   1.9288  12.0921  -0.6362  -1.3201   5.5360   0.00    0.0
2018/03/13 14:18:49.000   78.256760816   16.230323789   386.5879   5   9   2.9895   1.9288  12.0917  -0.6359  -1.3194   5.5356   0.00    0.0
2018/03/13 14:18:50.000   78.256763058   16.230334302   387.9846   5   9   2.9892   1.9288  12.0914  -0.6355  -1.3187   5.5352   0.00    0.0
2018/03/13 14:18:51.000   78.256762184   16.230339419   389.1086   5   9   2.9890   1.9288  12.0911  -0.6351  -1.3180   5.5349   0.00    0.0
2018/03/13 14:18:52.000   78.256760687   16.230328026   389.0700   5   9   2.9888   1.9288  12.0907  -0.6348  -1.3172   5.5345   0.00    0.0
2018/03/13 14:18:53.000   78.256759593   16.230330929   387.7283   5   9   2.9885   1.9288  12.0904  -0.6344  -1.3165   5.5341   0.00    0.0
2018/03/13 14:18:54.000   78.256762141   16.230319190   390.7470   5   9   2.9883   1.9288  12.0900  -0.6341  -1.3158   5.5337   0.00    0.0
2018/03/13 14:18:55.000   78.256761547   16.230317150   388.2167   5   9   2.9880   1.9287  12.0897  -0.6337  -1.3150   5.5333   0.00    0.0
2018/03/13 14:18:56.000   78.256767745   16.230324891   389.7837   5   9   2.9878   1.9287  12.0893  -0.6333  -1.3143   5.5329   0.00    0.0
2018/03/13 14:18:57.000   78.256759378   16.230341830   387.7673   5   9   2.9876   1.9287  12.0890  -0.6330  -1.3136   5.5325   0.00    0.0
2018/03/13 14:18:58.000   78.256763356   16.230343984   389.4030   5   9   2.9873   1.9287  12.0886  -0.6326  -1.3128   5.5321   0.00    0.0
2018/03/13 14:18:59.000   78.256759846   16.230332494   388.6700   5   9   2.9871   1.9287  12.0882  -0.6323  -1.3121   5.5317   0.00    0.0
2018/03/13 14:19:00.000   78.256760710   16.230333049   388.6440   5   9   2.9868   1.9287  12.0878  -0.6319  -1.3114   5.5312   0.00    0.0
2018/03/13 14:19:01.000   78.256759861   16.230317451   387.9459   5   9   2.9866   1.9286  12.0874  -0.6315  -1.3106   5.5308   0.00    0.0
2018/03/13 14:19:02.000   78.256760217   16.230308254   388.9455   5   9   2.9863   1.9286  12.0870  -0.6312  -1.3099   5.5304   0.00    0.0
2018/03/13 14:19:03.000   78.256761907   16.230319888   388.7817   5   9   2.9861   1.9286  12.0866  -0.6308  -1.3092   5.5300   0.00    0.0
2018/03/13 14:19:04.000   78.256764575   16.230317847   391.9120   5   9   2.9858   1.9286  12.0862  -0.6304  -1.3084   5.5296   0.00    0.0
2018/03/13 14:19:05.000   78.256764762   16.230321492   390.8268   5   9   2.9856   1.9286  12.0858  -0.6301  -1.3077   5.5291   0.00    0.0
2018/03/13 14:19:06.000   78.256768437   16.230323537   391.7731   5   9   2.9853   1.9286  12.0854  -0.6297  -1.3070   5.5287   0.00    0.0
2018/03/13 14:19:07.000   78.256770519   16.230302101   391.7457   5   9   2.9851   1.9286  12.0849  -0.6293  -1.3062   5.5283   0.00    0.0
2018/03/13 14:19:08.000   78.256765441   16.230326957   389.0931   5   9   2.9848   1.9285  12.0845  -0.6290  -1.3055   5.5278   0.00    0.0
2018/03/13 14:19:09.000   78.256764307   16.230337895   389.2065   5   9   2.9846   1.9285  12.0841  -0.6286  -1.3047   5.5274   0.00    0.0
2018/03/13 14:19:10.000   78.256760271   16.230325607   388.8517   5   9   2.9843   1.9285  12.0836  -0.6282  -1.3040   5.5270   0.00    0.0
2018/03/13 14:19:11.000   78.256760957   16.230326318   389.9588   5   9   2.9841   1.9285  12.0832  -0.6279  -1.3033   5.5265   0.00    0.0
2018/03/13 14:19:12.000   78.256757663   16.230324098   387.4587   5   9   2.9838   1.9285  12.0827  -0.6275  -1.3025   5.5261   0.00    0.0
2018/03/13 14:19:13.000   78.256758207   16.230320153   388.1079   5   9   2.9836   1.9285  12.0822  -0.6271  -1.3018   5.5256   0.00    0.0
2018/03/13 14:19:14.000   78.256757651   16.230332588   385.4220   5   9   2.9833   1.9285  12.0818  -0.6268  -1.3010   5.5252   0.00    0.0
2018/03/13 14:19:15.000   78.256754359   16.230321469   384.6116   5   9   2.9830   1.9284  12.0813  -0.6264  -1.3003   5.5247   0.00    0.0
2018/03/13 14:19:16.000   78.256760537   16.230340043   387.3130   5   9   2.9828   1.9284  12.0808  -0.6260  -1.2995   5.5243   0.00    0.0
2018/03/13 14:19:17.000   78.256767616   16.230323766   391.4730   5   9   2.9825   1.9284  12.0803  -0.6257  -1.2988   5.5238   0.00    0.0
2018/03/13 14:19:18.000   78.256764322   16.230326771   389.6728   5   9   2.9822   1.9284  12.0798  -0.6253  -1.2980   5.5233   0.00    0.0
2018/03/13 14:19:19.000   78.256762060   16.230326845   387.4034   5   9   2.9820   1.9284  12.0793  -0.6249  -1.2973   5.5229   0.00    0.0
2018/03/13 14:19:20.000   78.256760793   16.230342003   385.1303   5   9   2.9817   1.9284  12.0788  -0.6246  -1.2965   5.5224   0.00    0.0
2018/03/13 14:19:21.000   78.256765557   16.230331403   387.5174   5   9   2.9814   1.9284  12.0783  -0.6242  -1.2958   5.5219   0.00    0.0
2018/03/13 14:19:22.000   78.256768239   16.230325965   389.9805   5   9   2.9812   1.9283  12.0778  -0.6238  -1.2950   5.5214   0.00    0.0
2018/03/13 14:19:23.000   78.256763159   16.230318471   388.5843   5   9   2.9809   1.9283  12.0773  -0.6234  -1.2943   5.5210   0.00    0.0
2018/03/13 14:19:24.000   78.256762719   16.230327191   387.5238   5   9   2.9806   1.9283  12.0767  -0.6231  -1.2935   5.5205   0.00    0.0
2018/03/13 14:19:25.000   78.256762340   16.230323075   387.6481   5   9   2.9804   1.9283  12.0762  -0.6227  -1.2928   5.5200   0.00    0.0
2018/03/13 14:19:26.000   78.256762171   16.230338769   387.6903   5   9   2.9801   1.9283  12.0757  -0.6223  -1.2920   5.5195   0.00    0.0
2018/03/13 14:19:27.000   78.256756130   16.230336046   383.4247   5   9   2.9798   1.9283  12.0751  -0.6219  -1.2912   5.5190   0.00    0.0
2018/03/13 14:19:28.000   78.256759558   16.230348997   386.4311   5   9   2.9795   1.9283  12.0745  -0.6216  -1.2905   5.5185   0.00    0.0
2018/03/13 14:19:29.000   78.256764140   16.230319490   389.4429   5   9   2.9793   1.9282  12.0740  -0.6212  -1.2897   5.5180   0.00    0.0
2018/03/13 14:19:30.000   78.256762501   16.230336469   386.9387   5   9   2.9790   1.9282  12.0734  -0.6208  -1.2890   5.5175   0.00    0.0
2018/03/13 14:19:31.000   78.256762279   16.230310542   386.7479   5   9   2.9787   1.9282  12.0728  -0.6205  -1.2882   5.5170   0.00    0.0
2018/03/13 14:19:32.000   78.256760015   16.230319332   386.9375   5   9   2.9784   1.9282  12.0723  -0.6201  -1.2874   5.5165   0.00    0.0
2018/03/13 14:19:33.000   78.256767235   16.230324023   388.3601   5   9   2.9781   1.9282  12.0717  -0.6197  -1.2867   5.5160   0.00    0.0
2018/03/13 14:19:34.000   78.256766875   16.230332540   389.1097   5   9   2.9779   1.9282  12.0711  -0.6193  -1.2859   5.5155   0.00    0.0
2018/03/13 14:19:35.000   78.256764522   16.230332210   388.5884   5   9   2.9776   1.9282  12.0705  -0.6190  -1.2851   5.5150   0.00    0.0
2018/03/13 14:19:36.000   78.256765380   16.230329912   389.5984   5   9   2.9773   1.9281  12.0699  -0.6186  -1.2844   5.5145   0.00    0.0
2018/03/13 14:19:37.000   78.256759082   16.230354983   385.2314   5   9   2.9770   1.9281  12.0693  -0.6182  -1.2836   5.5140   0.00    0.0
2018/03/13 14:19:38.000   78.256759808   16.230342686   384.7019   5   9   2.9767   1.9281  12.0687  -0.6178  -1.2828   5.5135   0.00    0.0
2018/03/13 14:19:39.000   78.256764082   16.230332948   387.8173   5   9   2.9764   1.9281  12.0681  -0.6174  -1.2821   5.5129   0.00    0.0
2018/03/13 14:19:40.000   78.256761428   16.230330398   386.8561   5   9   2.9761   1.9281  12.0674  -0.6171  -1.2813   5.5124   0.00    0.0
2018/03/13 14:19:41.000   78.256766151   16.230322385   389.8468   5   9   2.9758   1.9281  12.0668  -0.6167  -1.2805   5.5119   0.00    0.0
2018/03/13 14:19:42.000   78.256765323   16.230347649   388.2376   5   9   2.9756   1.9281  12.0662  -0.6163  -1.2798   5.5114   0.00    0.0
2018/03/13 14:19:43.000   78.256763357   16.230349818   385.9422   5   9   2.9753   1.9280  12.0655  -0.6159  -1.2790   5.5108   0.00    0.0
2018/03/13 14:19:44.000   78.256760458   16.230341196   385.4699   5   9   2.9750   1.9280  12.0649  -0.6156  -1.2782   5.5103   0.00    0.0
2018/03/13 14:19:45.000   78.256760725   16.230336904   387.3254   5   9   2.9747   1.9280  12.0642  -0.6152  -1.2775   5.5097   0.00    0.0
2018/03/13 14:19:46.000   78.256762798   16.230341707   387.4052   5   9   2.9744   1.9280  12.0635  -0.6148  -1.2767   5.5092   0.00    0.0
2018/03/13 14:19:47.000   78.256764669   16.230349908   388.3514   5   9   2.9741   1.9280  12.0629  -0.6144  -1.2759   5.5087   0.00    0.0
2018/03/13 14:19:48.000   78.256768919   16.230323430   389.2056   5   9   2.9738   1.9280  12.0622  -0.6140  -1.2751   5.5081   0.00    0.0
2018/03/13 14:19:49.000   78.256768382   16.230330066   389.0362   5   9   2.9735   1.9280  12.0615  -0.6137  -1.2744   5.5076   0.00    0.0
2018/03/13 14:19:50.000   78.256763031   16.230340671   387.0001   5   9   2.9732   1.9279  12.0608  -0.6133  -1.2736   5.5070   0.00    0.0
2018/03/13 14:19:51.000   78.256759139   16.230340293   385.2537   5   9   2.9729   1.9279  12.0602  -0.6129  -1.2728   5.5064   0.00    0.0
2018/03/13 14:19:52.000   78.256763419   16.230353516   387.3185   5   9   2.9726   1.9279  12.0595  -0.6125  -1.2720   5.5059   0.00    0.0
2018/03/13 14:19:53.000   78.256763780   16.230344299   388.3649   5   9   2.9723   1.9279  12.0588  -0.6121  -1.2712   5.5053   0.00    0.0
2018/03/13 14:19:54.000   78.256761712   16.230337351   387.7416   5   9   2.9720   1.9279  12.0580  -0.6117  -1.2705   5.5048   0.00    0.0
2018/03/13 14:19:55.000   78.256765772   16.230330817   388.9705   5   9   2.9717   1.9279  12.0573  -0.6114  -1.2697   5.5042   0.00    0.0
2018/03/13 14:19:56.000   78.256766087   16.230343554   389.0096   5   9   2.9714   1.9279  12.0566  -0.6110  -1.2689   5.5036   0.00    0.0
2018/03/13 14:19:57.000   78.256765728   16.230319593   389.0818   5   9   2.9711   1.9278  12.0559  -0.6106  -1.2681   5.5030   0.00    0.0
2018/03/13 14:19:58.000   78.256766523   16.230331973   390.2671   5   9   2.9707   1.9278  12.0552  -0.6102  -1.2673   5.5025   0.00    0.0
2018/03/13 14:19:59.000   78.256759528   16.230345558   386.6879   5   9   2.9704   1.9278  12.0544  -0.6098  -1.2665   5.5019   0.00    0.0
2018/03/13 14:20:00.000   78.256759947   16.230324251   388.1880   5   9   2.9701   1.9278  12.0537  -0.6094  -1.2658   5.5013   0.00    0.0
2018/03/13 14:20:01.000   78.256758498   16.230333157   386.5408   5   9   2.9698   1.9278  12.0529  -0.6091  -1.2650   5.5007   0.00    0.0
2018/03/13 14:20:02.000   78.256764136   16.230338631   388.9193   5   9   2.9695   1.9278  12.0522  -0.6087  -1.2642   5.5001   0.00    0.0
2018/03/13 14:20:03.000   78.256768050   16.230336439   391.1561   5   9   2.9692   1.9277  12.0514  -0.6083  -1.2634   5.4995   0.00    0.0
2018/03/13 14:20:04.000   78.256765717   16.230337604   389.3027   5   9   2.9689   1.9277  12.0506  -0.6079  -1.2626   5.4989   0.00    0.0
2018/03/13 14:20:05.000   78.256763589   16.230347067   388.7876   5   9   2.9686   1.9277  12.0499  -0.6075  -1.2618   5.4984   0.00    0.0
2018/03/13 14:20:06.000   78.256768164   16.230318000   392.1791   5   9   2.9682   1.9277  12.0491  -0.6071  -1.2610   5.4978   0.00    0.0
2018/03/13 14:20:07.000   78.256761282   16.230324714   389.3067   5   9   2.9679   1.9277  12.0483  -0.6067  -1.2602   5.4972   0.00    0.0
2018/03/13 14:20:08.000   78.256760209   16.230349002   387.5037   5   9   2.9676   1.9277  12.0475  -0.6063  -1.2594   5.4966   0.00    0.0
2018/03/13 14:20:09.000   78.256762106   16.230345615   388.6326   5   9   2.9673   1.9277  12.0467  -0.6060  -1.2586   5.4959   0.00    0.0
2018/03/13 14:20:10.000   78.256764343   16.230338350   390.1279   5   9   2.9670   1.9276  12.0459  -0.6056  -1.2578   5.4953   0.00    0.0
2018/03/13 14:20:11.000   78.256765204   16.230338170   391.5513   5   9   2.9666   1.9276  12.0451  -0.6052  -1.2571   5.4947   0.00    0.0
2018/03/13 14:20:12.000   78.256762730   16.230349973   388.7138   5   9   2.9663   1.9276  12.0443  -0.6048  -1.2563   5.4941   0.00    0.0
2018/03/13 14:20:13.000   78.256761259   16.230339029   389.2647   5   9   2.9660   1.9276  12.0435  -0.6044  -1.2555   5.4935   0.00    0.0
2018/03/13 14:20:14.000   78.256759636   16.230353688   387.5179   5   9   2.9657   1.9276  12.0427  -0.6040  -1.2547   5.4929   0.00    0.0
2018/03/13 14:20:15.000   78.256765052   16.230342320   390.5300   5   9   2.9653   1.9276  12.0418  -0.6036  -1.2539   5.4922   0.00    0.0
2018/03/13 14:20:16.000   78.256758954   16.230345529   388.7511   5   9   2.9650   1.9276  12.0410  -0.6032  -1.2531   5.4916   0.00    0.0
2018/03/13 14:20:17.000   78.256765799   16.230349854   389.8504   5   9   2.9647   1.9275  12.0401  -0.6028  -1.2523   5.4910   0.00    0.0
2018/03/13 14:20:18.000   78.256762921   16.230339595   389.3661   5   9   2.9643   1.9275  12.0393  -0.6025  -1.2515   5.4904   0.00    0.0
2018/03/13 14:20:19.000   78.256761246   16.230332934   388.1414   5   9   2.9640   1.9275  12.0384  -0.6021  -1.2507   5.4897   0.00    0.0
2018/03/13 14:20:20.000   78.256770140   16.230369809   391.9328   5  10   1.8650   1.8934   6.8079  -1.0926  -2.2687   2.6952   0.00    0.0
2018/03/13 14:20:21.000   78.256772456   16.230360287   392.1120   5  10   1.8650   1.8933   6.8086  -1.0925  -2.2686   2.6954   0.00    0.0
2018/03/13 14:20:22.000   78.256771584   16.230362822   392.3963   5  10   1.8650   1.8933   6.8093  -1.0925  -2.2686   2.6955   0.00    0.0
2018/03/13 14:20:23.000   78.256773600   16.230344961   395.1862   5  10   1.8650   1.8932   6.8100  -1.0924  -2.2685   2.6957   0.00    0.0
2018/03/13 14:20:24.000   78.256773552   16.230344086   392.9530   5  10   1.8651   1.8931   6.8107  -1.0924  -2.2684   2.6959   0.00    0.0
2018/03/13 14:20:25.000   78.256774726   16.230377502   392.3649   5  10   1.8651   1.8931   6.8114  -1.0923  -2.2684   2.6960   0.00    0.0
2018/03/13 14:20:26.000   78.256770405   16.230384297   393.4634   5  10   1.8651   1.8930   6.8121  -1.0923  -2.2683   2.6962   0.00    0.0
2018/03/13 14:20:27.000   78.256776754   16.230360738   394.3031   5  10   1.8651   1.8930   6.8128  -1.0923  -2.2683   2.6963   0.00    0.0
2018/03/13 14:20:28.000   78.256774273   16.230358245   393.8966   5  10   1.8651   1.8929   6.8135  -1.0922  -2.2682   2.6965   0.00    0.0
2018/03/13 14:20:29.000   78.256776014   16.230358527   394.4378   5  10   1.8651   1.8928   6.8142  -1.0922  -2.2681   2.6967   0.00    0.0
2018/03/13 14:20:30.000   78.256775812   16.230353005   393.9049   5  10   1.8651   1.8928   6.8149  -1.0921  -2.2681   2.6968   0.00    0.0
