% program   : RTKPOST ver.2.4.2
% inp file  : Z:\home\linda\Documents\Spring18\GitHub_Unis\data\processed_data\46250727.obs
% inp file  : Z:\home\linda\Documents\Spring18\GitHub_Unis\data\processed_data\46250727.nav
% obs start : 2018/03/13 14:41:01.0 GPST (week1992 225661.0s)
% obs end   : 2018/03/13 14:56:01.0 GPST (week1992 226561.0s)
% pos mode  : single
% elev mask : 15.0 deg
% ionos opt : broadcast
% tropo opt : saastamoinen
% ephemeris : broadcast
% navi sys  : gps glonass galileo qzss sbas
%
% (lat/lon/height=WGS84/ellipsoidal,Q=1:fix,2:float,3:sbas,4:dgps,5:single,6:ppp,ns=# of satellites)
%  GPST                  latitude(deg) longitude(deg)  height(m)   Q  ns   sdn(m)   sde(m)   sdu(m)  sdne(m)  sdeu(m)  sdun(m) age(s)  ratio
2018/03/13 14:41:01.000   78.256788583   16.230318424   395.7845   5  11   1.5960   1.5353   5.7795  -0.2025   0.6071   1.8414   0.00    0.0
2018/03/13 14:41:02.000   78.256784719   16.230330907   394.8661   5  11   1.5960   1.5353   5.7800  -0.2023   0.6076   1.8415   0.00    0.0
2018/03/13 14:41:03.000   78.256781185   16.230332554   393.0746   5  11   1.5961   1.5353   5.7804  -0.2022   0.6080   1.8417   0.00    0.0
2018/03/13 14:41:04.000   78.256783663   16.230340446   393.9463   5  11   1.5961   1.5352   5.7809  -0.2020   0.6085   1.8419   0.00    0.0
2018/03/13 14:41:05.000   78.256784799   16.230335550   395.6291   5  11   1.5961   1.5352   5.7813  -0.2019   0.6090   1.8421   0.00    0.0
2018/03/13 14:41:06.000   78.256783538   16.230354467   395.0002   5  11   1.5962   1.5352   5.7818  -0.2017   0.6094   1.8423   0.00    0.0
2018/03/13 14:41:07.000   78.256789182   16.230353950   396.9312   5  11   1.5962   1.5352   5.7822  -0.2015   0.6099   1.8424   0.00    0.0
2018/03/13 14:41:08.000   78.256790501   16.230350776   397.3547   5  11   1.5962   1.5352   5.7827  -0.2014   0.6104   1.8426   0.00    0.0
2018/03/13 14:41:09.000   78.256786882   16.230350636   396.7088   5  11   1.5963   1.5351   5.7831  -0.2012   0.6108   1.8428   0.00    0.0
2018/03/13 14:41:10.000   78.256784240   16.230353036   395.5608   5  11   1.5963   1.5351   5.7836  -0.2010   0.6113   1.8430   0.00    0.0
2018/03/13 14:41:11.000   78.256787582   16.230327630   396.2454   5  11   1.5964   1.5351   5.7840  -0.2009   0.6117   1.8431   0.00    0.0
2018/03/13 14:41:12.000   78.256786560   16.230337209   396.5686   5  11   1.5964   1.5351   5.7845  -0.2007   0.6122   1.8433   0.00    0.0
2018/03/13 14:41:13.000   78.256786033   16.230339862   394.7886   5  11   1.5964   1.5351   5.7849  -0.2005   0.6127   1.8435   0.00    0.0
2018/03/13 14:41:14.000   78.256784373   16.230345326   395.2225   5  11   1.5965   1.5350   5.7854  -0.2004   0.6131   1.8437   0.00    0.0
2018/03/13 14:41:15.000   78.256785833   16.230325788   396.0046   5  11   1.5965   1.5350   5.7858  -0.2002   0.6136   1.8439   0.00    0.0
2018/03/13 14:41:16.000   78.256785996   16.230336807   395.5340   5  11   1.5965   1.5350   5.7863  -0.2001   0.6140   1.8440   0.00    0.0
2018/03/13 14:41:17.000   78.256784966   16.230339374   395.0965   5  11   1.5966   1.5350   5.7867  -0.1999   0.6145   1.8442   0.00    0.0
2018/03/13 14:41:18.000   78.256787917   16.230352103   396.0617   5  11   1.5966   1.5350   5.7872  -0.1997   0.6150   1.8444   0.00    0.0
2018/03/13 14:41:19.000   78.256789978   16.230348695   396.3398   5  11   1.5967   1.5350   5.7876  -0.1996   0.6154   1.8446   0.00    0.0
2018/03/13 14:41:20.000   78.256788475   16.230341381   396.6649   5  11   1.5967   1.5349   5.7881  -0.1994   0.6159   1.8448   0.00    0.0
2018/03/13 14:41:21.000   78.256791561   16.230350078   397.2142   5  11   1.5967   1.5349   5.7885  -0.1992   0.6163   1.8449   0.00    0.0
2018/03/13 14:41:22.000   78.256791745   16.230355304   397.1595   5  11   1.5968   1.5349   5.7890  -0.1991   0.6168   1.8451   0.00    0.0
2018/03/13 14:41:23.000   78.256789386   16.230355399   395.8721   5  11   1.5968   1.5349   5.7894  -0.1989   0.6173   1.8453   0.00    0.0
2018/03/13 14:41:24.000   78.256788439   16.230344264   396.1750   5  11   1.5968   1.5349   5.7898  -0.1987   0.6177   1.8455   0.00    0.0
2018/03/13 14:41:25.000   78.256786829   16.230358028   394.4162   5  11   1.5969   1.5348   5.7903  -0.1986   0.6182   1.8456   0.00    0.0
2018/03/13 14:41:26.000   78.256787771   16.230344213   394.8376   5  11   1.5969   1.5348   5.7907  -0.1984   0.6186   1.8458   0.00    0.0
2018/03/13 14:41:27.000   78.256787072   16.230325328   394.9219   5  11   1.5970   1.5348   5.7912  -0.1982   0.6191   1.8460   0.00    0.0
2018/03/13 14:41:28.000   78.256789513   16.230325055   395.2884   5  11   1.5970   1.5348   5.7916  -0.1981   0.6195   1.8462   0.00    0.0
2018/03/13 14:41:29.000   78.256791109   16.230338409   395.7329   5  11   1.5970   1.5348   5.7920  -0.1979   0.6200   1.8464   0.00    0.0
2018/03/13 14:41:30.000   78.256788534   16.230349955   395.5866   5  11   1.5971   1.5347   5.7925  -0.1977   0.6205   1.8465   0.00    0.0
2018/03/13 14:41:31.000   78.256789370   16.230369383   394.6305   5  11   1.5971   1.5347   5.7929  -0.1976   0.6209   1.8467   0.00    0.0
2018/03/13 14:41:32.000   78.256791903   16.230378464   396.0025   5  11   1.5971   1.5347   5.7934  -0.1974   0.6214   1.8469   0.00    0.0
2018/03/13 14:41:33.000   78.256795208   16.230361028   395.7269   5  11   1.5972   1.5347   5.7938  -0.1972   0.6218   1.8471   0.00    0.0
2018/03/13 14:41:34.000   78.256796180   16.230350035   395.5400   5  11   1.5972   1.5347   5.7942  -0.1971   0.6223   1.8472   0.00    0.0
2018/03/13 14:41:35.000   78.256796061   16.230338538   395.9815   5  11   1.5972   1.5346   5.7947  -0.1969   0.6227   1.8474   0.00    0.0
2018/03/13 14:41:36.000   78.256794872   16.230341320   397.1379   5  11   1.5973   1.5346   5.7951  -0.1967   0.6232   1.8476   0.00    0.0
2018/03/13 14:41:37.000   78.256788982   16.230343943   394.9050   5  11   1.5973   1.5346   5.7955  -0.1966   0.6236   1.8478   0.00    0.0
2018/03/13 14:41:38.000   78.256786822   16.230349460   393.9777   5  11   1.5974   1.5346   5.7960  -0.1964   0.6241   1.8479   0.00    0.0
2018/03/13 14:41:39.000   78.256784797   16.230346917   393.8556   5  11   1.5974   1.5346   5.7964  -0.1963   0.6245   1.8481   0.00    0.0
2018/03/13 14:41:40.000   78.256784150   16.230327665   392.9889   5  11   1.5974   1.5345   5.7968  -0.1961   0.6250   1.8483   0.00    0.0
2018/03/13 14:41:41.000   78.256786352   16.230334788   395.1144   5  11   1.5975   1.5345   5.7973  -0.1959   0.6254   1.8485   0.00    0.0
2018/03/13 14:41:42.000   78.256791512   16.230346738   396.4170   5  11   1.5975   1.5345   5.7977  -0.1958   0.6259   1.8486   0.00    0.0
2018/03/13 14:41:43.000   78.256791998   16.230357579   395.3770   5  11   1.5975   1.5345   5.7981  -0.1956   0.6263   1.8488   0.00    0.0
2018/03/13 14:41:44.000   78.256794532   16.230357353   396.5004   5  11   1.5976   1.5345   5.7986  -0.1954   0.6268   1.8490   0.00    0.0
2018/03/13 14:41:45.000   78.256791954   16.230351627   396.0574   5  11   1.5976   1.5345   5.7990  -0.1953   0.6272   1.8492   0.00    0.0
2018/03/13 14:41:46.000   78.256789302   16.230358018   395.7801   5  11   1.5977   1.5344   5.7994  -0.1951   0.6277   1.8493   0.00    0.0
2018/03/13 14:41:47.000   78.256788605   16.230368401   394.9876   5  11   1.5977   1.5344   5.7999  -0.1949   0.6281   1.8495   0.00    0.0
2018/03/13 14:41:48.000   78.256786121   16.230356090   395.5321   5  11   1.5977   1.5344   5.8003  -0.1948   0.6286   1.8497   0.00    0.0
2018/03/13 14:41:49.000   78.256785581   16.230339289   394.8096   5  11   1.5978   1.5344   5.8007  -0.1946   0.6290   1.8499   0.00    0.0
2018/03/13 14:41:50.000   78.256785801   16.230331130   393.9575   5  11   1.5978   1.5344   5.8011  -0.1944   0.6295   1.8500   0.00    0.0
2018/03/13 14:41:51.000   78.256786680   16.230319548   394.9540   5  11   1.5978   1.5343   5.8016  -0.1943   0.6299   1.8502   0.00    0.0
2018/03/13 14:41:52.000   78.256784316   16.230324014   394.4032   5  11   1.5979   1.5343   5.8020  -0.1941   0.6304   1.8504   0.00    0.0
2018/03/13 14:41:53.000   78.256785219   16.230351151   395.6049   5  11   1.5979   1.5343   5.8024  -0.1939   0.6308   1.8506   0.00    0.0
2018/03/13 14:41:54.000   78.256787115   16.230355958   396.4043   5  11   1.5980   1.5343   5.8028  -0.1937   0.6313   1.8507   0.00    0.0
2018/03/13 14:41:55.000   78.256790056   16.230355973   396.4251   5  11   1.5980   1.5343   5.8033  -0.1936   0.6317   1.8509   0.00    0.0
2018/03/13 14:41:56.000   78.256793764   16.230339695   396.4981   5  11   1.5980   1.5342   5.8037  -0.1934   0.6321   1.8511   0.00    0.0
2018/03/13 14:41:57.000   78.256795072   16.230343534   396.7811   5  11   1.5981   1.5342   5.8041  -0.1932   0.6326   1.8513   0.00    0.0
2018/03/13 14:41:58.000   78.256795865   16.230326698   397.0112   5  11   1.5981   1.5342   5.8045  -0.1931   0.6330   1.8514   0.00    0.0
2018/03/13 14:41:59.000   78.256789075   16.230347677   396.0232   5  11   1.5981   1.5342   5.8050  -0.1929   0.6335   1.8516   0.00    0.0
2018/03/13 14:42:00.000   78.256785512   16.230345099   394.1924   5  11   1.5982   1.5342   5.8054  -0.1927   0.6339   1.8518   0.00    0.0
2018/03/13 14:42:01.000   78.256782672   16.230347693   393.7335   5  11   1.5982   1.5342   5.8058  -0.1926   0.6344   1.8520   0.00    0.0
2018/03/13 14:42:02.000   78.256778531   16.230333629   393.0626   5  11   1.5983   1.5341   5.8062  -0.1924   0.6348   1.8521   0.00    0.0
2018/03/13 14:42:03.000   78.256782257   16.230336811   394.7792   5  11   1.5983   1.5341   5.8066  -0.1922   0.6353   1.8523   0.00    0.0
2018/03/13 14:42:04.000   78.256784792   16.230337451   394.5691   5  11   1.5983   1.5341   5.8071  -0.1921   0.6357   1.8525   0.00    0.0
2018/03/13 14:42:05.000   78.256793242   16.230337567   396.3061   5  11   1.5984   1.5341   5.8075  -0.1919   0.6361   1.8526   0.00    0.0
2018/03/13 14:42:06.000   78.256791848   16.230340695   396.2886   5  11   1.5984   1.5341   5.8079  -0.1917   0.6366   1.8528   0.00    0.0
2018/03/13 14:42:07.000   78.256791141   16.230358481   396.3582   5  11   1.5984   1.5340   5.8083  -0.1916   0.6370   1.8530   0.00    0.0
2018/03/13 14:42:08.000   78.256794555   16.230333342   397.2755   5  11   1.5985   1.5340   5.8087  -0.1914   0.6375   1.8532   0.00    0.0
2018/03/13 14:42:09.000   78.256790546   16.230342759   395.8846   5  11   1.5985   1.5340   5.8091  -0.1912   0.6379   1.8533   0.00    0.0
2018/03/13 14:42:10.000   78.256789414   16.230346153   394.8695   5  11   1.5986   1.5340   5.8096  -0.1911   0.6383   1.8535   0.00    0.0
2018/03/13 14:42:11.000   78.256786327   16.230352082   394.7609   5  11   1.5986   1.5340   5.8100  -0.1909   0.6388   1.8537   0.00    0.0
2018/03/13 14:42:12.000   78.256787147   16.230335324   394.4477   5  11   1.5986   1.5339   5.8104  -0.1907   0.6392   1.8539   0.00    0.0
2018/03/13 14:42:13.000   78.256785879   16.230337851   394.5794   5  11   1.5987   1.5339   5.8108  -0.1906   0.6397   1.8540   0.00    0.0
2018/03/13 14:42:14.000   78.256786342   16.230344027   393.6673   5  11   1.5987   1.5339   5.8112  -0.1904   0.6401   1.8542   0.00    0.0
2018/03/13 14:42:15.000   78.256786642   16.230341516   394.1268   5  11   1.5987   1.5339   5.8116  -0.1902   0.6405   1.8544   0.00    0.0
2018/03/13 14:42:16.000   78.256788630   16.230346737   394.2152   5  11   1.5988   1.5339   5.8120  -0.1900   0.6410   1.8545   0.00    0.0
2018/03/13 14:42:17.000   78.256789701   16.230341386   395.7071   5  11   1.5988   1.5339   5.8125  -0.1899   0.6414   1.8547   0.00    0.0
2018/03/13 14:42:18.000   78.256790950   16.230348298   395.8082   5  11   1.5989   1.5338   5.8129  -0.1897   0.6418   1.8549   0.00    0.0
2018/03/13 14:42:19.000   78.256794038   16.230342562   396.4894   5  11   1.5989   1.5338   5.8133  -0.1895   0.6423   1.8551   0.00    0.0
2018/03/13 14:42:20.000   78.256795359   16.230334643   396.5187   5  11   1.5989   1.5338   5.8137  -0.1894   0.6427   1.8552   0.00    0.0
2018/03/13 14:42:21.000   78.256795091   16.230347956   395.0912   5  11   1.5990   1.5338   5.8141  -0.1892   0.6431   1.8554   0.00    0.0
2018/03/13 14:42:22.000   78.256791309   16.230351595   393.8254   5  11   1.5990   1.5338   5.8145  -0.1890   0.6436   1.8556   0.00    0.0
2018/03/13 14:42:23.000   78.256788318   16.230354947   394.0600   5  11   1.5990   1.5337   5.8149  -0.1889   0.6440   1.8557   0.00    0.0
2018/03/13 14:42:24.000   78.256786314   16.230340168   394.2862   5  11   1.5991   1.5337   5.8153  -0.1887   0.6444   1.8559   0.00    0.0
2018/03/13 14:42:25.000   78.256790686   16.230337184   395.2070   5  11   1.5991   1.5337   5.8157  -0.1885   0.6449   1.8561   0.00    0.0
2018/03/13 14:42:26.000   78.256788129   16.230337205   395.2542   5  11   1.5992   1.5337   5.8161  -0.1883   0.6453   1.8563   0.00    0.0
2018/03/13 14:42:27.000   78.256787961   16.230338546   393.9023   5  11   1.5992   1.5337   5.8165  -0.1882   0.6457   1.8564   0.00    0.0
2018/03/13 14:42:28.000   78.256784979   16.230340242   394.0309   5  11   1.5992   1.5337   5.8169  -0.1880   0.6462   1.8566   0.00    0.0
2018/03/13 14:42:29.000   78.256788535   16.230357193   395.5447   5  11   1.5993   1.5336   5.8173  -0.1878   0.6466   1.8568   0.00    0.0
2018/03/13 14:42:30.000   78.256791266   16.230354232   395.7812   5  11   1.5993   1.5336   5.8177  -0.1877   0.6470   1.8569   0.00    0.0
2018/03/13 14:42:31.000   78.256791664   16.230354997   394.8787   5  11   1.5993   1.5336   5.8181  -0.1875   0.6475   1.8571   0.00    0.0
2018/03/13 14:42:32.000   78.256793112   16.230350596   395.6035   5  11   1.5994   1.5336   5.8186  -0.1873   0.6479   1.8573   0.00    0.0
2018/03/13 14:42:33.000   78.256794129   16.230344612   396.0372   5  11   1.5994   1.5336   5.8190  -0.1871   0.6483   1.8574   0.00    0.0
2018/03/13 14:42:34.000   78.256790853   16.230338885   395.4649   5  11   1.5995   1.5335   5.8194  -0.1870   0.6488   1.8576   0.00    0.0
2018/03/13 14:42:35.000   78.256790175   16.230344710   395.1184   5  11   1.5995   1.5335   5.8198  -0.1868   0.6492   1.8578   0.00    0.0
2018/03/13 14:42:36.000   78.256784121   16.230342955   394.3955   5  11   1.5995   1.5335   5.8202  -0.1866   0.6496   1.8579   0.00    0.0
2018/03/13 14:42:37.000   78.256788397   16.230346541   395.0922   5  11   1.5996   1.5335   5.8206  -0.1865   0.6501   1.8581   0.00    0.0
2018/03/13 14:42:38.000   78.256786034   16.230336553   393.5297   5  11   1.5996   1.5335   5.8210  -0.1863   0.6505   1.8583   0.00    0.0
2018/03/13 14:42:39.000   78.256788471   16.230326143   395.1900   5  11   1.5996   1.5334   5.8214  -0.1861   0.6509   1.8585   0.00    0.0
2018/03/13 14:42:40.000   78.256790592   16.230333292   395.3967   5  11   1.5997   1.5334   5.8217  -0.1860   0.6513   1.8586   0.00    0.0
2018/03/13 14:42:41.000   78.256790671   16.230348282   394.8471   5  11   1.5997   1.5334   5.8221  -0.1858   0.6518   1.8588   0.00    0.0
2018/03/13 14:42:42.000   78.256792785   16.230347552   395.7871   5  11   1.5998   1.5334   5.8225  -0.1856   0.6522   1.8590   0.00    0.0
2018/03/13 14:42:43.000   78.256791459   16.230350070   395.4639   5  11   1.5998   1.5334   5.8229  -0.1854   0.6526   1.8591   0.00    0.0
2018/03/13 14:42:44.000   78.256793601   16.230348779   395.5087   5  11   1.5998   1.5334   5.8233  -0.1853   0.6531   1.8593   0.00    0.0
2018/03/13 14:42:45.000   78.256790003   16.230350371   394.0948   5  11   1.5999   1.5333   5.8237  -0.1851   0.6535   1.8595   0.00    0.0
2018/03/13 14:42:46.000   78.256788078   16.230347826   395.3914   5  11   1.5999   1.5333   5.8241  -0.1849   0.6539   1.8596   0.00    0.0
2018/03/13 14:42:47.000   78.256789210   16.230338123   396.8866   5  11   1.5999   1.5333   5.8245  -0.1847   0.6543   1.8598   0.00    0.0
2018/03/13 14:42:48.000   78.256787651   16.230329609   395.9430   5  11   1.6000   1.5333   5.8249  -0.1846   0.6548   1.8600   0.00    0.0
2018/03/13 14:42:49.000   78.256788564   16.230326146   395.4429   5  11   1.6000   1.5333   5.8253  -0.1844   0.6552   1.8601   0.00    0.0
2018/03/13 14:42:50.000   78.256784904   16.230335782   394.9320   5  11   1.6001   1.5333   5.8257  -0.1842   0.6556   1.8603   0.00    0.0
2018/03/13 14:42:51.000   78.256789409   16.230338069   395.4891   5  11   1.6001   1.5332   5.8261  -0.1841   0.6560   1.8605   0.00    0.0
2018/03/13 14:42:52.000   78.256785483   16.230351622   394.0590   5  11   1.6001   1.5332   5.8265  -0.1839   0.6565   1.8606   0.00    0.0
2018/03/13 14:42:53.000   78.256789609   16.230363436   394.3286   5  11   1.6002   1.5332   5.8269  -0.1837   0.6569   1.8608   0.00    0.0
2018/03/13 14:42:54.000   78.256789935   16.230355974   395.5514   5  11   1.6002   1.5332   5.8272  -0.1835   0.6573   1.8610   0.00    0.0
2018/03/13 14:42:55.000   78.256792180   16.230345877   396.2115   5  11   1.6002   1.5332   5.8276  -0.1834   0.6577   1.8611   0.00    0.0
2018/03/13 14:42:56.000   78.256792442   16.230334377   396.4980   5  11   1.6003   1.5331   5.8280  -0.1832   0.6581   1.8613   0.00    0.0
2018/03/13 14:42:57.000   78.256790387   16.230348113   396.6227   5  11   1.6003   1.5331   5.8284  -0.1830   0.6586   1.8615   0.00    0.0
2018/03/13 14:42:58.000   78.256786435   16.230343672   394.6132   5  11   1.6004   1.5331   5.8288  -0.1828   0.6590   1.8616   0.00    0.0
2018/03/13 14:42:59.000   78.256783712   16.230344490   392.8704   5  11   1.6004   1.5331   5.8292  -0.1827   0.6594   1.8618   0.00    0.0
2018/03/13 14:43:00.000   78.256786036   16.230335427   394.6577   5  11   1.6004   1.5331   5.8296  -0.1825   0.6598   1.8620   0.00    0.0
2018/03/13 14:43:01.000   78.256785563   16.230330262   394.3092   5  11   1.6005   1.5331   5.8300  -0.1823   0.6603   1.8621   0.00    0.0
2018/03/13 14:43:02.000   78.256789618   16.230339678   393.8850   5  11   1.6005   1.5330   5.8303  -0.1822   0.6607   1.8623   0.00    0.0
2018/03/13 14:43:03.000   78.256786056   16.230352491   394.3855   5  11   1.6005   1.5330   5.8307  -0.1820   0.6611   1.8625   0.00    0.0
2018/03/13 14:43:04.000   78.256787319   16.230350531   395.6775   5  11   1.6006   1.5330   5.8311  -0.1818   0.6615   1.8626   0.00    0.0
2018/03/13 14:43:05.000   78.256788390   16.230358533   395.2727   5  11   1.6006   1.5330   5.8315  -0.1816   0.6619   1.8628   0.00    0.0
2018/03/13 14:43:06.000   78.256785005   16.230341424   394.0804   5  11   1.6007   1.5330   5.8319  -0.1815   0.6623   1.8630   0.00    0.0
2018/03/13 14:43:07.000   78.256790392   16.230336712   395.9634   5  11   1.6007   1.5329   5.8322  -0.1813   0.6628   1.8631   0.00    0.0
2018/03/13 14:43:08.000   78.256791108   16.230333067   395.4253   5  11   1.6007   1.5329   5.8326  -0.1811   0.6632   1.8633   0.00    0.0
2018/03/13 14:43:09.000   78.256795158   16.230341320   395.9311   5  11   1.6008   1.5329   5.8330  -0.1809   0.6636   1.8635   0.00    0.0
2018/03/13 14:43:10.000   78.256790676   16.230338502   393.8968   5  11   1.6008   1.5329   5.8334  -0.1808   0.6640   1.8636   0.00    0.0
2018/03/13 14:43:11.000   78.256786576   16.230340502   394.2157   5  11   1.6008   1.5329   5.8338  -0.1806   0.6644   1.8638   0.00    0.0
2018/03/13 14:43:12.000   78.256785697   16.230334472   393.3411   5  11   1.6009   1.5329   5.8341  -0.1804   0.6649   1.8640   0.00    0.0
2018/03/13 14:43:13.000   78.256785400   16.230343628   392.8957   5  11   1.6009   1.5328   5.8345  -0.1802   0.6653   1.8641   0.00    0.0
2018/03/13 14:43:14.000   78.256783312   16.230340498   392.3707   5  11   1.6010   1.5328   5.8349  -0.1801   0.6657   1.8643   0.00    0.0
2018/03/13 14:43:15.000   78.256782762   16.230343358   393.4487   5  11   1.6010   1.5328   5.8353  -0.1799   0.6661   1.8644   0.00    0.0
2018/03/13 14:43:16.000   78.256787407   16.230335159   393.9620   5  11   1.6010   1.5328   5.8356  -0.1797   0.6665   1.8646   0.00    0.0
2018/03/13 14:43:17.000   78.256788538   16.230346687   395.4894   5  11   1.6011   1.5328   5.8360  -0.1795   0.6669   1.8648   0.00    0.0
2018/03/13 14:43:18.000   78.256791255   16.230344772   395.8010   5  11   1.6011   1.5328   5.8364  -0.1794   0.6673   1.8649   0.00    0.0
2018/03/13 14:43:19.000   78.256790530   16.230351674   395.3563   5  11   1.6011   1.5327   5.8368  -0.1792   0.6678   1.8651   0.00    0.0
2018/03/13 14:43:20.000   78.256789670   16.230356179   394.5489   5  11   1.6012   1.5327   5.8371  -0.1790   0.6682   1.8653   0.00    0.0
2018/03/13 14:43:21.000   78.256791003   16.230361862   394.7269   5  11   1.6012   1.5327   5.8375  -0.1788   0.6686   1.8654   0.00    0.0
2018/03/13 14:43:22.000   78.256788810   16.230338488   395.3606   5  11   1.6013   1.5327   5.8379  -0.1787   0.6690   1.8656   0.00    0.0
2018/03/13 14:43:23.000   78.256791520   16.230330598   395.7406   5  11   1.6013   1.5327   5.8383  -0.1785   0.6694   1.8658   0.00    0.0
2018/03/13 14:43:24.000   78.256788926   16.230325841   394.9126   5  11   1.6013   1.5326   5.8386  -0.1783   0.6698   1.8659   0.00    0.0
2018/03/13 14:43:25.000   78.256781625   16.230336609   393.6176   5  11   1.6014   1.5326   5.8390  -0.1781   0.6702   1.8661   0.00    0.0
2018/03/13 14:43:26.000   78.256782562   16.230342747   394.0772   5  11   1.6014   1.5326   5.8394  -0.1780   0.6706   1.8662   0.00    0.0
2018/03/13 14:43:27.000   78.256783486   16.230356991   394.3373   5  11   1.6015   1.5326   5.8397  -0.1778   0.6711   1.8664   0.00    0.0
2018/03/13 14:43:28.000   78.256787070   16.230345120   394.8941   5  11   1.6015   1.5326   5.8401  -0.1776   0.6715   1.8666   0.00    0.0
2018/03/13 14:43:29.000   78.256788292   16.230342624   394.2487   5  11   1.6015   1.5326   5.8405  -0.1774   0.6719   1.8667   0.00    0.0
2018/03/13 14:43:30.000   78.256789409   16.230351980   394.6947   5  11   1.6016   1.5325   5.8408  -0.1773   0.6723   1.8669   0.00    0.0
2018/03/13 14:43:31.000   78.256789941   16.230345473   395.5940   5  11   1.6016   1.5325   5.8412  -0.1771   0.6727   1.8670   0.00    0.0
2018/03/13 14:43:32.000   78.256789683   16.230339993   395.4499   5  11   1.6016   1.5325   5.8416  -0.1769   0.6731   1.8672   0.00    0.0
2018/03/13 14:43:33.000   78.256789742   16.230342239   394.0159   5  11   1.6017   1.5325   5.8419  -0.1767   0.6735   1.8674   0.00    0.0
2018/03/13 14:43:34.000   78.256787696   16.230345848   393.8929   5  11   1.6017   1.5325   5.8423  -0.1765   0.6739   1.8675   0.00    0.0
2018/03/13 14:43:35.000   78.256789112   16.230348508   394.0900   5  11   1.6018   1.5325   5.8427  -0.1764   0.6743   1.8677   0.00    0.0
2018/03/13 14:43:36.000   78.256786731   16.230334188   394.0246   5  11   1.6018   1.5324   5.8430  -0.1762   0.6747   1.8679   0.00    0.0
2018/03/13 14:43:37.000   78.256789065   16.230332362   394.6154   5  11   1.6018   1.5324   5.8434  -0.1760   0.6751   1.8680   0.00    0.0
2018/03/13 14:43:38.000   78.256786525   16.230324100   394.6096   5  11   1.6019   1.5324   5.8437  -0.1758   0.6756   1.8682   0.00    0.0
2018/03/13 14:43:39.000   78.256788683   16.230339562   394.8986   5  11   1.6019   1.5324   5.8441  -0.1757   0.6760   1.8683   0.00    0.0
2018/03/13 14:43:40.000   78.256786699   16.230343398   394.9680   5  11   1.6019   1.5324   5.8445  -0.1755   0.6764   1.8685   0.00    0.0
2018/03/13 14:43:41.000   78.256782979   16.230350779   394.4060   5  11   1.6020   1.5323   5.8448  -0.1753   0.6768   1.8687   0.00    0.0
2018/03/13 14:43:42.000   78.256782710   16.230354574   394.6601   5  11   1.6020   1.5323   5.8452  -0.1751   0.6772   1.8688   0.00    0.0
2018/03/13 14:43:43.000   78.256787190   16.230357081   395.1633   5  11   1.6021   1.5323   5.8455  -0.1750   0.6776   1.8690   0.00    0.0
2018/03/13 14:43:44.000   78.256790005   16.230345518   395.6663   5  11   1.6021   1.5323   5.8459  -0.1748   0.6780   1.8691   0.00    0.0
2018/03/13 14:43:45.000   78.256789115   16.230333842   394.1775   5  11   1.6021   1.5323   5.8463  -0.1746   0.6784   1.8693   0.00    0.0
2018/03/13 14:43:46.000   78.256788860   16.230343368   394.5980   5  11   1.6022   1.5323   5.8466  -0.1744   0.6788   1.8695   0.00    0.0
2018/03/13 14:43:47.000   78.256786387   16.230329286   394.4284   5  11   1.6022   1.5322   5.8470  -0.1742   0.6792   1.8696   0.00    0.0
2018/03/13 14:43:48.000   78.256785767   16.230335623   395.0501   5  11   1.6022   1.5322   5.8473  -0.1741   0.6796   1.8698   0.00    0.0
2018/03/13 14:43:49.000   78.256784768   16.230339753   394.3963   5  11   1.6023   1.5322   5.8477  -0.1739   0.6800   1.8699   0.00    0.0
2018/03/13 14:43:50.000   78.256783134   16.230363732   394.2619   5  11   1.6023   1.5322   5.8480  -0.1737   0.6804   1.8701   0.00    0.0
2018/03/13 14:43:51.000   78.256787138   16.230357842   394.1469   5  11   1.6024   1.5322   5.8484  -0.1735   0.6808   1.8703   0.00    0.0
2018/03/13 14:43:52.000   78.256790127   16.230342852   395.4041   5  11   1.6024   1.5322   5.8487  -0.1734   0.6812   1.8704   0.00    0.0
2018/03/13 14:43:53.000   78.256791174   16.230332157   396.3325   5  11   1.6024   1.5321   5.8491  -0.1732   0.6816   1.8706   0.00    0.0
2018/03/13 14:43:54.000   78.256792673   16.230346696   396.9280   5  11   1.6025   1.5321   5.8494  -0.1730   0.6820   1.8707   0.00    0.0
2018/03/13 14:43:55.000   78.256785194   16.230335352   394.2084   5  11   1.6025   1.5321   5.8498  -0.1728   0.6824   1.8709   0.00    0.0
2018/03/13 14:43:56.000   78.256786291   16.230332265   394.2805   5  11   1.6025   1.5321   5.8501  -0.1726   0.6828   1.8711   0.00    0.0
2018/03/13 14:43:57.000   78.256785295   16.230349628   393.8952   5  11   1.6026   1.5321   5.8505  -0.1725   0.6832   1.8712   0.00    0.0
2018/03/13 14:43:58.000   78.256783311   16.230359572   392.9687   5  11   1.6026   1.5321   5.8508  -0.1723   0.6836   1.8714   0.00    0.0
2018/03/13 14:43:59.000   78.256786006   16.230349982   394.4380   5  11   1.6027   1.5320   5.8512  -0.1721   0.6840   1.8715   0.00    0.0
2018/03/13 14:44:00.000   78.256788404   16.230342195   396.3123   5  11   1.6027   1.5320   5.8515  -0.1719   0.6844   1.8717   0.00    0.0
2018/03/13 14:44:01.000   78.256788250   16.230340617   396.2636   5  11   1.6027   1.5320   5.8519  -0.1717   0.6848   1.8718   0.00    0.0
2018/03/13 14:44:02.000   78.256788986   16.230342846   395.4059   5  11   1.6028   1.5320   5.8522  -0.1716   0.6852   1.8720   0.00    0.0
2018/03/13 14:44:03.000   78.256788086   16.230353732   394.8307   5  11   1.6028   1.5320   5.8526  -0.1714   0.6856   1.8722   0.00    0.0
2018/03/13 14:44:04.000   78.256787269   16.230341008   392.8036   5  11   1.6028   1.5320   5.8529  -0.1712   0.6860   1.8723   0.00    0.0
2018/03/13 14:44:05.000   78.256784756   16.230356654   393.0351   5  11   1.6029   1.5319   5.8533  -0.1710   0.6864   1.8725   0.00    0.0
2018/03/13 14:44:06.000   78.256786737   16.230350805   394.3433   5  11   1.6029   1.5319   5.8536  -0.1708   0.6868   1.8726   0.00    0.0
2018/03/13 14:44:07.000   78.256786597   16.230331613   394.8921   5  11   1.6030   1.5319   5.8539  -0.1707   0.6872   1.8728   0.00    0.0
2018/03/13 14:44:08.000   78.256787574   16.230338631   394.6342   5  11   1.6030   1.5319   5.8543  -0.1705   0.6876   1.8729   0.00    0.0
2018/03/13 14:44:09.000   78.256789604   16.230341993   394.6818   5  11   1.6030   1.5319   5.8546  -0.1703   0.6880   1.8731   0.00    0.0
2018/03/13 14:44:10.000   78.256790356   16.230352159   395.8266   5  11   1.6031   1.5319   5.8550  -0.1701   0.6884   1.8733   0.00    0.0
2018/03/13 14:44:11.000   78.256791210   16.230333506   395.2013   5  11   1.6031   1.5318   5.8553  -0.1699   0.6888   1.8734   0.00    0.0
2018/03/13 14:44:12.000   78.256790291   16.230343624   394.9354   5  11   1.6031   1.5318   5.8556  -0.1698   0.6892   1.8736   0.00    0.0
2018/03/13 14:44:13.000   78.256791253   16.230337859   396.0824   5  11   1.6032   1.5318   5.8560  -0.1696   0.6896   1.8737   0.00    0.0
2018/03/13 14:44:14.000   78.256787244   16.230347512   394.8578   5  11   1.6032   1.5318   5.8563  -0.1694   0.6900   1.8739   0.00    0.0
2018/03/13 14:44:15.000   78.256782593   16.230351028   393.4931   5  11   1.6033   1.5318   5.8567  -0.1692   0.6904   1.8740   0.00    0.0
2018/03/13 14:44:16.000   78.256783444   16.230351237   392.7381   5  11   1.6033   1.5317   5.8570  -0.1690   0.6908   1.8742   0.00    0.0
2018/03/13 14:44:17.000   78.256783175   16.230341469   393.8372   5  11   1.6033   1.5317   5.8573  -0.1689   0.6912   1.8743   0.00    0.0
2018/03/13 14:44:18.000   78.256787159   16.230334013   395.3625   5  11   1.6034   1.5317   5.8577  -0.1687   0.6915   1.8745   0.00    0.0
2018/03/13 14:44:19.000   78.256788238   16.230343169   395.2937   5  11   1.6034   1.5317   5.8580  -0.1685   0.6919   1.8747   0.00    0.0
2018/03/13 14:44:20.000   78.256788821   16.230343164   395.0994   5  11   1.6035   1.5317   5.8583  -0.1683   0.6923   1.8748   0.00    0.0
2018/03/13 14:44:21.000   78.256785343   16.230338980   395.1276   5  11   1.6035   1.5317   5.8587  -0.1681   0.6927   1.8750   0.00    0.0
2018/03/13 14:44:22.000   78.256784770   16.230327716   395.0733   5  11   1.6035   1.5316   5.8590  -0.1680   0.6931   1.8751   0.00    0.0
2018/03/13 14:44:23.000   78.256787151   16.230337676   394.0530   5  11   1.6036   1.5316   5.8593  -0.1678   0.6935   1.8753   0.00    0.0
2018/03/13 14:44:24.000   78.256788199   16.230348660   394.7486   5  11   1.6036   1.5316   5.8597  -0.1676   0.6939   1.8754   0.00    0.0
2018/03/13 14:44:25.000   78.256790453   16.230332669   396.2026   5  11   1.6036   1.5316   5.8600  -0.1674   0.6943   1.8756   0.00    0.0
2018/03/13 14:44:26.000   78.256788642   16.230332425   395.3507   5  11   1.6037   1.5316   5.8603  -0.1672   0.6947   1.8757   0.00    0.0
2018/03/13 14:44:27.000   78.256786864   16.230339051   394.7300   5  11   1.6037   1.5316   5.8607  -0.1670   0.6951   1.8759   0.00    0.0
2018/03/13 14:44:28.000   78.256785931   16.230348999   394.6954   5  11   1.6038   1.5315   5.8610  -0.1669   0.6955   1.8760   0.00    0.0
2018/03/13 14:44:29.000   78.256786192   16.230341040   393.5864   5  11   1.6038   1.5315   5.8613  -0.1667   0.6959   1.8762   0.00    0.0
2018/03/13 14:44:30.000   78.256784748   16.230350215   394.2809   5  11   1.6038   1.5315   5.8616  -0.1665   0.6962   1.8764   0.00    0.0
2018/03/13 14:44:31.000   78.256783357   16.230337573   395.1108   5  11   1.6039   1.5315   5.8620  -0.1663   0.6966   1.8765   0.00    0.0
2018/03/13 14:44:32.000   78.256783590   16.230345509   393.7143   5  11   1.6039   1.5315   5.8623  -0.1661   0.6970   1.8767   0.00    0.0
2018/03/13 14:44:33.000   78.256784224   16.230327277   393.7194   5  11   1.6039   1.5315   5.8626  -0.1659   0.6974   1.8768   0.00    0.0
2018/03/13 14:44:34.000   78.256789321   16.230327673   394.6830   5  11   1.6040   1.5314   5.8629  -0.1658   0.6978   1.8770   0.00    0.0
2018/03/13 14:44:35.000   78.256786945   16.230325363   393.8527   5  11   1.6040   1.5314   5.8633  -0.1656   0.6982   1.8771   0.00    0.0
2018/03/13 14:44:36.000   78.256789636   16.230332741   395.4226   5  11   1.6041   1.5314   5.8636  -0.1654   0.6986   1.8773   0.00    0.0
2018/03/13 14:44:37.000   78.256788062   16.230336682   395.1082   5  11   1.6041   1.5314   5.8639  -0.1652   0.6990   1.8774   0.00    0.0
2018/03/13 14:44:38.000   78.256788961   16.230363928   396.5688   5  11   1.6041   1.5314   5.8642  -0.1650   0.6993   1.8776   0.00    0.0
2018/03/13 14:44:39.000   78.256788456   16.230350649   394.4458   5  11   1.6042   1.5314   5.8646  -0.1649   0.6997   1.8777   0.00    0.0
2018/03/13 14:44:40.000   78.256790975   16.230350896   394.6281   5  11   1.6042   1.5313   5.8649  -0.1647   0.7001   1.8779   0.00    0.0
2018/03/13 14:44:41.000   78.256787296   16.230337795   394.3140   5  11   1.6042   1.5313   5.8652  -0.1645   0.7005   1.8780   0.00    0.0
2018/03/13 14:44:42.000   78.256785231   16.230342851   394.4905   5  11   1.6043   1.5313   5.8655  -0.1643   0.7009   1.8782   0.00    0.0
2018/03/13 14:44:43.000   78.256784249   16.230332019   394.4674   5  11   1.6043   1.5313   5.8658  -0.1641   0.7013   1.8783   0.00    0.0
2018/03/13 14:44:44.000   78.256783831   16.230340383   394.4909   5  11   1.6044   1.5313   5.8662  -0.1639   0.7016   1.8785   0.00    0.0
2018/03/13 14:44:45.000   78.256788064   16.230328551   394.8357   5  11   1.6044   1.5313   5.8665  -0.1637   0.7020   1.8786   0.00    0.0
2018/03/13 14:44:46.000   78.256793056   16.230323066   395.9398   5  11   1.6044   1.5313   5.8668  -0.1636   0.7024   1.8788   0.00    0.0
2018/03/13 14:44:47.000   78.256791461   16.230318753   395.7341   5  11   1.6045   1.5312   5.8671  -0.1634   0.7028   1.8789   0.00    0.0
2018/03/13 14:44:48.000   78.256790577   16.230351657   396.1440   5  11   1.6045   1.5312   5.8674  -0.1632   0.7032   1.8791   0.00    0.0
2018/03/13 14:44:49.000   78.256786044   16.230352146   394.7318   5  11   1.6045   1.5312   5.8677  -0.1630   0.7036   1.8792   0.00    0.0
2018/03/13 14:44:50.000   78.256788038   16.230371359   393.9262   5  11   1.6046   1.5312   5.8680  -0.1628   0.7039   1.8794   0.00    0.0
2018/03/13 14:44:51.000   78.256786165   16.230358393   393.7744   5  11   1.6046   1.5312   5.8684  -0.1626   0.7043   1.8795   0.00    0.0
2018/03/13 14:44:52.000   78.256790374   16.230345295   395.1147   5  11   1.6047   1.5312   5.8687  -0.1625   0.7047   1.8797   0.00    0.0
2018/03/13 14:44:53.000   78.256789093   16.230327982   395.0399   5  11   1.6047   1.5311   5.8690  -0.1623   0.7051   1.8798   0.00    0.0
2018/03/13 14:44:54.000   78.256789322   16.230320857   394.6504   5  11   1.6047   1.5311   5.8693  -0.1621   0.7055   1.8800   0.00    0.0
2018/03/13 14:44:55.000   78.256786129   16.230322159   393.7926   5  11   1.6048   1.5311   5.8696  -0.1619   0.7058   1.8801   0.00    0.0
2018/03/13 14:44:56.000   78.256785741   16.230345211   393.2215   5  11   1.6048   1.5311   5.8699  -0.1617   0.7062   1.8803   0.00    0.0
2018/03/13 14:44:57.000   78.256787996   16.230347365   394.6510   5  11   1.6049   1.5311   5.8702  -0.1615   0.7066   1.8804   0.00    0.0
2018/03/13 14:44:58.000   78.256785740   16.230356705   395.4612   5  11   1.6049   1.5311   5.8705  -0.1613   0.7070   1.8806   0.00    0.0
2018/03/13 14:44:59.000   78.256788065   16.230360391   395.3004   5  11   1.6049   1.5310   5.8708  -0.1612   0.7074   1.8807   0.00    0.0
2018/03/13 14:45:00.000   78.256788990   16.230360372   395.6675   5  11   1.6050   1.5310   5.8711  -0.1610   0.7077   1.8809   0.00    0.0
2018/03/13 14:45:01.000   78.256787439   16.230359201   393.9702   5  11   1.6050   1.5310   5.8715  -0.1608   0.7081   1.8810   0.00    0.0
2018/03/13 14:45:02.000   78.256786967   16.230351494   393.9324   5  11   1.6050   1.5310   5.8718  -0.1606   0.7085   1.8812   0.00    0.0
2018/03/13 14:45:03.000   78.256786235   16.230339160   393.4596   5  11   1.6051   1.5310   5.8721  -0.1604   0.7089   1.8813   0.00    0.0
2018/03/13 14:45:04.000   78.256786031   16.230347102   395.0356   5  11   1.6051   1.5310   5.8724  -0.1602   0.7093   1.8815   0.00    0.0
2018/03/13 14:45:05.000   78.256786291   16.230324377   394.8602   5  11   1.6052   1.5309   5.8727  -0.1600   0.7096   1.8816   0.00    0.0
2018/03/13 14:45:06.000   78.256785594   16.230340854   394.4685   5  11   1.6052   1.5309   5.8730  -0.1599   0.7100   1.8818   0.00    0.0
2018/03/13 14:45:07.000   78.256784099   16.230342776   394.4633   5  11   1.6052   1.5309   5.8733  -0.1597   0.7104   1.8819   0.00    0.0
2018/03/13 14:45:08.000   78.256786635   16.230364336   394.9218   5  11   1.6053   1.5309   5.8736  -0.1595   0.7108   1.8821   0.00    0.0
2018/03/13 14:45:09.000   78.256789572   16.230356723   395.2075   5  11   1.6053   1.5309   5.8739  -0.1593   0.7111   1.8822   0.00    0.0
2018/03/13 14:45:10.000   78.256790582   16.230352442   396.6999   5  11   1.6053   1.5309   5.8742  -0.1591   0.7115   1.8824   0.00    0.0
2018/03/13 14:45:11.000   78.256792748   16.230335359   395.9944   5  11   1.6054   1.5308   5.8745  -0.1589   0.7119   1.8825   0.00    0.0
2018/03/13 14:45:12.000   78.256790291   16.230349056   394.6889   5  11   1.6054   1.5308   5.8748  -0.1587   0.7123   1.8827   0.00    0.0
2018/03/13 14:45:13.000   78.256787661   16.230343957   393.4615   5  11   1.6055   1.5308   5.8751  -0.1586   0.7126   1.8828   0.00    0.0
2018/03/13 14:45:14.000   78.256786344   16.230340819   393.9824   5  11   1.6055   1.5308   5.8754  -0.1584   0.7130   1.8830   0.00    0.0
2018/03/13 14:45:15.000   78.256783531   16.230322640   394.8297   5  11   1.6055   1.5308   5.8757  -0.1582   0.7134   1.8831   0.00    0.0
2018/03/13 14:45:16.000   78.256782427   16.230332448   394.9388   5  11   1.6056   1.5308   5.8760  -0.1580   0.7138   1.8833   0.00    0.0
2018/03/13 14:45:17.000   78.256782013   16.230345372   395.6220   5  11   1.6056   1.5307   5.8763  -0.1578   0.7141   1.8834   0.00    0.0
2018/03/13 14:45:18.000   78.256784759   16.230353765   394.7401   5  11   1.6056   1.5307   5.8766  -0.1576   0.7145   1.8835   0.00    0.0
2018/03/13 14:45:19.000   78.256788350   16.230349395   393.9059   5  11   1.6057   1.5307   5.8769  -0.1574   0.7149   1.8837   0.00    0.0
2018/03/13 14:45:20.000   78.256789580   16.230337980   394.8770   5  11   1.6057   1.5307   5.8772  -0.1572   0.7152   1.8838   0.00    0.0
2018/03/13 14:45:21.000   78.256786465   16.230339211   394.0856   5  11   1.6058   1.5307   5.8774  -0.1571   0.7156   1.8840   0.00    0.0
2018/03/13 14:45:22.000   78.256786725   16.230334234   393.9415   5  11   1.6058   1.5307   5.8777  -0.1569   0.7160   1.8841   0.00    0.0
2018/03/13 14:45:23.000   78.256788267   16.230335059   395.7275   5  11   1.6058   1.5306   5.8780  -0.1567   0.7164   1.8843   0.00    0.0
2018/03/13 14:45:24.000   78.256787154   16.230333819   395.6212   5  11   1.6059   1.5306   5.8783  -0.1565   0.7167   1.8844   0.00    0.0
2018/03/13 14:45:25.000   78.256788182   16.230340986   394.5051   5  11   1.6059   1.5306   5.8786  -0.1563   0.7171   1.8846   0.00    0.0
2018/03/13 14:45:26.000   78.256787361   16.230333013   395.0307   5  11   1.6060   1.5306   5.8789  -0.1561   0.7175   1.8847   0.00    0.0
2018/03/13 14:45:27.000   78.256787525   16.230346885   393.2049   5  11   1.6060   1.5306   5.8792  -0.1559   0.7178   1.8849   0.00    0.0
2018/03/13 14:45:28.000   78.256785447   16.230341577   393.5744   5  11   1.6060   1.5306   5.8795  -0.1557   0.7182   1.8850   0.00    0.0
2018/03/13 14:45:29.000   78.256783817   16.230343583   393.3170   5  11   1.6061   1.5306   5.8798  -0.1555   0.7186   1.8851   0.00    0.0
2018/03/13 14:45:30.000   78.256786132   16.230323463   395.1185   5  11   1.6061   1.5305   5.8801  -0.1554   0.7189   1.8853   0.00    0.0
2018/03/13 14:45:31.000   78.256783090   16.230327807   394.3750   5  11   1.6061   1.5305   5.8803  -0.1552   0.7193   1.8854   0.00    0.0
2018/03/13 14:45:32.000   78.256786621   16.230332460   394.2215   5  11   1.6062   1.5305   5.8806  -0.1550   0.7197   1.8856   0.00    0.0
2018/03/13 14:45:33.000   78.256787274   16.230343295   395.4719   5  11   1.6062   1.5305   5.8809  -0.1548   0.7200   1.8857   0.00    0.0
2018/03/13 14:45:34.000   78.256791528   16.230336757   396.0861   5  11   1.6063   1.5305   5.8812  -0.1546   0.7204   1.8859   0.00    0.0
2018/03/13 14:45:35.000   78.256789529   16.230340402   395.9866   5  11   1.6063   1.5305   5.8815  -0.1544   0.7208   1.8860   0.00    0.0
2018/03/13 14:45:36.000   78.256784548   16.230355193   394.5058   5  11   1.6063   1.5304   5.8818  -0.1542   0.7211   1.8861   0.00    0.0
2018/03/13 14:45:37.000   78.256789562   16.230339212   395.9951   5  11   1.6064   1.5304   5.8820  -0.1540   0.7215   1.8863   0.00    0.0
2018/03/13 14:45:38.000   78.256788265   16.230339125   394.4469   5  11   1.6064   1.5304   5.8823  -0.1538   0.7219   1.8864   0.00    0.0
2018/03/13 14:45:39.000   78.256786858   16.230338289   395.0561   5  11   1.6064   1.5304   5.8826  -0.1537   0.7222   1.8866   0.00    0.0
2018/03/13 14:45:40.000   78.256785948   16.230339523   393.6409   5  11   1.6065   1.5304   5.8829  -0.1535   0.7226   1.8867   0.00    0.0
2018/03/13 14:45:41.000   78.256786675   16.230347920   393.3646   5  11   1.6065   1.5304   5.8832  -0.1533   0.7230   1.8869   0.00    0.0
2018/03/13 14:45:42.000   78.256785435   16.230341167   393.7499   5  11   1.6066   1.5303   5.8834  -0.1531   0.7233   1.8870   0.00    0.0
2018/03/13 14:45:43.000   78.256787720   16.230348124   394.1005   5  11   1.6066   1.5303   5.8837  -0.1529   0.7237   1.8871   0.00    0.0
2018/03/13 14:45:44.000   78.256784570   16.230354251   394.3322   5  11   1.6066   1.5303   5.8840  -0.1527   0.7241   1.8873   0.00    0.0
2018/03/13 14:45:45.000   78.256786274   16.230362888   394.2257   5  11   1.6067   1.5303   5.8843  -0.1525   0.7244   1.8874   0.00    0.0
2018/03/13 14:45:46.000   78.256789013   16.230342573   394.8751   5  11   1.6067   1.5303   5.8845  -0.1523   0.7248   1.8876   0.00    0.0
2018/03/13 14:45:47.000   78.256791408   16.230355860   395.5059   5  11   1.6067   1.5303   5.8848  -0.1521   0.7252   1.8877   0.00    0.0
2018/03/13 14:45:48.000   78.256792567   16.230339255   394.8992   5  11   1.6068   1.5303   5.8851  -0.1519   0.7255   1.8879   0.00    0.0
2018/03/13 14:45:49.000   78.256790634   16.230333168   394.8181   5  11   1.6068   1.5302   5.8854  -0.1517   0.7259   1.8880   0.00    0.0
2018/03/13 14:45:50.000   78.256787659   16.230332514   393.7751   5  11   1.6069   1.5302   5.8856  -0.1516   0.7262   1.8881   0.00    0.0
2018/03/13 14:45:51.000   78.256787352   16.230343165   393.8638   5  11   1.6069   1.5302   5.8859  -0.1514   0.7266   1.8883   0.00    0.0
2018/03/13 14:45:52.000   78.256786772   16.230343044   393.5368   5  11   1.6069   1.5302   5.8862  -0.1512   0.7270   1.8884   0.00    0.0
2018/03/13 14:45:53.000   78.256783053   16.230357323   393.2461   5  11   1.6070   1.5302   5.8865  -0.1510   0.7273   1.8886   0.00    0.0
2018/03/13 14:45:54.000   78.256784936   16.230365438   393.3050   5  11   1.6070   1.5302   5.8867  -0.1508   0.7277   1.8887   0.00    0.0
2018/03/13 14:45:55.000   78.256786375   16.230364599   394.1334   5  11   1.6070   1.5301   5.8870  -0.1506   0.7280   1.8888   0.00    0.0
2018/03/13 14:45:56.000   78.256788734   16.230342692   394.9004   5  11   1.6071   1.5301   5.8873  -0.1504   0.7284   1.8890   0.00    0.0
2018/03/13 14:45:57.000   78.256788967   16.230347139   395.8578   5  11   1.6071   1.5301   5.8875  -0.1502   0.7288   1.8891   0.00    0.0
2018/03/13 14:45:58.000   78.256788382   16.230335403   394.1524   5  11   1.6072   1.5301   5.8878  -0.1500   0.7291   1.8893   0.00    0.0
2018/03/13 14:45:59.000   78.256784657   16.230342717   392.2121   5  11   1.6072   1.5301   5.8881  -0.1498   0.7295   1.8894   0.00    0.0
2018/03/13 14:46:00.000   78.256787425   16.230335414   392.8469   5  11   1.6072   1.5301   5.8883  -0.1496   0.7298   1.8895   0.00    0.0
2018/03/13 14:46:01.000   78.256790697   16.230356727   394.2844   5  11   1.6073   1.5301   5.8886  -0.1494   0.7302   1.8897   0.00    0.0
2018/03/13 14:46:02.000   78.256789516   16.230337005   395.3139   5  11   1.6073   1.5300   5.8889  -0.1492   0.7306   1.8898   0.00    0.0
2018/03/13 14:46:03.000   78.256792170   16.230346809   395.2670   5  11   1.6074   1.5300   5.8891  -0.1491   0.7309   1.8900   0.00    0.0
2018/03/13 14:46:04.000   78.256789324   16.230341131   394.6505   5  11   1.6074   1.5300   5.8894  -0.1489   0.7313   1.8901   0.00    0.0
2018/03/13 14:46:05.000   78.256792680   16.230355221   394.6427   5  11   1.6074   1.5300   5.8897  -0.1487   0.7316   1.8902   0.00    0.0
2018/03/13 14:46:06.000   78.256785432   16.230349194   392.9733   5  11   1.6075   1.5300   5.8899  -0.1485   0.7320   1.8904   0.00    0.0
2018/03/13 14:46:07.000   78.256788088   16.230351345   395.1306   5  11   1.6075   1.5300   5.8902  -0.1483   0.7323   1.8905   0.00    0.0
2018/03/13 14:46:08.000   78.256785073   16.230347915   394.0621   5  11   1.6075   1.5299   5.8904  -0.1481   0.7327   1.8906   0.00    0.0
2018/03/13 14:46:09.000   78.256783610   16.230359228   394.4777   5  11   1.6076   1.5299   5.8907  -0.1479   0.7330   1.8908   0.00    0.0
2018/03/13 14:46:10.000   78.256786511   16.230343468   393.8037   5  11   1.6076   1.5299   5.8910  -0.1477   0.7334   1.8909   0.00    0.0
2018/03/13 14:46:11.000   78.256786660   16.230355275   393.2941   5  11   1.6077   1.5299   5.8912  -0.1475   0.7338   1.8911   0.00    0.0
2018/03/13 14:46:12.000   78.256785868   16.230353198   393.9706   5  11   1.6077   1.5299   5.8915  -0.1473   0.7341   1.8912   0.00    0.0
2018/03/13 14:46:13.000   78.256788878   16.230353127   395.2390   5  11   1.6077   1.5299   5.8917  -0.1471   0.7345   1.8913   0.00    0.0
2018/03/13 14:46:14.000   78.256788757   16.230333792   395.4058   5  11   1.6078   1.5299   5.8920  -0.1469   0.7348   1.8915   0.00    0.0
2018/03/13 14:46:15.000   78.256785894   16.230325122   394.6165   5  11   1.6078   1.5298   5.8922  -0.1467   0.7352   1.8916   0.00    0.0
2018/03/13 14:46:16.000   78.256785771   16.230347150   393.8964   5  11   1.6078   1.5298   5.8925  -0.1465   0.7355   1.8917   0.00    0.0
2018/03/13 14:46:17.000   78.256784449   16.230356070   393.1160   5  11   1.6079   1.5298   5.8927  -0.1463   0.7359   1.8919   0.00    0.0
2018/03/13 14:46:18.000   78.256781074   16.230367385   392.4485   5  11   1.6079   1.5298   5.8930  -0.1461   0.7362   1.8920   0.00    0.0
2018/03/13 14:46:19.000   78.256784947   16.230350483   393.9513   5  11   1.6080   1.5298   5.8933  -0.1460   0.7366   1.8922   0.00    0.0
2018/03/13 14:46:20.000   78.256785481   16.230347485   395.1728   5  11   1.6080   1.5298   5.8935  -0.1458   0.7369   1.8923   0.00    0.0
2018/03/13 14:46:21.000   78.256786978   16.230339980   394.5945   5  11   1.6080   1.5297   5.8938  -0.1456   0.7373   1.8924   0.00    0.0
2018/03/13 14:46:22.000   78.256787062   16.230330814   394.7516   5  11   1.6081   1.5297   5.8940  -0.1454   0.7376   1.8926   0.00    0.0
2018/03/13 14:46:23.000   78.256782917   16.230348163   394.4655   5  11   1.6081   1.5297   5.8943  -0.1452   0.7380   1.8927   0.00    0.0
2018/03/13 14:46:24.000   78.256779785   16.230349917   394.5379   5  10   1.6673   1.5383   6.6388  -0.3045   1.0211   1.4962   0.00    0.0
2018/03/13 14:46:25.000   78.256780256   16.230343647   394.9092   5  10   1.6673   1.5383   6.6398  -0.3044   1.0216   1.4962   0.00    0.0
2018/03/13 14:46:26.000   78.256781307   16.230329421   394.6591   5  10   1.6673   1.5383   6.6408  -0.3044   1.0222   1.4963   0.00    0.0
2018/03/13 14:46:27.000   78.256782449   16.230366657   395.9813   5  10   1.6673   1.5383   6.6418  -0.3043   1.0228   1.4963   0.00    0.0
2018/03/13 14:46:28.000   78.256784200   16.230355116   394.5851   5  10   1.6673   1.5383   6.6428  -0.3043   1.0233   1.4964   0.00    0.0
2018/03/13 14:46:29.000   78.256785712   16.230352728   395.9157   5  10   1.6673   1.5383   6.6438  -0.3043   1.0239   1.4965   0.00    0.0
2018/03/13 14:46:30.000   78.256783568   16.230341590   396.8772   5  10   1.6673   1.5383   6.6448  -0.3042   1.0245   1.4965   0.00    0.0
2018/03/13 14:46:31.000   78.256785149   16.230334137   396.5113   5  10   1.6673   1.5383   6.6458  -0.3042   1.0250   1.4966   0.00    0.0
2018/03/13 14:46:32.000   78.256780804   16.230329416   394.7090   5  10   1.6673   1.5383   6.6468  -0.3041   1.0256   1.4966   0.00    0.0
2018/03/13 14:46:33.000   78.256779604   16.230340077   395.1782   5  10   1.6673   1.5383   6.6478  -0.3041   1.0262   1.4967   0.00    0.0
2018/03/13 14:46:34.000   78.256778527   16.230351127   393.5908   5  10   1.6673   1.5383   6.6488  -0.3041   1.0267   1.4967   0.00    0.0
2018/03/13 14:46:35.000   78.256781301   16.230350399   394.6888   5  10   1.6673   1.5383   6.6498  -0.3040   1.0273   1.4968   0.00    0.0
2018/03/13 14:46:36.000   78.256784698   16.230350754   394.1720   5  10   1.6673   1.5383   6.6508  -0.3040   1.0279   1.4968   0.00    0.0
2018/03/13 14:46:37.000   78.256788148   16.230355539   395.2647   5  10   1.6673   1.5383   6.6518  -0.3039   1.0284   1.4969   0.00    0.0
2018/03/13 14:46:38.000   78.256789130   16.230340365   396.5384   5  10   1.6673   1.5383   6.6528  -0.3039   1.0290   1.4969   0.00    0.0
2018/03/13 14:46:39.000   78.256789698   16.230331550   396.0036   5  10   1.6673   1.5383   6.6538  -0.3039   1.0296   1.4970   0.00    0.0
2018/03/13 14:46:40.000   78.256786274   16.230355493   395.6203   5  10   1.6673   1.5383   6.6548  -0.3038   1.0301   1.4971   0.00    0.0
2018/03/13 14:46:41.000   78.256784136   16.230374333   394.5212   5  10   1.6673   1.5383   6.6557  -0.3038   1.0307   1.4971   0.00    0.0
2018/03/13 14:46:42.000   78.256784041   16.230359736   394.4728   5  10   1.6673   1.5383   6.6567  -0.3037   1.0313   1.4972   0.00    0.0
2018/03/13 14:46:43.000   78.256781873   16.230345401   394.8986   5  10   1.6673   1.5383   6.6577  -0.3037   1.0318   1.4972   0.00    0.0
2018/03/13 14:46:44.000   78.256782184   16.230337668   393.6395   5  10   1.6673   1.5383   6.6587  -0.3037   1.0324   1.4973   0.00    0.0
2018/03/13 14:46:45.000   78.256787321   16.230341409   394.1822   5  10   1.6673   1.5383   6.6597  -0.3036   1.0330   1.4973   0.00    0.0
2018/03/13 14:46:46.000   78.256785696   16.230345567   392.8820   5  10   1.6673   1.5383   6.6607  -0.3036   1.0335   1.4974   0.00    0.0
2018/03/13 14:46:47.000   78.256786227   16.230359127   392.9899   5  10   1.6673   1.5383   6.6617  -0.3035   1.0341   1.4974   0.00    0.0
2018/03/13 14:46:48.000   78.256788327   16.230358591   394.1293   5  10   1.6673   1.5383   6.6627  -0.3035   1.0347   1.4975   0.00    0.0
2018/03/13 14:46:49.000   78.256792033   16.230362266   395.7706   5  10   1.6673   1.5383   6.6636  -0.3035   1.0352   1.4976   0.00    0.0
2018/03/13 14:46:50.000   78.256789799   16.230350192   394.8828   5  10   1.6673   1.5383   6.6646  -0.3034   1.0358   1.4976   0.00    0.0
2018/03/13 14:46:51.000   78.256789629   16.230358486   395.2823   5  10   1.6673   1.5383   6.6656  -0.3034   1.0363   1.4977   0.00    0.0
2018/03/13 14:46:52.000   78.256787000   16.230355763   394.8966   5  10   1.6673   1.5383   6.6666  -0.3033   1.0369   1.4977   0.00    0.0
2018/03/13 14:46:53.000   78.256783861   16.230360807   394.5614   5  10   1.6673   1.5383   6.6676  -0.3033   1.0375   1.4978   0.00    0.0
2018/03/13 14:46:54.000   78.256784385   16.230348558   394.2304   5  10   1.6674   1.5383   6.6686  -0.3033   1.0380   1.4978   0.00    0.0
2018/03/13 14:46:55.000   78.256784128   16.230346352   394.4931   5  10   1.6674   1.5383   6.6695  -0.3032   1.0386   1.4979   0.00    0.0
2018/03/13 14:46:56.000   78.256783922   16.230351187   395.1137   5  10   1.6674   1.5383   6.6705  -0.3032   1.0392   1.4979   0.00    0.0
2018/03/13 14:46:57.000   78.256784288   16.230363746   394.3882   5  10   1.6674   1.5383   6.6715  -0.3031   1.0397   1.4980   0.00    0.0
2018/03/13 14:46:58.000   78.256785081   16.230357307   395.6094   5  10   1.6674   1.5383   6.6725  -0.3031   1.0403   1.4981   0.00    0.0
2018/03/13 14:46:59.000   78.256782281   16.230372291   393.9579   5  10   1.6674   1.5383   6.6735  -0.3031   1.0408   1.4981   0.00    0.0
2018/03/13 14:47:00.000   78.256782856   16.230372928   392.9024   5  10   1.6674   1.5383   6.6744  -0.3030   1.0414   1.4982   0.00    0.0
2018/03/13 14:47:01.000   78.256788697   16.230356281   395.1439   5  10   1.6674   1.5383   6.6754  -0.3030   1.0420   1.4982   0.00    0.0
2018/03/13 14:47:02.000   78.256788682   16.230335221   396.5983   5  10   1.6674   1.5383   6.6764  -0.3029   1.0425   1.4983   0.00    0.0
2018/03/13 14:47:03.000   78.256791028   16.230343962   396.6134   5  10   1.6674   1.5383   6.6774  -0.3029   1.0431   1.4983   0.00    0.0
2018/03/13 14:47:04.000   78.256787279   16.230334376   395.8824   5  10   1.6674   1.5383   6.6783  -0.3029   1.0436   1.4984   0.00    0.0
2018/03/13 14:47:05.000   78.256783870   16.230353417   394.1980   5  10   1.6674   1.5383   6.6793  -0.3028   1.0442   1.4984   0.00    0.0
2018/03/13 14:47:06.000   78.256782702   16.230348826   391.1168   5  10   1.6674   1.5383   6.6803  -0.3028   1.0448   1.4985   0.00    0.0
2018/03/13 14:47:07.000   78.256786578   16.230343975   394.1152   5  10   1.6674   1.5383   6.6813  -0.3027   1.0453   1.4986   0.00    0.0
2018/03/13 14:47:08.000   78.256784710   16.230352516   395.0055   5  10   1.6674   1.5383   6.6822  -0.3027   1.0459   1.4986   0.00    0.0
2018/03/13 14:47:09.000   78.256785743   16.230350252   395.7013   5  10   1.6674   1.5383   6.6832  -0.3027   1.0464   1.4987   0.00    0.0
2018/03/13 14:47:10.000   78.256786767   16.230354427   395.4797   5  10   1.6674   1.5383   6.6842  -0.3026   1.0470   1.4987   0.00    0.0
2018/03/13 14:47:11.000   78.256789088   16.230365371   395.4371   5  10   1.6674   1.5383   6.6852  -0.3026   1.0475   1.4988   0.00    0.0
2018/03/13 14:47:12.000   78.256788750   16.230350512   395.3282   5  10   1.6674   1.5383   6.6861  -0.3025   1.0481   1.4988   0.00    0.0
2018/03/13 14:47:13.000   78.256787752   16.230332198   394.6543   5  10   1.6674   1.5383   6.6871  -0.3025   1.0487   1.4989   0.00    0.0
2018/03/13 14:47:14.000   78.256788191   16.230349532   394.2416   5  10   1.6674   1.5383   6.6881  -0.3025   1.0492   1.4989   0.00    0.0
2018/03/13 14:47:15.000   78.256785947   16.230333751   395.5442   5  10   1.6674   1.5383   6.6890  -0.3024   1.0498   1.4990   0.00    0.0
2018/03/13 14:47:16.000   78.256786891   16.230352279   396.4443   5  10   1.6674   1.5383   6.6900  -0.3024   1.0503   1.4991   0.00    0.0
2018/03/13 14:47:17.000   78.256783729   16.230352809   394.1058   5  10   1.6674   1.5383   6.6910  -0.3023   1.0509   1.4991   0.00    0.0
2018/03/13 14:47:18.000   78.256784521   16.230352582   394.3139   5  10   1.6674   1.5383   6.6919  -0.3023   1.0514   1.4992   0.00    0.0
2018/03/13 14:47:19.000   78.256783258   16.230342553   394.9334   5  10   1.6674   1.5383   6.6929  -0.3023   1.0520   1.4992   0.00    0.0
2018/03/13 14:47:20.000   78.256783407   16.230340719   395.8242   5  10   1.6674   1.5383   6.6939  -0.3022   1.0526   1.4993   0.00    0.0
2018/03/13 14:47:21.000   78.256786332   16.230343997   395.2841   5  10   1.6674   1.5382   6.6948  -0.3022   1.0531   1.4993   0.00    0.0
2018/03/13 14:47:22.000   78.256783420   16.230360336   395.1652   5  10   1.6674   1.5382   6.6958  -0.3022   1.0537   1.4994   0.00    0.0
2018/03/13 14:47:23.000   78.256784790   16.230345374   396.6306   5  10   1.6674   1.5382   6.6968  -0.3021   1.0542   1.4995   0.00    0.0
2018/03/13 14:47:24.000   78.256787154   16.230353057   397.3718   5  10   1.6674   1.5382   6.6977  -0.3021   1.0548   1.4995   0.00    0.0
2018/03/13 14:47:25.000   78.256786383   16.230343080   396.3058   5  10   1.6675   1.5382   6.6987  -0.3021   1.0553   1.4996   0.00    0.0
2018/03/13 14:47:26.000   78.256785765   16.230343837   396.1437   5  10   1.6675   1.5382   6.6997  -0.3020   1.0559   1.4997   0.00    0.0
2018/03/13 14:47:27.000   78.256787902   16.230331601   396.0147   5  10   1.6675   1.5382   6.7006  -0.3020   1.0564   1.4998   0.00    0.0
2018/03/13 14:47:28.000   78.256782996   16.230363976   394.5420   5  10   1.6675   1.5382   6.7016  -0.3020   1.0570   1.4998   0.00    0.0
2018/03/13 14:47:29.000   78.256781173   16.230355519   393.8493   5  10   1.6675   1.5382   6.7026  -0.3019   1.0575   1.4999   0.00    0.0
2018/03/13 14:47:30.000   78.256784009   16.230334362   395.2705   5  10   1.6675   1.5382   6.7035  -0.3019   1.0581   1.5000   0.00    0.0
2018/03/13 14:47:31.000   78.256784539   16.230346673   396.0907   5  10   1.6675   1.5382   6.7045  -0.3019   1.0586   1.5000   0.00    0.0
2018/03/13 14:47:32.000   78.256786189   16.230345742   396.5726   5  10   1.6675   1.5382   6.7055  -0.3018   1.0592   1.5001   0.00    0.0
2018/03/13 14:47:33.000   78.256782994   16.230347757   394.9755   5  10   1.6675   1.5382   6.7064  -0.3018   1.0597   1.5002   0.00    0.0
2018/03/13 14:47:34.000   78.256782968   16.230356777   395.3936   5  10   1.6676   1.5382   6.7074  -0.3018   1.0603   1.5003   0.00    0.0
2018/03/13 14:47:35.000   78.256784416   16.230367222   394.9911   5  10   1.6676   1.5382   6.7083  -0.3017   1.0608   1.5003   0.00    0.0
2018/03/13 14:47:36.000   78.256786963   16.230349715   395.7831   5  10   1.6676   1.5382   6.7093  -0.3017   1.0614   1.5004   0.00    0.0
2018/03/13 14:47:37.000   78.256785859   16.230339484   395.5858   5  10   1.6676   1.5382   6.7103  -0.3017   1.0619   1.5005   0.00    0.0
2018/03/13 14:47:38.000   78.256784951   16.230337500   395.1897   5  10   1.6676   1.5382   6.7112  -0.3017   1.0624   1.5005   0.00    0.0
2018/03/13 14:47:39.000   78.256785427   16.230348399   394.9817   5  10   1.6676   1.5382   6.7122  -0.3016   1.0630   1.5006   0.00    0.0
2018/03/13 14:47:40.000   78.256785597   16.230335443   394.3292   5  10   1.6676   1.5382   6.7131  -0.3016   1.0635   1.5007   0.00    0.0
2018/03/13 14:47:41.000   78.256787093   16.230332796   395.3389   5  10   1.6676   1.5382   6.7141  -0.3016   1.0641   1.5008   0.00    0.0
2018/03/13 14:47:42.000   78.256788855   16.230343234   396.2225   5  10   1.6677   1.5382   6.7151  -0.3015   1.0646   1.5008   0.00    0.0
2018/03/13 14:47:43.000   78.256786407   16.230358448   395.3205   5  10   1.6677   1.5382   6.7160  -0.3015   1.0652   1.5009   0.00    0.0
2018/03/13 14:47:44.000   78.256784487   16.230369401   393.5180   5  10   1.6677   1.5382   6.7170  -0.3015   1.0657   1.5010   0.00    0.0
2018/03/13 14:47:45.000   78.256785879   16.230371282   393.8061   5  10   1.6677   1.5382   6.7179  -0.3014   1.0663   1.5011   0.00    0.0
2018/03/13 14:47:46.000   78.256785616   16.230357953   394.6473   5  10   1.6677   1.5382   6.7189  -0.3014   1.0668   1.5011   0.00    0.0
2018/03/13 14:47:47.000   78.256791354   16.230348853   394.9182   5  10   1.6677   1.5382   6.7198  -0.3014   1.0674   1.5012   0.00    0.0
2018/03/13 14:47:48.000   78.256788947   16.230335951   395.5959   5  10   1.6677   1.5382   6.7208  -0.3013   1.0679   1.5013   0.00    0.0
2018/03/13 14:47:49.000   78.256790085   16.230345102   395.5722   5  10   1.6677   1.5382   6.7217  -0.3013   1.0684   1.5013   0.00    0.0
2018/03/13 14:47:50.000   78.256787725   16.230340984   393.5795   5  10   1.6677   1.5382   6.7227  -0.3013   1.0690   1.5014   0.00    0.0
2018/03/13 14:47:51.000   78.256785454   16.230354949   395.3423   5  10   1.6678   1.5382   6.7236  -0.3013   1.0695   1.5015   0.00    0.0
2018/03/13 14:47:52.000   78.256787244   16.230352257   394.1587   5  10   1.6678   1.5382   6.7246  -0.3012   1.0701   1.5016   0.00    0.0
2018/03/13 14:47:53.000   78.256787939   16.230355108   396.2171   5  10   1.6678   1.5382   6.7255  -0.3012   1.0706   1.5016   0.00    0.0
2018/03/13 14:47:54.000   78.256790312   16.230354587   395.6068   5  10   1.6678   1.5382   6.7265  -0.3012   1.0712   1.5017   0.00    0.0
2018/03/13 14:47:55.000   78.256787076   16.230352206   395.0741   5  10   1.6678   1.5382   6.7274  -0.3011   1.0717   1.5018   0.00    0.0
2018/03/13 14:47:56.000   78.256787078   16.230352595   393.8652   5  10   1.6678   1.5382   6.7284  -0.3011   1.0722   1.5019   0.00    0.0
2018/03/13 14:47:57.000   78.256782192   16.230352654   393.7092   5  10   1.6678   1.5382   6.7293  -0.3011   1.0728   1.5019   0.00    0.0
