% program   : RTKPOST ver.2.4.2
% inp file  : Z:\home\linda\Documents\Spring18\GitHub_Unis\data\processed_data\46250723.obs
% inp file  : Z:\home\linda\Documents\Spring18\GitHub_Unis\data\base_station_data\lyrs0720.18o
% inp file  : Z:\home\linda\Documents\Spring18\GitHub_Unis\data\processed_data\46250723.nav
% obs start : 2018/03/13 12:56:14.0 GPST (week1992 219374.0s)
% obs end   : 2018/03/13 13:11:18.0 GPST (week1992 220278.0s)
% pos mode  : static
% freqs     : L1+L2
% solution  : forward
% elev mask : 15.0 deg
% dynamics  : on
% tidecorr  : off
% ionos opt : estimation
% tropo opt : saastamoinen
% ephemeris : broadcast
% navi sys  : gps glonass galileo qzss sbas
% amb res   : fix and hold
% amb glo   : on
% val thres : 3.0
% antenna1  :                       ( 0.0000  0.0000  0.0000)
% antenna2  :                       ( 0.0000  0.0000  0.0000)
% ref pos   : 78.228825638   15.397310064   495.6816
%
% (lat/lon/height=WGS84/ellipsoidal,Q=1:fix,2:float,3:sbas,4:dgps,5:single,6:ppp,ns=# of satellites)
%  GPST                  latitude(deg) longitude(deg)  height(m)   Q  ns   sdn(m)   sde(m)   sdu(m)  sdne(m)  sdeu(m)  sdun(m) age(s)  ratio
2018/03/13 12:56:14.000   78.254769394   16.249375427   344.3226   2   9   0.4233   0.3857   1.6114   0.0503   0.3788   0.4436   0.00    1.0
2018/03/13 12:56:15.000   78.254769826   16.249375410   343.9588   2   9   0.3070   0.2795   1.1665   0.0366   0.2754   0.3224   0.00    1.1
2018/03/13 12:56:16.000   78.254769556   16.249374603   344.2510   2   9   0.2557   0.2328   0.9701   0.0304   0.2293   0.2684   0.00    1.4
2018/03/13 12:56:17.000   78.254768891   16.249376057   344.1104   2   9   0.2254   0.2053   0.8542   0.0267   0.2020   0.2363   0.00    1.5
2018/03/13 12:56:18.000   78.254768943   16.249372834   344.1151   2   9   0.2050   0.1868   0.7761   0.0242   0.1835   0.2147   0.00    1.6
2018/03/13 12:56:19.000   78.254769185   16.249369156   344.0353   2   9   0.1901   0.1733   0.7190   0.0223   0.1700   0.1988   0.00    1.6
2018/03/13 12:56:20.000   78.254769280   16.249366494   343.9764   2   9   0.1787   0.1630   0.6752   0.0208   0.1596   0.1867   0.00    1.5
2018/03/13 12:56:21.000   78.254769292   16.249364564   343.9011   2   9   0.1697   0.1548   0.6403   0.0197   0.1513   0.1770   0.00    1.5
2018/03/13 12:56:22.000   78.254769660   16.249364282   343.8123   2   9   0.1622   0.1480   0.6117   0.0187   0.1445   0.1690   0.00    1.5
2018/03/13 12:56:23.000   78.254770006   16.249364366   343.8371   2   9   0.1560   0.1424   0.5878   0.0179   0.1388   0.1623   0.00    1.8
2018/03/13 12:56:24.000   78.254770085   16.249365439   343.8055   2   9   0.1507   0.1376   0.5673   0.0172   0.1339   0.1567   0.00    1.9
2018/03/13 12:56:25.000   78.254769873   16.249365577   343.6850   2   9   0.1462   0.1335   0.5497   0.0166   0.1297   0.1517   0.00    1.7
2018/03/13 12:56:26.000   78.254770131   16.249364972   343.7362   2   9   0.1422   0.1299   0.5342   0.0161   0.1260   0.1474   0.00    1.8
2018/03/13 12:56:27.000   78.254769917   16.249365890   343.7546   2   9   0.1387   0.1267   0.5206   0.0156   0.1227   0.1436   0.00    1.8
2018/03/13 12:56:28.000   78.254769996   16.249366405   343.7861   2   9   0.1355   0.1239   0.5084   0.0152   0.1198   0.1402   0.00    1.8
2018/03/13 12:56:29.000   78.254770185   16.249366503   343.8612   2   9   0.1327   0.1213   0.4974   0.0148   0.1172   0.1372   0.00    1.8
2018/03/13 12:56:30.000   78.254770214   16.249366773   343.8521   2   9   0.1302   0.1191   0.4875   0.0144   0.1148   0.1344   0.00    1.8
2018/03/13 12:56:31.000   78.254770260   16.249367297   343.8491   2   9   0.1279   0.1170   0.4785   0.0141   0.1126   0.1319   0.00    1.7
2018/03/13 12:56:32.000   78.254770338   16.249367591   343.8760   2   9   0.1258   0.1151   0.4702   0.0138   0.1106   0.1295   0.00    1.7
2018/03/13 12:56:33.000   78.254770334   16.249367432   343.8995   2   9   0.1238   0.1133   0.4625   0.0135   0.1088   0.1274   0.00    1.7
2018/03/13 12:56:34.000   78.254770251   16.249367939   343.8897   2   9   0.1220   0.1117   0.4554   0.0132   0.1071   0.1254   0.00    1.7
2018/03/13 12:56:35.000   78.254770541   16.249367533   343.9060   2   9   0.1204   0.1102   0.4489   0.0130   0.1055   0.1236   0.00    1.7
2018/03/13 12:56:36.000   78.254770610   16.249367382   343.8844   2   9   0.1189   0.1089   0.4427   0.0127   0.1040   0.1219   0.00    1.6
2018/03/13 12:56:37.000   78.254770639   16.249367545   343.8463   2   9   0.1174   0.1076   0.4370   0.0125   0.1026   0.1203   0.00    1.6
2018/03/13 12:56:38.000   78.254770767   16.249367835   343.8845   2   9   0.1161   0.1064   0.4316   0.0123   0.1013   0.1187   0.00    1.6
2018/03/13 12:56:39.000   78.254770883   16.249367825   343.8856   2   9   0.1148   0.1052   0.4265   0.0121   0.1001   0.1173   0.00    1.6
2018/03/13 12:56:40.000   78.254770836   16.249368238   343.8792   2   9   0.1137   0.1042   0.4217   0.0119   0.0989   0.1160   0.00    1.6
2018/03/13 12:56:41.000   78.254770901   16.249368167   343.9019   2   9   0.1126   0.1032   0.4171   0.0117   0.0978   0.1147   0.00    1.6
2018/03/13 12:56:42.000   78.254770912   16.249367836   343.9661   2   9   0.1115   0.1022   0.4127   0.0115   0.0967   0.1134   0.00    1.6
2018/03/13 12:56:43.000   78.254770768   16.249367505   343.9322   2   9   0.1105   0.1013   0.4086   0.0113   0.0957   0.1123   0.00    1.6
2018/03/13 12:56:44.000   78.254770588   16.249367230   343.9178   2   9   0.1096   0.1005   0.4046   0.0111   0.0947   0.1112   0.00    1.6
2018/03/13 12:56:45.000   78.254770474   16.249367065   343.8862   2   9   0.1087   0.0997   0.4008   0.0109   0.0938   0.1101   0.00    1.5
2018/03/13 12:56:46.000   78.254770365   16.249367324   343.8657   2   9   0.1078   0.0989   0.3972   0.0108   0.0929   0.1090   0.00    1.5
2018/03/13 12:56:47.000   78.254770323   16.249367451   343.8315   2   9   0.1070   0.0982   0.3936   0.0106   0.0920   0.1081   0.00    1.4
2018/03/13 12:56:48.000   78.254770388   16.249367604   343.8188   2   9   0.1062   0.0975   0.3903   0.0104   0.0912   0.1071   0.00    1.3
2018/03/13 12:56:49.000   78.254770378   16.249367673   343.7966   2   9   0.1055   0.0968   0.3870   0.0103   0.0904   0.1062   0.00    1.3
2018/03/13 12:56:50.000   78.254770361   16.249367427   343.8243   2   9   0.1047   0.0961   0.3838   0.0101   0.0896   0.1053   0.00    1.3
2018/03/13 12:56:51.000   78.254770328   16.249367487   343.8678   2   9   0.1041   0.0955   0.3808   0.0099   0.0889   0.1044   0.00    1.3
2018/03/13 12:56:52.000   78.254770244   16.249367822   343.9062   2   9   0.1034   0.0949   0.3778   0.0098   0.0881   0.1035   0.00    1.4
2018/03/13 12:56:53.000   78.254770239   16.249368248   343.9574   2   9   0.1028   0.0944   0.3749   0.0096   0.0874   0.1027   0.00    1.3
2018/03/13 12:56:54.000   78.254770257   16.249368505   344.0038   2   9   0.1021   0.0938   0.3721   0.0094   0.0867   0.1019   0.00    1.3
2018/03/13 12:56:55.000   78.254770272   16.249368723   344.0469   2   9   0.1016   0.0933   0.3693   0.0093   0.0860   0.1011   0.00    1.3
2018/03/13 12:56:56.000   78.254770335   16.249368793   344.0651   2   9   0.1010   0.0928   0.3667   0.0091   0.0854   0.1003   0.00    1.3
2018/03/13 12:56:57.000   78.254770378   16.249368820   344.0848   2   9   0.1004   0.0923   0.3640   0.0090   0.0847   0.0996   0.00    1.3
2018/03/13 12:56:58.000   78.254770392   16.249368951   344.0856   2   9   0.0999   0.0918   0.3615   0.0088   0.0841   0.0989   0.00    1.2
2018/03/13 12:56:59.000   78.254770381   16.249368944   344.0678   2   9   0.0994   0.0913   0.3590   0.0086   0.0834   0.0981   0.00    1.2
2018/03/13 12:57:00.000   78.254770361   16.249368960   344.0539   2   9   0.0989   0.0909   0.3565   0.0085   0.0828   0.0974   0.00    1.2
2018/03/13 12:57:01.000   78.254770384   16.249369009   344.0457   2   9   0.0984   0.0904   0.3541   0.0083   0.0822   0.0967   0.00    1.2
2018/03/13 12:57:02.000   78.254770421   16.249368810   344.0451   2   9   0.0979   0.0900   0.3517   0.0081   0.0816   0.0960   0.00    1.1
2018/03/13 12:57:03.000   78.254770432   16.249368579   344.0138   2   9   0.0974   0.0896   0.3494   0.0080   0.0810   0.0953   0.00    1.1
2018/03/13 12:57:04.000   78.254770449   16.249368507   344.0225   2   9   0.0970   0.0892   0.3471   0.0078   0.0805   0.0947   0.00    1.1
2018/03/13 12:57:05.000   78.254770476   16.249368305   344.0327   2   9   0.0965   0.0888   0.3448   0.0076   0.0799   0.0940   0.00    1.1
2018/03/13 12:57:06.000   78.254770443   16.249368246   344.0020   2   9   0.0961   0.0884   0.3426   0.0075   0.0793   0.0933   0.00    1.1
2018/03/13 12:57:07.000   78.254770393   16.249368329   343.9887   2   9   0.0957   0.0881   0.3404   0.0073   0.0788   0.0927   0.00    1.1
2018/03/13 12:57:08.000   78.254770371   16.249368174   343.9976   2   9   0.0953   0.0877   0.3382   0.0071   0.0782   0.0920   0.00    1.1
2018/03/13 12:57:09.000   78.254770250   16.249368206   343.9673   2   9   0.0949   0.0873   0.3360   0.0069   0.0777   0.0914   0.00    1.1
2018/03/13 12:57:10.000   78.254770240   16.249368232   343.9398   2   9   0.0945   0.0870   0.3339   0.0067   0.0771   0.0908   0.00    1.1
2018/03/13 12:57:11.000   78.254770286   16.249368143   343.9496   2   9   0.0941   0.0867   0.3318   0.0066   0.0766   0.0902   0.00    1.0
2018/03/13 12:57:12.000   78.254770271   16.249368244   343.9382   2   9   0.0937   0.0863   0.3297   0.0064   0.0761   0.0895   0.00    1.0
2018/03/13 12:57:13.000   78.254770220   16.249368407   343.9390   2   9   0.0934   0.0860   0.3277   0.0062   0.0756   0.0889   0.00    1.0
2018/03/13 12:57:14.000   78.254770204   16.249368474   343.9528   2   9   0.0930   0.0857   0.3256   0.0060   0.0750   0.0883   0.00    1.0
2018/03/13 12:57:15.000   78.254770168   16.249367985   343.9458   2   9   0.0927   0.0854   0.3236   0.0058   0.0745   0.0877   0.00    1.1
2018/03/13 12:57:16.000   78.254770124   16.249367576   343.9299   2   9   0.0923   0.0851   0.3216   0.0056   0.0740   0.0871   0.00    1.1
2018/03/13 12:57:17.000   78.254770128   16.249367004   343.9489   2   9   0.0920   0.0848   0.3196   0.0054   0.0735   0.0865   0.00    1.1
2018/03/13 12:57:18.000   78.254770145   16.249366746   343.9650   2   9   0.0916   0.0845   0.3176   0.0052   0.0730   0.0859   0.00    1.1
2018/03/13 12:57:19.000   78.254770156   16.249366575   343.9618   2   9   0.0913   0.0842   0.3156   0.0049   0.0725   0.0853   0.00    1.1
2018/03/13 12:57:20.000   78.254770204   16.249366576   343.9984   2   9   0.0910   0.0839   0.3137   0.0047   0.0720   0.0847   0.00    1.1
2018/03/13 12:57:21.000   78.254770231   16.249366786   344.0199   2   9   0.0907   0.0836   0.3118   0.0045   0.0715   0.0841   0.00    1.1
2018/03/13 12:57:22.000   78.254770225   16.249367113   344.0485   2   9   0.0903   0.0833   0.3098   0.0042   0.0710   0.0835   0.00    1.1
2018/03/13 12:57:23.000   78.254770296   16.249367209   344.0707   2   9   0.0900   0.0831   0.3079   0.0040   0.0705   0.0830   0.00    1.1
2018/03/13 12:57:24.000   78.254770358   16.249367476   344.0844   2   9   0.0897   0.0828   0.3060   0.0037   0.0700   0.0824   0.00    1.1
2018/03/13 12:57:25.000   78.254770394   16.249367782   344.0711   2   9   0.0894   0.0825   0.3041   0.0034   0.0695   0.0818   0.00    1.1
2018/03/13 12:57:26.000   78.254770468   16.249367874   344.0580   2   9   0.0891   0.0823   0.3023   0.0031   0.0691   0.0812   0.00    1.1
2018/03/13 12:57:27.000   78.254770530   16.249367996   344.0483   2   9   0.0889   0.0820   0.3004   0.0028   0.0686   0.0807   0.00    1.1
2018/03/13 12:57:28.000   78.254770526   16.249368201   344.0564   2   9   0.0886   0.0818   0.2985   0.0024   0.0681   0.0801   0.00    1.1
2018/03/13 12:57:29.000   78.254770580   16.249368066   344.0539   2   9   0.0883   0.0815   0.2967   0.0020   0.0676   0.0795   0.00    1.1
2018/03/13 12:57:30.000   78.254770643   16.249367831   344.0571   2   9   0.0880   0.0813   0.2949   0.0015   0.0672   0.0789   0.00    1.1
2018/03/13 12:57:31.000   78.254770640   16.249367667   344.0539   2   9   0.0877   0.0810   0.2930   0.0005   0.0667   0.0784   0.00    1.1
2018/03/13 12:57:32.000   78.254770648   16.249367323   344.0508   2   9   0.0875   0.0808   0.2912  -0.0012   0.0662   0.0778   0.00    1.1
2018/03/13 12:57:33.000   78.254770687   16.249367067   344.0499   2   9   0.0872   0.0806   0.2894  -0.0018   0.0657   0.0772   0.00    1.1
2018/03/13 12:57:34.000   78.254770671   16.249367043   344.0543   2   9   0.0869   0.0803   0.2876  -0.0022   0.0653   0.0767   0.00    1.1
2018/03/13 12:57:35.000   78.254770710   16.249366952   344.0561   2   9   0.0867   0.0801   0.2858  -0.0026   0.0648   0.0761   0.00    1.1
2018/03/13 12:57:36.000   78.254770727   16.249367017   344.0433   2   9   0.0864   0.0799   0.2840  -0.0029   0.0643   0.0756   0.00    1.1
2018/03/13 12:57:37.000   78.254770727   16.249367161   344.0279   2   9   0.0861   0.0796   0.2823  -0.0031   0.0639   0.0750   0.00    1.1
2018/03/13 12:57:38.000   78.254770741   16.249367369   344.0222   2   9   0.0859   0.0794   0.2805  -0.0034   0.0634   0.0744   0.00    1.1
2018/03/13 12:57:39.000   78.254770681   16.249367515   344.0160   2   9   0.0856   0.0792   0.2787  -0.0036   0.0630   0.0739   0.00    1.1
2018/03/13 12:57:40.000   78.254770654   16.249367571   344.0017   2   9   0.0854   0.0790   0.2770  -0.0038   0.0625   0.0733   0.00    1.1
2018/03/13 12:57:41.000   78.254770633   16.249367560   344.0041   2   9   0.0851   0.0788   0.2753  -0.0040   0.0621   0.0728   0.00    1.1
2018/03/13 12:57:42.000   78.254770563   16.249367707   343.9932   2   9   0.0849   0.0786   0.2735  -0.0042   0.0616   0.0722   0.00    1.1
2018/03/13 12:57:43.000   78.254770595   16.249367742   344.0025   2   9   0.0847   0.0784   0.2718  -0.0043   0.0612   0.0717   0.00    1.1
2018/03/13 12:57:44.000   78.254770629   16.249367727   344.0102   2   9   0.0844   0.0781   0.2701  -0.0045   0.0607   0.0711   0.00    1.1
2018/03/13 12:57:45.000   78.254770639   16.249367772   344.0039   2   9   0.0842   0.0779   0.2684  -0.0046   0.0603   0.0706   0.00    1.0
2018/03/13 12:57:46.000   78.254770654   16.249367851   344.0000   2   9   0.0839   0.0777   0.2667  -0.0047   0.0598   0.0701   0.00    1.0
2018/03/13 12:57:47.000   78.254770686   16.249367965   344.0023   2   9   0.0837   0.0775   0.2650  -0.0049   0.0594   0.0695   0.00    1.0
2018/03/13 12:57:48.000   78.254770699   16.249368094   344.0066   2   9   0.0835   0.0773   0.2633  -0.0050   0.0589   0.0690   0.00    1.0
2018/03/13 12:57:49.000   78.254770778   16.249368230   344.0381   2   9   0.0832   0.0771   0.2616  -0.0051   0.0585   0.0684   0.00    1.0
2018/03/13 12:57:50.000   78.254770826   16.249368165   344.0646   2   9   0.0830   0.0769   0.2600  -0.0052   0.0581   0.0679   0.00    1.0
2018/03/13 12:57:51.000   78.254770825   16.249368287   344.0833   2   9   0.0828   0.0767   0.2583  -0.0053   0.0576   0.0674   0.00    1.0
2018/03/13 12:57:52.000   78.254770864   16.249368279   344.1116   2   9   0.0826   0.0765   0.2566  -0.0054   0.0572   0.0668   0.00    1.0
2018/03/13 12:57:53.000   78.254770927   16.249368266   344.1303   2   9   0.0823   0.0763   0.2550  -0.0054   0.0567   0.0663   0.00    1.0
2018/03/13 12:57:54.000   78.254770961   16.249368428   344.1285   2   9   0.0821   0.0762   0.2534  -0.0055   0.0563   0.0658   0.00    1.0
2018/03/13 12:57:55.000   78.254771024   16.249368438   344.1320   2   9   0.0819   0.0760   0.2517  -0.0056   0.0559   0.0652   0.00    1.0
2018/03/13 12:57:56.000   78.254771059   16.249368413   344.1294   2   9   0.0817   0.0758   0.2501  -0.0057   0.0555   0.0647   0.00    1.0
2018/03/13 12:57:57.000   78.254771034   16.249368387   344.1294   2   9   0.0815   0.0756   0.2485  -0.0057   0.0550   0.0642   0.00    1.0
2018/03/13 12:57:58.000   78.254771074   16.249368409   344.1478   2   9   0.0813   0.0754   0.2469  -0.0058   0.0546   0.0637   0.00    1.0
2018/03/13 12:57:59.000   78.254771129   16.249368223   344.1715   2   9   0.0811   0.0752   0.2453  -0.0058   0.0542   0.0631   0.00    1.1
2018/03/13 12:58:00.000   78.254771101   16.249368161   344.1810   2   9   0.0808   0.0750   0.2437  -0.0059   0.0538   0.0626   0.00    1.1
2018/03/13 12:58:01.000   78.254771102   16.249368005   344.1860   2   9   0.0806   0.0749   0.2422  -0.0059   0.0534   0.0621   0.00    1.1
2018/03/13 12:58:02.000   78.254771120   16.249367937   344.1730   2   9   0.0804   0.0747   0.2406  -0.0060   0.0529   0.0616   0.00    1.1
2018/03/13 12:58:03.000   78.254771143   16.249368053   344.1536   2   9   0.0802   0.0745   0.2391  -0.0060   0.0525   0.0611   0.00    1.0
2018/03/13 12:58:04.000   78.254771141   16.249368078   344.1436   2   9   0.0800   0.0743   0.2375  -0.0060   0.0521   0.0606   0.00    1.0
2018/03/13 12:58:05.000   78.254771159   16.249367959   344.1335   2   9   0.0798   0.0741   0.2360  -0.0061   0.0517   0.0600   0.00    1.0
2018/03/13 12:58:06.000   78.254771168   16.249367979   344.1394   2   9   0.0796   0.0740   0.2344  -0.0061   0.0513   0.0595   0.00    1.0
2018/03/13 12:58:07.000   78.254771147   16.249368028   344.1576   2   9   0.0794   0.0738   0.2329  -0.0061   0.0509   0.0590   0.00    1.0
2018/03/13 12:58:08.000   78.254771165   16.249368032   344.1703   2   9   0.0792   0.0736   0.2314  -0.0061   0.0505   0.0585   0.00    1.0
2018/03/13 12:58:09.000   78.254771150   16.249368127   344.1736   2   9   0.0790   0.0734   0.2299  -0.0061   0.0501   0.0580   0.00    1.1
2018/03/13 12:58:10.000   78.254771134   16.249368182   344.1729   2   9   0.0788   0.0733   0.2284  -0.0061   0.0497   0.0575   0.00    1.1
2018/03/13 12:58:11.000   78.254771158   16.249368221   344.1864   2   9   0.0786   0.0731   0.2269  -0.0061   0.0493   0.0570   0.00    1.1
2018/03/13 12:58:12.000   78.254771162   16.249368291   344.1944   2   9   0.0784   0.0729   0.2255  -0.0061   0.0489   0.0565   0.00    1.1
2018/03/13 12:58:13.000   78.254771164   16.249368291   344.2109   2   9   0.0782   0.0728   0.2240  -0.0061   0.0485   0.0560   0.00    1.1
2018/03/13 12:58:14.000   78.254771174   16.249368163   344.2168   2   9   0.0780   0.0726   0.2225  -0.0061   0.0481   0.0555   0.00    1.1
2018/03/13 12:58:15.000   78.254771171   16.249368004   344.2294   2   9   0.0779   0.0724   0.2211  -0.0061   0.0477   0.0551   0.00    1.1
2018/03/13 12:58:16.000   78.254771200   16.249367813   344.2332   2   9   0.0777   0.0723   0.2196  -0.0061   0.0473   0.0546   0.00    1.1
2018/03/13 12:58:17.000   78.254771242   16.249367659   344.2340   2   9   0.0775   0.0721   0.2182  -0.0061   0.0469   0.0541   0.00    1.1
2018/03/13 12:58:18.000   78.254771257   16.249367478   344.2310   2   9   0.0773   0.0719   0.2168  -0.0061   0.0466   0.0536   0.00    1.1
2018/03/13 12:58:19.000   78.254771292   16.249367397   344.2241   2   9   0.0771   0.0718   0.2154  -0.0060   0.0462   0.0531   0.00    1.1
2018/03/13 12:58:20.000   78.254771293   16.249367255   344.2179   2   9   0.0769   0.0716   0.2140  -0.0060   0.0458   0.0526   0.00    1.1
2018/03/13 12:58:21.000   78.254771291   16.249367180   344.2152   2   9   0.0767   0.0714   0.2126  -0.0060   0.0454   0.0522   0.00    1.1
2018/03/13 12:58:22.000   78.254771291   16.249367133   344.2072   2   9   0.0765   0.0713   0.2112  -0.0059   0.0450   0.0517   0.00    1.2
2018/03/13 12:58:23.000   78.254771305   16.249367016   344.2050   2   9   0.0764   0.0711   0.2099  -0.0059   0.0447   0.0512   0.00    1.2
2018/03/13 12:58:24.000   78.254771355   16.249366871   344.2142   2   9   0.0762   0.0710   0.2085  -0.0059   0.0443   0.0507   0.00    1.2
2018/03/13 12:58:25.000   78.254771350   16.249366727   344.2244   2   9   0.0760   0.0708   0.2071  -0.0058   0.0439   0.0503   0.00    1.2
2018/03/13 12:58:26.000   78.254771329   16.249366668   344.2363   2   9   0.0758   0.0706   0.2058  -0.0058   0.0436   0.0498   0.00    1.2
2018/03/13 12:58:27.000   78.254771348   16.249366582   344.2512   2   9   0.0756   0.0705   0.2045  -0.0057   0.0432   0.0494   0.00    1.2
2018/03/13 12:58:28.000   78.254771379   16.249366460   344.2629   2   9   0.0755   0.0703   0.2031  -0.0056   0.0428   0.0489   0.00    1.2
2018/03/13 12:58:29.000   78.254771384   16.249366532   344.2727   2   9   0.0753   0.0702   0.2018  -0.0056   0.0425   0.0484   0.00    1.2
2018/03/13 12:58:30.000   78.254771389   16.249366500   344.2901   2   9   0.0751   0.0700   0.2005  -0.0055   0.0421   0.0480   0.00    1.2
2018/03/13 12:58:31.000   78.254771385   16.249366473   344.3093   2   9   0.0749   0.0699   0.1992  -0.0054   0.0418   0.0475   0.00    1.2
2018/03/13 12:58:32.000   78.254771373   16.249366475   344.3219   2   9   0.0748   0.0697   0.1979  -0.0054   0.0414   0.0471   0.00    1.2
2018/03/13 12:58:33.000   78.254771403   16.249366376   344.3363   2   9   0.0746   0.0696   0.1967  -0.0053   0.0411   0.0466   0.00    1.2
2018/03/13 12:58:34.000   78.254771417   16.249366336   344.3434   2   9   0.0744   0.0694   0.1954  -0.0052   0.0407   0.0462   0.00    1.2
2018/03/13 12:58:35.000   78.254771392   16.249366256   344.3448   2   9   0.0742   0.0692   0.1941  -0.0051   0.0404   0.0457   0.00    1.2
2018/03/13 12:58:36.000   78.254771417   16.249366163   344.3617   2   9   0.0741   0.0691   0.1929  -0.0050   0.0400   0.0453   0.00    1.2
2018/03/13 12:58:37.000   78.254771427   16.249365910   344.3702   2   9   0.0739   0.0689   0.1917  -0.0049   0.0397   0.0448   0.00    1.2
2018/03/13 12:58:38.000   78.254771448   16.249365674   344.3778   2   9   0.0737   0.0688   0.1904  -0.0048   0.0393   0.0444   0.00    1.2
2018/03/13 12:58:39.000   78.254771519   16.249365504   344.3853   2   9   0.0736   0.0686   0.1892  -0.0047   0.0390   0.0440   0.00    1.2
2018/03/13 12:58:40.000   78.254771539   16.249365466   344.3908   2   9   0.0734   0.0685   0.1880  -0.0046   0.0387   0.0435   0.00    1.2
2018/03/13 12:58:41.000   78.254771528   16.249365477   344.3923   2   9   0.0732   0.0683   0.1868  -0.0045   0.0383   0.0431   0.00    1.2
2018/03/13 12:58:42.000   78.254771532   16.249365433   344.4033   2   9   0.0731   0.0682   0.1856  -0.0043   0.0380   0.0427   0.00    1.2
2018/03/13 12:58:43.000   78.254771516   16.249365561   344.4137   2   9   0.0729   0.0680   0.1844  -0.0042   0.0377   0.0423   0.00    1.2
2018/03/13 12:58:44.000   78.254771485   16.249365723   344.4324   2   9   0.0727   0.0679   0.1832  -0.0040   0.0373   0.0418   0.00    1.2
2018/03/13 12:58:45.000   78.254771488   16.249365930   344.4481   2   9   0.0726   0.0677   0.1821  -0.0039   0.0370   0.0414   0.00    1.2
2018/03/13 12:58:46.000   78.254771475   16.249366139   344.4572   2   9   0.0724   0.0676   0.1809  -0.0037   0.0367   0.0410   0.00    1.2
2018/03/13 12:58:47.000   78.254771449   16.249366250   344.4637   2   9   0.0722   0.0675   0.1798  -0.0035   0.0364   0.0406   0.00    1.2
2018/03/13 12:58:48.000   78.254771454   16.249366372   344.4710   2   9   0.0721   0.0673   0.1786  -0.0033   0.0361   0.0402   0.00    1.2
2018/03/13 12:58:49.000   78.254771453   16.249366333   344.4677   2   9   0.0719   0.0672   0.1775  -0.0031   0.0357   0.0397   0.00    1.2
2018/03/13 12:58:50.000   78.254771436   16.249366259   344.4589   2   9   0.0717   0.0670   0.1764  -0.0029   0.0354   0.0393   0.00    1.2
2018/03/13 12:58:51.000   78.254771409   16.249366078   344.4465   2   9   0.0716   0.0669   0.1753  -0.0027   0.0351   0.0389   0.00    1.2
2018/03/13 12:58:52.000   78.254771376   16.249365924   344.4413   2   9   0.0714   0.0667   0.1742  -0.0024   0.0348   0.0385   0.00    1.2
2018/03/13 12:58:53.000   78.254771362   16.249365793   344.4380   2   9   0.0713   0.0666   0.1731  -0.0020   0.0345   0.0381   0.00    1.2
2018/03/13 12:58:54.000   78.254771341   16.249365751   344.4347   2   9   0.0711   0.0664   0.1720  -0.0016   0.0342   0.0377   0.00    1.2
2018/03/13 12:58:55.000   78.254771326   16.249365702   344.4360   2   9   0.0709   0.0663   0.1709  -0.0011   0.0339   0.0373   0.00    1.2
2018/03/13 12:58:56.000   78.254771335   16.249365803   344.4378   2   9   0.0708   0.0661   0.1699   0.0006   0.0336   0.0369   0.00    1.2
2018/03/13 12:58:57.000   78.254771305   16.249365974   344.4322   2   9   0.0706   0.0660   0.1688   0.0014   0.0333   0.0365   0.00    1.3
2018/03/13 12:58:58.000   78.254771261   16.249366107   344.4215   2   9   0.0705   0.0659   0.1678   0.0018   0.0330   0.0361   0.00    1.3
2018/03/13 12:58:59.000   78.254771218   16.249366169   344.4134   2   9   0.0703   0.0657   0.1667   0.0022   0.0327   0.0357   0.00    1.3
2018/03/13 12:59:00.000   78.254771212   16.249366302   344.4050   2   9   0.0701   0.0656   0.1657   0.0026   0.0324   0.0353   0.00    1.3
2018/03/13 12:59:01.000   78.254771200   16.249366446   344.4055   2   9   0.0700   0.0654   0.1647   0.0029   0.0321   0.0349   0.00    1.3
2018/03/13 12:59:02.000   78.254771220   16.249366378   344.4037   2   9   0.0698   0.0653   0.1637   0.0031   0.0318   0.0346   0.00    1.3
2018/03/13 12:59:03.000   78.254771235   16.249366300   344.4042   2   9   0.0697   0.0652   0.1626   0.0034   0.0315   0.0342   0.00    1.3
2018/03/13 12:59:04.000   78.254771218   16.249366222   344.4045   2   9   0.0695   0.0650   0.1616   0.0036   0.0312   0.0338   0.00    1.3
2018/03/13 12:59:05.000   78.254771236   16.249366058   344.4078   2   9   0.0694   0.0649   0.1607   0.0039   0.0309   0.0334   0.00    1.3
2018/03/13 12:59:06.000   78.254771242   16.249365849   344.4069   2   9   0.0692   0.0647   0.1597   0.0041   0.0306   0.0330   0.00    1.3
2018/03/13 12:59:07.000   78.254771212   16.249365698   344.4105   2   9   0.0691   0.0646   0.1587   0.0043   0.0304   0.0326   0.00    1.3
2018/03/13 12:59:08.000   78.254771192   16.249365491   344.4172   2   9   0.0689   0.0645   0.1577   0.0045   0.0301   0.0323   0.00    1.3
2018/03/13 12:59:09.000   78.254771187   16.249365362   344.4266   2   9   0.0688   0.0643   0.1568   0.0047   0.0298   0.0319   0.00    1.3
2018/03/13 12:59:10.000   78.254771184   16.249365356   344.4439   2   9   0.0686   0.0642   0.1558   0.0049   0.0295   0.0315   0.00    1.3
2018/03/13 12:59:11.000   78.254771196   16.249365323   344.4667   2   9   0.0685   0.0640   0.1549   0.0050   0.0292   0.0312   0.00    1.3
2018/03/13 12:59:12.000   78.254771184   16.249365360   344.4866   2   9   0.0683   0.0639   0.1540   0.0052   0.0290   0.0308   0.00    1.3
2018/03/13 12:59:13.000   78.254771160   16.249365415   344.5003   2   9   0.0682   0.0638   0.1530   0.0054   0.0287   0.0304   0.00    1.3
2018/03/13 12:59:14.000   78.254771204   16.249365314   344.5162   2   9   0.0680   0.0636   0.1521   0.0055   0.0284   0.0301   0.00    1.3
2018/03/13 12:59:15.000   78.254771225   16.249365129   344.5217   2   9   0.0679   0.0635   0.1512   0.0057   0.0282   0.0297   0.00    1.3
2018/03/13 12:59:16.000   78.254771228   16.249364886   344.5246   2   9   0.0677   0.0634   0.1503   0.0059   0.0279   0.0293   0.00    1.3
2018/03/13 12:59:17.000   78.254771247   16.249364604   344.5282   2   9   0.0676   0.0632   0.1494   0.0060   0.0276   0.0290   0.00    1.3
2018/03/13 12:59:18.000   78.254771267   16.249364302   344.5287   2   9   0.0674   0.0631   0.1485   0.0062   0.0274   0.0286   0.00    1.3
2018/03/13 12:59:19.000   78.254771275   16.249364036   344.5321   2   9   0.0673   0.0630   0.1476   0.0063   0.0271   0.0282   0.00    1.3
2018/03/13 12:59:20.000   78.254771303   16.249363813   344.5371   2   9   0.0671   0.0628   0.1468   0.0065   0.0268   0.0279   0.00    1.3
2018/03/13 12:59:21.000   78.254771309   16.249363657   344.5368   2   9   0.0670   0.0627   0.1459   0.0066   0.0266   0.0275   0.00    1.3
2018/03/13 12:59:22.000   78.254771295   16.249363697   344.5373   2   9   0.0668   0.0626   0.1450   0.0068   0.0263   0.0272   0.00    1.3
2018/03/13 12:59:23.000   78.254771293   16.249363785   344.5359   2   9   0.0667   0.0624   0.1442   0.0069   0.0261   0.0268   0.00    1.3
2018/03/13 12:59:24.000   78.254771263   16.249363923   344.5356   2   9   0.0665   0.0623   0.1433   0.0070   0.0258   0.0265   0.00    1.3
2018/03/13 12:59:25.000   78.254771245   16.249364008   344.5443   2   9   0.0664   0.0622   0.1425   0.0072   0.0256   0.0261   0.00    1.3
2018/03/13 12:59:26.000   78.254771234   16.249363988   344.5522   2   9   0.0662   0.0620   0.1417   0.0073   0.0253   0.0258   0.00    1.3
2018/03/13 12:59:27.000   78.254771243   16.249363946   344.5584   2   9   0.0661   0.0619   0.1408   0.0074   0.0251   0.0254   0.00    1.3
2018/03/13 12:59:28.000   78.254771236   16.249363952   344.5609   2   9   0.0659   0.0618   0.1400   0.0076   0.0248   0.0251   0.00    1.3
2018/03/13 12:59:29.000   78.254771237   16.249363886   344.5645   2   9   0.0658   0.0616   0.1392   0.0077   0.0246   0.0247   0.00    1.3
2018/03/13 12:59:30.000   78.254771241   16.249363796   344.5648   2   9   0.0657   0.0615   0.1384   0.0078   0.0243   0.0244   0.00    1.3
2018/03/13 12:59:31.000   78.254771205   16.249363832   344.5669   2   9   0.0655   0.0614   0.1376   0.0079   0.0241   0.0240   0.00    1.3
2018/03/13 12:59:32.000   78.254771156   16.249363732   344.5644   2   9   0.0654   0.0612   0.1368   0.0081   0.0238   0.0237   0.00    1.3
2018/03/13 12:59:33.000   78.254771110   16.249363653   344.5679   2   9   0.0652   0.0611   0.1361   0.0082   0.0236   0.0234   0.00    1.3
2018/03/13 12:59:34.000   78.254771056   16.249363452   344.5685   2   9   0.0651   0.0610   0.1353   0.0083   0.0233   0.0230   0.00    1.3
2018/03/13 12:59:35.000   78.254771000   16.249363210   344.5663   2   9   0.0650   0.0608   0.1345   0.0084   0.0231   0.0227   0.00    1.3
2018/03/13 12:59:36.000   78.254770968   16.249363003   344.5698   2   9   0.0648   0.0607   0.1337   0.0085   0.0229   0.0223   0.00    1.3
2018/03/13 12:59:37.000   78.254770974   16.249362974   344.5713   2   9   0.0647   0.0606   0.1330   0.0086   0.0226   0.0220   0.00    1.3
2018/03/13 12:59:38.000   78.254770979   16.249363014   344.5684   2   9   0.0645   0.0605   0.1322   0.0088   0.0224   0.0216   0.00    1.3
2018/03/13 12:59:39.000   78.254770977   16.249363048   344.5659   2   9   0.0644   0.0603   0.1315   0.0089   0.0222   0.0213   0.00    1.3
2018/03/13 12:59:40.000   78.254770976   16.249363148   344.5581   2   9   0.0642   0.0602   0.1308   0.0090   0.0219   0.0210   0.00    1.3
2018/03/13 12:59:41.000   78.254770964   16.249363310   344.5487   2   9   0.0641   0.0601   0.1300   0.0091   0.0217   0.0206   0.00    1.3
2018/03/13 12:59:42.000   78.254770952   16.249363282   344.5460   2   9   0.0640   0.0599   0.1293   0.0092   0.0215   0.0203   0.00    1.3
2018/03/13 12:59:43.000   78.254770971   16.249363309   344.5412   2   9   0.0638   0.0598   0.1286   0.0093   0.0212   0.0200   0.00    1.4
2018/03/13 12:59:44.000   78.254770979   16.249363328   344.5333   2   9   0.0637   0.0597   0.1279   0.0094   0.0210   0.0196   0.00    1.4
2018/03/13 12:59:45.000   78.254771003   16.249363230   344.5299   2   9   0.0636   0.0596   0.1272   0.0095   0.0208   0.0193   0.00    1.4
2018/03/13 12:59:46.000   78.254771006   16.249363202   344.5233   2   9   0.0634   0.0594   0.1265   0.0096   0.0205   0.0189   0.00    1.4
2018/03/13 12:59:47.000   78.254770999   16.249363163   344.5184   2   9   0.0633   0.0593   0.1258   0.0097   0.0203   0.0186   0.00    1.4
2018/03/13 12:59:48.000   78.254770985   16.249363047   344.5199   2   9   0.0631   0.0592   0.1251   0.0098   0.0201   0.0183   0.00    1.4
2018/03/13 12:59:49.000   78.254770965   16.249362910   344.5216   2   9   0.0630   0.0590   0.1244   0.0099   0.0199   0.0179   0.00    1.4
2018/03/13 12:59:50.000   78.254770934   16.249362746   344.5240   2   9   0.0629   0.0589   0.1237   0.0100   0.0196   0.0176   0.00    1.4
2018/03/13 12:59:51.000   78.254770934   16.249362477   344.5302   2   9   0.0627   0.0588   0.1230   0.0101   0.0194   0.0172   0.00    1.4
2018/03/13 12:59:52.000   78.254770921   16.249362271   344.5362   2   9   0.0626   0.0587   0.1224   0.0102   0.0192   0.0169   0.00    1.4
2018/03/13 12:59:53.000   78.254770914   16.249362243   344.5416   2   9   0.0625   0.0585   0.1217   0.0103   0.0190   0.0166   0.00    1.4
2018/03/13 12:59:54.000   78.254770905   16.249362191   344.5458   2   9   0.0623   0.0584   0.1210   0.0104   0.0188   0.0162   0.00    1.4
2018/03/13 12:59:55.000   78.254770874   16.249362147   344.5480   2   9   0.0622   0.0583   0.1204   0.0105   0.0185   0.0159   0.00    1.4
2018/03/13 12:59:56.000   78.254770851   16.249362192   344.5513   2   9   0.0621   0.0582   0.1197   0.0106   0.0183   0.0155   0.00    1.4
2018/03/13 12:59:57.000   78.254770828   16.249362130   344.5544   2   9   0.0619   0.0580   0.1191   0.0106   0.0181   0.0152   0.00    1.4
2018/03/13 12:59:58.000   78.254770804   16.249362125   344.5523   2   9   0.0618   0.0579   0.1185   0.0107   0.0179   0.0148   0.00    1.4
2018/03/13 12:59:59.000   78.254770787   16.249362070   344.5516   2   9   0.0617   0.0578   0.1178   0.0108   0.0177   0.0145   0.00    1.4
2018/03/13 13:00:00.000   78.254770786   16.249361946   344.5486   2   9   0.0615   0.0577   0.1172   0.0109   0.0175   0.0141   0.00    1.3
2018/03/13 13:00:01.000   78.254770773   16.249361734   344.5398   2   9   0.0614   0.0575   0.1166   0.0110   0.0173   0.0138   0.00    1.4
2018/03/13 13:00:02.000   78.254770759   16.249361474   344.5316   2   9   0.0613   0.0574   0.1160   0.0111   0.0170   0.0134   0.00    1.4
2018/03/13 13:00:03.000   78.254770763   16.249361249   344.5260   2   9   0.0611   0.0573   0.1154   0.0112   0.0168   0.0130   0.00    1.4
2018/03/13 13:00:04.000   78.254770752   16.249361060   344.5181   2   9   0.0610   0.0572   0.1148   0.0112   0.0166   0.0127   0.00    1.4
2018/03/13 13:00:05.000   78.254770750   16.249360942   344.5167   2   9   0.0609   0.0571   0.1142   0.0113   0.0164   0.0123   0.00    1.3
2018/03/13 13:00:06.000   78.254770761   16.249360825   344.5151   2   9   0.0607   0.0569   0.1136   0.0114   0.0162   0.0119   0.00    1.3
2018/03/13 13:00:07.000   78.254770756   16.249360695   344.5166   2   9   0.0606   0.0568   0.1130   0.0115   0.0160   0.0115   0.00    1.3
2018/03/13 13:00:08.000   78.254770743   16.249360616   344.5203   2   9   0.0605   0.0567   0.1124   0.0116   0.0158   0.0111   0.00    1.3
2018/03/13 13:00:09.000   78.254770720   16.249360508   344.5240   2   9   0.0604   0.0566   0.1118   0.0116   0.0156   0.0107   0.00    1.3
2018/03/13 13:00:10.000   78.254770700   16.249360434   344.5234   2   9   0.0602   0.0564   0.1112   0.0117   0.0154   0.0103   0.00    1.3
2018/03/13 13:00:11.000   78.254770676   16.249360475   344.5206   2   9   0.0601   0.0563   0.1107   0.0118   0.0152   0.0099   0.00    1.3
2018/03/13 13:00:12.000   78.254770655   16.249360465   344.5133   2   9   0.0600   0.0562   0.1101   0.0119   0.0150   0.0095   0.00    1.2
2018/03/13 13:00:13.000   78.254770644   16.249360466   344.5051   2   9   0.0598   0.0561   0.1095   0.0119   0.0147   0.0091   0.00    1.2
2018/03/13 13:00:14.000   78.254770634   16.249360401   344.4946   2   9   0.0597   0.0560   0.1090   0.0120   0.0145   0.0086   0.00    1.3
2018/03/13 13:00:15.000   78.254770623   16.249360348   344.4859   2   9   0.0596   0.0558   0.1084   0.0121   0.0143   0.0082   0.00    1.3
2018/03/13 13:00:16.000   78.254770634   16.249360161   344.4787   2   9   0.0595   0.0557   0.1079   0.0122   0.0141   0.0077   0.00    1.3
2018/03/13 13:00:17.000   78.254770647   16.249360009   344.4732   2   9   0.0593   0.0556   0.1073   0.0122   0.0139   0.0072   0.00    1.3
2018/03/13 13:00:18.000   78.254770646   16.249359989   344.4747   2   9   0.0592   0.0555   0.1068   0.0123   0.0137   0.0066   0.00    1.3
2018/03/13 13:00:19.000   78.254770650   16.249360018   344.4790   2   9   0.0591   0.0554   0.1063   0.0124   0.0135   0.0061   0.00    1.3
2018/03/13 13:00:20.000   78.254770645   16.249360115   344.4803   2   9   0.0589   0.0553   0.1057   0.0124   0.0133   0.0055   0.00    1.3
2018/03/13 13:00:21.000   78.254770643   16.249360252   344.4835   2   9   0.0588   0.0551   0.1052   0.0125   0.0131   0.0048   0.00    1.3
2018/03/13 13:00:22.000   78.254770641   16.249360332   344.4849   2   9   0.0587   0.0550   0.1047   0.0126   0.0129   0.0040   0.00    1.3
2018/03/13 13:00:23.000   78.254770631   16.249360478   344.4827   2   9   0.0586   0.0549   0.1042   0.0126   0.0127   0.0030   0.00    1.3
2018/03/13 13:00:24.000   78.254770618   16.249360492   344.4764   2   9   0.0584   0.0548   0.1037   0.0127   0.0125   0.0016   0.00    1.3
2018/03/13 13:00:25.000   78.254770626   16.249360433   344.4644   2   9   0.0583   0.0547   0.1031   0.0128   0.0123  -0.0020   0.00    1.3
2018/03/13 13:00:26.000   78.254770613   16.249360390   344.4538   2   9   0.0582   0.0545   0.1026   0.0128   0.0121  -0.0032   0.00    1.3
2018/03/13 13:00:27.000   78.254770640   16.249360289   344.4479   2   9   0.0581   0.0544   0.1021   0.0129   0.0119  -0.0041   0.00    1.3
2018/03/13 13:00:28.000   78.254770658   16.249360175   344.4468   2   9   0.0579   0.0543   0.1016   0.0130   0.0117  -0.0048   0.00    1.3
2018/03/13 13:00:29.000   78.254770654   16.249360076   344.4439   2   9   0.0578   0.0542   0.1011   0.0130   0.0115  -0.0054   0.00    1.3
2018/03/13 13:00:30.000   78.254770649   16.249360020   344.4452   2   9   0.0577   0.0541   0.1006   0.0131   0.0113  -0.0059   0.00    1.3
2018/03/13 13:00:31.000   78.254770637   16.249359840   344.4458   2   9   0.0576   0.0540   0.1002   0.0131   0.0111  -0.0064   0.00    1.3
2018/03/13 13:00:32.000   78.254770608   16.249359800   344.4450   2   9   0.0575   0.0538   0.0997   0.0132   0.0108  -0.0068   0.00    1.3
2018/03/13 13:00:33.000   78.254770602   16.249359814   344.4438   2   9   0.0573   0.0537   0.0992   0.0133   0.0106  -0.0072   0.00    1.3
2018/03/13 13:00:34.000   78.254770600   16.249359870   344.4422   2   9   0.0572   0.0536   0.0987   0.0133   0.0104  -0.0076   0.00    1.3
2018/03/13 13:00:35.000   78.254770604   16.249359871   344.4390   2   9   0.0571   0.0535   0.0982   0.0134   0.0102  -0.0079   0.00    1.3
2018/03/13 13:00:36.000   78.254770606   16.249359841   344.4348   2   9   0.0570   0.0534   0.0978   0.0134   0.0100  -0.0083   0.00    1.3
2018/03/13 13:00:37.000   78.254770609   16.249359787   344.4274   2   9   0.0568   0.0533   0.0973   0.0135   0.0098  -0.0086   0.00    1.3
2018/03/13 13:00:38.000   78.254770599   16.249359794   344.4223   2   9   0.0567   0.0532   0.0969   0.0135   0.0096  -0.0089   0.00    1.3
2018/03/13 13:00:39.000   78.254770599   16.249359745   344.4152   2   9   0.0566   0.0530   0.0964   0.0136   0.0094  -0.0091   0.00    1.3
2018/03/13 13:00:40.000   78.254770594   16.249359799   344.4058   2   9   0.0565   0.0529   0.0959   0.0137   0.0091  -0.0094   0.00    1.4
2018/03/13 13:00:41.000   78.254770609   16.249359843   344.4005   2   9   0.0564   0.0528   0.0955   0.0137   0.0089  -0.0097   0.00    1.4
2018/03/13 13:00:42.000   78.254770629   16.249359915   344.3957   2   9   0.0562   0.0527   0.0950   0.0138   0.0087  -0.0099   0.00    1.4
2018/03/13 13:00:43.000   78.254770628   16.249359925   344.3931   2   9   0.0561   0.0526   0.0946   0.0138   0.0085  -0.0101   0.00    1.4
2018/03/13 13:00:44.000   78.254770618   16.249359829   344.3929   2   9   0.0560   0.0525   0.0942   0.0139   0.0083  -0.0104   0.00    1.4
2018/03/13 13:00:45.000   78.254770602   16.249359763   344.3932   2   9   0.0559   0.0524   0.0937   0.0139   0.0080  -0.0106   0.00    1.4
2018/03/13 13:00:46.000   78.254770603   16.249359611   344.3934   2   9   0.0558   0.0523   0.0933   0.0140   0.0078  -0.0108   0.00    1.4
2018/03/13 13:00:47.000   78.254770604   16.249359539   344.3946   2   9   0.0556   0.0521   0.0929   0.0140   0.0076  -0.0110   0.00    1.4
2018/03/13 13:00:48.000   78.254770594   16.249359570   344.3944   2   9   0.0555   0.0520   0.0924   0.0141   0.0073  -0.0112   0.00    1.4
2018/03/13 13:00:49.000   78.254770602   16.249359684   344.3955   2   9   0.0554   0.0519   0.0920   0.0141   0.0071  -0.0114   0.00    1.4
2018/03/13 13:00:50.000   78.254770616   16.249359792   344.3944   2   9   0.0553   0.0518   0.0916   0.0142   0.0069  -0.0115   0.00    1.4
2018/03/13 13:00:51.000   78.254770622   16.249359919   344.3915   2   9   0.0552   0.0517   0.0912   0.0142   0.0066  -0.0117   0.00    1.4
2018/03/13 13:00:52.000   78.254770627   16.249359980   344.3894   2   9   0.0551   0.0516   0.0908   0.0142   0.0063  -0.0119   0.00    1.4
2018/03/13 13:00:53.000   78.254770635   16.249360020   344.3853   2   9   0.0549   0.0515   0.0903   0.0143   0.0061  -0.0120   0.00    1.4
2018/03/13 13:00:54.000   78.254770622   16.249360063   344.3827   2   9   0.0548   0.0514   0.0899   0.0143   0.0058  -0.0122   0.00    1.4
2018/03/13 13:00:55.000   78.254770614   16.249360036   344.3810   2   9   0.0547   0.0513   0.0895   0.0144   0.0055  -0.0123   0.00    1.4
2018/03/13 13:00:56.000   78.254770604   16.249359960   344.3796   2   9   0.0546   0.0512   0.0891   0.0144   0.0053  -0.0125   0.00    1.4
2018/03/13 13:00:57.000   78.254770591   16.249359959   344.3719   2   9   0.0545   0.0510   0.0887   0.0145   0.0050  -0.0126   0.00    1.4
2018/03/13 13:00:58.000   78.254770593   16.249359898   344.3648   2   9   0.0544   0.0509   0.0883   0.0145   0.0046  -0.0128   0.00    1.4
2018/03/13 13:00:59.000   78.254770609   16.249359877   344.3527   2   9   0.0542   0.0508   0.0879   0.0146   0.0043  -0.0129   0.00    1.5
2018/03/13 13:01:00.000   78.254770628   16.249359952   344.3396   2   9   0.0541   0.0507   0.0875   0.0146   0.0040  -0.0130   0.00    1.5
2018/03/13 13:01:01.000   78.254770662   16.249360014   344.3289   2   9   0.0540   0.0506   0.0872   0.0146   0.0036  -0.0132   0.00    1.5
2018/03/13 13:01:02.000   78.254770677   16.249360052   344.3167   2   9   0.0539   0.0505   0.0868   0.0147   0.0032  -0.0133   0.00    1.5
2018/03/13 13:01:03.000   78.254770686   16.249360091   344.3097   2   9   0.0538   0.0504   0.0864   0.0147   0.0027  -0.0134   0.00    1.5
2018/03/13 13:01:04.000   78.254770693   16.249360128   344.3064   2   9   0.0537   0.0503   0.0860   0.0148   0.0021  -0.0135   0.00    1.5
2018/03/13 13:01:05.000   78.254770678   16.249360235   344.3018   2   9   0.0536   0.0502   0.0856   0.0148   0.0013  -0.0136   0.00    1.5
2018/03/13 13:01:06.000   78.254770662   16.249360310   344.3019   2   9   0.0534   0.0501   0.0853   0.0148  -0.0009  -0.0137   0.00    1.5
2018/03/13 13:01:07.000   78.254770655   16.249360400   344.3030   2   9   0.0533   0.0500   0.0849   0.0149  -0.0019  -0.0138   0.00    1.5
2018/03/13 13:01:08.000   78.254770633   16.249360482   344.3036   2   9   0.0532   0.0499   0.0845   0.0149  -0.0025  -0.0139   0.00    1.5
2018/03/13 13:01:09.000   78.254770622   16.249360554   344.3042   2   9   0.0531   0.0498   0.0841   0.0149  -0.0029  -0.0140   0.00    1.5
2018/03/13 13:01:10.000   78.254770618   16.249360523   344.3027   2   9   0.0530   0.0497   0.0838   0.0150  -0.0033  -0.0141   0.00    1.5
2018/03/13 13:01:11.000   78.254770595   16.249360514   344.3014   2   9   0.0529   0.0495   0.0834   0.0150  -0.0037  -0.0142   0.00    1.5
2018/03/13 13:01:12.000   78.254770576   16.249360459   344.3035   2   9   0.0528   0.0494   0.0831   0.0150  -0.0040  -0.0143   0.00    1.5
2018/03/13 13:01:13.000   78.254770565   16.249360346   344.3047   2   9   0.0527   0.0493   0.0827   0.0151  -0.0043  -0.0144   0.00    1.5
2018/03/13 13:01:14.000   78.254770546   16.249360245   344.3060   2   9   0.0526   0.0492   0.0824   0.0151  -0.0045  -0.0145   0.00    1.5
2018/03/13 13:01:15.000   78.254770538   16.249360178   344.3074   2   9   0.0524   0.0491   0.0820   0.0151  -0.0048  -0.0146   0.00    1.6
2018/03/13 13:01:16.000   78.254770533   16.249360069   344.3080   2   9   0.0523   0.0490   0.0817   0.0152  -0.0050  -0.0147   0.00    1.6
2018/03/13 13:01:17.000   78.254770541   16.249360053   344.3062   2   9   0.0522   0.0489   0.0813   0.0152  -0.0052  -0.0147   0.00    1.6
2018/03/13 13:01:18.000   78.254770562   16.249360061   344.3041   2   9   0.0521   0.0488   0.0810   0.0152  -0.0054  -0.0148   0.00    1.6
2018/03/13 13:01:19.000   78.254770589   16.249360095   344.3034   2   9   0.0520   0.0487   0.0806   0.0153  -0.0056  -0.0149   0.00    1.6
2018/03/13 13:01:20.000   78.254770608   16.249360091   344.3030   2   9   0.0519   0.0486   0.0803   0.0153  -0.0058  -0.0150   0.00    1.6
2018/03/13 13:01:21.000   78.254770615   16.249360101   344.3045   2   9   0.0518   0.0485   0.0800   0.0153  -0.0060  -0.0150   0.00    1.6
2018/03/13 13:01:22.000   78.254770618   16.249360147   344.3070   2   9   0.0517   0.0484   0.0796   0.0154  -0.0061  -0.0151   0.00    1.6
2018/03/13 13:01:23.000   78.254770623   16.249360173   344.3081   2   9   0.0516   0.0483   0.0793   0.0154  -0.0063  -0.0152   0.00    1.6
2018/03/13 13:01:24.000   78.254770628   16.249360244   344.3083   2   9   0.0515   0.0482   0.0790   0.0154  -0.0065  -0.0152   0.00    1.6
2018/03/13 13:01:25.000   78.254770634   16.249360331   344.3056   2   9   0.0513   0.0481   0.0786   0.0155  -0.0066  -0.0153   0.00    1.6
2018/03/13 13:01:26.000   78.254770642   16.249360333   344.3009   2   9   0.0512   0.0480   0.0783   0.0155  -0.0067  -0.0154   0.00    1.6
2018/03/13 13:01:27.000   78.254770641   16.249360381   344.2968   2   9   0.0511   0.0479   0.0780   0.0155  -0.0069  -0.0154   0.00    1.6
2018/03/13 13:01:28.000   78.254770654   16.249360331   344.2912   2   9   0.0510   0.0478   0.0777   0.0155  -0.0070  -0.0155   0.00    1.7
2018/03/13 13:01:29.000   78.254770659   16.249360245   344.2859   2   9   0.0509   0.0477   0.0774   0.0156  -0.0071  -0.0155   0.00    1.7
2018/03/13 13:01:30.000   78.254770659   16.249360172   344.2810   2   9   0.0508   0.0476   0.0770   0.0156  -0.0073  -0.0156   0.00    1.7
2018/03/13 13:01:31.000   78.254770676   16.249360096   344.2767   2   9   0.0507   0.0475   0.0767   0.0156  -0.0074  -0.0157   0.00    1.7
2018/03/13 13:01:32.000   78.254770687   16.249360001   344.2738   2   9   0.0506   0.0474   0.0764   0.0156  -0.0075  -0.0157   0.00    1.7
2018/03/13 13:01:33.000   78.254770699   16.249359965   344.2712   2   9   0.0505   0.0473   0.0761   0.0157  -0.0076  -0.0158   0.00    1.7
2018/03/13 13:01:34.000   78.254770719   16.249359907   344.2707   2   9   0.0504   0.0472   0.0758   0.0157  -0.0077  -0.0158   0.00    1.7
2018/03/13 13:01:35.000   78.254770744   16.249359849   344.2668   2   9   0.0503   0.0471   0.0755   0.0157  -0.0078  -0.0159   0.00    1.6
2018/03/13 13:01:36.000   78.254770753   16.249359834   344.2632   2   9   0.0502   0.0470   0.0752   0.0157  -0.0079  -0.0159   0.00    1.6
2018/03/13 13:01:37.000   78.254770793   16.249359907   344.2578   2   9   0.0501   0.0469   0.0749   0.0158  -0.0080  -0.0160   0.00    1.6
2018/03/13 13:01:38.000   78.254770809   16.249359951   344.2520   2   9   0.0500   0.0468   0.0746   0.0158  -0.0081  -0.0160   0.00    1.6
2018/03/13 13:01:39.000   78.254770817   16.249359937   344.2462   2   9   0.0499   0.0467   0.0743   0.0158  -0.0082  -0.0160   0.00    1.6
2018/03/13 13:01:40.000   78.254770827   16.249359865   344.2418   2   9   0.0498   0.0466   0.0740   0.0158  -0.0083  -0.0161   0.00    1.6
2018/03/13 13:01:41.000   78.254770830   16.249359803   344.2367   2   9   0.0497   0.0465   0.0737   0.0158  -0.0084  -0.0161   0.00    1.6
2018/03/13 13:01:42.000   78.254770812   16.249359771   344.2352   2   9   0.0496   0.0464   0.0734   0.0159  -0.0085  -0.0162   0.00    1.6
2018/03/13 13:01:43.000   78.254770797   16.249359781   344.2352   2   9   0.0494   0.0463   0.0731   0.0159  -0.0086  -0.0162   0.00    1.6
2018/03/13 13:01:44.000   78.254770785   16.249359860   344.2357   2   9   0.0493   0.0462   0.0728   0.0159  -0.0086  -0.0162   0.00    1.6
2018/03/13 13:01:45.000   78.254770789   16.249359951   344.2364   2   9   0.0492   0.0461   0.0726   0.0159  -0.0087  -0.0163   0.00    1.7
2018/03/13 13:01:46.000   78.254770797   16.249360014   344.2369   2   9   0.0491   0.0460   0.0723   0.0159  -0.0088  -0.0163   0.00    1.7
2018/03/13 13:01:47.000   78.254770790   16.249360103   344.2368   2   9   0.0490   0.0459   0.0720   0.0160  -0.0089  -0.0164   0.00    1.7
2018/03/13 13:01:48.000   78.254770793   16.249360129   344.2361   2   9   0.0489   0.0458   0.0717   0.0160  -0.0089  -0.0164   0.00    1.7
2018/03/13 13:01:49.000   78.254770798   16.249360148   344.2349   2   9   0.0488   0.0457   0.0714   0.0160  -0.0090  -0.0164   0.00    1.7
2018/03/13 13:01:50.000   78.254770794   16.249360111   344.2355   2   9   0.0487   0.0456   0.0712   0.0160  -0.0091  -0.0164   0.00    1.7
2018/03/13 13:01:51.000   78.254770796   16.249360125   344.2382   2   9   0.0486   0.0455   0.0709   0.0160  -0.0091  -0.0165   0.00    1.7
2018/03/13 13:01:52.000   78.254770786   16.249360181   344.2405   2   9   0.0485   0.0454   0.0706   0.0161  -0.0092  -0.0165   0.00    1.7
2018/03/13 13:01:53.000   78.254770776   16.249360199   344.2420   2   9   0.0484   0.0454   0.0703   0.0161  -0.0093  -0.0165   0.00    1.7
2018/03/13 13:01:54.000   78.254770773   16.249360216   344.2435   2   9   0.0483   0.0453   0.0701   0.0161  -0.0093  -0.0166   0.00    1.7
2018/03/13 13:01:55.000   78.254770770   16.249360241   344.2448   2   9   0.0482   0.0452   0.0698   0.0161  -0.0094  -0.0166   0.00    1.7
2018/03/13 13:01:56.000   78.254770763   16.249360243   344.2459   2   9   0.0481   0.0451   0.0695   0.0161  -0.0095  -0.0166   0.00    1.7
2018/03/13 13:01:57.000   78.254770770   16.249360308   344.2465   2   9   0.0480   0.0450   0.0693   0.0161  -0.0095  -0.0166   0.00    1.7
2018/03/13 13:01:58.000   78.254770776   16.249360346   344.2471   2   9   0.0479   0.0449   0.0690   0.0161  -0.0096  -0.0167   0.00    1.7
2018/03/13 13:01:59.000   78.254770794   16.249360406   344.2462   2   9   0.0478   0.0448   0.0688   0.0162  -0.0096  -0.0167   0.00    1.7
2018/03/13 13:02:00.000   78.254770798   16.249360446   344.2462   2   9   0.0477   0.0447   0.0685   0.0162  -0.0097  -0.0167   0.00    1.7
2018/03/13 13:02:01.000   78.254770808   16.249360491   344.2459   2   9   0.0476   0.0446   0.0682   0.0162  -0.0097  -0.0167   0.00    1.7
2018/03/13 13:02:02.000   78.254770810   16.249360469   344.2457   2   9   0.0475   0.0445   0.0680   0.0162  -0.0098  -0.0168   0.00    1.8
2018/03/13 13:02:03.000   78.254770808   16.249360443   344.2449   2   9   0.0474   0.0444   0.0677   0.0162  -0.0098  -0.0168   0.00    1.8
2018/03/13 13:02:04.000   78.254770812   16.249360492   344.2426   2   9   0.0473   0.0443   0.0675   0.0162  -0.0099  -0.0168   0.00    1.8
2018/03/13 13:02:05.000   78.254770820   16.249360525   344.2406   2   9   0.0472   0.0442   0.0672   0.0162  -0.0099  -0.0168   0.00    1.8
2018/03/13 13:02:06.000   78.254770835   16.249360577   344.2410   2   9   0.0471   0.0441   0.0670   0.0163  -0.0100  -0.0168   0.00    1.8
2018/03/13 13:02:07.000   78.254770851   16.249360639   344.2418   2   9   0.0471   0.0441   0.0667   0.0163  -0.0100  -0.0169   0.00    1.8
2018/03/13 13:02:08.000   78.254770852   16.249360634   344.2422   2   9   0.0470   0.0440   0.0665   0.0163  -0.0101  -0.0169   0.00    1.8
2018/03/13 13:02:09.000   78.254770847   16.249360617   344.2456   2   9   0.0469   0.0439   0.0662   0.0163  -0.0101  -0.0169   0.00    1.8
2018/03/13 13:02:10.000   78.254770835   16.249360560   344.2487   2   9   0.0468   0.0438   0.0660   0.0163  -0.0102  -0.0169   0.00    1.8
2018/03/13 13:02:11.000   78.254770814   16.249360519   344.2512   2   9   0.0467   0.0437   0.0658   0.0163  -0.0102  -0.0169   0.00    1.8
2018/03/13 13:02:12.000   78.254770802   16.249360494   344.2542   2   9   0.0466   0.0436   0.0655   0.0163  -0.0102  -0.0169   0.00    1.8
2018/03/13 13:02:13.000   78.254770797   16.249360475   344.2541   2   9   0.0465   0.0435   0.0653   0.0163  -0.0103  -0.0170   0.00    1.8
2018/03/13 13:02:14.000   78.254770813   16.249360549   344.2523   2   9   0.0464   0.0434   0.0651   0.0163  -0.0103  -0.0170   0.00    1.8
2018/03/13 13:02:15.000   78.254770830   16.249360576   344.2514   2   9   0.0463   0.0433   0.0648   0.0164  -0.0104  -0.0170   0.00    1.8
2018/03/13 13:02:16.000   78.254770847   16.249360600   344.2496   2   9   0.0462   0.0432   0.0646   0.0164  -0.0104  -0.0170   0.00    1.8
2018/03/13 13:02:17.000   78.254770871   16.249360657   344.2477   2   9   0.0461   0.0432   0.0644   0.0164  -0.0104  -0.0170   0.00    1.8
2018/03/13 13:02:18.000   78.254770891   16.249360701   344.2469   2   9   0.0460   0.0431   0.0641   0.0164  -0.0105  -0.0170   0.00    1.8
2018/03/13 13:02:19.000   78.254770907   16.249360777   344.2471   2   9   0.0459   0.0430   0.0639   0.0164  -0.0105  -0.0170   0.00    1.8
2018/03/13 13:02:20.000   78.254770912   16.249360845   344.2487   2   9   0.0458   0.0429   0.0637   0.0164  -0.0105  -0.0170   0.00    1.8
2018/03/13 13:02:21.000   78.254770934   16.249360927   344.2479   2   9   0.0457   0.0428   0.0634   0.0164  -0.0106  -0.0170   0.00    1.8
2018/03/13 13:02:22.000   78.254770949   16.249360935   344.2460   2   9   0.0456   0.0427   0.0632   0.0164  -0.0106  -0.0171   0.00    1.8
2018/03/13 13:02:23.000   78.254770960   16.249360978   344.2437   2   9   0.0455   0.0426   0.0630   0.0164  -0.0106  -0.0171   0.00    1.7
2018/03/13 13:02:24.000   78.254770972   16.249361014   344.2403   2   9   0.0454   0.0425   0.0628   0.0164  -0.0107  -0.0171   0.00    1.7
2018/03/13 13:02:25.000   78.254770983   16.249361017   344.2365   2   9   0.0453   0.0425   0.0625   0.0164  -0.0107  -0.0171   0.00    1.7
2018/03/13 13:02:26.000   78.254770987   16.249361026   344.2330   2   9   0.0453   0.0424   0.0623   0.0164  -0.0107  -0.0171   0.00    1.7
2018/03/13 13:02:27.000   78.254770995   16.249361060   344.2289   2   9   0.0452   0.0423   0.0621   0.0164  -0.0107  -0.0171   0.00    1.7
2018/03/13 13:02:28.000   78.254771012   16.249361118   344.2268   2   9   0.0451   0.0422   0.0619   0.0165  -0.0108  -0.0171   0.00    1.7
2018/03/13 13:02:29.000   78.254771031   16.249361117   344.2264   2   9   0.0450   0.0421   0.0617   0.0165  -0.0108  -0.0171   0.00    1.7
2018/03/13 13:02:30.000   78.254771044   16.249361096   344.2276   2   9   0.0449   0.0420   0.0615   0.0165  -0.0108  -0.0171   0.00    1.7
2018/03/13 13:02:31.000   78.254771055   16.249361062   344.2288   2   9   0.0448   0.0419   0.0613   0.0165  -0.0108  -0.0171   0.00    1.7
2018/03/13 13:02:32.000   78.254771058   16.249361017   344.2295   2   9   0.0447   0.0419   0.0610   0.0165  -0.0109  -0.0171   0.00    1.7
2018/03/13 13:02:33.000   78.254771049   16.249361073   344.2307   2   9   0.0446   0.0418   0.0608   0.0165  -0.0109  -0.0171   0.00    1.7
2018/03/13 13:02:34.000   78.254771060   16.249361177   344.2310   2   9   0.0445   0.0417   0.0606   0.0165  -0.0109  -0.0171   0.00    1.7
2018/03/13 13:02:35.000   78.254771068   16.249361299   344.2303   2   9   0.0444   0.0416   0.0604   0.0165  -0.0109  -0.0171   0.00    1.7
2018/03/13 13:02:36.000   78.254771079   16.249361379   344.2300   2   9   0.0443   0.0415   0.0602   0.0165  -0.0110  -0.0171   0.00    1.7
2018/03/13 13:02:37.000   78.254771082   16.249361399   344.2302   2   9   0.0443   0.0414   0.0600   0.0165  -0.0110  -0.0171   0.00    1.7
2018/03/13 13:02:38.000   78.254771082   16.249361407   344.2301   2   9   0.0442   0.0413   0.0598   0.0165  -0.0110  -0.0171   0.00    1.7
2018/03/13 13:02:39.000   78.254771083   16.249361430   344.2307   2   9   0.0441   0.0413   0.0596   0.0165  -0.0110  -0.0171   0.00    1.7
2018/03/13 13:02:40.000   78.254771091   16.249361499   344.2305   2   9   0.0440   0.0412   0.0594   0.0165  -0.0110  -0.0171   0.00    1.7
2018/03/13 13:02:41.000   78.254771096   16.249361550   344.2292   2   9   0.0439   0.0411   0.0592   0.0165  -0.0111  -0.0171   0.00    1.7
2018/03/13 13:02:42.000   78.254771104   16.249361618   344.2287   2   9   0.0438   0.0410   0.0590   0.0165  -0.0111  -0.0171   0.00    1.6
2018/03/13 13:02:43.000   78.254771106   16.249361657   344.2285   2   9   0.0437   0.0409   0.0588   0.0165  -0.0111  -0.0171   0.00    1.6
2018/03/13 13:02:44.000   78.254771113   16.249361727   344.2283   2   9   0.0436   0.0409   0.0586   0.0165  -0.0111  -0.0171   0.00    1.6
2018/03/13 13:02:45.000   78.254771118   16.249361758   344.2274   2   9   0.0436   0.0408   0.0584   0.0165  -0.0111  -0.0171   0.00    1.6
2018/03/13 13:02:46.000   78.254771115   16.249361871   344.2266   2   9   0.0435   0.0407   0.0582   0.0165  -0.0112  -0.0171   0.00    1.6
2018/03/13 13:02:47.000   78.254771120   16.249362036   344.2261   2   9   0.0434   0.0406   0.0580   0.0165  -0.0112  -0.0171   0.00    1.6
2018/03/13 13:02:48.000   78.254771140   16.249362244   344.2240   2   9   0.0433   0.0405   0.0578   0.0165  -0.0112  -0.0171   0.00    1.6
2018/03/13 13:02:49.000   78.254771158   16.249362462   344.2208   2   9   0.0432   0.0404   0.0576   0.0165  -0.0112  -0.0171   0.00    1.6
2018/03/13 13:02:50.000   78.254771184   16.249362591   344.2187   2   9   0.0431   0.0404   0.0574   0.0165  -0.0112  -0.0171   0.00    1.6
2018/03/13 13:02:51.000   78.254771201   16.249362686   344.2176   2   9   0.0430   0.0403   0.0573   0.0165  -0.0112  -0.0171   0.00    1.6
2018/03/13 13:02:52.000   78.254771197   16.249362735   344.2169   2   9   0.0429   0.0402   0.0571   0.0165  -0.0113  -0.0171   0.00    1.6
2018/03/13 13:02:53.000   78.254771192   16.249362739   344.2168   2   9   0.0429   0.0401   0.0569   0.0165  -0.0113  -0.0171   0.00    1.6
2018/03/13 13:02:54.000   78.254771185   16.249362695   344.2172   2   9   0.0428   0.0400   0.0567   0.0165  -0.0113  -0.0171   0.00    1.6
2018/03/13 13:02:55.000   78.254771168   16.249362662   344.2178   2   9   0.0427   0.0400   0.0565   0.0165  -0.0113  -0.0171   0.00    1.6
2018/03/13 13:02:56.000   78.254771165   16.249362628   344.2182   2   9   0.0426   0.0399   0.0563   0.0165  -0.0113  -0.0171   0.00    1.6
2018/03/13 13:02:57.000   78.254771167   16.249362630   344.2168   2   9   0.0425   0.0398   0.0561   0.0165  -0.0113  -0.0171   0.00    1.6
2018/03/13 13:02:58.000   78.254771163   16.249362653   344.2165   2   9   0.0424   0.0397   0.0560   0.0165  -0.0113  -0.0171   0.00    1.6
2018/03/13 13:02:59.000   78.254771165   16.249362674   344.2159   2   9   0.0423   0.0396   0.0558   0.0165  -0.0113  -0.0171   0.00    1.6
2018/03/13 13:03:00.000   78.254771158   16.249362653   344.2155   2   9   0.0423   0.0396   0.0556   0.0165  -0.0114  -0.0171   0.00    1.6
2018/03/13 13:03:01.000   78.254771167   16.249362693   344.2156   2   9   0.0422   0.0395   0.0554   0.0165  -0.0114  -0.0171   0.00    1.6
2018/03/13 13:03:02.000   78.254771167   16.249362734   344.2167   2   9   0.0421   0.0394   0.0552   0.0165  -0.0114  -0.0171   0.00    1.6
2018/03/13 13:03:03.000   78.254771159   16.249362753   344.2175   2   9   0.0420   0.0393   0.0551   0.0165  -0.0114  -0.0171   0.00    1.6
2018/03/13 13:03:04.000   78.254771156   16.249362805   344.2171   2   9   0.0419   0.0393   0.0549   0.0165  -0.0114  -0.0171   0.00    1.6
2018/03/13 13:03:05.000   78.254771156   16.249362821   344.2165   2   9   0.0418   0.0392   0.0547   0.0165  -0.0114  -0.0171   0.00    1.6
2018/03/13 13:03:06.000   78.254771155   16.249362826   344.2152   2   9   0.0418   0.0391   0.0545   0.0165  -0.0114  -0.0170   0.00    1.6
2018/03/13 13:03:07.000   78.254771167   16.249362798   344.2116   2   9   0.0417   0.0390   0.0544   0.0165  -0.0114  -0.0170   0.00    1.6
