% program   : RTKPOST ver.2.4.2
% inp file  : C:\users\linda\My Documents\Documents\Spring18\GitHub_Unis\data\processed_data\46250703.obs
% inp file  : C:\users\linda\My Documents\Documents\Spring18\GitHub_Unis\data\processed_data\46250703.nav
% obs start : 2018/03/11 11:29:01.0 GPST (week1992  41341.0s)
% obs end   : 2018/03/11 11:52:36.0 GPST (week1992  42756.0s)
% pos mode  : single
% elev mask : 15.0 deg
% ionos opt : broadcast
% tropo opt : saastamoinen
% ephemeris : broadcast
%
% (lat/lon/height=WGS84/ellipsoidal,Q=1:fix,2:float,3:sbas,4:dgps,5:single,6:ppp,ns=# of satellites)
%  GPST                  latitude(deg) longitude(deg)  height(m)   Q  ns   sdn(m)   sde(m)   sdu(m)  sdne(m)  sdeu(m)  sdun(m) age(s)  ratio
2018/03/11 11:29:01.000   78.256795180   16.230344669   398.2595   5   9   2.0342   1.7055   5.7911  -0.9354  -0.7506   1.9791   0.00    0.0
2018/03/11 11:29:02.000   78.256789171   16.230351695   398.6720   5   9   2.0340   1.7055   5.7912  -0.9354  -0.7503   1.9786   0.00    0.0
2018/03/11 11:29:03.000   78.256790195   16.230354889   398.0767   5   9   2.0338   1.7056   5.7913  -0.9353  -0.7499   1.9781   0.00    0.0
2018/03/11 11:29:04.000   78.256788439   16.230371194   397.5785   5   9   2.0335   1.7056   5.7913  -0.9352  -0.7496   1.9776   0.00    0.0
2018/03/11 11:29:05.000   78.256791838   16.230339895   398.6198   5   9   2.0333   1.7057   5.7914  -0.9352  -0.7492   1.9771   0.00    0.0
2018/03/11 11:29:06.000   78.256791708   16.230335522   398.3834   5   9   2.0331   1.7057   5.7915  -0.9351  -0.7489   1.9767   0.00    0.0
2018/03/11 11:29:07.000   78.256790037   16.230335350   397.9769   5   9   2.0329   1.7057   5.7916  -0.9351  -0.7485   1.9762   0.00    0.0
2018/03/11 11:29:08.000   78.256787082   16.230347083   397.0802   5   9   2.0327   1.7058   5.7917  -0.9350  -0.7482   1.9757   0.00    0.0
2018/03/11 11:29:09.000   78.256788250   16.230329861   396.5008   5   9   2.0325   1.7058   5.7918  -0.9349  -0.7478   1.9752   0.00    0.0
2018/03/11 11:29:10.000   78.256787942   16.230340190   395.8811   5   9   2.0323   1.7058   5.7918  -0.9349  -0.7475   1.9747   0.00    0.0
2018/03/11 11:29:11.000   78.256788445   16.230336131   395.8027   5   9   2.0321   1.7059   5.7919  -0.9348  -0.7471   1.9742   0.00    0.0
2018/03/11 11:29:12.000   78.256790047   16.230332610   396.9701   5   9   2.0319   1.7059   5.7920  -0.9348  -0.7468   1.9738   0.00    0.0
2018/03/11 11:29:13.000   78.256789223   16.230337275   397.2281   5   9   2.0317   1.7059   5.7921  -0.9347  -0.7464   1.9733   0.00    0.0
2018/03/11 11:29:14.000   78.256786636   16.230354566   397.7068   5   9   2.0314   1.7060   5.7922  -0.9346  -0.7461   1.9728   0.00    0.0
2018/03/11 11:29:15.000   78.256788604   16.230358945   397.9759   5   9   2.0312   1.7060   5.7922  -0.9346  -0.7457   1.9723   0.00    0.0
2018/03/11 11:29:16.000   78.256788442   16.230366408   397.9151   5   9   2.0310   1.7061   5.7923  -0.9345  -0.7454   1.9718   0.00    0.0
2018/03/11 11:29:17.000   78.256791559   16.230361431   397.7039   5   9   2.0308   1.7061   5.7924  -0.9345  -0.7450   1.9713   0.00    0.0
2018/03/11 11:29:18.000   78.256790602   16.230339443   399.3383   5   9   2.0306   1.7061   5.7925  -0.9344  -0.7447   1.9708   0.00    0.0
2018/03/11 11:29:19.000   78.256792339   16.230332100   399.4023   5   9   2.0304   1.7062   5.7926  -0.9343  -0.7443   1.9704   0.00    0.0
2018/03/11 11:29:20.000   78.256793182   16.230329379   397.4607   5   9   2.0302   1.7062   5.7926  -0.9343  -0.7440   1.9699   0.00    0.0
2018/03/11 11:29:21.000   78.256789711   16.230344284   396.2057   5   9   2.0300   1.7062   5.7927  -0.9342  -0.7436   1.9694   0.00    0.0
2018/03/11 11:29:22.000   78.256789574   16.230338984   396.2556   5   9   2.0298   1.7063   5.7928  -0.9342  -0.7433   1.9689   0.00    0.0
2018/03/11 11:29:23.000   78.256791072   16.230335275   396.5814   5   9   2.0296   1.7063   5.7929  -0.9341  -0.7429   1.9684   0.00    0.0
2018/03/11 11:29:24.000   78.256792177   16.230297224   396.0831   5   9   2.0294   1.7063   5.7929  -0.9340  -0.7426   1.9679   0.00    0.0
2018/03/11 11:29:25.000   78.256791031   16.230309092   397.1989   5   9   2.0291   1.7064   5.7930  -0.9340  -0.7422   1.9674   0.00    0.0
2018/03/11 11:29:26.000   78.256784981   16.230344602   396.3085   5   9   2.0289   1.7064   5.7931  -0.9339  -0.7418   1.9670   0.00    0.0
2018/03/11 11:29:27.000   78.256786732   16.230352632   396.1284   5   9   2.0287   1.7065   5.7932  -0.9339  -0.7415   1.9665   0.00    0.0
2018/03/11 11:29:28.000   78.256785083   16.230354530   397.5128   5   9   2.0285   1.7065   5.7932  -0.9338  -0.7411   1.9660   0.00    0.0
2018/03/11 11:29:29.000   78.256790636   16.230337203   399.1380   5   9   2.0283   1.7065   5.7933  -0.9337  -0.7408   1.9655   0.00    0.0
2018/03/11 11:29:30.000   78.256791406   16.230323844   398.5447   5   9   2.0281   1.7066   5.7934  -0.9337  -0.7404   1.9650   0.00    0.0
2018/03/11 11:29:31.000   78.256792132   16.230339793   398.0498   5   9   2.0279   1.7066   5.7935  -0.9336  -0.7401   1.9645   0.00    0.0
2018/03/11 11:29:32.000   78.256791865   16.230363411   396.7706   5   9   2.0277   1.7066   5.7936  -0.9336  -0.7397   1.9640   0.00    0.0
2018/03/11 11:29:33.000   78.256794463   16.230379784   397.1282   5   9   2.0275   1.7067   5.7936  -0.9335  -0.7394   1.9635   0.00    0.0
2018/03/11 11:29:34.000   78.256797455   16.230356024   398.4445   5   9   2.0273   1.7067   5.7937  -0.9334  -0.7390   1.9631   0.00    0.0
2018/03/11 11:29:35.000   78.256793204   16.230336573   398.3939   5   9   2.0271   1.7068   5.7938  -0.9334  -0.7386   1.9626   0.00    0.0
2018/03/11 11:29:36.000   78.256791123   16.230360617   398.4091   5   9   2.0269   1.7068   5.7938  -0.9333  -0.7383   1.9621   0.00    0.0
2018/03/11 11:29:37.000   78.256791337   16.230325217   398.5358   5   9   2.0267   1.7068   5.7939  -0.9333  -0.7379   1.9616   0.00    0.0
2018/03/11 11:29:38.000   78.256793171   16.230339404   398.3348   5   9   2.0264   1.7069   5.7940  -0.9332  -0.7376   1.9611   0.00    0.0
2018/03/11 11:29:39.000   78.256787093   16.230351424   397.3048   5   9   2.0262   1.7069   5.7941  -0.9331  -0.7372   1.9606   0.00    0.0
2018/03/11 11:29:40.000   78.256787783   16.230333962   395.9694   5   9   2.0260   1.7069   5.7941  -0.9331  -0.7369   1.9601   0.00    0.0
2018/03/11 11:29:41.000   78.256787612   16.230323814   394.7828   5   9   2.0258   1.7070   5.7942  -0.9330  -0.7365   1.9596   0.00    0.0
2018/03/11 11:29:42.000   78.256788339   16.230315168   394.3190   5   9   2.0256   1.7070   5.7943  -0.9330  -0.7361   1.9591   0.00    0.0
2018/03/11 11:29:43.000   78.256790631   16.230298961   396.3772   5   9   2.0254   1.7071   5.7944  -0.9329  -0.7358   1.9586   0.00    0.0
2018/03/11 11:29:44.000   78.256788868   16.230324082   396.6410   5   9   2.0252   1.7071   5.7944  -0.9328  -0.7354   1.9582   0.00    0.0
2018/03/11 11:29:45.000   78.256790955   16.230340419   398.2125   5   9   2.0250   1.7071   5.7945  -0.9328  -0.7351   1.9577   0.00    0.0
2018/03/11 11:29:46.000   78.256792214   16.230369662   397.5004   5   9   2.0248   1.7072   5.7946  -0.9327  -0.7347   1.9572   0.00    0.0
2018/03/11 11:29:47.000   78.256797570   16.230345203   399.9648   5   9   2.0246   1.7072   5.7946  -0.9327  -0.7343   1.9567   0.00    0.0
2018/03/11 11:29:48.000   78.256793748   16.230331946   399.3961   5   9   2.0244   1.7072   5.7947  -0.9326  -0.7340   1.9562   0.00    0.0
2018/03/11 11:29:49.000   78.256791525   16.230357773   399.8634   5   9   2.0242   1.7073   5.7948  -0.9325  -0.7336   1.9557   0.00    0.0
2018/03/11 11:29:50.000   78.256794673   16.230346898   400.4927   5   9   2.0240   1.7073   5.7948  -0.9325  -0.7333   1.9552   0.00    0.0
2018/03/11 11:29:51.000   78.256794774   16.230351062   399.3288   5   9   2.0237   1.7073   5.7949  -0.9324  -0.7329   1.9547   0.00    0.0
2018/03/11 11:29:52.000   78.256796381   16.230349475   399.2020   5   9   2.0235   1.7074   5.7950  -0.9324  -0.7325   1.9542   0.00    0.0
2018/03/11 11:29:53.000   78.256796742   16.230326315   398.8384   5   9   2.0233   1.7074   5.7950  -0.9323  -0.7322   1.9537   0.00    0.0
2018/03/11 11:29:54.000   78.256799367   16.230322550   399.3305   5   9   2.0231   1.7075   5.7951  -0.9322  -0.7318   1.9532   0.00    0.0
2018/03/11 11:29:55.000   78.256793994   16.230333041   398.0517   5   9   2.0229   1.7075   5.7952  -0.9322  -0.7314   1.9527   0.00    0.0
2018/03/11 11:29:56.000   78.256788934   16.230342064   397.1791   5   9   2.0227   1.7075   5.7952  -0.9321  -0.7311   1.9523   0.00    0.0
2018/03/11 11:29:57.000   78.256787559   16.230337811   396.1594   5   9   2.0225   1.7076   5.7953  -0.9321  -0.7307   1.9518   0.00    0.0
2018/03/11 11:29:58.000   78.256789079   16.230312686   397.1684   5   9   2.0223   1.7076   5.7954  -0.9320  -0.7303   1.9513   0.00    0.0
2018/03/11 11:29:59.000   78.256787755   16.230309663   395.7459   5   9   2.0221   1.7077   5.7954  -0.9319  -0.7300   1.9508   0.00    0.0
2018/03/11 11:30:00.000   78.256783200   16.230309188   393.8251   5   9   2.0219   1.7077   5.7955  -0.9319  -0.7296   1.9503   0.00    0.0
2018/03/11 11:30:01.000   78.256781174   16.230335233   395.0689   5   9   2.0217   1.7077   5.7956  -0.9318  -0.7293   1.9498   0.00    0.0
2018/03/11 11:30:02.000   78.256787000   16.230353784   396.2353   5   9   2.0215   1.7078   5.7956  -0.9318  -0.7289   1.9493   0.00    0.0
2018/03/11 11:30:03.000   78.256795717   16.230330092   399.2576   5   9   2.0213   1.7078   5.7957  -0.9317  -0.7285   1.9488   0.00    0.0
2018/03/11 11:30:04.000   78.256796157   16.230349142   399.3218   5   9   2.0211   1.7078   5.7958  -0.9316  -0.7282   1.9483   0.00    0.0
2018/03/11 11:30:05.000   78.256794343   16.230361921   399.1710   5   9   2.0209   1.7079   5.7958  -0.9316  -0.7278   1.9478   0.00    0.0
2018/03/11 11:30:06.000   78.256793571   16.230389887   399.0608   5   9   2.0207   1.7079   5.7959  -0.9315  -0.7274   1.9473   0.00    0.0
2018/03/11 11:30:07.000   78.256791928   16.230375653   398.8895   5   9   2.0204   1.7080   5.7960  -0.9315  -0.7271   1.9468   0.00    0.0
2018/03/11 11:30:08.000   78.256789899   16.230368359   399.2006   5   9   2.0202   1.7080   5.7960  -0.9314  -0.7267   1.9463   0.00    0.0
2018/03/11 11:30:09.000   78.256790248   16.230355889   399.8292   5   9   2.0200   1.7080   5.7961  -0.9314  -0.7263   1.9458   0.00    0.0
2018/03/11 11:30:10.000   78.256790712   16.230361497   399.6274   5   9   2.0198   1.7081   5.7962  -0.9313  -0.7260   1.9453   0.00    0.0
2018/03/11 11:30:11.000   78.256795262   16.230365029   400.4173   5   9   2.0196   1.7081   5.7962  -0.9312  -0.7256   1.9448   0.00    0.0
2018/03/11 11:30:12.000   78.256790103   16.230365109   398.8180   5   9   2.0194   1.7081   5.7963  -0.9312  -0.7252   1.9443   0.00    0.0
2018/03/11 11:30:13.000   78.256790466   16.230341072   398.4818   5   9   2.0192   1.7082   5.7963  -0.9311  -0.7248   1.9439   0.00    0.0
2018/03/11 11:30:14.000   78.256794937   16.230344423   398.6905   5   9   2.0190   1.7082   5.7964  -0.9311  -0.7245   1.9434   0.00    0.0
2018/03/11 11:30:15.000   78.256791993   16.230334816   397.0745   5   9   2.0188   1.7083   5.7965  -0.9310  -0.7241   1.9429   0.00    0.0
2018/03/11 11:30:16.000   78.256790619   16.230309042   395.9687   5   9   2.0186   1.7083   5.7965  -0.9309  -0.7237   1.9424   0.00    0.0
2018/03/11 11:30:17.000   78.256786881   16.230285563   393.6575   5   9   2.0184   1.7083   5.7966  -0.9309  -0.7234   1.9419   0.00    0.0
2018/03/11 11:30:18.000   78.256785967   16.230262811   391.6531   5   9   2.0182   1.7084   5.7966  -0.9308  -0.7230   1.9414   0.00    0.0
2018/03/11 11:30:19.000   78.256789764   16.230306444   392.8062   5   9   2.0180   1.7084   5.7967  -0.9308  -0.7226   1.9409   0.00    0.0
2018/03/11 11:30:20.000   78.256796961   16.230337060   398.1973   5   9   2.0178   1.7085   5.7968  -0.9307  -0.7222   1.9404   0.00    0.0
2018/03/11 11:30:21.000   78.256797882   16.230342367   399.1821   5   9   2.0176   1.7085   5.7968  -0.9306  -0.7219   1.9399   0.00    0.0
2018/03/11 11:30:22.000   78.256795190   16.230359691   400.9105   5   9   2.0174   1.7085   5.7969  -0.9306  -0.7215   1.9394   0.00    0.0
2018/03/11 11:30:23.000   78.256795638   16.230356257   400.3658   5   9   2.0172   1.7086   5.7969  -0.9305  -0.7211   1.9389   0.00    0.0
2018/03/11 11:30:24.000   78.256796703   16.230373056   400.1775   5   9   2.0170   1.7086   5.7970  -0.9305  -0.7208   1.9384   0.00    0.0
2018/03/11 11:30:25.000   78.256794984   16.230365081   399.1118   5   9   2.0168   1.7086   5.7971  -0.9304  -0.7204   1.9379   0.00    0.0
2018/03/11 11:30:26.000   78.256794964   16.230361089   400.4096   5   9   2.0165   1.7087   5.7971  -0.9303  -0.7200   1.9374   0.00    0.0
2018/03/11 11:30:27.000   78.256792956   16.230363934   400.1248   5   9   2.0163   1.7087   5.7972  -0.9303  -0.7196   1.9369   0.00    0.0
2018/03/11 11:30:28.000   78.256796978   16.230351016   399.5317   5   9   2.0161   1.7088   5.7972  -0.9302  -0.7193   1.9364   0.00    0.0
2018/03/11 11:30:29.000   78.256800618   16.230357168   399.8522   5   9   2.0159   1.7088   5.7973  -0.9302  -0.7189   1.9359   0.00    0.0
2018/03/11 11:30:30.000   78.256792836   16.230358817   397.8120   5   9   2.0157   1.7088   5.7973  -0.9301  -0.7185   1.9354   0.00    0.0
2018/03/11 11:30:31.000   78.256792755   16.230343824   399.3872   5   9   2.0155   1.7089   5.7974  -0.9301  -0.7181   1.9349   0.00    0.0
2018/03/11 11:30:32.000   78.256787063   16.230350119   398.9951   5   9   2.0153   1.7089   5.7975  -0.9300  -0.7178   1.9344   0.00    0.0
2018/03/11 11:30:33.000   78.256786552   16.230352591   397.7784   5   9   2.0151   1.7090   5.7975  -0.9299  -0.7174   1.9339   0.00    0.0
2018/03/11 11:30:34.000   78.256786423   16.230308708   397.4501   5   9   2.0149   1.7090   5.7976  -0.9299  -0.7170   1.9334   0.00    0.0
2018/03/11 11:30:35.000   78.256780737   16.230307858   393.7344   5   9   2.0147   1.7090   5.7976  -0.9298  -0.7166   1.9329   0.00    0.0
2018/03/11 11:30:36.000   78.256781191   16.230292343   392.8760   5   9   2.0145   1.7091   5.7977  -0.9298  -0.7162   1.9324   0.00    0.0
2018/03/11 11:30:37.000   78.256782119   16.230302014   392.9276   5   9   2.0143   1.7091   5.7977  -0.9297  -0.7159   1.9319   0.00    0.0
2018/03/11 11:30:38.000   78.256784359   16.230317421   395.0781   5   9   2.0141   1.7092   5.7978  -0.9296  -0.7155   1.9314   0.00    0.0
2018/03/11 11:30:39.000   78.256788268   16.230326209   396.8848   5   9   2.0139   1.7092   5.7978  -0.9296  -0.7151   1.9309   0.00    0.0
2018/03/11 11:30:40.000   78.256795201   16.230321910   399.1210   5   9   2.0137   1.7092   5.7979  -0.9295  -0.7147   1.9304   0.00    0.0
2018/03/11 11:30:41.000   78.256797868   16.230337418   399.1100   5   9   2.0135   1.7093   5.7979  -0.9295  -0.7144   1.9299   0.00    0.0
2018/03/11 11:30:42.000   78.256799779   16.230334110   401.3438   5   9   2.0133   1.7093   5.7980  -0.9294  -0.7140   1.9294   0.00    0.0
2018/03/11 11:30:43.000   78.256796680   16.230360910   400.6310   5   9   2.0131   1.7093   5.7980  -0.9293  -0.7136   1.9289   0.00    0.0
2018/03/11 11:30:44.000   78.256795050   16.230352438   400.7478   5   9   2.0129   1.7094   5.7981  -0.9293  -0.7132   1.9284   0.00    0.0
2018/03/11 11:30:45.000   78.256794974   16.230343164   399.8121   5   9   2.0127   1.7094   5.7982  -0.9292  -0.7128   1.9279   0.00    0.0
2018/03/11 11:30:46.000   78.256795469   16.230341227   398.4755   5   9   2.0125   1.7095   5.7982  -0.9292  -0.7124   1.9274   0.00    0.0
2018/03/11 11:30:47.000   78.256794069   16.230331731   399.0833   5   9   2.0123   1.7095   5.7983  -0.9291  -0.7121   1.9269   0.00    0.0
2018/03/11 11:30:48.000   78.256796077   16.230350668   399.3269   5   9   2.0121   1.7095   5.7983  -0.9290  -0.7117   1.9264   0.00    0.0
2018/03/11 11:30:49.000   78.256796963   16.230340373   398.5735   5   9   2.0119   1.7096   5.7984  -0.9290  -0.7113   1.9259   0.00    0.0
2018/03/11 11:30:50.000   78.256796364   16.230338345   397.8418   5   9   2.0117   1.7096   5.7984  -0.9289  -0.7109   1.9254   0.00    0.0
2018/03/11 11:30:51.000   78.256793076   16.230321812   396.1720   5   9   2.0115   1.7097   5.7985  -0.9289  -0.7105   1.9249   0.00    0.0
2018/03/11 11:30:52.000   78.256790897   16.230311137   395.4533   5   9   2.0113   1.7097   5.7985  -0.9288  -0.7102   1.9244   0.00    0.0
2018/03/11 11:30:53.000   78.256792160   16.230309071   396.4260   5   9   2.0111   1.7097   5.7986  -0.9288  -0.7098   1.9239   0.00    0.0
2018/03/11 11:30:54.000   78.256790743   16.230303030   395.7982   5   9   2.0108   1.7098   5.7986  -0.9287  -0.7094   1.9234   0.00    0.0
2018/03/11 11:30:55.000   78.256786944   16.230309097   396.8987   5   9   2.0106   1.7098   5.7987  -0.9286  -0.7090   1.9229   0.00    0.0
2018/03/11 11:30:56.000   78.256788789   16.230338421   396.8366   5   9   2.0104   1.7099   5.7987  -0.9286  -0.7086   1.9224   0.00    0.0
2018/03/11 11:30:57.000   78.256792288   16.230338611   397.7867   5   9   2.0102   1.7099   5.7987  -0.9285  -0.7082   1.9218   0.00    0.0
2018/03/11 11:30:58.000   78.256796983   16.230329618   398.7083   5   9   2.0100   1.7099   5.7988  -0.9285  -0.7078   1.9213   0.00    0.0
2018/03/11 11:30:59.000   78.256787826   16.230347851   398.0685   5   9   2.0098   1.7100   5.7988  -0.9284  -0.7075   1.9208   0.00    0.0
2018/03/11 11:31:00.000   78.256785818   16.230356332   399.1241   5   9   2.0096   1.7100   5.7989  -0.9283  -0.7071   1.9203   0.00    0.0
2018/03/11 11:31:01.000   78.256786615   16.230341199   398.2815   5   9   2.0094   1.7101   5.7989  -0.9283  -0.7067   1.9198   0.00    0.0
2018/03/11 11:31:02.000   78.256790071   16.230351784   398.6208   5   9   2.0092   1.7101   5.7990  -0.9282  -0.7063   1.9193   0.00    0.0
2018/03/11 11:31:03.000   78.256790716   16.230355392   397.8437   5   9   2.0090   1.7101   5.7990  -0.9282  -0.7059   1.9188   0.00    0.0
2018/03/11 11:31:04.000   78.256783479   16.230340644   398.1993   5   9   2.0088   1.7102   5.7991  -0.9281  -0.7055   1.9183   0.00    0.0
2018/03/11 11:31:05.000   78.256786240   16.230332571   398.4666   5   9   2.0086   1.7102   5.7991  -0.9281  -0.7051   1.9178   0.00    0.0
2018/03/11 11:31:06.000   78.256786144   16.230338081   398.3559   5   9   2.0084   1.7103   5.7992  -0.9280  -0.7047   1.9173   0.00    0.0
2018/03/11 11:31:07.000   78.256787763   16.230333971   397.9239   5   9   2.0082   1.7103   5.7992  -0.9279  -0.7044   1.9168   0.00    0.0
2018/03/11 11:31:08.000   78.256790167   16.230338934   397.3238   5   9   2.0080   1.7103   5.7993  -0.9279  -0.7040   1.9163   0.00    0.0
2018/03/11 11:31:09.000   78.256784213   16.230320179   395.9214   5   9   2.0078   1.7104   5.7993  -0.9278  -0.7036   1.9158   0.00    0.0
2018/03/11 11:31:10.000   78.256786794   16.230321430   395.4607   5   9   2.0076   1.7104   5.7993  -0.9278  -0.7032   1.9153   0.00    0.0
2018/03/11 11:31:11.000   78.256788056   16.230294295   396.6837   5   9   2.0074   1.7105   5.7994  -0.9277  -0.7028   1.9148   0.00    0.0
2018/03/11 11:31:12.000   78.256791108   16.230282629   397.1569   5   9   2.0072   1.7105   5.7994  -0.9276  -0.7024   1.9143   0.00    0.0
2018/03/11 11:31:13.000   78.256791474   16.230300835   396.8456   5   9   2.0070   1.7105   5.7995  -0.9276  -0.7020   1.9138   0.00    0.0
2018/03/11 11:31:14.000   78.256797936   16.230311971   396.7102   5   9   2.0068   1.7106   5.7995  -0.9275  -0.7016   1.9132   0.00    0.0
2018/03/11 11:31:15.000   78.256794341   16.230337614   396.4308   5   9   2.0066   1.7106   5.7996  -0.9275  -0.7012   1.9127   0.00    0.0
2018/03/11 11:31:16.000   78.256794863   16.230332866   396.7406   5   9   2.0064   1.7107   5.7996  -0.9274  -0.7008   1.9122   0.00    0.0
2018/03/11 11:31:17.000   78.256798381   16.230308683   399.0697   5   9   2.0062   1.7107   5.7996  -0.9273  -0.7005   1.9117   0.00    0.0
2018/03/11 11:31:18.000   78.256795575   16.230302585   398.7550   5   9   2.0060   1.7107   5.7997  -0.9273  -0.7001   1.9112   0.00    0.0
2018/03/11 11:31:19.000   78.256794595   16.230316832   397.4847   5   9   2.0058   1.7108   5.7997  -0.9272  -0.6997   1.9107   0.00    0.0
2018/03/11 11:31:20.000   78.256792266   16.230349296   397.8897   5   9   2.0056   1.7108   5.7998  -0.9272  -0.6993   1.9102   0.00    0.0
2018/03/11 11:31:21.000   78.256784217   16.230373023   396.7305   5   9   2.0054   1.7109   5.7998  -0.9271  -0.6989   1.9097   0.00    0.0
2018/03/11 11:31:22.000   78.256790821   16.230336645   398.4162   5   9   2.0052   1.7109   5.7998  -0.9271  -0.6985   1.9092   0.00    0.0
2018/03/11 11:31:23.000   78.256797019   16.230314695   398.5775   5   9   2.0050   1.7109   5.7999  -0.9270  -0.6981   1.9087   0.00    0.0
2018/03/11 11:31:24.000   78.256788809   16.230329795   396.7731   5   9   2.0048   1.7110   5.7999  -0.9269  -0.6977   1.9082   0.00    0.0
2018/03/11 11:31:25.000   78.256782327   16.230318140   394.4527   5   9   2.0046   1.7110   5.8000  -0.9269  -0.6973   1.9077   0.00    0.0
2018/03/11 11:31:26.000   78.256777547   16.230344951   393.5826   5   9   2.0044   1.7111   5.8000  -0.9268  -0.6969   1.9071   0.00    0.0
2018/03/11 11:31:27.000   78.256781984   16.230319567   395.6367   5   9   2.0042   1.7111   5.8000  -0.9268  -0.6965   1.9066   0.00    0.0
2018/03/11 11:31:28.000   78.256785610   16.230304583   396.7579   5   9   2.0040   1.7112   5.8001  -0.9267  -0.6961   1.9061   0.00    0.0
2018/03/11 11:31:29.000   78.256782978   16.230316141   396.4708   5   9   2.0038   1.7112   5.8001  -0.9267  -0.6957   1.9056   0.00    0.0
2018/03/11 11:31:30.000   78.256782937   16.230324259   396.3083   5   9   2.0036   1.7112   5.8002  -0.9266  -0.6953   1.9051   0.00    0.0
2018/03/11 11:31:31.000   78.256787395   16.230324136   395.1723   5   9   2.0034   1.7113   5.8002  -0.9265  -0.6949   1.9046   0.00    0.0
2018/03/11 11:31:32.000   78.256786508   16.230335875   394.9224   5   9   2.0032   1.7113   5.8002  -0.9265  -0.6945   1.9041   0.00    0.0
2018/03/11 11:31:33.000   78.256791008   16.230305634   396.9240   5   9   2.0030   1.7114   5.8003  -0.9264  -0.6941   1.9036   0.00    0.0
2018/03/11 11:31:34.000   78.256787883   16.230319169   397.2835   5   9   2.0028   1.7114   5.8003  -0.9264  -0.6937   1.9031   0.00    0.0
2018/03/11 11:31:35.000   78.256793777   16.230334157   397.7166   5   9   2.0026   1.7114   5.8003  -0.9263  -0.6933   1.9026   0.00    0.0
2018/03/11 11:31:36.000   78.256794901   16.230325211   398.0063   5   9   2.0024   1.7115   5.8004  -0.9262  -0.6929   1.9020   0.00    0.0
2018/03/11 11:31:37.000   78.256788645   16.230342461   397.1002   5   9   2.0022   1.7115   5.8004  -0.9262  -0.6925   1.9015   0.00    0.0
2018/03/11 11:31:38.000   78.256787621   16.230312143   397.3503   5   9   2.0020   1.7116   5.8004  -0.9261  -0.6921   1.9010   0.00    0.0
2018/03/11 11:31:39.000   78.256789989   16.230316948   397.7205   5   9   2.0018   1.7116   5.8005  -0.9261  -0.6917   1.9005   0.00    0.0
2018/03/11 11:31:40.000   78.256790843   16.230339491   397.2734   5   9   2.0016   1.7116   5.8005  -0.9260  -0.6913   1.9000   0.00    0.0
2018/03/11 11:31:41.000   78.256790269   16.230317064   397.1497   5   9   2.0014   1.7117   5.8005  -0.9260  -0.6909   1.8995   0.00    0.0
2018/03/11 11:31:42.000   78.256788042   16.230319237   395.3298   5   9   2.0012   1.7117   5.8006  -0.9259  -0.6905   1.8990   0.00    0.0
2018/03/11 11:31:43.000   78.256786512   16.230325417   394.8338   5   9   2.0010   1.7118   5.8006  -0.9258  -0.6901   1.8985   0.00    0.0
2018/03/11 11:31:44.000   78.256784807   16.230317407   395.8518   5   9   2.0008   1.7118   5.8006  -0.9258  -0.6897   1.8979   0.00    0.0
2018/03/11 11:31:45.000   78.256783831   16.230302515   394.7126   5   9   2.0006   1.7119   5.8007  -0.9257  -0.6893   1.8974   0.00    0.0
2018/03/11 11:31:46.000   78.256789022   16.230314046   395.8098   5   9   2.0004   1.7119   5.8007  -0.9257  -0.6889   1.8969   0.00    0.0
2018/03/11 11:31:47.000   78.256792645   16.230310903   396.5131   5   9   2.0002   1.7119   5.8007  -0.9256  -0.6885   1.8964   0.00    0.0
2018/03/11 11:31:48.000   78.256795592   16.230316156   396.7922   5   9   2.0000   1.7120   5.8008  -0.9255  -0.6881   1.8959   0.00    0.0
2018/03/11 11:31:49.000   78.256799238   16.230313271   398.3016   5   9   1.9998   1.7120   5.8008  -0.9255  -0.6877   1.8954   0.00    0.0
2018/03/11 11:31:50.000   78.256795110   16.230323119   397.5304   5   9   1.9996   1.7121   5.8008  -0.9254  -0.6873   1.8949   0.00    0.0
2018/03/11 11:31:51.000   78.256790350   16.230345667   398.1288   5   9   1.9994   1.7121   5.8009  -0.9254  -0.6869   1.8943   0.00    0.0
2018/03/11 11:31:52.000   78.256792104   16.230330926   397.7832   5   9   1.9992   1.7121   5.8009  -0.9253  -0.6865   1.8938   0.00    0.0
2018/03/11 11:31:53.000   78.256793071   16.230312140   398.6111   5   9   1.9990   1.7122   5.8009  -0.9253  -0.6861   1.8933   0.00    0.0
2018/03/11 11:31:54.000   78.256790163   16.230311480   398.8132   5   9   1.9988   1.7122   5.8010  -0.9252  -0.6857   1.8928   0.00    0.0
2018/03/11 11:31:55.000   78.256789895   16.230324817   398.5876   5   9   1.9986   1.7123   5.8010  -0.9251  -0.6853   1.8923   0.00    0.0
2018/03/11 11:31:56.000   78.256789810   16.230339647   397.1557   5   9   1.9984   1.7123   5.8010  -0.9251  -0.6848   1.8918   0.00    0.0
2018/03/11 11:31:57.000   78.256791660   16.230328263   398.2458   5   9   1.9982   1.7124   5.8010  -0.9250  -0.6844   1.8913   0.00    0.0
2018/03/11 11:31:58.000   78.256788578   16.230341107   397.9400   5   9   1.9980   1.7124   5.8011  -0.9250  -0.6840   1.8907   0.00    0.0
2018/03/11 11:31:59.000   78.256780399   16.230345597   396.0098   5   9   1.9978   1.7124   5.8011  -0.9249  -0.6836   1.8902   0.00    0.0
2018/03/11 11:32:00.000   78.256778341   16.230331551   395.5365   5   9   1.9976   1.7125   5.8011  -0.9249  -0.6832   1.8897   0.00    0.0
2018/03/11 11:32:01.000   78.256779709   16.230331607   395.2320   5   9   1.9974   1.7125   5.8012  -0.9248  -0.6828   1.8892   0.00    0.0
2018/03/11 11:32:02.000   78.256781900   16.230323020   396.1829   5   9   1.9972   1.7126   5.8012  -0.9247  -0.6824   1.8887   0.00    0.0
2018/03/11 11:32:03.000   78.256778512   16.230294454   395.5123   5   9   1.9970   1.7126   5.8012  -0.9247  -0.6820   1.8882   0.00    0.0
2018/03/11 11:32:04.000   78.256778269   16.230296099   395.3219   5   9   1.9968   1.7126   5.8012  -0.9246  -0.6816   1.8877   0.00    0.0
2018/03/11 11:32:05.000   78.256783568   16.230307329   395.5812   5   9   1.9966   1.7127   5.8013  -0.9246  -0.6812   1.8871   0.00    0.0
2018/03/11 11:32:06.000   78.256783006   16.230337567   396.3868   5   9   1.9964   1.7127   5.8013  -0.9245  -0.6807   1.8866   0.00    0.0
2018/03/11 11:32:07.000   78.256784067   16.230337013   396.7177   5   9   1.9962   1.7128   5.8013  -0.9245  -0.6803   1.8861   0.00    0.0
2018/03/11 11:32:08.000   78.256785423   16.230338159   397.2494   5   9   1.9960   1.7128   5.8013  -0.9244  -0.6799   1.8856   0.00    0.0
2018/03/11 11:32:09.000   78.256790773   16.230352251   396.7582   5   9   1.9958   1.7129   5.8014  -0.9243  -0.6795   1.8851   0.00    0.0
2018/03/11 11:32:10.000   78.256797068   16.230356422   396.8469   5   9   1.9956   1.7129   5.8014  -0.9243  -0.6791   1.8845   0.00    0.0
2018/03/11 11:32:11.000   78.256797688   16.230325606   398.3293   5   9   1.9954   1.7129   5.8014  -0.9242  -0.6787   1.8840   0.00    0.0
2018/03/11 11:32:12.000   78.256795052   16.230320776   399.3307   5   9   1.9953   1.7130   5.8014  -0.9242  -0.6783   1.8835   0.00    0.0
2018/03/11 11:32:13.000   78.256795246   16.230315894   399.3879   5   9   1.9951   1.7130   5.8015  -0.9241  -0.6779   1.8830   0.00    0.0
2018/03/11 11:32:14.000   78.256795180   16.230317563   399.8742   5   9   1.9949   1.7131   5.8015  -0.9240  -0.6774   1.8825   0.00    0.0
2018/03/11 11:32:15.000   78.256792172   16.230341148   399.0186   5   9   1.9947   1.7131   5.8015  -0.9240  -0.6770   1.8820   0.00    0.0
2018/03/11 11:32:16.000   78.256788164   16.230322883   397.9980   5   9   1.9945   1.7132   5.8015  -0.9239  -0.6766   1.8814   0.00    0.0
2018/03/11 11:32:17.000   78.256793385   16.230318892   398.5182   5   9   1.9943   1.7132   5.8016  -0.9239  -0.6762   1.8809   0.00    0.0
2018/03/11 11:32:18.000   78.256795135   16.230336790   397.5865   5   9   1.9941   1.7132   5.8016  -0.9238  -0.6758   1.8804   0.00    0.0
2018/03/11 11:32:19.000   78.256788481   16.230338657   396.0865   5   9   1.9939   1.7133   5.8016  -0.9238  -0.6754   1.8799   0.00    0.0
2018/03/11 11:32:20.000   78.256785259   16.230346404   394.6530   5   9   1.9937   1.7133   5.8016  -0.9237  -0.6749   1.8794   0.00    0.0
2018/03/11 11:32:21.000   78.256791377   16.230321603   396.1428   5   9   1.9935   1.7134   5.8016  -0.9236  -0.6745   1.8788   0.00    0.0
2018/03/11 11:32:22.000   78.256790636   16.230310965   395.9867   5   9   1.9933   1.7134   5.8017  -0.9236  -0.6741   1.8783   0.00    0.0
2018/03/11 11:32:23.000   78.256788541   16.230305424   397.4039   5   9   1.9931   1.7135   5.8017  -0.9235  -0.6737   1.8778   0.00    0.0
2018/03/11 11:32:24.000   78.256785069   16.230319109   397.9199   5   9   1.9929   1.7135   5.8017  -0.9235  -0.6733   1.8773   0.00    0.0
2018/03/11 11:32:25.000   78.256782727   16.230306201   397.0334   5   9   1.9927   1.7135   5.8017  -0.9234  -0.6729   1.8768   0.00    0.0
2018/03/11 11:32:26.000   78.256782988   16.230327590   396.6349   5   9   1.9925   1.7136   5.8017  -0.9234  -0.6724   1.8762   0.00    0.0
2018/03/11 11:32:27.000   78.256786196   16.230347606   397.1837   5   9   1.9923   1.7136   5.8018  -0.9233  -0.6720   1.8757   0.00    0.0
2018/03/11 11:32:28.000   78.256788334   16.230351419   396.6885   5   9   1.9921   1.7137   5.8018  -0.9232  -0.6716   1.8752   0.00    0.0
2018/03/11 11:32:29.000   78.256786789   16.230373491   395.9802   5   9   1.9919   1.7137   5.8018  -0.9232  -0.6712   1.8747   0.00    0.0
2018/03/11 11:32:30.000   78.256787153   16.230326358   396.9773   5   9   1.9917   1.7138   5.8018  -0.9231  -0.6708   1.8742   0.00    0.0
2018/03/11 11:32:31.000   78.256788008   16.230319200   398.0532   5   9   1.9915   1.7138   5.8018  -0.9231  -0.6703   1.8736   0.00    0.0
2018/03/11 11:32:32.000   78.256783705   16.230318581   397.7540   5   9   1.9913   1.7138   5.8019  -0.9230  -0.6699   1.8731   0.00    0.0
2018/03/11 11:32:33.000   78.256789333   16.230328583   399.4102   5   9   1.9911   1.7139   5.8019  -0.9230  -0.6695   1.8726   0.00    0.0
2018/03/11 11:32:34.000   78.256790033   16.230327082   398.6616   5   9   1.9909   1.7139   5.8019  -0.9229  -0.6691   1.8721   0.00    0.0
2018/03/11 11:32:35.000   78.256792579   16.230349695   397.4774   5   9   1.9907   1.7140   5.8019  -0.9228  -0.6686   1.8715   0.00    0.0
2018/03/11 11:32:36.000   78.256789690   16.230355019   397.6458   5   9   1.9905   1.7140   5.8019  -0.9228  -0.6682   1.8710   0.00    0.0
2018/03/11 11:32:37.000   78.256790407   16.230344629   398.2878   5   9   1.9903   1.7141   5.8019  -0.9227  -0.6678   1.8705   0.00    0.0
2018/03/11 11:32:38.000   78.256794311   16.230325117   398.2757   5   9   1.9901   1.7141   5.8020  -0.9227  -0.6674   1.8700   0.00    0.0
2018/03/11 11:32:39.000   78.256793867   16.230325450   398.2417   5   9   1.9900   1.7141   5.8020  -0.9226  -0.6669   1.8695   0.00    0.0
2018/03/11 11:32:40.000   78.256793895   16.230325934   397.2445   5   9   1.9898   1.7142   5.8020  -0.9226  -0.6665   1.8689   0.00    0.0
2018/03/11 11:32:41.000   78.256794169   16.230319114   396.8930   5   9   1.9896   1.7142   5.8020  -0.9225  -0.6661   1.8684   0.00    0.0
2018/03/11 11:32:42.000   78.256792790   16.230302213   397.0614   5   9   1.9894   1.7143   5.8020  -0.9224  -0.6657   1.8679   0.00    0.0
2018/03/11 11:32:43.000   78.256788620   16.230320853   396.1753   5   9   1.9892   1.7143   5.8020  -0.9224  -0.6652   1.8674   0.00    0.0
2018/03/11 11:32:44.000   78.256793236   16.230311324   398.2684   5   9   1.9890   1.7144   5.8020  -0.9223  -0.6648   1.8668   0.00    0.0
2018/03/11 11:32:45.000   78.256792880   16.230320079   396.8358   5   9   1.9888   1.7144   5.8021  -0.9223  -0.6644   1.8663   0.00    0.0
2018/03/11 11:32:46.000   78.256786541   16.230343370   395.9974   5   9   1.9886   1.7144   5.8021  -0.9222  -0.6640   1.8658   0.00    0.0
2018/03/11 11:32:47.000   78.256784528   16.230353820   397.4759   5   9   1.9884   1.7145   5.8021  -0.9222  -0.6635   1.8653   0.00    0.0
2018/03/11 11:32:48.000   78.256783176   16.230349725   396.8527   5   9   1.9882   1.7145   5.8021  -0.9221  -0.6631   1.8647   0.00    0.0
2018/03/11 11:32:49.000   78.256782384   16.230345380   396.9553   5   9   1.9880   1.7146   5.8021  -0.9221  -0.6627   1.8642   0.00    0.0
2018/03/11 11:32:50.000   78.256787577   16.230345545   397.7603   5   9   1.9878   1.7146   5.8021  -0.9220  -0.6622   1.8637   0.00    0.0
2018/03/11 11:32:51.000   78.256790205   16.230334849   396.7826   5   9   1.9876   1.7147   5.8021  -0.9219  -0.6618   1.8632   0.00    0.0
2018/03/11 11:32:52.000   78.256791550   16.230333759   396.9987   5   9   1.9874   1.7147   5.8021  -0.9219  -0.6614   1.8626   0.00    0.0
2018/03/11 11:32:53.000   78.256788972   16.230344951   396.7912   5   9   1.9872   1.7148   5.8022  -0.9218  -0.6609   1.8621   0.00    0.0
2018/03/11 11:32:54.000   78.256783983   16.230358540   396.1098   5   9   1.9870   1.7148   5.8022  -0.9218  -0.6605   1.8616   0.00    0.0
2018/03/11 11:32:55.000   78.256786817   16.230347672   397.2787   5   9   1.9868   1.7148   5.8022  -0.9217  -0.6601   1.8611   0.00    0.0
2018/03/11 11:32:56.000   78.256788252   16.230336209   396.9487   5   9   1.9866   1.7149   5.8022  -0.9217  -0.6597   1.8605   0.00    0.0
2018/03/11 11:32:57.000   78.256784873   16.230353821   396.2410   5   9   1.9865   1.7149   5.8022  -0.9216  -0.6592   1.8600   0.00    0.0
2018/03/11 11:32:58.000   78.256787048   16.230326934   397.9211   5   9   1.9863   1.7150   5.8022  -0.9215  -0.6588   1.8595   0.00    0.0
2018/03/11 11:32:59.000   78.256785925   16.230336754   398.3393   5   9   1.9861   1.7150   5.8022  -0.9215  -0.6584   1.8590   0.00    0.0
2018/03/11 11:33:00.000   78.256785766   16.230340570   397.2383   5   9   1.9859   1.7151   5.8022  -0.9214  -0.6579   1.8584   0.00    0.0
2018/03/11 11:33:01.000   78.256789449   16.230303226   398.2417   5   9   1.9857   1.7151   5.8022  -0.9214  -0.6575   1.8579   0.00    0.0
2018/03/11 11:33:02.000   78.256793672   16.230302753   398.4784   5   9   1.9855   1.7151   5.8022  -0.9213  -0.6570   1.8574   0.00    0.0
2018/03/11 11:33:03.000   78.256797586   16.230328257   397.2371   5   9   1.9853   1.7152   5.8022  -0.9213  -0.6566   1.8569   0.00    0.0
2018/03/11 11:33:04.000   78.256794410   16.230342285   396.4365   5   9   1.9851   1.7152   5.8023  -0.9212  -0.6562   1.8563   0.00    0.0
2018/03/11 11:33:05.000   78.256792772   16.230334627   395.2116   5   9   1.9849   1.7153   5.8023  -0.9211  -0.6557   1.8558   0.00    0.0
2018/03/11 11:33:06.000   78.256793361   16.230333888   397.1975   5   9   1.9847   1.7153   5.8023  -0.9211  -0.6553   1.8553   0.00    0.0
2018/03/11 11:33:07.000   78.256795823   16.230330215   399.0751   5   9   1.9845   1.7154   5.8023  -0.9210  -0.6549   1.8547   0.00    0.0
2018/03/11 11:33:08.000   78.256793708   16.230325276   398.1513   5   9   1.9843   1.7154   5.8023  -0.9210  -0.6544   1.8542   0.00    0.0
2018/03/11 11:33:09.000   78.256787446   16.230330011   397.9098   5   9   1.9841   1.7155   5.8023  -0.9209  -0.6540   1.8537   0.00    0.0
2018/03/11 11:33:10.000   78.256785142   16.230333549   398.8802   5   9   1.9839   1.7155   5.8023  -0.9209  -0.6536   1.8532   0.00    0.0
2018/03/11 11:33:11.000   78.256784192   16.230343161   398.7205   5   9   1.9837   1.7155   5.8023  -0.9208  -0.6531   1.8526   0.00    0.0
2018/03/11 11:33:12.000   78.256788192   16.230322757   398.4724   5   9   1.9835   1.7156   5.8023  -0.9207  -0.6527   1.8521   0.00    0.0
2018/03/11 11:33:13.000   78.256787398   16.230314288   398.0686   5   9   1.9834   1.7156   5.8023  -0.9207  -0.6522   1.8516   0.00    0.0
2018/03/11 11:33:14.000   78.256785443   16.230357782   395.6240   5   9   1.9832   1.7157   5.8023  -0.9206  -0.6518   1.8510   0.00    0.0
2018/03/11 11:33:15.000   78.256790466   16.230350569   396.3949   5   9   1.9830   1.7157   5.8023  -0.9206  -0.6514   1.8505   0.00    0.0
2018/03/11 11:33:16.000   78.256787445   16.230356444   396.5994   5   9   1.9828   1.7158   5.8023  -0.9205  -0.6509   1.8500   0.00    0.0
2018/03/11 11:33:17.000   78.256785448   16.230341135   397.4338   5   9   1.9826   1.7158   5.8023  -0.9205  -0.6505   1.8495   0.00    0.0
2018/03/11 11:33:18.000   78.256787872   16.230320606   397.7550   5   9   1.9824   1.7159   5.8023  -0.9204  -0.6500   1.8489   0.00    0.0
2018/03/11 11:33:19.000   78.256786542   16.230320740   397.1375   5   9   1.9822   1.7159   5.8023  -0.9204  -0.6496   1.8484   0.00    0.0
2018/03/11 11:33:20.000   78.256785069   16.230333003   396.6766   5   9   1.9820   1.7160   5.8023  -0.9203  -0.6491   1.8479   0.00    0.0
2018/03/11 11:33:21.000   78.256785433   16.230329784   397.4066   5   9   1.9818   1.7160   5.8023  -0.9202  -0.6487   1.8473   0.00    0.0
2018/03/11 11:33:22.000   78.256789861   16.230317207   398.1634   5   9   1.9816   1.7160   5.8023  -0.9202  -0.6483   1.8468   0.00    0.0
2018/03/11 11:33:23.000   78.256793651   16.230315023   398.0934   5   9   1.9814   1.7161   5.8023  -0.9201  -0.6478   1.8463   0.00    0.0
2018/03/11 11:33:24.000   78.256795523   16.230314273   398.2990   5   9   1.9812   1.7161   5.8023  -0.9201  -0.6474   1.8457   0.00    0.0
2018/03/11 11:33:25.000   78.256793275   16.230347090   396.1466   5   9   1.9810   1.7162   5.8023  -0.9200  -0.6469   1.8452   0.00    0.0
2018/03/11 11:33:26.000   78.256799537   16.230336154   398.0475   5   9   1.9809   1.7162   5.8023  -0.9200  -0.6465   1.8447   0.00    0.0
2018/03/11 11:33:27.000   78.256794918   16.230331451   397.3639   5   9   1.9807   1.7163   5.8023  -0.9199  -0.6460   1.8441   0.00    0.0
2018/03/11 11:33:28.000   78.256791150   16.230343123   397.7053   5   9   1.9805   1.7163   5.8023  -0.9199  -0.6456   1.8436   0.00    0.0
2018/03/11 11:33:29.000   78.256791441   16.230333636   398.8543   5   9   1.9803   1.7164   5.8023  -0.9198  -0.6451   1.8431   0.00    0.0
2018/03/11 11:33:30.000   78.256787430   16.230348134   397.3220   5   9   1.9801   1.7164   5.8023  -0.9197  -0.6447   1.8426   0.00    0.0
2018/03/11 11:33:31.000   78.256790044   16.230351576   398.3311   5   9   1.9799   1.7164   5.8023  -0.9197  -0.6442   1.8420   0.00    0.0
2018/03/11 11:33:32.000   78.256789194   16.230330217   398.8668   5   9   1.9797   1.7165   5.8023  -0.9196  -0.6438   1.8415   0.00    0.0
2018/03/11 11:33:33.000   78.256786990   16.230342422   398.8814   5   9   1.9795   1.7165   5.8023  -0.9196  -0.6433   1.8410   0.00    0.0
2018/03/11 11:33:34.000   78.256787983   16.230347585   397.6211   5   9   1.9793   1.7166   5.8023  -0.9195  -0.6429   1.8404   0.00    0.0
2018/03/11 11:33:35.000   78.256787413   16.230344723   396.4087   5   9   1.9791   1.7166   5.8023  -0.9195  -0.6424   1.8399   0.00    0.0
2018/03/11 11:33:36.000   78.256789875   16.230338137   396.7520   5   9   1.9789   1.7167   5.8023  -0.9194  -0.6420   1.8394   0.00    0.0
2018/03/11 11:33:37.000   78.256788797   16.230326779   395.6881   5   9   1.9788   1.7167   5.8023  -0.9193  -0.6415   1.8388   0.00    0.0
2018/03/11 11:33:38.000   78.256784237   16.230330075   397.2306   5   9   1.9786   1.7168   5.8023  -0.9193  -0.6411   1.8383   0.00    0.0
2018/03/11 11:33:39.000   78.256786306   16.230338991   396.9330   5   9   1.9784   1.7168   5.8023  -0.9192  -0.6406   1.8378   0.00    0.0
2018/03/11 11:33:40.000   78.256783342   16.230341907   396.6968   5   9   1.9782   1.7169   5.8023  -0.9192  -0.6402   1.8372   0.00    0.0
2018/03/11 11:33:41.000   78.256782372   16.230323819   395.6689   5   9   1.9780   1.7169   5.8023  -0.9191  -0.6397   1.8367   0.00    0.0
2018/03/11 11:33:42.000   78.256784326   16.230343455   395.3516   5   9   1.9778   1.7169   5.8023  -0.9191  -0.6393   1.8362   0.00    0.0
2018/03/11 11:33:43.000   78.256788242   16.230327298   396.6045   5   9   1.9776   1.7170   5.8023  -0.9190  -0.6388   1.8356   0.00    0.0
2018/03/11 11:33:44.000   78.256787903   16.230346007   397.5487   5   9   1.9774   1.7170   5.8023  -0.9190  -0.6384   1.8351   0.00    0.0
2018/03/11 11:33:45.000   78.256787688   16.230346269   397.5207   5   9   1.9772   1.7171   5.8023  -0.9189  -0.6379   1.8346   0.00    0.0
2018/03/11 11:33:46.000   78.256792627   16.230338688   398.7710   5   9   1.9770   1.7171   5.8023  -0.9188  -0.6375   1.8340   0.00    0.0
2018/03/11 11:33:47.000   78.256796530   16.230317060   398.8903   5   9   1.9768   1.7172   5.8023  -0.9188  -0.6370   1.8335   0.00    0.0
2018/03/11 11:33:48.000   78.256793937   16.230325391   398.7532   5   9   1.9767   1.7172   5.8023  -0.9187  -0.6366   1.8329   0.00    0.0
2018/03/11 11:33:49.000   78.256794050   16.230331875   398.8725   5   9   1.9765   1.7173   5.8023  -0.9187  -0.6361   1.8324   0.00    0.0
2018/03/11 11:33:50.000   78.256797536   16.230333475   399.4976   5   9   1.9763   1.7173   5.8023  -0.9186  -0.6356   1.8319   0.00    0.0
2018/03/11 11:33:51.000   78.256797217   16.230343605   399.2579   5   9   1.9761   1.7174   5.8022  -0.9186  -0.6352   1.8313   0.00    0.0
2018/03/11 11:33:52.000   78.256791780   16.230373676   398.0739   5   9   1.9759   1.7174   5.8022  -0.9185  -0.6347   1.8308   0.00    0.0
2018/03/11 11:33:53.000   78.256791546   16.230362828   396.7899   5   9   1.9757   1.7174   5.8022  -0.9185  -0.6343   1.8303   0.00    0.0
2018/03/11 11:33:54.000   78.256791069   16.230347162   398.8958   5   9   1.9755   1.7175   5.8022  -0.9184  -0.6338   1.8297   0.00    0.0
2018/03/11 11:33:55.000   78.256786842   16.230345997   398.5989   5   9   1.9753   1.7175   5.8022  -0.9183  -0.6334   1.8292   0.00    0.0
2018/03/11 11:33:56.000   78.256782165   16.230352711   398.8008   5   9   1.9751   1.7176   5.8022  -0.9183  -0.6329   1.8287   0.00    0.0
2018/03/11 11:33:57.000   78.256784981   16.230335015   399.1324   5   9   1.9749   1.7176   5.8022  -0.9182  -0.6324   1.8281   0.00    0.0
2018/03/11 11:33:58.000   78.256786948   16.230337465   397.5527   5   9   1.9748   1.7177   5.8022  -0.9182  -0.6320   1.8276   0.00    0.0
2018/03/11 11:33:59.000   78.256785615   16.230346158   395.5488   5   9   1.9746   1.7177   5.8022  -0.9181  -0.6315   1.8270   0.00    0.0
2018/03/11 11:34:00.000   78.256782713   16.230356431   395.4719   5   9   1.9744   1.7178   5.8022  -0.9181  -0.6310   1.8265   0.00    0.0
2018/03/11 11:34:01.000   78.256783352   16.230345096   396.8635   5   9   1.9742   1.7178   5.8022  -0.9180  -0.6306   1.8260   0.00    0.0
2018/03/11 11:34:02.000   78.256778176   16.230337923   396.4468   5   9   1.9740   1.7179   5.8021  -0.9180  -0.6301   1.8254   0.00    0.0
2018/03/11 11:34:03.000   78.256776562   16.230363474   394.7658   5   9   1.9738   1.7179   5.8021  -0.9179  -0.6297   1.8249   0.00    0.0
2018/03/11 11:34:04.000   78.256781752   16.230333494   396.2879   5   9   1.9736   1.7180   5.8021  -0.9178  -0.6292   1.8244   0.00    0.0
2018/03/11 11:34:05.000   78.256783205   16.230324410   396.2112   5   9   1.9734   1.7180   5.8021  -0.9178  -0.6287   1.8238   0.00    0.0
2018/03/11 11:34:06.000   78.256784201   16.230355031   396.2074   5   9   1.9732   1.7180   5.8021  -0.9177  -0.6283   1.8233   0.00    0.0
2018/03/11 11:34:07.000   78.256782364   16.230348788   397.6445   5   9   1.9731   1.7181   5.8021  -0.9177  -0.6278   1.8227   0.00    0.0
2018/03/11 11:34:08.000   78.256788163   16.230332342   398.2256   5   9   1.9729   1.7181   5.8021  -0.9176  -0.6273   1.8222   0.00    0.0
2018/03/11 11:34:09.000   78.256794178   16.230326656   398.3137   5   9   1.9727   1.7182   5.8021  -0.9176  -0.6269   1.8217   0.00    0.0
2018/03/11 11:34:10.000   78.256794803   16.230344421   397.7172   5   9   1.9725   1.7182   5.8020  -0.9175  -0.6264   1.8211   0.00    0.0
2018/03/11 11:34:11.000   78.256795363   16.230343586   396.9029   5   9   1.9723   1.7183   5.8020  -0.9175  -0.6259   1.8206   0.00    0.0
2018/03/11 11:34:12.000   78.256797396   16.230334356   399.8933   5   9   1.9721   1.7183   5.8020  -0.9174  -0.6255   1.8200   0.00    0.0
2018/03/11 11:34:13.000   78.256794414   16.230338031   399.5770   5   9   1.9719   1.7184   5.8020  -0.9174  -0.6250   1.8195   0.00    0.0
2018/03/11 11:34:14.000   78.256796860   16.230343145   400.2114   5   9   1.9717   1.7184   5.8020  -0.9173  -0.6245   1.8190   0.00    0.0
2018/03/11 11:34:15.000   78.256794801   16.230340260   398.6126   5   9   1.9715   1.7185   5.8020  -0.9172  -0.6241   1.8184   0.00    0.0
2018/03/11 11:34:16.000   78.256794511   16.230344271   398.9364   5   9   1.9714   1.7185   5.8020  -0.9172  -0.6236   1.8179   0.00    0.0
2018/03/11 11:34:17.000   78.256787319   16.230367095   396.9641   5   9   1.9712   1.7186   5.8019  -0.9171  -0.6231   1.8173   0.00    0.0
2018/03/11 11:34:18.000   78.256789843   16.230336425   398.5689   5   9   1.9710   1.7186   5.8019  -0.9171  -0.6227   1.8168   0.00    0.0
2018/03/11 11:34:19.000   78.256787769   16.230332217   398.5260   5   9   1.9708   1.7187   5.8019  -0.9170  -0.6222   1.8163   0.00    0.0
2018/03/11 11:34:20.000   78.256785787   16.230351086   397.0604   5   9   1.9706   1.7187   5.8019  -0.9170  -0.6217   1.8157   0.00    0.0
2018/03/11 11:34:21.000   78.256790668   16.230345393   396.0221   5   9   1.9704   1.7188   5.8019  -0.9169  -0.6212   1.8152   0.00    0.0
2018/03/11 11:34:22.000   78.256788929   16.230342929   395.2658   5   9   1.9702   1.7188   5.8019  -0.9169  -0.6208   1.8146   0.00    0.0
2018/03/11 11:34:23.000   78.256787091   16.230327092   396.1284   5   9   1.9700   1.7188   5.8018  -0.9168  -0.6203   1.8141   0.00    0.0
2018/03/11 11:34:24.000   78.256781009   16.230335712   397.0573   5   9   1.9699   1.7189   5.8018  -0.9167  -0.6198   1.8136   0.00    0.0
2018/03/11 11:34:25.000   78.256780297   16.230322947   396.7157   5   9   1.9697   1.7189   5.8018  -0.9167  -0.6193   1.8130   0.00    0.0
2018/03/11 11:34:26.000   78.256780279   16.230326092   396.6964   5   9   1.9695   1.7190   5.8018  -0.9166  -0.6189   1.8125   0.00    0.0
2018/03/11 11:34:27.000   78.256782406   16.230337130   395.8571   5   9   1.9693   1.7190   5.8018  -0.9166  -0.6184   1.8119   0.00    0.0
2018/03/11 11:34:28.000   78.256784067   16.230354191   396.6421   5   9   1.9691   1.7191   5.8017  -0.9165  -0.6179   1.8114   0.00    0.0
2018/03/11 11:34:29.000   78.256786327   16.230347639   397.1532   5   9   1.9689   1.7191   5.8017  -0.9165  -0.6174   1.8109   0.00    0.0
2018/03/11 11:34:30.000   78.256786492   16.230344858   397.8274   5   9   1.9687   1.7192   5.8017  -0.9164  -0.6170   1.8103   0.00    0.0
2018/03/11 11:34:31.000   78.256785854   16.230358307   398.1068   5   9   1.9685   1.7192   5.8017  -0.9164  -0.6165   1.8098   0.00    0.0
2018/03/11 11:34:32.000   78.256789215   16.230344519   397.2511   5   9   1.9684   1.7193   5.8017  -0.9163  -0.6160   1.8092   0.00    0.0
2018/03/11 11:34:33.000   78.256799302   16.230315053   399.7630   5   9   1.9682   1.7193   5.8016  -0.9163  -0.6155   1.8087   0.00    0.0
2018/03/11 11:34:34.000   78.256796294   16.230327637   399.0065   5   9   1.9680   1.7194   5.8016  -0.9162  -0.6150   1.8081   0.00    0.0
2018/03/11 11:34:35.000   78.256791105   16.230344487   398.4242   5   9   1.9678   1.7194   5.8016  -0.9161  -0.6146   1.8076   0.00    0.0
2018/03/11 11:34:36.000   78.256790841   16.230331215   399.3011   5   9   1.9676   1.7195   5.8016  -0.9161  -0.6141   1.8070   0.00    0.0
2018/03/11 11:34:37.000   78.256790564   16.230342664   399.1742   5   9   1.9674   1.7195   5.8016  -0.9160  -0.6136   1.8065   0.00    0.0
2018/03/11 11:34:38.000   78.256791821   16.230340388   398.1840   5   9   1.9672   1.7196   5.8015  -0.9160  -0.6131   1.8060   0.00    0.0
2018/03/11 11:34:39.000   78.256793920   16.230348502   398.0360   5   9   1.9671   1.7196   5.8015  -0.9159  -0.6126   1.8054   0.00    0.0
2018/03/11 11:34:40.000   78.256794887   16.230355022   397.5406   5   9   1.9669   1.7196   5.8015  -0.9159  -0.6122   1.8049   0.00    0.0
2018/03/11 11:34:41.000   78.256793844   16.230350765   398.5794   5   9   1.9667   1.7197   5.8015  -0.9158  -0.6117   1.8043   0.00    0.0
2018/03/11 11:34:42.000   78.256790747   16.230348149   399.0095   5   9   1.9665   1.7197   5.8014  -0.9158  -0.6112   1.8038   0.00    0.0
2018/03/11 11:34:43.000   78.256785812   16.230351162   396.8999   5   9   1.9663   1.7198   5.8014  -0.9157  -0.6107   1.8032   0.00    0.0
2018/03/11 11:34:44.000   78.256791641   16.230314907   398.3242   5   9   1.9661   1.7198   5.8014  -0.9157  -0.6102   1.8027   0.00    0.0
2018/03/11 11:34:45.000   78.256796199   16.230310080   397.6205   5   9   1.9659   1.7199   5.8014  -0.9156  -0.6097   1.8021   0.00    0.0
2018/03/11 11:34:46.000   78.256789067   16.230345731   395.1454   5   9   1.9658   1.7199   5.8013  -0.9155  -0.6093   1.8016   0.00    0.0
2018/03/11 11:34:47.000   78.256787341   16.230332319   395.7120   5   9   1.9656   1.7200   5.8013  -0.9155  -0.6088   1.8011   0.00    0.0
2018/03/11 11:34:48.000   78.256786498   16.230347593   395.4174   5   9   1.9654   1.7200   5.8013  -0.9154  -0.6083   1.8005   0.00    0.0
2018/03/11 11:34:49.000   78.256786616   16.230349330   395.3154   5   9   1.9652   1.7201   5.8013  -0.9154  -0.6078   1.8000   0.00    0.0
2018/03/11 11:34:50.000   78.256789564   16.230335183   396.9178   5   9   1.9650   1.7201   5.8012  -0.9153  -0.6073   1.7994   0.00    0.0
2018/03/11 11:34:51.000   78.256787659   16.230329438   396.5602   5   9   1.9648   1.7202   5.8012  -0.9153  -0.6068   1.7989   0.00    0.0
2018/03/11 11:34:52.000   78.256785717   16.230323768   396.4586   5   9   1.9646   1.7202   5.8012  -0.9152  -0.6063   1.7983   0.00    0.0
2018/03/11 11:34:53.000   78.256784718   16.230331961   397.5132   5   9   1.9645   1.7203   5.8012  -0.9152  -0.6058   1.7978   0.00    0.0
2018/03/11 11:34:54.000   78.256783194   16.230353734   397.2178   5   9   1.9643   1.7203   5.8011  -0.9151  -0.6054   1.7972   0.00    0.0
2018/03/11 11:34:55.000   78.256788269   16.230335712   397.7828   5   9   1.9641   1.7204   5.8011  -0.9151  -0.6049   1.7967   0.00    0.0
2018/03/11 11:34:56.000   78.256789340   16.230353656   398.4237   5   9   1.9639   1.7204   5.8011  -0.9150  -0.6044   1.7961   0.00    0.0
2018/03/11 11:34:57.000   78.256789272   16.230363930   396.4316   5   9   1.9637   1.7205   5.8010  -0.9149  -0.6039   1.7956   0.00    0.0
2018/03/11 11:34:58.000   78.256791711   16.230356746   397.6712   5   9   1.9635   1.7205   5.8010  -0.9149  -0.6034   1.7950   0.00    0.0
2018/03/11 11:34:59.000   78.256788546   16.230350720   399.3598   5   9   1.9633   1.7206   5.8010  -0.9148  -0.6029   1.7945   0.00    0.0
2018/03/11 11:35:00.000   78.256788238   16.230357259   398.4022   5   9   1.9632   1.7206   5.8010  -0.9148  -0.6024   1.7939   0.00    0.0
2018/03/11 11:35:01.000   78.256791568   16.230342548   399.5712   5   9   1.9630   1.7207   5.8009  -0.9147  -0.6019   1.7934   0.00    0.0
2018/03/11 11:35:02.000   78.256792955   16.230320803   399.4262   5   9   1.9628   1.7207   5.8009  -0.9147  -0.6014   1.7929   0.00    0.0
2018/03/11 11:35:03.000   78.256790209   16.230335225   398.0813   5   9   1.9626   1.7208   5.8009  -0.9146  -0.6009   1.7923   0.00    0.0
2018/03/11 11:35:39.000   78.256783585   16.230353027   396.1587   5   9   1.9560   1.7225   5.7996  -0.9127  -0.5827   1.7725   0.00    0.0
2018/03/11 11:35:40.000   78.256781311   16.230367667   394.8830   5   9   1.9558   1.7226   5.7995  -0.9126  -0.5822   1.7719   0.00    0.0
2018/03/11 11:35:41.000   78.256783917   16.230354889   395.6230   5   9   1.9557   1.7226   5.7995  -0.9126  -0.5817   1.7713   0.00    0.0
2018/03/11 11:35:42.000   78.256785247   16.230345535   396.8782   5   9   1.9555   1.7227   5.7994  -0.9125  -0.5812   1.7708   0.00    0.0
2018/03/11 11:35:43.000   78.256787001   16.230342509   397.8069   5   9   1.9553   1.7227   5.7994  -0.9125  -0.5807   1.7702   0.00    0.0
2018/03/11 11:35:44.000   78.256779822   16.230354604   396.4637   5   9   1.9551   1.7228   5.7994  -0.9124  -0.5802   1.7697   0.00    0.0
2018/03/11 11:35:45.000   78.256783061   16.230366039   397.1294   5   9   1.9549   1.7228   5.7993  -0.9124  -0.5796   1.7691   0.00    0.0
2018/03/11 11:35:46.000   78.256784815   16.230362922   397.4428   5   9   1.9547   1.7229   5.7993  -0.9123  -0.5791   1.7686   0.00    0.0
2018/03/11 11:35:47.000   78.256784689   16.230352406   397.7125   5   9   1.9546   1.7229   5.7992  -0.9123  -0.5786   1.7680   0.00    0.0
2018/03/11 11:35:48.000   78.256784584   16.230369712   397.8199   5   9   1.9544   1.7230   5.7992  -0.9122  -0.5781   1.7675   0.00    0.0
2018/03/11 11:35:49.000   78.256785107   16.230348032   398.3342   5   9   1.9542   1.7230   5.7991  -0.9122  -0.5776   1.7669   0.00    0.0
2018/03/11 11:35:50.000   78.256787839   16.230338320   398.7717   5   9   1.9540   1.7231   5.7991  -0.9121  -0.5770   1.7663   0.00    0.0
2018/03/11 11:35:51.000   78.256787551   16.230363380   398.4848   5   9   1.9538   1.7231   5.7990  -0.9121  -0.5765   1.7658   0.00    0.0
2018/03/11 11:35:52.000   78.256787241   16.230376703   397.4629   5   9   1.9537   1.7232   5.7990  -0.9120  -0.5760   1.7652   0.00    0.0
2018/03/11 11:35:53.000   78.256791904   16.230324456   397.7877   5   9   1.9535   1.7232   5.7989  -0.9120  -0.5755   1.7647   0.00    0.0
2018/03/11 11:35:54.000   78.256796364   16.230318516   398.8103   5   9   1.9533   1.7233   5.7989  -0.9119  -0.5749   1.7641   0.00    0.0
2018/03/11 11:35:55.000   78.256796906   16.230309765   398.6943   5   9   1.9531   1.7233   5.7989  -0.9119  -0.5744   1.7636   0.00    0.0
2018/03/11 11:35:56.000   78.256793597   16.230325636   397.4558   5   9   1.9529   1.7234   5.7988  -0.9118  -0.5739   1.7630   0.00    0.0
2018/03/11 11:35:57.000   78.256788855   16.230335690   397.2541   5   9   1.9528   1.7234   5.7988  -0.9117  -0.5734   1.7624   0.00    0.0
2018/03/11 11:35:58.000   78.256789999   16.230354025   396.6891   5   9   1.9526   1.7235   5.7987  -0.9117  -0.5728   1.7619   0.00    0.0
2018/03/11 11:35:59.000   78.256787124   16.230348288   396.6031   5   9   1.9524   1.7235   5.7987  -0.9116  -0.5723   1.7613   0.00    0.0
2018/03/11 11:36:00.000   78.256782949   16.230339083   396.5923   5   9   1.9522   1.7236   5.7986  -0.9116  -0.5718   1.7608   0.00    0.0
2018/03/11 11:36:01.000   78.256783741   16.230336313   398.1602   5   9   1.9520   1.7236   5.7986  -0.9115  -0.5712   1.7602   0.00    0.0
2018/03/11 11:36:02.000   78.256784559   16.230325137   397.5803   5   9   1.9519   1.7237   5.7985  -0.9115  -0.5707   1.7596   0.00    0.0
2018/03/11 11:36:03.000   78.256783051   16.230346029   395.4028   5   9   1.9517   1.7237   5.7985  -0.9114  -0.5702   1.7591   0.00    0.0
2018/03/11 11:36:04.000   78.256783696   16.230355937   394.3682   5   9   1.9515   1.7238   5.7984  -0.9114  -0.5697   1.7585   0.00    0.0
2018/03/11 11:36:05.000   78.256786197   16.230327705   395.2343   5   9   1.9513   1.7238   5.7984  -0.9113  -0.5691   1.7580   0.00    0.0
2018/03/11 11:36:06.000   78.256788712   16.230328915   396.8602   5   9   1.9511   1.7239   5.7983  -0.9113  -0.5686   1.7574   0.00    0.0
2018/03/11 11:36:07.000   78.256788605   16.230310922   398.0308   5   9   1.9510   1.7239   5.7983  -0.9112  -0.5681   1.7569   0.00    0.0
2018/03/11 11:36:08.000   78.256789149   16.230304013   399.0821   5   9   1.9508   1.7240   5.7982  -0.9112  -0.5675   1.7563   0.00    0.0
2018/03/11 11:36:09.000   78.256786842   16.230339360   397.5337   5   9   1.9506   1.7240   5.7982  -0.9111  -0.5670   1.7557   0.00    0.0
2018/03/11 11:36:10.000   78.256786386   16.230376789   396.1882   5   9   1.9504   1.7241   5.7981  -0.9111  -0.5665   1.7552   0.00    0.0
2018/03/11 11:36:11.000   78.256792549   16.230357089   398.3148   5   9   1.9502   1.7241   5.7981  -0.9110  -0.5659   1.7546   0.00    0.0
2018/03/11 11:36:12.000   78.256787049   16.230353721   397.5780   5   9   1.9501   1.7242   5.7980  -0.9110  -0.5654   1.7541   0.00    0.0
2018/03/11 11:36:13.000   78.256791290   16.230342664   398.7308   5   9   1.9499   1.7242   5.7980  -0.9109  -0.5648   1.7535   0.00    0.0
2018/03/11 11:36:14.000   78.256794666   16.230308326   399.6551   5   9   1.9497   1.7243   5.7979  -0.9109  -0.5643   1.7529   0.00    0.0
2018/03/11 11:36:15.000   78.256800012   16.230332655   399.2661   5   9   1.9495   1.7243   5.7979  -0.9108  -0.5638   1.7524   0.00    0.0
2018/03/11 11:36:16.000   78.256794561   16.230338956   398.0101   5   9   1.9494   1.7244   5.7978  -0.9108  -0.5632   1.7518   0.00    0.0
2018/03/11 11:36:17.000   78.256796705   16.230325146   398.2828   5   9   1.9492   1.7244   5.7977  -0.9107  -0.5627   1.7512   0.00    0.0
2018/03/11 11:36:18.000   78.256792621   16.230347561   398.3352   5   9   1.9490   1.7245   5.7977  -0.9106  -0.5621   1.7507   0.00    0.0
2018/03/11 11:36:19.000   78.256792749   16.230351241   397.9442   5   9   1.9488   1.7246   5.7976  -0.9106  -0.5616   1.7501   0.00    0.0
2018/03/11 11:36:20.000   78.256792247   16.230342819   398.2468   5   9   1.9486   1.7246   5.7976  -0.9105  -0.5611   1.7496   0.00    0.0
2018/03/11 11:36:21.000   78.256789769   16.230356372   397.8105   5   9   1.9485   1.7247   5.7975  -0.9105  -0.5605   1.7490   0.00    0.0
2018/03/11 11:36:22.000   78.256788060   16.230342495   397.1899   5   9   1.9483   1.7247   5.7975  -0.9104  -0.5600   1.7484   0.00    0.0
2018/03/11 11:36:23.000   78.256793638   16.230304360   399.6718   5   9   1.9481   1.7248   5.7974  -0.9104  -0.5594   1.7479   0.00    0.0
2018/03/11 11:36:24.000   78.256788997   16.230326479   398.7511   5   9   1.9479   1.7248   5.7974  -0.9103  -0.5589   1.7473   0.00    0.0
2018/03/11 11:36:25.000   78.256787897   16.230346814   397.8667   5   9   1.9477   1.7249   5.7973  -0.9103  -0.5583   1.7468   0.00    0.0
2018/03/11 11:36:26.000   78.256792418   16.230314579   397.6232   5   9   1.9476   1.7249   5.7972  -0.9102  -0.5578   1.7462   0.00    0.0
2018/03/11 11:36:27.000   78.256792143   16.230329676   396.3370   5   9   1.9474   1.7250   5.7972  -0.9102  -0.5573   1.7456   0.00    0.0
2018/03/11 11:36:28.000   78.256788214   16.230354128   394.9102   5   9   1.9472   1.7250   5.7971  -0.9101  -0.5567   1.7451   0.00    0.0
2018/03/11 11:36:29.000   78.256790904   16.230332608   395.9860   5   9   1.9470   1.7251   5.7971  -0.9101  -0.5562   1.7445   0.00    0.0
2018/03/11 11:36:30.000   78.256786946   16.230319105   395.4410   5   9   1.9469   1.7251   5.7970  -0.9100  -0.5556   1.7439   0.00    0.0
2018/03/11 11:36:31.000   78.256783358   16.230335406   396.9413   5   9   1.9467   1.7252   5.7970  -0.9100  -0.5551   1.7434   0.00    0.0
2018/03/11 11:36:32.000   78.256787999   16.230315186   397.6992   5   9   1.9465   1.7252   5.7969  -0.9099  -0.5545   1.7428   0.00    0.0
