% program   : RTKPOST ver.2.4.2
% inp file  : Z:\home\linda\Documents\Spring18\GitHub_Unis\data\processed_data\46250709.obs
% inp file  : Z:\home\linda\Documents\Spring18\GitHub_Unis\data\base_station_data\lyrs0700.18o
% inp file  : Z:\home\linda\Documents\Spring18\GitHub_Unis\data\processed_data\46250709.nav
% obs start : 2018/03/11 13:43:13.0 GPST (week1992  49393.0s)
% obs end   : 2018/03/11 13:58:41.0 GPST (week1992  50321.0s)
% pos mode  : static
% freqs     : L1+L2
% solution  : forward
% elev mask : 15.0 deg
% dynamics  : on
% tidecorr  : off
% ionos opt : iono-free
% tropo opt : saastamoinen
% ephemeris : broadcast
% navi sys  : gps glonass galileo qzss sbas
% amb res   : fix and hold
% amb glo   : on
% val thres : 3.0
% antenna1  :                       ( 0.0000  0.0000  0.0000)
% antenna2  :                       ( 0.0000  0.0000  0.0000)
% ref pos   : 78.228825638   15.397310064   495.6816
%
% (lat/lon/height=WGS84/ellipsoidal,Q=1:fix,2:float,3:sbas,4:dgps,5:single,6:ppp,ns=# of satellites)
%  GPST                  latitude(deg) longitude(deg)  height(m)   Q  ns   sdn(m)   sde(m)   sdu(m)  sdne(m)  sdeu(m)  sdun(m) age(s)  ratio
2018/03/11 13:43:13.000   78.251305482   16.154926466   564.1026   2  10   1.1559   1.0491   4.0264  -0.4798  -1.2432   1.7153   0.00    1.1
2018/03/11 13:43:14.000   78.251303538   16.154892714   563.6038   2  10   0.8196   0.7430   2.8619  -0.3413  -0.8838   1.2194   0.00    1.1
2018/03/11 13:43:15.000   78.251306889   16.154891581   563.9369   2  10   0.6697   0.6069   2.3399  -0.2791  -0.7226   0.9970   0.00    1.1
2018/03/11 13:43:16.000   78.251308769   16.154900765   564.0752   2  10   0.5800   0.5257   2.0268  -0.2417  -0.6260   0.8635   0.00    1.1
2018/03/11 13:43:17.000   78.251305499   16.154911936   563.4579   2  10   0.5187   0.4702   1.8122  -0.2161  -0.5598   0.7720   0.00    1.2
2018/03/11 13:43:18.000   78.251304969   16.154907736   563.7403   2  10   0.4733   0.4292   1.6531  -0.1970  -0.5107   0.7041   0.00    1.2
2018/03/11 13:43:19.000   78.251306183   16.154899046   564.3262   2  10   0.4379   0.3973   1.5289  -0.1821  -0.4723   0.6511   0.00    1.2
2018/03/11 13:43:20.000   78.251308264   16.154887221   565.1608   2  10   0.4093   0.3716   1.4283  -0.1700  -0.4412   0.6081   0.00    1.2
2018/03/11 13:43:21.000   78.251306797   16.154889332   564.7412   2  10   0.3855   0.3502   1.3444  -0.1599  -0.4154   0.5722   0.00    1.2
2018/03/11 13:43:22.000   78.251306513   16.154892994   564.1626   2  10   0.3653   0.3321   1.2731  -0.1513  -0.3933   0.5417   0.00    1.2
2018/03/11 13:43:23.000   78.251305909   16.154901464   563.6500   2  10   0.3479   0.3166   1.2113  -0.1438  -0.3743   0.5152   0.00    1.2
2018/03/11 13:43:24.000   78.251305623   16.154907368   563.0998   2  10   0.3327   0.3030   1.1571  -0.1372  -0.3575   0.4920   0.00    1.2
2018/03/11 13:43:25.000   78.251306292   16.154906197   563.4502   2  10   0.3192   0.2909   1.1089  -0.1314  -0.3426   0.4713   0.00    1.2
2018/03/11 13:43:26.000   78.251307480   16.154900063   563.7616   2  10   0.3071   0.2802   1.0657  -0.1261  -0.3293   0.4527   0.00    1.2
2018/03/11 13:43:27.000   78.251307839   16.154898560   563.7703   2  10   0.2962   0.2706   1.0265  -0.1213  -0.3172   0.4359   0.00    1.2
2018/03/11 13:43:28.000   78.251307684   16.154902267   563.5651   2  10   0.2862   0.2618   0.9908  -0.1169  -0.3061   0.4205   0.00    1.2
2018/03/11 13:43:29.000   78.251307219   16.154904379   563.3709   2  10   0.2772   0.2538   0.9580  -0.1128  -0.2960   0.4064   0.00    1.2
2018/03/11 13:43:30.000   78.251307442   16.154900364   563.7969   2  10   0.2688   0.2465   0.9277  -0.1091  -0.2867   0.3933   0.00    1.2
2018/03/11 13:43:31.000   78.251307669   16.154896273   564.1673   2  10   0.2611   0.2398   0.8996  -0.1056  -0.2780   0.3812   0.00    1.2
2018/03/11 13:43:32.000   78.251307391   16.154893697   564.2639   2  10   0.2539   0.2335   0.8735  -0.1023  -0.2699   0.3699   0.00    1.2
2018/03/11 13:43:33.000   78.251307679   16.154896465   564.1976   2  10   0.2473   0.2277   0.8489  -0.0992  -0.2623   0.3592   0.00    1.2
2018/03/11 13:43:34.000   78.251307615   16.154900226   564.0791   2  10   0.2410   0.2223   0.8259  -0.0963  -0.2552   0.3493   0.00    1.2
2018/03/11 13:43:35.000   78.251307315   16.154900278   564.1240   2  10   0.2351   0.2173   0.8042  -0.0935  -0.2485   0.3398   0.00    1.2
2018/03/11 13:43:36.000   78.251306869   16.154897713   564.2301   2  10   0.2296   0.2125   0.7837  -0.0909  -0.2421   0.3309   0.00    1.2
2018/03/11 13:43:37.000   78.251307107   16.154894854   564.4877   2  10   0.2244   0.2080   0.7642  -0.0884  -0.2361   0.3224   0.00    1.2
2018/03/11 13:43:38.000   78.251307407   16.154895339   564.5533   2  10   0.2194   0.2038   0.7458  -0.0860  -0.2304   0.3144   0.00    1.2
2018/03/11 13:43:39.000   78.251307360   16.154897195   564.5049   2  10   0.2148   0.1998   0.7282  -0.0838  -0.2249   0.3067   0.00    1.2
2018/03/11 13:43:40.000   78.251307547   16.154895445   564.5340   2  10   0.2103   0.1960   0.7114  -0.0816  -0.2197   0.2994   0.00    1.1
2018/03/11 13:43:41.000   78.251307378   16.154894221   564.4737   2  10   0.2060   0.1924   0.6953  -0.0795  -0.2148   0.2923   0.00    1.1
2018/03/11 13:43:42.000   78.251307138   16.154893123   564.3171   2  10   0.2020   0.1890   0.6799  -0.0775  -0.2100   0.2856   0.00    1.0
2018/03/11 13:43:43.000   78.251307219   16.154892147   564.4226   2  10   0.1981   0.1858   0.6652  -0.0756  -0.2054   0.2791   0.00    1.1
2018/03/11 13:43:44.000   78.251307152   16.154890930   564.4420   2  10   0.1944   0.1826   0.6510  -0.0737  -0.2010   0.2729   0.00    1.1
2018/03/11 13:43:45.000   78.251307209   16.154889180   564.3907   2  10   0.1909   0.1797   0.6374  -0.0719  -0.1968   0.2669   0.00    1.1
2018/03/11 13:43:46.000   78.251307459   16.154887269   564.3703   2  10   0.1874   0.1768   0.6243  -0.0701  -0.1927   0.2612   0.00    1.2
2018/03/11 13:43:47.000   78.251308089   16.154885846   564.4551   2  10   0.1842   0.1741   0.6116  -0.0684  -0.1888   0.2556   0.00    1.2
2018/03/11 13:43:48.000   78.251308406   16.154884341   564.6093   2  10   0.1810   0.1715   0.5994  -0.0668  -0.1850   0.2502   0.00    1.2
2018/03/11 13:43:49.000   78.251308580   16.154883111   564.7399   2  10   0.1780   0.1689   0.5876  -0.0652  -0.1814   0.2450   0.00    1.3
2018/03/11 13:43:50.000   78.251308536   16.154882428   564.8431   2  10   0.1750   0.1665   0.5762  -0.0636  -0.1778   0.2400   0.00    1.3
2018/03/11 13:43:51.000   78.251309005   16.154880791   565.0257   2  10   0.1722   0.1642   0.5652  -0.0621  -0.1744   0.2351   0.00    1.4
2018/03/11 13:43:52.000   78.251309180   16.154881330   565.1185   2  10   0.1695   0.1619   0.5545  -0.0607  -0.1711   0.2303   0.00    1.4
2018/03/11 13:43:53.000   78.251309186   16.154882645   565.2075   2  10   0.1668   0.1597   0.5442  -0.0592  -0.1679   0.2258   0.00    1.5
2018/03/11 13:43:54.000   78.251309544   16.154882645   565.3724   2  10   0.1643   0.1577   0.5341  -0.0578  -0.1648   0.2213   0.00    1.5
2018/03/11 13:43:55.000   78.251310200   16.154880595   565.6017   2  10   0.1618   0.1556   0.5244  -0.0565  -0.1618   0.2170   0.00    1.5
2018/03/11 13:43:56.000   78.251310396   16.154879603   565.7435   2  10   0.1594   0.1537   0.5149  -0.0552  -0.1588   0.2128   0.00    1.6
2018/03/11 13:43:57.000   78.251310504   16.154879942   565.8138   2  10   0.1571   0.1518   0.5058  -0.0539  -0.1560   0.2087   0.00    1.6
2018/03/11 13:43:58.000   78.251310618   16.154880521   565.8906   2  10   0.1549   0.1499   0.4968  -0.0526  -0.1532   0.2047   0.00    1.6
2018/03/11 13:43:59.000   78.251310480   16.154880412   565.9900   2  10   0.1527   0.1481   0.4882  -0.0514  -0.1505   0.2009   0.00    1.7
2018/03/11 13:44:00.000   78.251310345   16.154881050   566.0227   2  10   0.1506   0.1464   0.4797  -0.0502  -0.1479   0.1971   0.00    1.7
2018/03/11 13:44:01.000   78.251310108   16.154881103   566.0177   2  10   0.1485   0.1447   0.4715  -0.0490  -0.1454   0.1934   0.00    1.7
2018/03/11 13:44:02.000   78.251310339   16.154880540   566.0423   2  10   0.1465   0.1431   0.4636  -0.0478  -0.1429   0.1899   0.00    1.7
2018/03/11 13:44:03.000   78.251310535   16.154880724   566.0285   2  10   0.1446   0.1415   0.4558  -0.0467  -0.1405   0.1864   0.00    1.7
2018/03/11 13:44:04.000   78.251310677   16.154879919   566.0360   2  10   0.1427   0.1400   0.4482  -0.0456  -0.1381   0.1830   0.00    1.7
2018/03/11 13:44:05.000   78.251310390   16.154879700   566.0158   2  10   0.1408   0.1385   0.4408  -0.0445  -0.1359   0.1797   0.00    1.7
2018/03/11 13:44:06.000   78.251309924   16.154880300   565.9235   2  10   0.1391   0.1370   0.4336  -0.0434  -0.1336   0.1765   0.00    1.7
2018/03/11 13:44:07.000   78.251309647   16.154880651   565.8832   2  10   0.1373   0.1356   0.4266  -0.0424  -0.1315   0.1733   0.00    1.7
2018/03/11 13:44:08.000   78.251309865   16.154880311   565.9104   2  10   0.1356   0.1342   0.4198  -0.0414  -0.1293   0.1703   0.00    1.7
2018/03/11 13:44:09.000   78.251310063   16.154880450   565.8727   2  10   0.1340   0.1328   0.4131  -0.0404  -0.1273   0.1673   0.00    1.7
2018/03/11 13:44:10.000   78.251309969   16.154881655   565.8131   2  10   0.1324   0.1315   0.4066  -0.0394  -0.1253   0.1643   0.00    1.7
2018/03/11 13:44:11.000   78.251309844   16.154882258   565.8055   2  10   0.1308   0.1302   0.4003  -0.0384  -0.1233   0.1615   0.00    1.7
2018/03/11 13:44:12.000   78.251310025   16.154881733   565.8767   2  10   0.1292   0.1290   0.3941  -0.0375  -0.1214   0.1587   0.00    1.7
2018/03/11 13:44:13.000   78.251309946   16.154881771   565.9191   2  10   0.1278   0.1277   0.3881  -0.0365  -0.1195   0.1560   0.00    1.8
2018/03/11 13:44:14.000   78.251309778   16.154881160   565.9306   2  10   0.1263   0.1266   0.3821  -0.0356  -0.1177   0.1533   0.00    1.8
2018/03/11 13:44:15.000   78.251309850   16.154879811   565.9683   2  10   0.1249   0.1254   0.3764  -0.0347  -0.1159   0.1507   0.00    1.8
2018/03/11 13:44:16.000   78.251309929   16.154880043   565.9465   2  10   0.1235   0.1242   0.3708  -0.0338  -0.1141   0.1482   0.00    1.8
2018/03/11 13:44:17.000   78.251310032   16.154880833   565.9545   2  10   0.1221   0.1231   0.3652  -0.0329  -0.1124   0.1457   0.00    1.7
2018/03/11 13:44:18.000   78.251310270   16.154881757   565.9629   2  10   0.1208   0.1220   0.3599  -0.0321  -0.1108   0.1433   0.00    1.7
2018/03/11 13:44:19.000   78.251310428   16.154881272   566.0216   2  10   0.1195   0.1210   0.3546  -0.0312  -0.1091   0.1409   0.00    1.7
2018/03/11 13:44:20.000   78.251310394   16.154881269   566.0819   2  10   0.1182   0.1199   0.3495  -0.0304  -0.1076   0.1386   0.00    1.7
2018/03/11 13:44:21.000   78.251310313   16.154881536   566.0900   2  10   0.1170   0.1189   0.3445  -0.0295  -0.1060   0.1363   0.00    1.7
2018/03/11 13:44:22.000   78.251310373   16.154881189   566.1095   2  10   0.1158   0.1179   0.3395  -0.0287  -0.1045   0.1341   0.00    1.7
2018/03/11 13:44:23.000   78.251310468   16.154881529   566.1937   2  10   0.1146   0.1169   0.3347  -0.0279  -0.1030   0.1319   0.00    1.7
2018/03/11 13:44:24.000   78.251310501   16.154881560   566.2562   2  10   0.1134   0.1159   0.3300  -0.0271  -0.1015   0.1298   0.00    1.7
2018/03/11 13:44:25.000   78.251310520   16.154881354   566.2920   2  10   0.1123   0.1150   0.3254  -0.0263  -0.1001   0.1277   0.00    1.7
2018/03/11 13:44:26.000   78.251310438   16.154881072   566.2931   2  10   0.1112   0.1140   0.3209  -0.0255  -0.0987   0.1256   0.00    1.7
2018/03/11 13:44:27.000   78.251310276   16.154881753   566.2487   2  10   0.1101   0.1131   0.3165  -0.0247  -0.0974   0.1236   0.00    1.7
2018/03/11 13:44:28.000   78.251310231   16.154882648   566.2398   2  10   0.1090   0.1122   0.3122  -0.0240  -0.0960   0.1217   0.00    1.7
2018/03/11 13:44:29.000   78.251310321   16.154882838   566.2208   2  10   0.1080   0.1114   0.3080  -0.0232  -0.0947   0.1198   0.00    1.7
2018/03/11 13:44:30.000   78.251310213   16.154883465   566.1930   2  10   0.1069   0.1105   0.3039  -0.0224  -0.0935   0.1179   0.00    1.7
2018/03/11 13:44:31.000   78.251310150   16.154883824   566.1865   2  10   0.1059   0.1097   0.2998  -0.0217  -0.0922   0.1160   0.00    1.7
2018/03/11 13:44:32.000   78.251310227   16.154883094   566.2061   2  10   0.1049   0.1088   0.2959  -0.0209  -0.0910   0.1142   0.00    1.7
2018/03/11 13:44:33.000   78.251310245   16.154882858   566.1793   2  10   0.1040   0.1080   0.2920  -0.0202  -0.0898   0.1125   0.00    1.7
2018/03/11 13:44:34.000   78.251310170   16.154883054   566.1298   2  10   0.1030   0.1072   0.2882  -0.0194  -0.0886   0.1108   0.00    1.7
2018/03/11 13:44:35.000   78.251310154   16.154883129   566.1004   2  10   0.1021   0.1064   0.2845  -0.0187  -0.0875   0.1091   0.00    1.7
2018/03/11 13:44:36.000   78.251310124   16.154883132   566.0846   2  10   0.1012   0.1056   0.2809  -0.0179  -0.0864   0.1074   0.00    1.7
2018/03/11 13:44:37.000   78.251310017   16.154883664   566.0654   2  10   0.1003   0.1049   0.2773  -0.0172  -0.0853   0.1058   0.00    1.7
2018/03/11 13:44:38.000   78.251309933   16.154884920   566.0406   2  10   0.0994   0.1041   0.2738  -0.0164  -0.0842   0.1042   0.00    1.7
2018/03/11 13:44:39.000   78.251309878   16.154884773   566.0390   2  10   0.0986   0.1034   0.2704  -0.0157  -0.0832   0.1026   0.00    1.7
2018/03/11 13:44:40.000   78.251309827   16.154884751   566.0436   2  10   0.0977   0.1027   0.2670  -0.0149  -0.0821   0.1011   0.00    1.7
2018/03/11 13:44:41.000   78.251309839   16.154884732   566.0401   2  10   0.0969   0.1020   0.2637  -0.0141  -0.0811   0.0996   0.00    1.7
2018/03/11 13:44:42.000   78.251309842   16.154885163   566.0281   2  10   0.0961   0.1013   0.2605  -0.0133  -0.0801   0.0981   0.00    1.7
2018/03/11 13:44:43.000   78.251309868   16.154885477   566.0122   2  10   0.0953   0.1006   0.2573  -0.0125  -0.0791   0.0967   0.00    1.7
2018/03/11 13:44:44.000   78.251309826   16.154885629   565.9880   2  10   0.0945   0.0999   0.2542  -0.0117  -0.0782   0.0952   0.00    1.7
2018/03/11 13:44:45.000   78.251309811   16.154886149   565.9672   2  10   0.0937   0.0992   0.2511  -0.0108  -0.0773   0.0939   0.00    1.7
2018/03/11 13:44:46.000   78.251309816   16.154885831   565.9361   2  10   0.0929   0.0986   0.2482  -0.0099  -0.0764   0.0925   0.00    1.8
2018/03/11 13:44:47.000   78.251309766   16.154886012   565.9255   2  10   0.0922   0.0979   0.2452  -0.0090  -0.0755   0.0911   0.00    1.8
2018/03/11 13:44:48.000   78.251309599   16.154886164   565.8817   2  10   0.0915   0.0973   0.2423  -0.0080  -0.0746   0.0898   0.00    1.8
2018/03/11 13:44:49.000   78.251309515   16.154885513   565.8864   2  10   0.0907   0.0966   0.2395  -0.0069  -0.0737   0.0885   0.00    1.8
2018/03/11 13:44:50.000   78.251309554   16.154885476   565.8791   2  10   0.0900   0.0960   0.2368  -0.0056  -0.0729   0.0873   0.00    1.8
2018/03/11 13:44:51.000   78.251309502   16.154885627   565.8525   2  10   0.0893   0.0954   0.2340  -0.0040  -0.0720   0.0860   0.00    1.8
2018/03/11 13:44:52.000   78.251309420   16.154885910   565.8276   2  10   0.0886   0.0948   0.2314  -0.0010  -0.0712   0.0848   0.00    1.8
2018/03/11 13:44:53.000   78.251309239   16.154885369   565.8185   2  10   0.0880   0.0942   0.2287   0.0036  -0.0704   0.0836   0.00    1.8
2018/03/11 13:44:54.000   78.251309130   16.154885027   565.8083   2  10   0.0873   0.0936   0.2262   0.0052  -0.0696   0.0824   0.00    1.8
2018/03/11 13:44:55.000   78.251309107   16.154885344   565.8054   2  10   0.0867   0.0931   0.2237   0.0063  -0.0689   0.0813   0.00    1.8
2018/03/11 13:44:56.000   78.251309128   16.154885915   565.7737   2  10   0.0860   0.0925   0.2212   0.0073  -0.0681   0.0802   0.00    1.9
2018/03/11 13:44:57.000   78.251309089   16.154886191   565.7444   2  10   0.0854   0.0919   0.2187   0.0081  -0.0674   0.0790   0.00    1.9
2018/03/11 13:44:58.000   78.251308917   16.154885862   565.7204   2  10   0.0848   0.0914   0.2164   0.0088  -0.0667   0.0780   0.00    1.9
2018/03/11 13:44:59.000   78.251308791   16.154885446   565.6944   2  10   0.0841   0.0908   0.2140   0.0094  -0.0659   0.0769   0.00    1.9
2018/03/11 13:45:00.000   78.251308874   16.154884669   565.6833   2  10   0.0835   0.0903   0.2117   0.0099  -0.0652   0.0758   0.00    1.9
2018/03/11 13:45:01.000   78.251308875   16.154884355   565.6706   2  10   0.0829   0.0897   0.2094   0.0104  -0.0646   0.0748   0.00    1.9
2018/03/11 13:45:02.000   78.251308807   16.154885122   565.6573   2  10   0.0824   0.0892   0.2072   0.0109  -0.0639   0.0738   0.00    1.9
2018/03/11 13:45:03.000   78.251308869   16.154884824   565.6494   2  10   0.0818   0.0887   0.2050   0.0113  -0.0632   0.0728   0.00    1.9
2018/03/11 13:45:04.000   78.251308893   16.154883983   565.6436   2  10   0.0812   0.0882   0.2029   0.0117  -0.0626   0.0718   0.00    1.9
2018/03/11 13:45:05.000   78.251308909   16.154884097   565.6403   2  10   0.0807   0.0877   0.2008   0.0121  -0.0619   0.0708   0.00    1.9
2018/03/11 13:45:06.000   78.251309020   16.154884573   565.6425   2  10   0.0801   0.0872   0.1987   0.0125  -0.0613   0.0699   0.00    1.8
2018/03/11 13:45:07.000   78.251309135   16.154884876   565.6701   2  10   0.0796   0.0867   0.1966   0.0128  -0.0607   0.0689   0.00    1.8
2018/03/11 13:45:08.000   78.251309167   16.154885029   565.7001   2  10   0.0790   0.0862   0.1946   0.0131  -0.0601   0.0680   0.00    1.8
2018/03/11 13:45:09.000   78.251309189   16.154885354   565.7252   2  10   0.0785   0.0857   0.1927   0.0134  -0.0595   0.0671   0.00    1.8
2018/03/11 13:45:10.000   78.251309228   16.154885631   565.7303   2  10   0.0780   0.0852   0.1907   0.0137  -0.0589   0.0662   0.00    1.8
2018/03/11 13:45:11.000   78.251309161   16.154886067   565.7243   2  10   0.0775   0.0848   0.1888   0.0139  -0.0583   0.0654   0.00    1.8
2018/03/11 13:45:12.000   78.251309038   16.154886600   565.7154   2  10   0.0770   0.0843   0.1869   0.0141  -0.0578   0.0645   0.00    1.8
2018/03/11 13:45:13.000   78.251308983   16.154886763   565.7011   2  10   0.0765   0.0838   0.1851   0.0144  -0.0572   0.0637   0.00    1.8
2018/03/11 13:45:14.000   78.251309025   16.154886408   565.6824   2  10   0.0760   0.0834   0.1833   0.0146  -0.0567   0.0628   0.00    1.8
2018/03/11 13:45:15.000   78.251309079   16.154887119   565.6502   2  10   0.0755   0.0829   0.1815   0.0148  -0.0562   0.0620   0.00    1.8
2018/03/11 13:45:16.000   78.251308983   16.154887784   565.6220   2  10   0.0750   0.0825   0.1797   0.0150  -0.0556   0.0612   0.00    1.7
2018/03/11 13:45:17.000   78.251308893   16.154887628   565.6166   2  10   0.0745   0.0820   0.1780   0.0152  -0.0551   0.0604   0.00    1.7
2018/03/11 13:45:18.000   78.251308810   16.154887437   565.5992   2  10   0.0741   0.0816   0.1763   0.0153  -0.0546   0.0597   0.00    1.7
2018/03/11 13:45:19.000   78.251308738   16.154887671   565.5728   2  10   0.0736   0.0812   0.1746   0.0155  -0.0541   0.0589   0.00    1.7
2018/03/11 13:45:20.000   78.251308737   16.154887556   565.5655   2  10   0.0731   0.0808   0.1730   0.0157  -0.0536   0.0581   0.00    1.7
2018/03/11 13:45:21.000   78.251308754   16.154887161   565.5521   2  10   0.0727   0.0803   0.1714   0.0158  -0.0531   0.0574   0.00    1.7
2018/03/11 13:45:22.000   78.251308701   16.154886925   565.5359   2  10   0.0723   0.0799   0.1698   0.0159  -0.0527   0.0567   0.00    1.7
2018/03/11 13:45:23.000   78.251308700   16.154886494   565.5124   2  10   0.0718   0.0795   0.1682   0.0161  -0.0522   0.0560   0.00    1.7
2018/03/11 13:45:24.000   78.251308794   16.154885420   565.4970   2  10   0.0714   0.0791   0.1667   0.0162  -0.0517   0.0553   0.00    1.7
2018/03/11 13:45:25.000   78.251308755   16.154885219   565.4929   2   9   0.0710   0.0787   0.1652   0.0163  -0.0513   0.0545   0.00    1.0
2018/03/11 13:45:26.000   78.251308718   16.154885251   565.4966   2   9   0.0706   0.0783   0.1638   0.0164  -0.0509   0.0538   0.00    1.0
2018/03/11 13:45:27.000   78.251308759   16.154885114   565.5083   2   9   0.0701   0.0779   0.1624   0.0165  -0.0505   0.0531   0.00    1.0
2018/03/11 13:45:28.000   78.251308826   16.154884897   565.5214   2   9   0.0697   0.0776   0.1611   0.0165  -0.0501   0.0524   0.00    1.0
2018/03/11 13:45:29.000   78.251308836   16.154885183   565.5243   2   9   0.0693   0.0772   0.1597   0.0166  -0.0497   0.0517   0.00    1.0
2018/03/11 13:45:30.000   78.251308825   16.154885412   565.5285   2   9   0.0690   0.0768   0.1584   0.0167  -0.0493   0.0511   0.00    1.0
2018/03/11 13:45:31.000   78.251308782   16.154885456   565.5333   2  10   0.0686   0.0764   0.1570   0.0168  -0.0489   0.0504   0.00    1.0
2018/03/11 13:45:32.000   78.251308744   16.154885360   565.5421   2  10   0.0682   0.0761   0.1557   0.0169  -0.0485   0.0498   0.00    1.0
2018/03/11 13:45:33.000   78.251308750   16.154885742   565.5333   2  10   0.0678   0.0757   0.1545   0.0170  -0.0482   0.0492   0.00    1.0
2018/03/11 13:45:34.000   78.251308864   16.154885843   565.5368   2  10   0.0674   0.0753   0.1532   0.0171  -0.0478   0.0485   0.00    1.0
2018/03/11 13:45:35.000   78.251308945   16.154886066   565.5397   2  10   0.0670   0.0750   0.1519   0.0171  -0.0475   0.0479   0.00    1.0
2018/03/11 13:45:36.000   78.251308900   16.154886359   565.5493   2  10   0.0667   0.0746   0.1507   0.0172  -0.0471   0.0473   0.00    1.0
2018/03/11 13:45:37.000   78.251308811   16.154886745   565.5450   2  10   0.0663   0.0743   0.1495   0.0173  -0.0468   0.0467   0.00    1.0
2018/03/11 13:45:38.000   78.251308761   16.154886598   565.5489   2  10   0.0659   0.0739   0.1483   0.0173  -0.0464   0.0462   0.00    1.0
2018/03/11 13:45:39.000   78.251308677   16.154886691   565.5392   2  10   0.0656   0.0736   0.1471   0.0174  -0.0461   0.0456   0.00    1.0
2018/03/11 13:45:40.000   78.251308645   16.154886715   565.5317   2   9   0.0652   0.0732   0.1459   0.0175  -0.0458   0.0450   0.00    1.0
2018/03/11 13:45:41.000   78.251308706   16.154886350   565.5179   2  10   0.0649   0.0729   0.1448   0.0175  -0.0455   0.0444   0.00    1.0
2018/03/11 13:45:42.000   78.251308745   16.154886658   565.4945   2   9   0.0645   0.0726   0.1436   0.0175  -0.0451   0.0439   0.00    1.0
2018/03/11 13:45:43.000   78.251308702   16.154887133   565.4701   2   9   0.0642   0.0722   0.1425   0.0176  -0.0448   0.0433   0.00    1.0
2018/03/11 13:45:44.000   78.251308684   16.154887036   565.4603   2   9   0.0639   0.0719   0.1414   0.0176  -0.0445   0.0428   0.00    1.0
2018/03/11 13:45:45.000   78.251308665   16.154886768   565.4450   2   9   0.0635   0.0716   0.1403   0.0176  -0.0442   0.0422   0.00    1.0
2018/03/11 13:45:46.000   78.251308605   16.154887055   565.4218   2   9   0.0632   0.0713   0.1393   0.0177  -0.0439   0.0417   0.00    1.0
2018/03/11 13:45:47.000   78.251308613   16.154887112   565.3998   2   9   0.0629   0.0709   0.1382   0.0177  -0.0435   0.0412   0.00    1.0
2018/03/11 13:45:48.000   78.251308676   16.154886756   565.3892   2   9   0.0626   0.0706   0.1372   0.0177  -0.0432   0.0406   0.00    1.0
2018/03/11 13:45:49.000   78.251308668   16.154886906   565.3778   2  10   0.0622   0.0703   0.1361   0.0177  -0.0430   0.0401   0.00    1.1
2018/03/11 13:45:50.000   78.251308552   16.154886932   565.3671   2  10   0.0619   0.0700   0.1351   0.0178  -0.0427   0.0396   0.00    1.1
2018/03/11 13:45:51.000   78.251308467   16.154886871   565.3594   2  10   0.0616   0.0697   0.1341   0.0178  -0.0424   0.0391   0.00    1.1
2018/03/11 13:45:52.000   78.251308446   16.154886966   565.3570   2  10   0.0613   0.0694   0.1331   0.0179  -0.0421   0.0387   0.00    1.1
2018/03/11 13:45:53.000   78.251308496   16.154886991   565.3609   2  10   0.0610   0.0691   0.1321   0.0179  -0.0419   0.0382   0.00    1.1
2018/03/11 13:45:54.000   78.251308578   16.154886814   565.3810   2  10   0.0607   0.0688   0.1311   0.0179  -0.0416   0.0377   0.00    1.1
2018/03/11 13:45:55.000   78.251308632   16.154886772   565.4023   2  10   0.0604   0.0685   0.1302   0.0179  -0.0413   0.0373   0.00    1.1
2018/03/11 13:45:56.000   78.251308584   16.154887241   565.4177   2  10   0.0601   0.0682   0.1292   0.0180  -0.0411   0.0368   0.00    1.1
2018/03/11 13:45:57.000   78.251308516   16.154887622   565.4365   2  10   0.0598   0.0679   0.1283   0.0180  -0.0408   0.0363   0.00    1.1
2018/03/11 13:45:58.000   78.251308523   16.154887663   565.4530   2  10   0.0595   0.0676   0.1274   0.0180  -0.0406   0.0359   0.00    1.1
2018/03/11 13:45:59.000   78.251308523   16.154887723   565.4522   2  10   0.0592   0.0673   0.1265   0.0180  -0.0403   0.0355   0.00    1.1
2018/03/11 13:46:00.000   78.251308479   16.154887717   565.4451   2   9   0.0589   0.0670   0.1256   0.0180  -0.0400   0.0350   0.00    1.1
2018/03/11 13:46:01.000   78.251308524   16.154887611   565.4433   2   9   0.0586   0.0667   0.1247   0.0180  -0.0398   0.0346   0.00    1.1
2018/03/11 13:46:02.000   78.251308636   16.154887325   565.4432   2   9   0.0584   0.0665   0.1238   0.0180  -0.0395   0.0341   0.00    1.0
2018/03/11 13:46:03.000   78.251308693   16.154887328   565.4448   2   9   0.0581   0.0662   0.1229   0.0180  -0.0393   0.0337   0.00    1.0
2018/03/11 13:46:04.000   78.251308725   16.154887462   565.4506   2   9   0.0578   0.0659   0.1221   0.0180  -0.0391   0.0333   0.00    1.0
2018/03/11 13:46:05.000   78.251308681   16.154887592   565.4550   2   9   0.0575   0.0656   0.1213   0.0180  -0.0388   0.0329   0.00    1.0
2018/03/11 13:46:06.000   78.251308586   16.154887689   565.4643   2   9   0.0573   0.0654   0.1204   0.0180  -0.0386   0.0324   0.00    1.0
2018/03/11 13:46:07.000   78.251308515   16.154887809   565.4735   2  10   0.0570   0.0651   0.1196   0.0180  -0.0384   0.0320   0.00    1.0
2018/03/11 13:46:08.000   78.251308547   16.154887720   565.4742   2  10   0.0567   0.0648   0.1188   0.0180  -0.0381   0.0316   0.00    1.0
2018/03/11 13:46:09.000   78.251308587   16.154887820   565.4702   2  10   0.0565   0.0646   0.1180   0.0181  -0.0379   0.0313   0.00    1.1
2018/03/11 13:46:10.000   78.251308510   16.154888177   565.4663   2  10   0.0562   0.0643   0.1172   0.0181  -0.0377   0.0309   0.00    1.1
2018/03/11 13:46:11.000   78.251308408   16.154887991   565.4634   2  10   0.0560   0.0640   0.1164   0.0181  -0.0375   0.0305   0.00    1.1
2018/03/11 13:46:12.000   78.251308380   16.154887450   565.4537   2  10   0.0557   0.0638   0.1156   0.0181  -0.0373   0.0301   0.00    1.1
2018/03/11 13:46:13.000   78.251308361   16.154887367   565.4439   2  10   0.0555   0.0635   0.1148   0.0181  -0.0371   0.0298   0.00    1.1
2018/03/11 13:46:14.000   78.251308350   16.154887402   565.4368   2  10   0.0552   0.0633   0.1141   0.0181  -0.0369   0.0294   0.00    1.1
2018/03/11 13:46:15.000   78.251308356   16.154887064   565.4459   2  10   0.0550   0.0630   0.1133   0.0181  -0.0367   0.0290   0.00    1.1
2018/03/11 13:46:16.000   78.251308274   16.154886832   565.4542   2  10   0.0547   0.0628   0.1126   0.0181  -0.0365   0.0287   0.00    1.2
2018/03/11 13:46:17.000   78.251308246   16.154886832   565.4511   2   9   0.0545   0.0625   0.1119   0.0181  -0.0363   0.0283   0.00    1.1
2018/03/11 13:46:18.000   78.251308249   16.154886928   565.4479   2   9   0.0542   0.0623   0.1111   0.0180  -0.0361   0.0279   0.00    1.0
2018/03/11 13:46:19.000   78.251308173   16.154887127   565.4468   2   9   0.0540   0.0620   0.1104   0.0180  -0.0359   0.0276   0.00    1.0
2018/03/11 13:46:20.000   78.251308120   16.154887242   565.4463   2   9   0.0538   0.0618   0.1097   0.0180  -0.0357   0.0272   0.00    1.0
2018/03/11 13:46:21.000   78.251308130   16.154887059   565.4436   2   9   0.0535   0.0616   0.1090   0.0180  -0.0355   0.0269   0.00    1.0
2018/03/11 13:46:22.000   78.251308244   16.154886969   565.4405   2   9   0.0533   0.0613   0.1084   0.0180  -0.0353   0.0265   0.00    1.0
2018/03/11 13:46:23.000   78.251308311   16.154887241   565.4405   2   9   0.0531   0.0611   0.1077   0.0180  -0.0351   0.0262   0.00    1.0
2018/03/11 13:46:24.000   78.251308256   16.154887320   565.4492   2  10   0.0529   0.0608   0.1070   0.0180  -0.0349   0.0259   0.00    1.0
2018/03/11 13:46:25.000   78.251308191   16.154887081   565.4620   2   9   0.0526   0.0606   0.1063   0.0179  -0.0347   0.0255   0.00    1.0
2018/03/11 13:46:26.000   78.251308139   16.154887091   565.4698   2   9   0.0524   0.0604   0.1057   0.0179  -0.0345   0.0252   0.00    1.0
2018/03/11 13:46:27.000   78.251308128   16.154887367   565.4736   2   9   0.0522   0.0602   0.1050   0.0179  -0.0344   0.0249   0.00    1.0
2018/03/11 13:46:28.000   78.251308173   16.154887506   565.4693   2   9   0.0520   0.0599   0.1044   0.0179  -0.0342   0.0245   0.00    1.0
2018/03/11 13:46:29.000   78.251308196   16.154887490   565.4680   2   9   0.0518   0.0597   0.1037   0.0179  -0.0340   0.0242   0.00    1.0
2018/03/11 13:46:30.000   78.251308190   16.154887699   565.4675   2  10   0.0515   0.0595   0.1031   0.0178  -0.0338   0.0239   0.00    1.0
2018/03/11 13:46:31.000   78.251308208   16.154887923   565.4628   2  10   0.0513   0.0593   0.1025   0.0178  -0.0337   0.0236   0.00    1.0
2018/03/11 13:46:32.000   78.251308196   16.154888023   565.4607   2  10   0.0511   0.0590   0.1019   0.0178  -0.0335   0.0233   0.00    1.0
2018/03/11 13:46:33.000   78.251308136   16.154888030   565.4641   2  10   0.0509   0.0588   0.1013   0.0178  -0.0333   0.0230   0.00    1.0
2018/03/11 13:46:34.000   78.251308093   16.154887992   565.4631   2   9   0.0507   0.0586   0.1007   0.0178  -0.0332   0.0227   0.00    1.0
2018/03/11 13:46:35.000   78.251308062   16.154887763   565.4626   2  10   0.0505   0.0584   0.1001   0.0178  -0.0330   0.0224   0.00    1.0
2018/03/11 13:46:36.000   78.251308073   16.154887824   565.4533   2  10   0.0503   0.0582   0.0995   0.0178  -0.0329   0.0221   0.00    1.0
2018/03/11 13:46:37.000   78.251308076   16.154887980   565.4423   2  10   0.0501   0.0580   0.0989   0.0177  -0.0327   0.0219   0.00    1.0
2018/03/11 13:46:38.000   78.251308053   16.154887919   565.4351   2  10   0.0499   0.0577   0.0983   0.0177  -0.0325   0.0216   0.00    1.0
2018/03/11 13:46:39.000   78.251307997   16.154887748   565.4334   2  10   0.0497   0.0575   0.0977   0.0177  -0.0324   0.0213   0.00    1.0
2018/03/11 13:46:40.000   78.251307939   16.154887735   565.4239   2  10   0.0495   0.0573   0.0972   0.0177  -0.0322   0.0210   0.00    1.0
2018/03/11 13:46:41.000   78.251307950   16.154887779   565.4115   2  10   0.0493   0.0571   0.0966   0.0177  -0.0321   0.0208   0.00    1.0
2018/03/11 13:46:42.000   78.251308022   16.154887684   565.4071   2  10   0.0491   0.0569   0.0960   0.0177  -0.0319   0.0205   0.00    1.1
2018/03/11 13:46:43.000   78.251308036   16.154887680   565.4102   2  10   0.0489   0.0567   0.0955   0.0176  -0.0318   0.0202   0.00    1.1
2018/03/11 13:46:44.000   78.251308050   16.154887784   565.4160   2  10   0.0487   0.0565   0.0950   0.0176  -0.0317   0.0200   0.00    1.1
2018/03/11 13:46:45.000   78.251308060   16.154887623   565.4303   2  10   0.0485   0.0563   0.0944   0.0176  -0.0315   0.0197   0.00    1.1
2018/03/11 13:46:46.000   78.251308008   16.154887718   565.4420   2  10   0.0483   0.0561   0.0939   0.0176  -0.0314   0.0194   0.00    1.1
2018/03/11 13:46:47.000   78.251307977   16.154888048   565.4494   2  10   0.0481   0.0559   0.0934   0.0176  -0.0312   0.0192   0.00    1.1
2018/03/11 13:46:48.000   78.251307955   16.154888243   565.4555   2  10   0.0479   0.0557   0.0928   0.0176  -0.0311   0.0189   0.00    1.1
2018/03/11 13:46:49.000   78.251307977   16.154888183   565.4593   2  10   0.0478   0.0555   0.0923   0.0175  -0.0310   0.0187   0.00    1.1
2018/03/11 13:46:50.000   78.251308028   16.154888629   565.4562   2  10   0.0476   0.0553   0.0918   0.0175  -0.0308   0.0184   0.00    1.1
2018/03/11 13:46:51.000   78.251308053   16.154889172   565.4573   2  10   0.0474   0.0551   0.0913   0.0175  -0.0307   0.0182   0.00    1.1
2018/03/11 13:46:52.000   78.251308039   16.154889191   565.4653   2  10   0.0472   0.0549   0.0908   0.0175  -0.0306   0.0179   0.00    1.1
2018/03/11 13:46:53.000   78.251307999   16.154889269   565.4734   2  10   0.0470   0.0547   0.0903   0.0175  -0.0304   0.0177   0.00    1.1
2018/03/11 13:46:54.000   78.251307976   16.154889459   565.4772   2  10   0.0469   0.0545   0.0898   0.0174  -0.0303   0.0175   0.00    1.1
2018/03/11 13:46:55.000   78.251307971   16.154889528   565.4781   2  10   0.0467   0.0544   0.0893   0.0174  -0.0302   0.0172   0.00    1.1
2018/03/11 13:46:56.000   78.251308004   16.154889983   565.4750   2  10   0.0465   0.0542   0.0889   0.0174  -0.0300   0.0170   0.00    1.1
2018/03/11 13:46:57.000   78.251307965   16.154890193   565.4748   2  10   0.0463   0.0540   0.0884   0.0174  -0.0299   0.0167   0.00    1.1
2018/03/11 13:46:58.000   78.251307923   16.154890237   565.4711   2  10   0.0462   0.0538   0.0879   0.0173  -0.0298   0.0165   0.00    1.1
2018/03/11 13:46:59.000   78.251307927   16.154890347   565.4618   2  10   0.0460   0.0536   0.0874   0.0173  -0.0297   0.0163   0.00    1.1
2018/03/11 13:47:00.000   78.251307938   16.154890622   565.4487   2  10   0.0458   0.0534   0.0870   0.0173  -0.0295   0.0160   0.00    1.2
2018/03/11 13:47:01.000   78.251307939   16.154890851   565.4421   2  10   0.0456   0.0533   0.0865   0.0173  -0.0294   0.0158   0.00    1.2
2018/03/11 13:47:02.000   78.251307930   16.154890689   565.4388   2  10   0.0455   0.0531   0.0861   0.0172  -0.0293   0.0156   0.00    1.2
2018/03/11 13:47:03.000   78.251307838   16.154890763   565.4324   2  10   0.0453   0.0529   0.0856   0.0172  -0.0292   0.0154   0.00    1.2
2018/03/11 13:47:04.000   78.251307806   16.154890873   565.4252   2  10   0.0451   0.0527   0.0852   0.0172  -0.0291   0.0151   0.00    1.2
2018/03/11 13:47:05.000   78.251307784   16.154890945   565.4153   2  10   0.0450   0.0526   0.0847   0.0172  -0.0290   0.0149   0.00    1.2
2018/03/11 13:47:06.000   78.251307682   16.154890890   565.4071   2  10   0.0448   0.0524   0.0843   0.0171  -0.0288   0.0147   0.00    1.2
2018/03/11 13:47:07.000   78.251307592   16.154890774   565.3972   2  10   0.0447   0.0522   0.0839   0.0171  -0.0287   0.0145   0.00    1.2
2018/03/11 13:47:08.000   78.251307567   16.154890428   565.3858   2  10   0.0445   0.0520   0.0834   0.0171  -0.0286   0.0143   0.00    1.2
2018/03/11 13:47:09.000   78.251307621   16.154890107   565.3777   2  10   0.0443   0.0519   0.0830   0.0171  -0.0285   0.0141   0.00    1.2
2018/03/11 13:47:10.000   78.251307684   16.154890234   565.3768   2  10   0.0442   0.0517   0.0826   0.0170  -0.0284   0.0138   0.00    1.2
2018/03/11 13:47:11.000   78.251307689   16.154890284   565.3892   2  10   0.0440   0.0515   0.0822   0.0170  -0.0283   0.0136   0.00    1.2
2018/03/11 13:47:12.000   78.251307678   16.154890235   565.4064   2  10   0.0439   0.0514   0.0818   0.0170  -0.0282   0.0134   0.00    1.2
2018/03/11 13:47:13.000   78.251307670   16.154890320   565.4212   2  10   0.0437   0.0512   0.0814   0.0170  -0.0281   0.0132   0.00    1.2
2018/03/11 13:47:14.000   78.251307685   16.154890520   565.4323   2  10   0.0436   0.0510   0.0810   0.0169  -0.0280   0.0130   0.00    1.2
2018/03/11 13:47:15.000   78.251307769   16.154890560   565.4351   2  10   0.0434   0.0509   0.0806   0.0169  -0.0279   0.0128   0.00    1.2
2018/03/11 13:47:16.000   78.251307810   16.154890657   565.4429   2   9   0.0433   0.0507   0.0802   0.0169  -0.0277   0.0126   0.00    1.0
2018/03/11 13:47:17.000   78.251307808   16.154890778   565.4476   2  10   0.0431   0.0505   0.0798   0.0169  -0.0276   0.0124   0.00    1.0
2018/03/11 13:47:18.000   78.251307796   16.154890872   565.4512   2  10   0.0430   0.0504   0.0794   0.0168  -0.0275   0.0122   0.00    1.0
2018/03/11 13:47:19.000   78.251307825   16.154890852   565.4549   2  10   0.0428   0.0502   0.0790   0.0168  -0.0274   0.0120   0.00    1.0
2018/03/11 13:47:20.000   78.251307850   16.154891029   565.4557   2  10   0.0427   0.0501   0.0786   0.0168  -0.0273   0.0118   0.00    1.0
2018/03/11 13:47:21.000   78.251307852   16.154891264   565.4580   2  10   0.0425   0.0499   0.0783   0.0167  -0.0272   0.0116   0.00    1.0
2018/03/11 13:47:22.000   78.251307871   16.154891237   565.4608   2  10   0.0424   0.0497   0.0779   0.0167  -0.0271   0.0114   0.00    1.0
2018/03/11 13:47:23.000   78.251307883   16.154891269   565.4627   2  10   0.0422   0.0496   0.0775   0.0167  -0.0270   0.0112   0.00    1.0
2018/03/11 13:47:24.000   78.251307865   16.154891429   565.4601   2  10   0.0421   0.0494   0.0771   0.0167  -0.0269   0.0110   0.00    1.0
2018/03/11 13:47:25.000   78.251307825   16.154891387   565.4591   2  10   0.0420   0.0493   0.0768   0.0166  -0.0268   0.0108   0.00    1.0
2018/03/11 13:47:26.000   78.251307763   16.154891477   565.4586   2  10   0.0418   0.0491   0.0764   0.0166  -0.0267   0.0106   0.00    1.0
2018/03/11 13:47:27.000   78.251307717   16.154891610   565.4546   2  10   0.0417   0.0490   0.0761   0.0166  -0.0267   0.0104   0.00    1.0
2018/03/11 13:47:28.000   78.251307731   16.154891657   565.4468   2  10   0.0415   0.0488   0.0757   0.0166  -0.0266   0.0102   0.00    1.0
2018/03/11 13:47:29.000   78.251307747   16.154891661   565.4358   2  10   0.0414   0.0487   0.0754   0.0165  -0.0265   0.0100   0.00    1.0
2018/03/11 13:47:30.000   78.251307710   16.154891804   565.4274   2  10   0.0413   0.0485   0.0750   0.0165  -0.0264   0.0098   0.00    1.1
2018/03/11 13:47:31.000   78.251307699   16.154891818   565.4194   2  10   0.0411   0.0484   0.0747   0.0165  -0.0263   0.0096   0.00    1.1
2018/03/11 13:47:32.000   78.251307725   16.154891519   565.4143   2  10   0.0410   0.0482   0.0743   0.0164  -0.0262   0.0094   0.00    1.1
2018/03/11 13:47:33.000   78.251307754   16.154891231   565.4123   2  10   0.0409   0.0481   0.0740   0.0164  -0.0261   0.0092   0.00    1.1
2018/03/11 13:47:34.000   78.251307742   16.154891251   565.4075   2   9   0.0407   0.0480   0.0737   0.0164  -0.0260   0.0090   0.00    1.0
2018/03/11 13:47:35.000   78.251307710   16.154891073   565.4073   2   9   0.0406   0.0478   0.0733   0.0163  -0.0259   0.0088   0.00    1.0
2018/03/11 13:47:36.000   78.251307677   16.154890948   565.4136   2   9   0.0405   0.0477   0.0730   0.0163  -0.0258   0.0086   0.00    1.0
2018/03/11 13:47:37.000   78.251307686   16.154891053   565.4219   2  10   0.0403   0.0475   0.0727   0.0163  -0.0257   0.0084   0.00    1.0
2018/03/11 13:47:38.000   78.251307735   16.154891159   565.4309   2  10   0.0402   0.0474   0.0723   0.0163  -0.0257   0.0082   0.00    1.0
2018/03/11 13:47:39.000   78.251307773   16.154891231   565.4403   2  10   0.0401   0.0472   0.0720   0.0162  -0.0256   0.0080   0.00    1.0
2018/03/11 13:47:40.000   78.251307764   16.154891345   565.4496   2  10   0.0400   0.0471   0.0717   0.0162  -0.0255   0.0078   0.00    1.0
2018/03/11 13:47:41.000   78.251307783   16.154891406   565.4594   2  10   0.0398   0.0470   0.0714   0.0162  -0.0254   0.0076   0.00    1.0
2018/03/11 13:47:42.000   78.251307860   16.154891300   565.4701   2  10   0.0397   0.0468   0.0711   0.0161  -0.0253   0.0074   0.00    1.0
2018/03/11 13:47:43.000   78.251307910   16.154891580   565.4758   2  10   0.0396   0.0467   0.0708   0.0161  -0.0252   0.0072   0.00    1.0
2018/03/11 13:47:44.000   78.251307880   16.154891795   565.4859   2  10   0.0395   0.0466   0.0705   0.0161  -0.0252   0.0070   0.00    1.0
2018/03/11 13:47:45.000   78.251307843   16.154891885   565.4919   2  10   0.0393   0.0464   0.0702   0.0161  -0.0251   0.0068   0.00    1.0
2018/03/11 13:47:46.000   78.251307853   16.154891810   565.4969   2  10   0.0392   0.0463   0.0699   0.0160  -0.0250   0.0066   0.00    1.0
2018/03/11 13:47:47.000   78.251307884   16.154891819   565.4962   2  10   0.0391   0.0462   0.0696   0.0160  -0.0249   0.0064   0.00    1.0
2018/03/11 13:47:48.000   78.251307913   16.154892000   565.4921   2  10   0.0390   0.0460   0.0693   0.0160  -0.0248   0.0062   0.00    1.0
2018/03/11 13:47:49.000   78.251307895   16.154892177   565.4926   2  10   0.0389   0.0459   0.0690   0.0159  -0.0248   0.0060   0.00    1.0
2018/03/11 13:47:50.000   78.251307859   16.154892296   565.4925   2  10   0.0387   0.0458   0.0687   0.0159  -0.0247   0.0058   0.00    1.0
2018/03/11 13:47:51.000   78.251307878   16.154892356   565.4884   2  10   0.0386   0.0456   0.0684   0.0159  -0.0246   0.0055   0.00    1.0
2018/03/11 13:47:52.000   78.251307930   16.154892305   565.4851   2   9   0.0385   0.0455   0.0681   0.0158  -0.0245   0.0053   0.00    1.1
2018/03/11 13:47:53.000   78.251307927   16.154892241   565.4825   2   9   0.0384   0.0454   0.0678   0.0158  -0.0244   0.0051   0.00    1.1
2018/03/11 13:47:54.000   78.251307909   16.154892190   565.4820   2   9   0.0383   0.0452   0.0675   0.0158  -0.0244   0.0048   0.00    1.1
2018/03/11 13:47:55.000   78.251307897   16.154892017   565.4841   2  10   0.0382   0.0451   0.0672   0.0158  -0.0243   0.0046   0.00    1.0
2018/03/11 13:47:56.000   78.251307876   16.154892075   565.4827   2  10   0.0380   0.0450   0.0670   0.0157  -0.0242   0.0043   0.00    1.0
2018/03/11 13:47:57.000   78.251307846   16.154892219   565.4812   2  10   0.0379   0.0449   0.0667   0.0157  -0.0241   0.0041   0.00    1.0
2018/03/11 13:47:58.000   78.251307837   16.154892211   565.4786   2  10   0.0378   0.0447   0.0664   0.0157  -0.0241   0.0038   0.00    1.0
2018/03/11 13:47:59.000   78.251307847   16.154891947   565.4766   2  10   0.0377   0.0446   0.0661   0.0156  -0.0240   0.0035   0.00    1.0
2018/03/11 13:48:00.000   78.251307845   16.154891910   565.4785   2  10   0.0376   0.0445   0.0659   0.0156  -0.0239   0.0032   0.00    1.0
2018/03/11 13:48:01.000   78.251307875   16.154891871   565.4819   2  10   0.0375   0.0444   0.0656   0.0156  -0.0239   0.0029   0.00    1.0
2018/03/11 13:48:02.000   78.251307928   16.154891715   565.4881   2  10   0.0374   0.0442   0.0653   0.0156  -0.0238   0.0025   0.00    1.0
2018/03/11 13:48:03.000   78.251307939   16.154891686   565.4964   2  10   0.0373   0.0441   0.0651   0.0155  -0.0237   0.0021   0.00    1.0
2018/03/11 13:48:04.000   78.251307920   16.154891801   565.5042   2  10   0.0372   0.0440   0.0648   0.0155  -0.0236   0.0016   0.00    1.0
2018/03/11 13:48:05.000   78.251307896   16.154891816   565.5126   2  10   0.0371   0.0439   0.0646   0.0155  -0.0236   0.0009   0.00    1.0
2018/03/11 13:48:06.000   78.251307890   16.154892019   565.5163   2  10   0.0369   0.0438   0.0643   0.0154  -0.0235  -0.0010   0.00    1.0
2018/03/11 13:48:07.000   78.251307891   16.154892249   565.5176   2  10   0.0368   0.0436   0.0640   0.0154  -0.0234  -0.0017   0.00    1.0
2018/03/11 13:48:08.000   78.251307921   16.154892251   565.5176   2  10   0.0367   0.0435   0.0638   0.0154  -0.0234  -0.0021   0.00    1.0
2018/03/11 13:48:09.000   78.251307967   16.154892199   565.5158   2  10   0.0366   0.0434   0.0635   0.0154  -0.0233  -0.0025   0.00    1.0
2018/03/11 13:48:10.000   78.251307993   16.154892194   565.5140   2  10   0.0365   0.0433   0.0633   0.0153  -0.0232  -0.0028   0.00    1.0
2018/03/11 13:48:11.000   78.251308010   16.154892216   565.5117   2  10   0.0364   0.0432   0.0630   0.0153  -0.0232  -0.0031   0.00    1.0
2018/03/11 13:48:12.000   78.251308017   16.154892159   565.5140   2  10   0.0363   0.0431   0.0628   0.0153  -0.0231  -0.0033   0.00    1.0
2018/03/11 13:48:13.000   78.251308017   16.154892077   565.5155   2  10   0.0362   0.0429   0.0626   0.0152  -0.0230  -0.0035   0.00    1.0
2018/03/11 13:48:14.000   78.251308024   16.154892017   565.5159   2  10   0.0361   0.0428   0.0623   0.0152  -0.0230  -0.0037   0.00    1.0
2018/03/11 13:48:15.000   78.251308027   16.154892043   565.5161   2  10   0.0360   0.0427   0.0621   0.0152  -0.0229  -0.0039   0.00    1.0
2018/03/11 13:48:16.000   78.251307965   16.154892233   565.5139   2  10   0.0359   0.0426   0.0618   0.0152  -0.0228  -0.0041   0.00    1.0
2018/03/11 13:48:17.000   78.251307951   16.154892465   565.5109   2  10   0.0358   0.0425   0.0616   0.0151  -0.0228  -0.0043   0.00    1.0
2018/03/11 13:48:18.000   78.251307978   16.154892422   565.5067   2  10   0.0357   0.0424   0.0614   0.0151  -0.0227  -0.0044   0.00    1.0
2018/03/11 13:48:19.000   78.251308008   16.154892300   565.5000   2  10   0.0356   0.0423   0.0611   0.0151  -0.0227  -0.0046   0.00    1.0
2018/03/11 13:48:20.000   78.251308018   16.154892228   565.4935   2  10   0.0355   0.0422   0.0609   0.0150  -0.0226  -0.0047   0.00    1.0
2018/03/11 13:48:21.000   78.251308023   16.154892228   565.4899   2  10   0.0354   0.0421   0.0607   0.0150  -0.0225  -0.0049   0.00    1.0
2018/03/11 13:48:22.000   78.251308013   16.154892184   565.4885   2  10   0.0353   0.0419   0.0605   0.0150  -0.0225  -0.0050   0.00    1.0
2018/03/11 13:48:23.000   78.251307997   16.154892206   565.4873   2  10   0.0352   0.0418   0.0602   0.0150  -0.0224  -0.0051   0.00    1.0
2018/03/11 13:48:24.000   78.251307978   16.154892168   565.4846   2  10   0.0351   0.0417   0.0600   0.0149  -0.0223  -0.0052   0.00    1.0
2018/03/11 13:48:25.000   78.251307967   16.154891924   565.4874   2  10   0.0350   0.0416   0.0598   0.0149  -0.0223  -0.0053   0.00    1.0
2018/03/11 13:48:26.000   78.251307951   16.154892001   565.4884   2  10   0.0349   0.0415   0.0596   0.0149  -0.0222  -0.0054   0.00    1.0
2018/03/11 13:48:27.000   78.251307973   16.154892150   565.4891   2  10   0.0348   0.0414   0.0593   0.0148  -0.0222  -0.0055   0.00    1.0
2018/03/11 13:48:28.000   78.251308042   16.154892023   565.4894   2  10   0.0347   0.0413   0.0591   0.0148  -0.0221  -0.0056   0.00    1.0
2018/03/11 13:48:29.000   78.251308106   16.154891979   565.4942   2  10   0.0346   0.0412   0.0589   0.0148  -0.0220  -0.0057   0.00    1.0
2018/03/11 13:48:30.000   78.251308115   16.154892115   565.5004   2  10   0.0346   0.0411   0.0587   0.0148  -0.0220  -0.0058   0.00    1.0
2018/03/11 13:48:31.000   78.251308102   16.154892228   565.5082   2  10   0.0345   0.0410   0.0585   0.0147  -0.0219  -0.0059   0.00    1.0
2018/03/11 13:48:32.000   78.251308090   16.154892181   565.5194   2  10   0.0344   0.0409   0.0583   0.0147  -0.0219  -0.0060   0.00    1.0
2018/03/11 13:48:33.000   78.251308118   16.154892161   565.5256   2  10   0.0343   0.0408   0.0581   0.0147  -0.0218  -0.0061   0.00    1.1
2018/03/11 13:48:34.000   78.251308137   16.154892195   565.5300   2  10   0.0342   0.0407   0.0579   0.0146  -0.0218  -0.0062   0.00    1.1
2018/03/11 13:48:35.000   78.251308168   16.154892284   565.5347   2  10   0.0341   0.0406   0.0576   0.0146  -0.0217  -0.0062   0.00    1.1
2018/03/11 13:48:36.000   78.251308157   16.154892334   565.5413   2  10   0.0340   0.0405   0.0574   0.0146  -0.0216  -0.0063   0.00    1.1
2018/03/11 13:48:37.000   78.251308154   16.154892331   565.5487   2  10   0.0339   0.0404   0.0572   0.0146  -0.0216  -0.0064   0.00    1.1
2018/03/11 13:48:38.000   78.251308183   16.154892410   565.5517   2  10   0.0338   0.0403   0.0570   0.0145  -0.0215  -0.0064   0.00    1.1
2018/03/11 13:48:39.000   78.251308206   16.154892437   565.5506   2  10   0.0337   0.0402   0.0568   0.0145  -0.0215  -0.0065   0.00    1.1
2018/03/11 13:48:40.000   78.251308229   16.154892467   565.5508   2  10   0.0337   0.0401   0.0566   0.0145  -0.0214  -0.0066   0.00    1.1
2018/03/11 13:48:41.000   78.251308249   16.154892396   565.5486   2  10   0.0336   0.0400   0.0564   0.0145  -0.0214  -0.0066   0.00    1.1
2018/03/11 13:48:42.000   78.251308248   16.154892252   565.5464   2  10   0.0335   0.0399   0.0562   0.0144  -0.0213  -0.0067   0.00    1.1
2018/03/11 13:48:43.000   78.251308226   16.154892195   565.5461   2  10   0.0334   0.0398   0.0561   0.0144  -0.0213  -0.0068   0.00    1.1
2018/03/11 13:48:44.000   78.251308236   16.154892281   565.5450   2  10   0.0333   0.0397   0.0559   0.0144  -0.0212  -0.0068   0.00    1.1
2018/03/11 13:48:45.000   78.251308224   16.154892224   565.5460   2  10   0.0332   0.0396   0.0557   0.0143  -0.0211  -0.0069   0.00    1.1
2018/03/11 13:48:46.000   78.251308195   16.154892250   565.5443   2  10   0.0331   0.0395   0.0555   0.0143  -0.0211  -0.0069   0.00    1.1
2018/03/11 13:48:47.000   78.251308185   16.154892293   565.5414   2  10   0.0331   0.0394   0.0553   0.0143  -0.0210  -0.0070   0.00    1.1
2018/03/11 13:48:48.000   78.251308213   16.154892251   565.5366   2  10   0.0330   0.0393   0.0551   0.0143  -0.0210  -0.0070   0.00    1.1
2018/03/11 13:48:49.000   78.251308241   16.154892153   565.5331   2  10   0.0329   0.0392   0.0549   0.0142  -0.0209  -0.0071   0.00    1.1
2018/03/11 13:48:50.000   78.251308237   16.154892215   565.5328   2  10   0.0328   0.0391   0.0547   0.0142  -0.0209  -0.0071   0.00    1.1
2018/03/11 13:48:51.000   78.251308237   16.154892210   565.5344   2  10   0.0327   0.0390   0.0545   0.0142  -0.0208  -0.0072   0.00    1.1
2018/03/11 13:48:52.000   78.251308245   16.154892226   565.5356   2  10   0.0326   0.0389   0.0544   0.0142  -0.0208  -0.0072   0.00    1.1
2018/03/11 13:48:53.000   78.251308261   16.154892246   565.5398   2  10   0.0326   0.0389   0.0542   0.0141  -0.0207  -0.0072   0.00    1.1
2018/03/11 13:48:54.000   78.251308273   16.154892269   565.5450   2  10   0.0325   0.0388   0.0540   0.0141  -0.0207  -0.0073   0.00    1.2
2018/03/11 13:48:55.000   78.251308272   16.154892181   565.5502   2  10   0.0324   0.0387   0.0538   0.0141  -0.0206  -0.0073   0.00    1.2
2018/03/11 13:48:56.000   78.251308267   16.154892267   565.5530   2  10   0.0323   0.0386   0.0536   0.0140  -0.0206  -0.0074   0.00    1.2
2018/03/11 13:48:57.000   78.251308269   16.154892403   565.5543   2  10   0.0322   0.0385   0.0535   0.0140  -0.0205  -0.0074   0.00    1.2
2018/03/11 13:48:58.000   78.251308291   16.154892578   565.5555   2  10   0.0322   0.0384   0.0533   0.0140  -0.0205  -0.0074   0.00    1.2
2018/03/11 13:48:59.000   78.251308308   16.154892590   565.5599   2  10   0.0321   0.0383   0.0531   0.0140  -0.0204  -0.0075   0.00    1.2
2018/03/11 13:49:00.000   78.251308311   16.154892482   565.5640   2  10   0.0320   0.0382   0.0529   0.0139  -0.0204  -0.0075   0.00    1.2
2018/03/11 13:49:01.000   78.251308317   16.154892369   565.5667   2  10   0.0319   0.0381   0.0528   0.0139  -0.0203  -0.0075   0.00    1.2
2018/03/11 13:49:02.000   78.251308348   16.154892356   565.5673   2  10   0.0319   0.0380   0.0526   0.0139  -0.0203  -0.0076   0.00    1.2
2018/03/11 13:49:03.000   78.251308378   16.154892378   565.5722   2  10   0.0318   0.0380   0.0524   0.0139  -0.0202  -0.0076   0.00    1.2
2018/03/11 13:49:04.000   78.251308375   16.154892313   565.5776   2  10   0.0317   0.0379   0.0523   0.0138  -0.0202  -0.0076   0.00    1.2
2018/03/11 13:49:05.000   78.251308348   16.154892251   565.5824   2  10   0.0316   0.0378   0.0521   0.0138  -0.0201  -0.0077   0.00    1.2
2018/03/11 13:49:06.000   78.251308338   16.154892342   565.5830   2  10   0.0315   0.0377   0.0519   0.0138  -0.0201  -0.0077   0.00    1.2
2018/03/11 13:49:07.000   78.251308369   16.154892435   565.5837   2  10   0.0315   0.0376   0.0518   0.0138  -0.0200  -0.0077   0.00    1.2
2018/03/11 13:49:08.000   78.251308409   16.154892440   565.5856   2  10   0.0314   0.0375   0.0516   0.0137  -0.0200  -0.0077   0.00    1.2
2018/03/11 13:49:09.000   78.251308421   16.154892423   565.5863   2  10   0.0313   0.0374   0.0514   0.0137  -0.0200  -0.0078   0.00    1.2
2018/03/11 13:49:10.000   78.251308419   16.154892305   565.5862   2  10   0.0313   0.0374   0.0513   0.0137  -0.0199  -0.0078   0.00    1.2
2018/03/11 13:49:11.000   78.251308420   16.154892310   565.5850   2  10   0.0312   0.0373   0.0511   0.0137  -0.0199  -0.0078   0.00    1.2
2018/03/11 13:49:12.000   78.251308424   16.154892376   565.5865   2  10   0.0311   0.0372   0.0509   0.0136  -0.0198  -0.0078   0.00    1.2
2018/03/11 13:49:13.000   78.251308419   16.154892350   565.5894   2  10   0.0310   0.0371   0.0508   0.0136  -0.0198  -0.0079   0.00    1.3
2018/03/11 13:49:14.000   78.251308418   16.154892333   565.5922   2  10   0.0310   0.0370   0.0506   0.0136  -0.0197  -0.0079   0.00    1.3
2018/03/11 13:49:15.000   78.251308409   16.154892217   565.5967   2  10   0.0309   0.0369   0.0505   0.0135  -0.0197  -0.0079   0.00    1.3
2018/03/11 13:49:16.000   78.251308407   16.154892229   565.5969   2  10   0.0308   0.0369   0.0503   0.0135  -0.0196  -0.0079   0.00    1.3
2018/03/11 13:49:17.000   78.251308424   16.154892310   565.5965   2  10   0.0307   0.0368   0.0502   0.0135  -0.0196  -0.0079   0.00    1.3
2018/03/11 13:49:18.000   78.251308442   16.154892274   565.5970   2  10   0.0307   0.0367   0.0500   0.0135  -0.0195  -0.0080   0.00    1.3
2018/03/11 13:49:19.000   78.251308441   16.154892250   565.5975   2  10   0.0306   0.0366   0.0498   0.0134  -0.0195  -0.0080   0.00    1.3
2018/03/11 13:49:20.000   78.251308432   16.154892248   565.5978   2  10   0.0305   0.0365   0.0497   0.0134  -0.0195  -0.0080   0.00    1.3
2018/03/11 13:49:21.000   78.251308438   16.154892191   565.5966   2  10   0.0305   0.0365   0.0495   0.0134  -0.0194  -0.0080   0.00    1.3
2018/03/11 13:49:22.000   78.251308447   16.154892229   565.5968   2  10   0.0304   0.0364   0.0494   0.0134  -0.0194  -0.0080   0.00    1.3
2018/03/11 13:49:23.000   78.251308460   16.154892285   565.5970   2  10   0.0303   0.0363   0.0492   0.0133  -0.0193  -0.0081   0.00    1.3
2018/03/11 13:49:24.000   78.251308462   16.154892320   565.5981   2  10   0.0303   0.0362   0.0491   0.0133  -0.0193  -0.0081   0.00    1.3
2018/03/11 13:49:25.000   78.251308480   16.154892316   565.5989   2  10   0.0302   0.0362   0.0489   0.0133  -0.0192  -0.0081   0.00    1.3
2018/03/11 13:49:26.000   78.251308487   16.154892286   565.6007   2  10   0.0301   0.0361   0.0488   0.0133  -0.0192  -0.0081   0.00    1.3
2018/03/11 13:49:27.000   78.251308508   16.154892323   565.6004   2  10   0.0300   0.0360   0.0487   0.0132  -0.0192  -0.0081   0.00    1.3
2018/03/11 13:49:28.000   78.251308515   16.154892348   565.6032   2  10   0.0300   0.0359   0.0485   0.0132  -0.0191  -0.0081   0.00    1.3
2018/03/11 13:49:29.000   78.251308513   16.154892368   565.6051   2  10   0.0299   0.0358   0.0484   0.0132  -0.0191  -0.0081   0.00    1.3
2018/03/11 13:49:30.000   78.251308521   16.154892401   565.6045   2  10   0.0298   0.0358   0.0482   0.0132  -0.0190  -0.0081   0.00    1.3
2018/03/11 13:49:31.000   78.251308518   16.154892420   565.6046   2  10   0.0298   0.0357   0.0481   0.0131  -0.0190  -0.0082   0.00    1.3
2018/03/11 13:49:32.000   78.251308515   16.154892518   565.6024   2  10   0.0297   0.0356   0.0479   0.0131  -0.0189  -0.0082   0.00    1.3
2018/03/11 13:49:33.000   78.251308502   16.154892629   565.6008   2  10   0.0296   0.0355   0.0478   0.0131  -0.0189  -0.0082   0.00    1.3
2018/03/11 13:49:34.000   78.251308522   16.154892621   565.5976   2  10   0.0296   0.0355   0.0477   0.0131  -0.0189  -0.0082   0.00    1.3
2018/03/11 13:49:35.000   78.251308548   16.154892571   565.5947   2  10   0.0295   0.0354   0.0475   0.0130  -0.0188  -0.0082   0.00    1.2
2018/03/11 13:49:36.000   78.251308570   16.154892622   565.5907   2  10   0.0295   0.0353   0.0474   0.0130  -0.0188  -0.0082   0.00    1.2
2018/03/11 13:49:37.000   78.251308573   16.154892714   565.5892   2  10   0.0294   0.0352   0.0472   0.0130  -0.0187  -0.0082   0.00    1.2
2018/03/11 13:49:38.000   78.251308569   16.154892727   565.5881   2  10   0.0293   0.0352   0.0471   0.0130  -0.0187  -0.0082   0.00    1.2
2018/03/11 13:49:39.000   78.251308569   16.154892718   565.5860   2  10   0.0293   0.0351   0.0470   0.0129  -0.0187  -0.0082   0.00    1.2
2018/03/11 13:49:40.000   78.251308571   16.154892781   565.5844   2  10   0.0292   0.0350   0.0468   0.0129  -0.0186  -0.0082   0.00    1.2
2018/03/11 13:49:41.000   78.251308557   16.154892737   565.5827   2  10   0.0291   0.0350   0.0467   0.0129  -0.0186  -0.0083   0.00    1.2
2018/03/11 13:49:42.000   78.251308548   16.154892719   565.5806   2  10   0.0291   0.0349   0.0466   0.0129  -0.0185  -0.0083   0.00    1.2
2018/03/11 13:49:43.000   78.251308541   16.154892706   565.5785   2  10   0.0290   0.0348   0.0464   0.0129  -0.0185  -0.0083   0.00    1.2
2018/03/11 13:49:44.000   78.251308570   16.154892672   565.5761   2  10   0.0289   0.0347   0.0463   0.0128  -0.0185  -0.0083   0.00    1.2
2018/03/11 13:49:45.000   78.251308606   16.154892629   565.5758   2  10   0.0289   0.0347   0.0462   0.0128  -0.0184  -0.0083   0.00    1.2
2018/03/11 13:49:46.000   78.251308619   16.154892652   565.5767   2  10   0.0288   0.0346   0.0460   0.0128  -0.0184  -0.0083   0.00    1.2
2018/03/11 13:49:47.000   78.251308626   16.154892717   565.5795   2  10   0.0288   0.0345   0.0459   0.0128  -0.0183  -0.0083   0.00    1.2
2018/03/11 13:49:48.000   78.251308639   16.154892678   565.5837   2  10   0.0287   0.0345   0.0458   0.0127  -0.0183  -0.0083   0.00    1.2
2018/03/11 13:49:49.000   78.251308656   16.154892551   565.5892   2  10   0.0286   0.0344   0.0457   0.0127  -0.0183  -0.0083   0.00    1.2
2018/03/11 13:49:50.000   78.251308661   16.154892528   565.5934   2  10   0.0286   0.0343   0.0455   0.0127  -0.0182  -0.0083   0.00    1.2
2018/03/11 13:49:51.000   78.251308664   16.154892643   565.5969   2  10   0.0285   0.0342   0.0454   0.0127  -0.0182  -0.0083   0.00    1.2
2018/03/11 13:49:52.000   78.251308667   16.154892682   565.6017   2  10   0.0285   0.0342   0.0453   0.0126  -0.0182  -0.0083   0.00    1.2
2018/03/11 13:49:53.000   78.251308671   16.154892704   565.6038   2  10   0.0284   0.0341   0.0451   0.0126  -0.0181  -0.0083   0.00    1.2
2018/03/11 13:49:54.000   78.251308688   16.154892665   565.6063   2  10   0.0283   0.0340   0.0450   0.0126  -0.0181  -0.0083   0.00    1.2
2018/03/11 13:49:55.000   78.251308707   16.154892676   565.6061   2  10   0.0283   0.0340   0.0449   0.0126  -0.0180  -0.0083   0.00    1.2
2018/03/11 13:49:56.000   78.251308719   16.154892738   565.6065   2  10   0.0282   0.0339   0.0448   0.0125  -0.0180  -0.0083   0.00    1.2
2018/03/11 13:49:57.000   78.251308723   16.154892802   565.6067   2  10   0.0282   0.0338   0.0447   0.0125  -0.0180  -0.0083   0.00    1.2
2018/03/11 13:49:58.000   78.251308721   16.154892830   565.6063   2  10   0.0281   0.0338   0.0445   0.0125  -0.0179  -0.0083   0.00    1.2
2018/03/11 13:49:59.000   78.251308727   16.154892821   565.6056   2  10   0.0281   0.0337   0.0444   0.0125  -0.0179  -0.0083   0.00    1.2
2018/03/11 13:50:00.000   78.251308717   16.154892876   565.6031   2  10   0.0280   0.0336   0.0443   0.0125  -0.0179  -0.0083   0.00    1.2
2018/03/11 13:50:01.000   78.251308694   16.154892959   565.6003   2  10   0.0279   0.0336   0.0442   0.0124  -0.0178  -0.0083   0.00    1.2
2018/03/11 13:50:02.000   78.251308673   16.154893078   565.5966   2  10   0.0279   0.0335   0.0441   0.0124  -0.0178  -0.0083   0.00    1.2
2018/03/11 13:50:03.000   78.251308668   16.154893074   565.5918   2  10   0.0278   0.0334   0.0439   0.0124  -0.0178  -0.0083   0.00    1.2
2018/03/11 13:50:04.000   78.251308684   16.154893020   565.5870   2  10   0.0278   0.0334   0.0438   0.0124  -0.0177  -0.0083   0.00    1.2
2018/03/11 13:50:05.000   78.251308690   16.154892984   565.5825   2  10   0.0277   0.0333   0.0437   0.0123  -0.0177  -0.0083   0.00    1.2
2018/03/11 13:50:06.000   78.251308679   16.154892972   565.5795   2  10   0.0277   0.0333   0.0436   0.0123  -0.0176  -0.0083   0.00    1.2
