% program   : RTKPOST ver.2.4.2
% inp file  : Z:\home\linda\Documents\Spring18\GitHub_Unis\data\processed_data\46250701.obs
% inp file  : Z:\home\linda\Documents\Spring18\GitHub_Unis\data\base_station_data\lyrs0700.18o
% inp file  : Z:\home\linda\Documents\Spring18\GitHub_Unis\data\processed_data\46250701.nav
% obs start : 2018/03/11 10:48:49.0 GPST (week1992  38929.0s)
% obs end   : 2018/03/11 11:09:39.0 GPST (week1992  40179.0s)
% pos mode  : static
% freqs     : L1+L2
% solution  : forward
% elev mask : 15.0 deg
% dynamics  : on
% tidecorr  : off
% ionos opt : broadcast
% tropo opt : saastamoinen
% ephemeris : broadcast
% navi sys  : gps glonass galileo qzss sbas
% amb res   : fix and hold
% amb glo   : on
% val thres : 3.0
% antenna1  :                       ( 0.0000  0.0000  0.0000)
% antenna2  :                       ( 0.0000  0.0000  0.0000)
% ref pos   : 78.228825638   15.397310064   495.6816
%
% (lat/lon/height=WGS84/ellipsoidal,Q=1:fix,2:float,3:sbas,4:dgps,5:single,6:ppp,ns=# of satellites)
%  GPST                  latitude(deg) longitude(deg)  height(m)   Q  ns   sdn(m)   sde(m)   sdu(m)  sdne(m)  sdeu(m)  sdun(m) age(s)  ratio
2018/03/11 10:48:49.000   78.254769759   16.249362810   344.1880   1   9   0.0062   0.0035   0.0178  -0.0007   0.0022   0.0086   0.00    3.4
2018/03/11 10:48:50.000   78.254769203   16.249372254   344.4633   2   9   0.4383   0.2463   1.2468  -0.0515   0.1545   0.6008   0.00    2.6
2018/03/11 10:48:51.000   78.254769797   16.249371292   344.4328   2   9   0.3585   0.2015   1.0200  -0.0424   0.1264   0.4914   0.00    2.5
2018/03/11 10:48:52.000   78.254771012   16.249373485   344.6319   2   9   0.3106   0.1747   0.8836  -0.0369   0.1095   0.4256   0.00    2.4
2018/03/11 10:48:53.000   78.254771636   16.249372357   344.9276   2   9   0.2778   0.1563   0.7899  -0.0332   0.0979   0.3804   0.00    2.3
2018/03/11 10:48:54.000   78.254772392   16.249372187   345.1597   2   9   0.2534   0.1427   0.7204  -0.0304   0.0893   0.3468   0.00    2.2
2018/03/11 10:48:55.000   78.254772739   16.249371225   345.1363   2   9   0.2344   0.1322   0.6660  -0.0283   0.0825   0.3205   0.00    2.2
2018/03/11 10:48:56.000   78.254773053   16.249370554   345.0651   2   9   0.2191   0.1237   0.6219  -0.0265   0.0771   0.2992   0.00    2.1
2018/03/11 10:48:57.000   78.254773167   16.249369724   344.9228   2   9   0.2063   0.1166   0.5851  -0.0251   0.0725   0.2814   0.00    1.9
2018/03/11 10:48:58.000   78.254773219   16.249369960   344.7822   2   9   0.1954   0.1106   0.5537  -0.0239   0.0686   0.2662   0.00    1.8
2018/03/11 10:48:59.000   78.254773167   16.249369351   344.7074   2   9   0.1860   0.1055   0.5265  -0.0229   0.0653   0.2530   0.00    1.6
2018/03/11 10:49:00.000   78.254772832   16.249368680   344.6673   2   9   0.1777   0.1010   0.5026  -0.0220   0.0623   0.2414   0.00    1.5
2018/03/11 10:49:01.000   78.254772482   16.249368973   344.6094   2   9   0.1704   0.0970   0.4813  -0.0212   0.0597   0.2310   0.00    1.4
2018/03/11 10:49:02.000   78.254772332   16.249368596   344.5911   2   9   0.1638   0.0935   0.4622  -0.0205   0.0574   0.2217   0.00    1.3
2018/03/11 10:49:03.000   78.254772071   16.249369290   344.5754   2   9   0.1579   0.0903   0.4449  -0.0198   0.0552   0.2132   0.00    1.3
2018/03/11 10:49:04.000   78.254771939   16.249368736   344.5862   2   9   0.1525   0.0874   0.4290  -0.0193   0.0533   0.2055   0.00    1.2
2018/03/11 10:49:05.000   78.254771786   16.249368839   344.4963   2   9   0.1476   0.0848   0.4145  -0.0188   0.0515   0.1984   0.00    1.2
2018/03/11 10:49:06.000   78.254771795   16.249368823   344.4990   2   9   0.1430   0.0824   0.4010  -0.0183   0.0499   0.1918   0.00    1.1
2018/03/11 10:49:07.000   78.254771840   16.249368842   344.4863   2   9   0.1388   0.0802   0.3886  -0.0179   0.0483   0.1856   0.00    1.1
2018/03/11 10:49:08.000   78.254771854   16.249368083   344.4731   2   9   0.1349   0.0782   0.3769  -0.0175   0.0469   0.1799   0.00    1.1
2018/03/11 10:49:09.000   78.254771790   16.249367958   344.4819   2   9   0.1312   0.0763   0.3660  -0.0171   0.0456   0.1745   0.00    1.1
2018/03/11 10:49:10.000   78.254771939   16.249368010   344.5405   2   9   0.1278   0.0745   0.3557  -0.0167   0.0443   0.1695   0.00    1.1
2018/03/11 10:49:11.000   78.254771933   16.249368060   344.5863   2   9   0.1245   0.0728   0.3460  -0.0164   0.0432   0.1647   0.00    1.1
2018/03/11 10:49:12.000   78.254772088   16.249368336   344.6059   2   9   0.1215   0.0713   0.3368  -0.0161   0.0421   0.1601   0.00    1.1
2018/03/11 10:49:13.000   78.254772223   16.249368535   344.6495   2   9   0.1186   0.0698   0.3282  -0.0158   0.0410   0.1558   0.00    1.1
2018/03/11 10:49:14.000   78.254772221   16.249368429   344.6404   2   9   0.1159   0.0685   0.3199  -0.0156   0.0400   0.1517   0.00    1.1
2018/03/11 10:49:15.000   78.254772328   16.249368271   344.6305   2   9   0.1133   0.0672   0.3120  -0.0153   0.0391   0.1478   0.00    1.1
2018/03/11 10:49:16.000   78.254772295   16.249368376   344.5977   2   9   0.1108   0.0659   0.3045  -0.0150   0.0382   0.1441   0.00    1.1
2018/03/11 10:49:17.000   78.254772231   16.249368158   344.5263   2   9   0.1085   0.0648   0.2973  -0.0148   0.0373   0.1405   0.00    1.1
2018/03/11 10:49:18.000   78.254772320   16.249368080   344.5517   2   9   0.1062   0.0637   0.2904  -0.0146   0.0365   0.1370   0.00    1.1
2018/03/11 10:49:19.000   78.254772212   16.249367739   344.5119   2   9   0.1041   0.0626   0.2838  -0.0144   0.0357   0.1337   0.00    1.1
2018/03/11 10:49:20.000   78.254772148   16.249367654   344.4992   2   9   0.1020   0.0616   0.2775  -0.0142   0.0349   0.1306   0.00    1.1
2018/03/11 10:49:21.000   78.254771883   16.249367537   344.4306   2   9   0.1000   0.0606   0.2714  -0.0140   0.0342   0.1275   0.00    1.1
2018/03/11 10:49:22.000   78.254771734   16.249367423   344.3873   2   9   0.0981   0.0597   0.2655  -0.0138   0.0335   0.1245   0.00    1.1
2018/03/11 10:49:23.000   78.254771538   16.249367529   344.3814   2   9   0.0963   0.0588   0.2599  -0.0136   0.0328   0.1217   0.00    1.1
2018/03/11 10:49:24.000   78.254771355   16.249366988   344.3485   2   9   0.0946   0.0580   0.2544  -0.0134   0.0321   0.1190   0.00    1.1
2018/03/11 10:49:25.000   78.254771356   16.249366540   344.3620   2   9   0.0929   0.0572   0.2492  -0.0132   0.0315   0.1163   0.00    1.1
2018/03/11 10:49:26.000   78.254771276   16.249366145   344.3199   2   9   0.0912   0.0564   0.2441  -0.0130   0.0309   0.1137   0.00    1.1
2018/03/11 10:49:27.000   78.254771253   16.249366046   344.3129   2   9   0.0897   0.0557   0.2392  -0.0129   0.0303   0.1112   0.00    1.1
2018/03/11 10:49:28.000   78.254771098   16.249366092   344.2355   2   9   0.0881   0.0549   0.2344  -0.0127   0.0297   0.1088   0.00    1.1
2018/03/11 10:49:29.000   78.254771108   16.249366226   344.2136   2   9   0.0867   0.0542   0.2298  -0.0125   0.0292   0.1065   0.00    1.1
2018/03/11 10:49:30.000   78.254771029   16.249366137   344.1705   2   9   0.0852   0.0536   0.2253  -0.0124   0.0287   0.1042   0.00    1.1
2018/03/11 10:49:31.000   78.254770973   16.249366209   344.1475   2   9   0.0839   0.0529   0.2210  -0.0122   0.0281   0.1020   0.00    1.1
2018/03/11 10:49:32.000   78.254770898   16.249366161   344.1089   2   9   0.0825   0.0523   0.2168  -0.0120   0.0276   0.0999   0.00    1.1
2018/03/11 10:49:33.000   78.254770773   16.249365985   344.0649   2   9   0.0812   0.0517   0.2127  -0.0119   0.0272   0.0978   0.00    1.1
2018/03/11 10:49:34.000   78.254770719   16.249366066   344.0308   2   9   0.0800   0.0511   0.2088  -0.0117   0.0267   0.0958   0.00    1.2
2018/03/11 10:49:35.000   78.254770722   16.249365949   344.0038   2   9   0.0788   0.0505   0.2049  -0.0116   0.0262   0.0938   0.00    1.1
2018/03/11 10:49:36.000   78.254770731   16.249365856   343.9885   2   9   0.0776   0.0500   0.2012  -0.0114   0.0258   0.0919   0.00    1.1
2018/03/11 10:49:37.000   78.254770705   16.249365849   343.9699   2   9   0.0764   0.0494   0.1976  -0.0113   0.0253   0.0901   0.00    1.1
2018/03/11 10:49:38.000   78.254770657   16.249365690   343.9230   2   9   0.0753   0.0489   0.1941  -0.0111   0.0249   0.0883   0.00    1.1
2018/03/11 10:49:39.000   78.254770603   16.249365649   343.8870   2   9   0.0742   0.0484   0.1906  -0.0110   0.0245   0.0865   0.00    1.1
2018/03/11 10:49:40.000   78.254770593   16.249365584   343.8848   2   9   0.0732   0.0479   0.1873  -0.0108   0.0241   0.0848   0.00    1.1
2018/03/11 10:49:41.000   78.254770606   16.249365303   343.8992   2   9   0.0722   0.0474   0.1840  -0.0107   0.0237   0.0831   0.00    1.1
2018/03/11 10:49:42.000   78.254770685   16.249365169   343.9184   2   9   0.0712   0.0469   0.1809  -0.0105   0.0233   0.0815   0.00    1.1
2018/03/11 10:49:43.000   78.254770653   16.249364984   343.9153   2   9   0.0702   0.0465   0.1778  -0.0104   0.0229   0.0799   0.00    1.1
2018/03/11 10:49:44.000   78.254770594   16.249364728   343.9104   2   9   0.0692   0.0460   0.1748  -0.0102   0.0226   0.0784   0.00    1.1
2018/03/11 10:49:45.000   78.254770613   16.249364464   343.9153   2   9   0.0683   0.0456   0.1719  -0.0101   0.0222   0.0769   0.00    1.1
2018/03/11 10:49:46.000   78.254770571   16.249364392   343.9005   2   9   0.0674   0.0452   0.1691  -0.0099   0.0219   0.0754   0.00    1.1
2018/03/11 10:49:47.000   78.254770549   16.249364485   343.8795   2   9   0.0665   0.0448   0.1663  -0.0098   0.0215   0.0740   0.00    1.1
2018/03/11 10:49:48.000   78.254770497   16.249364340   343.8530   2   9   0.0657   0.0444   0.1636  -0.0097   0.0212   0.0726   0.00    1.1
2018/03/11 10:49:49.000   78.254770477   16.249364367   343.8468   2   9   0.0649   0.0440   0.1609  -0.0095   0.0209   0.0712   0.00    1.1
2018/03/11 10:49:50.000   78.254770514   16.249364260   343.8557   2   9   0.0640   0.0436   0.1584  -0.0094   0.0205   0.0699   0.00    1.1
2018/03/11 10:49:51.000   78.254770488   16.249364251   343.8565   2   9   0.0632   0.0432   0.1559  -0.0092   0.0202   0.0686   0.00    1.1
2018/03/11 10:49:52.000   78.254770497   16.249364322   343.8545   2   9   0.0625   0.0429   0.1534  -0.0091   0.0199   0.0673   0.00    1.1
2018/03/11 10:49:53.000   78.254770472   16.249364460   343.8485   2   9   0.0617   0.0425   0.1510  -0.0089   0.0196   0.0661   0.00    1.1
2018/03/11 10:49:54.000   78.254770395   16.249364585   343.8205   2   9   0.0610   0.0421   0.1487  -0.0088   0.0193   0.0649   0.00    1.1
2018/03/11 10:54:13.000   78.254770782   16.249364034   343.9825   2   8   0.0462   0.0393   0.0952   0.0092   0.0128   0.0300   0.00    1.0
2018/03/11 10:54:14.000   78.254770925   16.249363627   344.0331   2   8   0.0402   0.0373   0.0768   0.0126   0.0079   0.0172   0.00    1.1
2018/03/11 10:54:15.000   78.254770919   16.249363190   344.0467   2   8   0.0365   0.0357   0.0666   0.0140   0.0024   0.0092   0.00    1.1
2018/03/11 10:54:16.000   78.254770967   16.249362511   344.0687   2   8   0.0338   0.0343   0.0599   0.0146  -0.0053  -0.0035   0.00    1.2
2018/03/11 10:54:17.000   78.254770956   16.249362047   344.0837   2   8   0.0318   0.0332   0.0551   0.0149  -0.0071  -0.0078   0.00    1.2
2018/03/11 10:54:18.000   78.254770925   16.249361698   344.1031   2   8   0.0302   0.0321   0.0513   0.0150  -0.0080  -0.0094   0.00    1.3
2018/03/11 10:54:19.000   78.254770883   16.249361161   344.1000   2   8   0.0288   0.0312   0.0484   0.0151  -0.0086  -0.0102   0.00    1.3
2018/03/11 10:54:20.000   78.254770865   16.249360874   344.0928   2   8   0.0277   0.0304   0.0459   0.0150  -0.0089  -0.0106   0.00    1.4
2018/03/11 10:54:21.000   78.254770832   16.249360367   344.1011   2   8   0.0267   0.0297   0.0439   0.0149  -0.0092  -0.0108   0.00    1.4
2018/03/11 10:54:22.000   78.254770788   16.249360016   344.1069   2   8   0.0258   0.0290   0.0421   0.0148  -0.0093  -0.0109   0.00    1.4
2018/03/11 10:54:23.000   78.254770783   16.249359825   344.1138   2   8   0.0251   0.0284   0.0406   0.0147  -0.0094  -0.0109   0.00    1.5
2018/03/11 10:54:24.000   78.254770751   16.249359635   344.1161   2   8   0.0244   0.0279   0.0392   0.0145  -0.0095  -0.0109   0.00    1.5
2018/03/11 10:54:25.000   78.254770758   16.249359316   344.1218   2   8   0.0238   0.0273   0.0380   0.0144  -0.0095  -0.0109   0.00    1.5
2018/03/11 10:54:26.000   78.254770734   16.249359050   344.1265   2   8   0.0232   0.0269   0.0370   0.0142  -0.0095  -0.0108   0.00    1.6
2018/03/11 10:54:27.000   78.254770736   16.249358742   344.1327   2   8   0.0227   0.0264   0.0360   0.0141  -0.0095  -0.0107   0.00    1.6
2018/03/11 10:54:28.000   78.254770732   16.249358560   344.1419   2   8   0.0223   0.0260   0.0351   0.0139  -0.0094  -0.0107   0.00    1.6
2018/03/11 10:54:29.000   78.254770730   16.249358350   344.1459   2   8   0.0218   0.0256   0.0343   0.0138  -0.0094  -0.0106   0.00    1.6
2018/03/11 10:54:30.000   78.254770699   16.249358048   344.1491   2   8   0.0214   0.0252   0.0336   0.0137  -0.0094  -0.0105   0.00    1.7
2018/03/11 10:54:31.000   78.254770693   16.249357871   344.1514   2   8   0.0211   0.0249   0.0329   0.0135  -0.0093  -0.0104   0.00    1.7
2018/03/11 10:54:32.000   78.254770688   16.249357699   344.1516   2   8   0.0207   0.0245   0.0323   0.0134  -0.0093  -0.0103   0.00    1.7
2018/03/11 10:54:33.000   78.254770687   16.249357487   344.1535   2   8   0.0204   0.0242   0.0317   0.0133  -0.0092  -0.0102   0.00    1.7
2018/03/11 10:54:34.000   78.254770681   16.249357401   344.1601   2   8   0.0201   0.0239   0.0312   0.0131  -0.0092  -0.0101   0.00    1.8
2018/03/11 10:54:35.000   78.254770678   16.249357302   344.1641   2   8   0.0198   0.0236   0.0307   0.0130  -0.0091  -0.0100   0.00    1.8
2018/03/11 10:54:36.000   78.254770665   16.249357218   344.1657   2   8   0.0195   0.0234   0.0302   0.0129  -0.0091  -0.0099   0.00    1.8
2018/03/11 10:54:37.000   78.254770635   16.249357034   344.1671   2   8   0.0193   0.0231   0.0297   0.0128  -0.0090  -0.0099   0.00    1.8
2018/03/11 10:54:38.000   78.254770634   16.249356858   344.1681   2   8   0.0190   0.0229   0.0293   0.0127  -0.0090  -0.0098   0.00    1.9
2018/03/11 10:54:39.000   78.254770626   16.249356773   344.1683   2   8   0.0188   0.0226   0.0289   0.0126  -0.0089  -0.0097   0.00    1.9
2018/03/11 10:54:40.000   78.254770609   16.249356684   344.1691   2   8   0.0186   0.0224   0.0285   0.0125  -0.0088  -0.0096   0.00    1.9
2018/03/11 10:54:41.000   78.254770612   16.249356630   344.1726   2   8   0.0184   0.0222   0.0282   0.0124  -0.0088  -0.0095   0.00    1.9
2018/03/11 10:54:42.000   78.254770621   16.249356595   344.1741   2   8   0.0182   0.0220   0.0278   0.0123  -0.0087  -0.0095   0.00    1.9
2018/03/11 10:54:43.000   78.254770609   16.249356512   344.1770   2   8   0.0180   0.0218   0.0275   0.0122  -0.0087  -0.0094   0.00    1.9
2018/03/11 10:54:44.000   78.254770596   16.249356540   344.1766   2   8   0.0178   0.0216   0.0272   0.0121  -0.0086  -0.0093   0.00    1.9
2018/03/11 10:54:45.000   78.254770586   16.249356471   344.1759   2   8   0.0176   0.0214   0.0269   0.0120  -0.0086  -0.0092   0.00    1.8
2018/03/11 10:54:46.000   78.254770587   16.249356485   344.1749   2   8   0.0175   0.0212   0.0266   0.0119  -0.0085  -0.0092   0.00    1.8
2018/03/11 10:54:47.000   78.254770584   16.249356443   344.1722   2   8   0.0173   0.0210   0.0264   0.0118  -0.0085  -0.0091   0.00    1.8
2018/03/11 10:54:48.000   78.254770579   16.249356433   344.1722   2   8   0.0171   0.0209   0.0261   0.0117  -0.0084  -0.0091   0.00    1.8
2018/03/11 10:54:49.000   78.254770566   16.249356335   344.1705   2   8   0.0170   0.0207   0.0258   0.0117  -0.0084  -0.0090   0.00    1.8
2018/03/11 10:54:50.000   78.254770562   16.249356306   344.1679   2   8   0.0169   0.0206   0.0256   0.0116  -0.0083  -0.0089   0.00    1.8
2018/03/11 10:54:51.000   78.254770565   16.249356276   344.1654   2   8   0.0167   0.0204   0.0254   0.0115  -0.0083  -0.0089   0.00    1.8
2018/03/11 10:54:52.000   78.254770554   16.249356217   344.1626   2   8   0.0166   0.0203   0.0252   0.0114  -0.0083  -0.0088   0.00    1.8
2018/03/11 10:54:53.000   78.254770565   16.249356207   344.1601   2   8   0.0165   0.0201   0.0249   0.0114  -0.0082  -0.0088   0.00    1.8
2018/03/11 10:54:54.000   78.254770556   16.249356173   344.1584   2   8   0.0163   0.0200   0.0247   0.0113  -0.0082  -0.0087   0.00    1.8
2018/03/11 10:54:55.000   78.254770550   16.249356195   344.1563   2   8   0.0162   0.0198   0.0245   0.0112  -0.0081  -0.0086   0.00    1.8
2018/03/11 10:54:56.000   78.254770532   16.249356127   344.1554   2   8   0.0161   0.0197   0.0243   0.0111  -0.0081  -0.0086   0.00    1.8
2018/03/11 10:54:57.000   78.254770527   16.249356055   344.1539   2   8   0.0160   0.0196   0.0242   0.0111  -0.0080  -0.0085   0.00    1.7
2018/03/11 10:54:58.000   78.254770527   16.249356059   344.1515   2   8   0.0159   0.0195   0.0240   0.0110  -0.0080  -0.0085   0.00    1.7
2018/03/11 10:54:59.000   78.254770513   16.249356049   344.1499   2   8   0.0158   0.0193   0.0238   0.0110  -0.0080  -0.0084   0.00    1.7
2018/03/11 10:55:00.000   78.254770506   16.249356058   344.1476   2   8   0.0156   0.0192   0.0236   0.0109  -0.0079  -0.0084   0.00    1.7
2018/03/11 10:55:01.000   78.254770492   16.249356020   344.1445   2   8   0.0155   0.0191   0.0235   0.0108  -0.0079  -0.0083   0.00    1.7
2018/03/11 10:55:02.000   78.254770479   16.249356048   344.1430   2   8   0.0154   0.0190   0.0233   0.0108  -0.0078  -0.0083   0.00    1.7
2018/03/11 10:55:03.000   78.254770462   16.249356040   344.1418   2   8   0.0153   0.0189   0.0232   0.0107  -0.0078  -0.0082   0.00    1.7
2018/03/11 10:55:04.000   78.254770456   16.249356065   344.1401   2   8   0.0153   0.0188   0.0230   0.0107  -0.0078  -0.0082   0.00    1.7
2018/03/11 10:55:05.000   78.254770448   16.249356049   344.1387   2   8   0.0152   0.0187   0.0229   0.0106  -0.0077  -0.0082   0.00    1.7
2018/03/11 10:55:06.000   78.254770443   16.249356098   344.1384   2   8   0.0151   0.0186   0.0227   0.0105  -0.0077  -0.0081   0.00    1.7
2018/03/11 10:55:07.000   78.254770440   16.249356175   344.1379   2   8   0.0150   0.0185   0.0226   0.0105  -0.0077  -0.0081   0.00    1.6
2018/03/11 10:55:08.000   78.254770438   16.249356255   344.1377   2   8   0.0149   0.0184   0.0224   0.0104  -0.0076  -0.0080   0.00    1.6
2018/03/11 10:55:09.000   78.254770430   16.249356295   344.1379   2   8   0.0148   0.0183   0.0223   0.0104  -0.0076  -0.0080   0.00    1.6
2018/03/11 10:55:10.000   78.254770428   16.249356323   344.1374   2   8   0.0147   0.0182   0.0222   0.0103  -0.0076  -0.0080   0.00    1.6
2018/03/11 10:55:11.000   78.254770424   16.249356368   344.1365   2   8   0.0147   0.0181   0.0221   0.0103  -0.0075  -0.0079   0.00    1.6
2018/03/11 10:55:12.000   78.254770424   16.249356423   344.1361   2   8   0.0146   0.0180   0.0219   0.0102  -0.0075  -0.0079   0.00    1.6
2018/03/11 10:55:13.000   78.254770422   16.249356519   344.1357   2   8   0.0145   0.0179   0.0218   0.0102  -0.0075  -0.0078   0.00    1.6
2018/03/11 10:55:14.000   78.254770426   16.249356596   344.1360   2   8   0.0144   0.0178   0.0217   0.0101  -0.0074  -0.0078   0.00    1.6
2018/03/11 10:55:15.000   78.254770428   16.249356748   344.1356   2   8   0.0143   0.0177   0.0216   0.0101  -0.0074  -0.0078   0.00    1.6
2018/03/11 10:55:16.000   78.254770431   16.249356836   344.1363   2   8   0.0143   0.0176   0.0215   0.0100  -0.0074  -0.0077   0.00    1.6
2018/03/11 10:55:17.000   78.254770431   16.249356908   344.1373   2   8   0.0142   0.0176   0.0214   0.0100  -0.0073  -0.0077   0.00    1.6
2018/03/11 10:55:18.000   78.254770425   16.249356933   344.1377   2   8   0.0141   0.0175   0.0212   0.0100  -0.0073  -0.0077   0.00    1.6
2018/03/11 10:55:19.000   78.254770421   16.249356946   344.1376   2   8   0.0141   0.0174   0.0211   0.0099  -0.0073  -0.0076   0.00    1.6
2018/03/11 10:55:20.000   78.254770424   16.249357024   344.1382   2   8   0.0140   0.0173   0.0210   0.0099  -0.0073  -0.0076   0.00    1.6
2018/03/11 10:55:21.000   78.254770432   16.249357117   344.1392   2   8   0.0139   0.0173   0.0209   0.0098  -0.0072  -0.0076   0.00    1.6
2018/03/11 10:55:22.000   78.254770434   16.249357199   344.1399   2   8   0.0139   0.0172   0.0208   0.0098  -0.0072  -0.0075   0.00    1.6
2018/03/11 10:55:23.000   78.254770440   16.249357265   344.1409   2   8   0.0138   0.0171   0.0207   0.0097  -0.0072  -0.0075   0.00    1.6
2018/03/11 10:55:24.000   78.254770450   16.249357342   344.1400   2   8   0.0137   0.0170   0.0206   0.0097  -0.0071  -0.0075   0.00    1.6
2018/03/11 10:55:25.000   78.254770446   16.249357390   344.1397   2   8   0.0137   0.0170   0.0205   0.0097  -0.0071  -0.0074   0.00    1.6
2018/03/11 10:55:26.000   78.254770454   16.249357478   344.1388   2   8   0.0136   0.0169   0.0204   0.0096  -0.0071  -0.0074   0.00    1.6
2018/03/11 10:55:27.000   78.254770461   16.249357550   344.1380   2   8   0.0136   0.0168   0.0204   0.0096  -0.0071  -0.0074   0.00    1.5
2018/03/11 10:55:28.000   78.254770455   16.249357594   344.1372   2   8   0.0135   0.0168   0.0203   0.0096  -0.0070  -0.0073   0.00    1.5
2018/03/11 10:55:29.000   78.254770452   16.249357644   344.1355   2   8   0.0135   0.0167   0.0202   0.0095  -0.0070  -0.0073   0.00    1.5
2018/03/11 10:55:30.000   78.254770452   16.249357709   344.1345   2   8   0.0134   0.0166   0.0201   0.0095  -0.0070  -0.0073   0.00    1.5
2018/03/11 10:55:31.000   78.254770445   16.249357755   344.1342   2   8   0.0133   0.0166   0.0200   0.0094  -0.0070  -0.0073   0.00    1.5
2018/03/11 10:55:32.000   78.254770440   16.249357783   344.1337   2   8   0.0133   0.0165   0.0199   0.0094  -0.0069  -0.0072   0.00    1.5
2018/03/11 10:55:33.000   78.254770440   16.249357825   344.1330   2   8   0.0132   0.0164   0.0198   0.0094  -0.0069  -0.0072   0.00    1.5
2018/03/11 10:55:34.000   78.254770439   16.249357845   344.1315   2   8   0.0132   0.0164   0.0198   0.0093  -0.0069  -0.0072   0.00    1.5
2018/03/11 10:55:35.000   78.254770444   16.249357903   344.1304   2   8   0.0131   0.0163   0.0197   0.0093  -0.0069  -0.0071   0.00    1.5
2018/03/11 10:55:36.000   78.254770440   16.249357922   344.1286   2   8   0.0131   0.0162   0.0196   0.0093  -0.0068  -0.0071   0.00    1.5
2018/03/11 10:55:37.000   78.254770442   16.249357981   344.1266   2   8   0.0130   0.0162   0.0195   0.0092  -0.0068  -0.0071   0.00    1.5
2018/03/11 10:55:38.000   78.254770447   16.249357995   344.1252   2   8   0.0130   0.0161   0.0194   0.0092  -0.0068  -0.0071   0.00    1.5
2018/03/11 10:55:39.000   78.254770453   16.249358053   344.1234   2   8   0.0129   0.0161   0.0194   0.0092  -0.0068  -0.0070   0.00    1.5
2018/03/11 10:55:40.000   78.254770454   16.249358069   344.1220   2   8   0.0129   0.0160   0.0193   0.0091  -0.0067  -0.0070   0.00    1.5
2018/03/11 10:55:41.000   78.254770457   16.249358032   344.1203   2   8   0.0128   0.0159   0.0192   0.0091  -0.0067  -0.0070   0.00    1.5
2018/03/11 10:55:42.000   78.254770453   16.249358019   344.1182   2   8   0.0128   0.0159   0.0192   0.0091  -0.0067  -0.0070   0.00    1.4
2018/03/11 10:55:43.000   78.254770452   16.249358019   344.1163   2   8   0.0127   0.0158   0.0191   0.0090  -0.0067  -0.0069   0.00    1.4
2018/03/11 10:55:44.000   78.254770451   16.249358012   344.1153   2   8   0.0127   0.0158   0.0190   0.0090  -0.0067  -0.0069   0.00    1.4
2018/03/11 10:55:45.000   78.254770448   16.249357989   344.1139   2   8   0.0127   0.0157   0.0189   0.0090  -0.0066  -0.0069   0.00    1.4
2018/03/11 10:55:46.000   78.254770448   16.249357980   344.1123   2   8   0.0126   0.0157   0.0189   0.0089  -0.0066  -0.0069   0.00    1.4
2018/03/11 10:55:47.000   78.254770446   16.249358006   344.1107   2   8   0.0126   0.0156   0.0188   0.0089  -0.0066  -0.0068   0.00    1.4
2018/03/11 10:55:48.000   78.254770446   16.249358016   344.1095   2   8   0.0125   0.0156   0.0187   0.0089  -0.0066  -0.0068   0.00    1.4
2018/03/11 10:55:49.000   78.254770439   16.249358005   344.1083   2   8   0.0125   0.0155   0.0187   0.0089  -0.0066  -0.0068   0.00    1.4
2018/03/11 10:55:50.000   78.254770436   16.249358021   344.1083   2   8   0.0124   0.0155   0.0186   0.0088  -0.0065  -0.0068   0.00    1.4
2018/03/11 10:55:51.000   78.254770433   16.249358027   344.1080   2   8   0.0124   0.0154   0.0185   0.0088  -0.0065  -0.0067   0.00    1.4
2018/03/11 10:55:52.000   78.254770436   16.249358097   344.1077   2   8   0.0123   0.0154   0.0185   0.0088  -0.0065  -0.0067   0.00    1.4
2018/03/11 10:55:53.000   78.254770438   16.249358146   344.1075   2   8   0.0123   0.0153   0.0184   0.0087  -0.0065  -0.0067   0.00    1.4
2018/03/11 10:55:54.000   78.254770440   16.249358194   344.1067   2   8   0.0123   0.0153   0.0184   0.0087  -0.0064  -0.0067   0.00    1.4
2018/03/11 10:55:55.000   78.254770438   16.249358212   344.1069   2   8   0.0122   0.0152   0.0183   0.0087  -0.0064  -0.0067   0.00    1.4
2018/03/11 10:55:56.000   78.254770434   16.249358187   344.1065   2   8   0.0122   0.0152   0.0182   0.0087  -0.0064  -0.0066   0.00    1.4
2018/03/11 10:55:57.000   78.254770431   16.249358179   344.1067   2   8   0.0121   0.0151   0.0182   0.0086  -0.0064  -0.0066   0.00    1.4
2018/03/11 10:55:58.000   78.254770433   16.249358184   344.1060   2   8   0.0121   0.0151   0.0181   0.0086  -0.0064  -0.0066   0.00    1.3
2018/03/11 10:55:59.000   78.254770438   16.249358213   344.1055   2   8   0.0121   0.0150   0.0181   0.0086  -0.0064  -0.0066   0.00    1.3
2018/03/11 10:56:00.000   78.254770440   16.249358218   344.1046   2   8   0.0120   0.0150   0.0180   0.0086  -0.0063  -0.0066   0.00    1.3
2018/03/11 10:56:01.000   78.254770437   16.249358226   344.1048   2   8   0.0120   0.0149   0.0179   0.0085  -0.0063  -0.0065   0.00    1.3
2018/03/11 10:56:02.000   78.254770443   16.249358265   344.1047   2   8   0.0120   0.0149   0.0179   0.0085  -0.0063  -0.0065   0.00    1.3
2018/03/11 10:56:03.000   78.254770441   16.249358281   344.1044   2   8   0.0119   0.0148   0.0178   0.0085  -0.0063  -0.0065   0.00    1.3
2018/03/11 10:56:04.000   78.254770440   16.249358295   344.1040   2   8   0.0119   0.0148   0.0178   0.0085  -0.0063  -0.0065   0.00    1.3
2018/03/11 10:56:05.000   78.254770436   16.249358280   344.1037   2   8   0.0118   0.0148   0.0177   0.0084  -0.0062  -0.0065   0.00    1.3
2018/03/11 10:56:06.000   78.254770439   16.249358281   344.1027   2   8   0.0118   0.0147   0.0177   0.0084  -0.0062  -0.0064   0.00    1.3
2018/03/11 10:56:07.000   78.254770440   16.249358264   344.1023   2   8   0.0118   0.0147   0.0176   0.0084  -0.0062  -0.0064   0.00    1.3
2018/03/11 10:56:08.000   78.254770449   16.249358299   344.1013   2   8   0.0117   0.0146   0.0176   0.0084  -0.0062  -0.0064   0.00    1.3
2018/03/11 10:56:09.000   78.254770452   16.249358277   344.1014   2   8   0.0117   0.0146   0.0175   0.0083  -0.0062  -0.0064   0.00    1.3
2018/03/11 10:56:10.000   78.254770452   16.249358279   344.1011   2   8   0.0117   0.0145   0.0174   0.0083  -0.0062  -0.0064   0.00    1.3
2018/03/11 10:56:11.000   78.254770458   16.249358289   344.1010   2   8   0.0116   0.0145   0.0174   0.0083  -0.0061  -0.0063   0.00    1.3
2018/03/11 10:56:12.000   78.254770462   16.249358302   344.1005   2   8   0.0116   0.0145   0.0173   0.0083  -0.0061  -0.0063   0.00    1.3
2018/03/11 10:56:13.000   78.254770466   16.249358291   344.1000   2   8   0.0116   0.0144   0.0173   0.0082  -0.0061  -0.0063   0.00    1.3
2018/03/11 10:56:14.000   78.254770463   16.249358289   344.0988   2   8   0.0115   0.0144   0.0172   0.0082  -0.0061  -0.0063   0.00    1.3
2018/03/11 10:56:15.000   78.254770465   16.249358271   344.0982   2   8   0.0115   0.0143   0.0172   0.0082  -0.0061  -0.0063   0.00    1.3
2018/03/11 10:56:16.000   78.254770470   16.249358281   344.0975   2   8   0.0115   0.0143   0.0171   0.0082  -0.0060  -0.0062   0.00    1.3
2018/03/11 10:56:17.000   78.254770475   16.249358280   344.0966   2   8   0.0114   0.0143   0.0171   0.0081  -0.0060  -0.0062   0.00    1.3
2018/03/11 10:56:18.000   78.254770481   16.249358309   344.0964   2   8   0.0114   0.0142   0.0170   0.0081  -0.0060  -0.0062   0.00    1.2
2018/03/11 10:56:19.000   78.254770486   16.249358308   344.0962   2   8   0.0114   0.0142   0.0170   0.0081  -0.0060  -0.0062   0.00    1.2
2018/03/11 10:56:20.000   78.254770488   16.249358338   344.0957   2   8   0.0113   0.0141   0.0169   0.0081  -0.0060  -0.0062   0.00    1.2
2018/03/11 10:56:21.000   78.254770493   16.249358371   344.0949   2   8   0.0113   0.0141   0.0169   0.0081  -0.0060  -0.0062   0.00    1.2
2018/03/11 10:56:22.000   78.254770496   16.249358396   344.0945   2   8   0.0113   0.0141   0.0168   0.0080  -0.0059  -0.0061   0.00    1.2
2018/03/11 10:56:23.000   78.254770498   16.249358418   344.0934   2   8   0.0112   0.0140   0.0168   0.0080  -0.0059  -0.0061   0.00    1.2
2018/03/11 10:56:24.000   78.254770500   16.249358444   344.0933   2   8   0.0112   0.0140   0.0168   0.0080  -0.0059  -0.0061   0.00    1.2
2018/03/11 10:56:25.000   78.254770505   16.249358470   344.0926   2   8   0.0112   0.0140   0.0167   0.0080  -0.0059  -0.0061   0.00    1.2
2018/03/11 10:56:26.000   78.254770513   16.249358511   344.0921   2   8   0.0112   0.0139   0.0167   0.0079  -0.0059  -0.0061   0.00    1.2
2018/03/11 10:56:27.000   78.254770516   16.249358533   344.0914   2   8   0.0111   0.0139   0.0166   0.0079  -0.0059  -0.0061   0.00    1.2
2018/03/11 10:56:28.000   78.254770521   16.249358563   344.0908   2   8   0.0111   0.0139   0.0166   0.0079  -0.0059  -0.0060   0.00    1.2
2018/03/11 10:56:29.000   78.254770528   16.249358581   344.0904   2   8   0.0111   0.0138   0.0165   0.0079  -0.0058  -0.0060   0.00    1.2
2018/03/11 10:56:30.000   78.254770537   16.249358618   344.0892   2   8   0.0110   0.0138   0.0165   0.0079  -0.0058  -0.0060   0.00    1.2
2018/03/11 10:56:31.000   78.254770542   16.249358648   344.0878   2   8   0.0110   0.0137   0.0164   0.0078  -0.0058  -0.0060   0.00    1.2
2018/03/11 10:56:32.000   78.254770550   16.249358684   344.0864   2   8   0.0110   0.0137   0.0164   0.0078  -0.0058  -0.0060   0.00    1.2
2018/03/11 10:56:33.000   78.254770553   16.249358709   344.0853   2   8   0.0110   0.0137   0.0163   0.0078  -0.0058  -0.0060   0.00    1.2
2018/03/11 10:56:34.000   78.254770560   16.249358733   344.0838   2   8   0.0109   0.0136   0.0163   0.0078  -0.0058  -0.0059   0.00    1.2
2018/03/11 10:56:35.000   78.254770570   16.249358738   344.0830   2   8   0.0109   0.0136   0.0163   0.0078  -0.0057  -0.0059   0.00    1.2
2018/03/11 10:56:36.000   78.254770580   16.249358742   344.0815   2   8   0.0109   0.0136   0.0162   0.0077  -0.0057  -0.0059   0.00    1.2
2018/03/11 10:56:37.000   78.254770590   16.249358743   344.0799   2   8   0.0108   0.0135   0.0162   0.0077  -0.0057  -0.0059   0.00    1.2
2018/03/11 10:56:38.000   78.254770593   16.249358738   344.0784   2   8   0.0108   0.0135   0.0161   0.0077  -0.0057  -0.0059   0.00    1.2
2018/03/11 10:56:39.000   78.254770595   16.249358739   344.0764   2   8   0.0108   0.0135   0.0161   0.0077  -0.0057  -0.0059   0.00    1.2
2018/03/11 10:56:40.000   78.254770603   16.249358741   344.0744   2   8   0.0108   0.0134   0.0160   0.0077  -0.0057  -0.0058   0.00    1.2
2018/03/11 10:56:41.000   78.254770605   16.249358731   344.0732   2   8   0.0107   0.0134   0.0160   0.0076  -0.0057  -0.0058   0.00    1.2
2018/03/11 10:56:42.000   78.254770615   16.249358740   344.0710   2   8   0.0107   0.0134   0.0160   0.0076  -0.0056  -0.0058   0.00    1.2
2018/03/11 10:56:43.000   78.254770622   16.249358744   344.0692   2   8   0.0107   0.0133   0.0159   0.0076  -0.0056  -0.0058   0.00    1.2
2018/03/11 10:56:44.000   78.254770630   16.249358767   344.0671   2   8   0.0106   0.0133   0.0159   0.0076  -0.0056  -0.0058   0.00    1.2
2018/03/11 10:56:45.000   78.254770639   16.249358799   344.0659   2   8   0.0106   0.0133   0.0158   0.0076  -0.0056  -0.0058   0.00    1.2
2018/03/11 10:56:46.000   78.254770652   16.249358820   344.0650   2   8   0.0106   0.0132   0.0158   0.0076  -0.0056  -0.0058   0.00    1.2
2018/03/11 10:56:47.000   78.254770659   16.249358854   344.0642   2   8   0.0106   0.0132   0.0158   0.0075  -0.0056  -0.0057   0.00    1.2
2018/03/11 10:56:48.000   78.254770671   16.249358894   344.0627   2   8   0.0105   0.0132   0.0157   0.0075  -0.0056  -0.0057   0.00    1.2
2018/03/11 10:56:49.000   78.254770673   16.249358911   344.0615   2   8   0.0105   0.0132   0.0157   0.0075  -0.0055  -0.0057   0.00    1.2
2018/03/11 10:56:50.000   78.254770675   16.249358906   344.0612   2   8   0.0105   0.0131   0.0156   0.0075  -0.0055  -0.0057   0.00    1.2
2018/03/11 10:56:51.000   78.254770679   16.249358912   344.0602   2   8   0.0105   0.0131   0.0156   0.0075  -0.0055  -0.0057   0.00    1.2
2018/03/11 10:56:52.000   78.254770683   16.249358932   344.0595   2   8   0.0104   0.0131   0.0156   0.0074  -0.0055  -0.0057   0.00    1.2
2018/03/11 10:56:53.000   78.254770685   16.249358919   344.0587   2   8   0.0104   0.0130   0.0155   0.0074  -0.0055  -0.0057   0.00    1.2
2018/03/11 10:56:54.000   78.254770690   16.249358925   344.0584   2   8   0.0104   0.0130   0.0155   0.0074  -0.0055  -0.0056   0.00    1.2
2018/03/11 10:56:55.000   78.254770694   16.249358942   344.0574   2   8   0.0104   0.0130   0.0155   0.0074  -0.0055  -0.0056   0.00    1.2
2018/03/11 10:56:56.000   78.254770694   16.249358927   344.0564   2   8   0.0103   0.0129   0.0154   0.0074  -0.0055  -0.0056   0.00    1.2
2018/03/11 10:56:57.000   78.254770690   16.249358900   344.0561   2   8   0.0103   0.0129   0.0154   0.0074  -0.0054  -0.0056   0.00    1.2
2018/03/11 10:56:58.000   78.254770689   16.249358873   344.0563   2   8   0.0103   0.0129   0.0153   0.0073  -0.0054  -0.0056   0.00    1.2
2018/03/11 10:56:59.000   78.254770692   16.249358866   344.0557   2   8   0.0103   0.0128   0.0153   0.0073  -0.0054  -0.0056   0.00    1.2
2018/03/11 10:57:00.000   78.254770692   16.249358825   344.0552   2   8   0.0102   0.0128   0.0153   0.0073  -0.0054  -0.0056   0.00    1.2
2018/03/11 10:57:01.000   78.254770688   16.249358807   344.0543   2   8   0.0102   0.0128   0.0152   0.0073  -0.0054  -0.0055   0.00    1.2
2018/03/11 10:57:02.000   78.254770689   16.249358776   344.0541   2   8   0.0102   0.0128   0.0152   0.0073  -0.0054  -0.0055   0.00    1.2
2018/03/11 10:57:03.000   78.254770690   16.249358762   344.0539   2   8   0.0102   0.0127   0.0152   0.0073  -0.0054  -0.0055   0.00    1.2
2018/03/11 10:57:04.000   78.254770689   16.249358733   344.0543   2   8   0.0101   0.0127   0.0151   0.0072  -0.0053  -0.0055   0.00    1.2
2018/03/11 10:57:05.000   78.254770695   16.249358715   344.0539   2   8   0.0101   0.0127   0.0151   0.0072  -0.0053  -0.0055   0.00    1.2
2018/03/11 10:57:06.000   78.254770702   16.249358715   344.0537   2   8   0.0101   0.0126   0.0150   0.0072  -0.0053  -0.0055   0.00    1.2
2018/03/11 10:57:07.000   78.254770701   16.249358714   344.0543   2   8   0.0101   0.0126   0.0150   0.0072  -0.0053  -0.0055   0.00    1.2
2018/03/11 10:57:08.000   78.254770702   16.249358709   344.0539   2   8   0.0101   0.0126   0.0150   0.0072  -0.0053  -0.0055   0.00    1.2
2018/03/11 10:57:09.000   78.254770708   16.249358706   344.0540   2   8   0.0100   0.0126   0.0149   0.0072  -0.0053  -0.0054   0.00    1.2
2018/03/11 10:57:10.000   78.254770714   16.249358706   344.0547   2   8   0.0100   0.0125   0.0149   0.0071  -0.0053  -0.0054   0.00    1.2
2018/03/11 10:57:11.000   78.254770722   16.249358721   344.0553   2   8   0.0100   0.0125   0.0149   0.0071  -0.0053  -0.0054   0.00    1.2
2018/03/11 10:57:12.000   78.254770733   16.249358731   344.0558   2   8   0.0100   0.0125   0.0148   0.0071  -0.0052  -0.0054   0.00    1.2
2018/03/11 10:57:13.000   78.254770740   16.249358762   344.0563   2   8   0.0099   0.0125   0.0148   0.0071  -0.0052  -0.0054   0.00    1.2
2018/03/11 10:57:14.000   78.254770747   16.249358770   344.0566   2   8   0.0099   0.0124   0.0148   0.0071  -0.0052  -0.0054   0.00    1.2
2018/03/11 10:57:15.000   78.254770755   16.249358769   344.0571   2   8   0.0099   0.0124   0.0147   0.0071  -0.0052  -0.0054   0.00    1.2
2018/03/11 10:57:16.000   78.254770761   16.249358777   344.0580   2   8   0.0099   0.0124   0.0147   0.0071  -0.0052  -0.0054   0.00    1.2
2018/03/11 10:57:17.000   78.254770765   16.249358763   344.0584   2   8   0.0099   0.0123   0.0147   0.0070  -0.0052  -0.0053   0.00    1.2
2018/03/11 10:57:18.000   78.254770774   16.249358775   344.0591   2   8   0.0098   0.0123   0.0146   0.0070  -0.0052  -0.0053   0.00    1.2
2018/03/11 10:57:19.000   78.254770780   16.249358799   344.0593   2   8   0.0098   0.0123   0.0146   0.0070  -0.0052  -0.0053   0.00    1.2
2018/03/11 10:57:20.000   78.254770785   16.249358769   344.0595   2   8   0.0098   0.0123   0.0146   0.0070  -0.0051  -0.0053   0.00    1.2
2018/03/11 10:57:21.000   78.254770788   16.249358743   344.0604   2   8   0.0098   0.0122   0.0145   0.0070  -0.0051  -0.0053   0.00    1.2
2018/03/11 10:57:22.000   78.254770793   16.249358734   344.0609   2   8   0.0097   0.0122   0.0145   0.0070  -0.0051  -0.0053   0.00    1.2
2018/03/11 10:57:23.000   78.254770800   16.249358708   344.0612   2   8   0.0097   0.0122   0.0145   0.0069  -0.0051  -0.0053   0.00    1.2
2018/03/11 10:57:24.000   78.254770807   16.249358692   344.0614   2   8   0.0097   0.0122   0.0144   0.0069  -0.0051  -0.0053   0.00    1.2
2018/03/11 10:57:25.000   78.254770816   16.249358701   344.0616   2   8   0.0097   0.0121   0.0144   0.0069  -0.0051  -0.0052   0.00    1.2
2018/03/11 10:57:26.000   78.254770826   16.249358720   344.0621   2   8   0.0097   0.0121   0.0144   0.0069  -0.0051  -0.0052   0.00    1.2
2018/03/11 10:57:27.000   78.254770831   16.249358715   344.0632   2   8   0.0096   0.0121   0.0143   0.0069  -0.0051  -0.0052   0.00    1.2
2018/03/11 10:57:28.000   78.254770832   16.249358720   344.0638   2   8   0.0096   0.0121   0.0143   0.0069  -0.0051  -0.0052   0.00    1.2
2018/03/11 10:57:29.000   78.254770836   16.249358711   344.0643   2   8   0.0096   0.0120   0.0143   0.0069  -0.0050  -0.0052   0.00    1.2
2018/03/11 10:57:30.000   78.254770839   16.249358697   344.0647   2   8   0.0096   0.0120   0.0142   0.0068  -0.0050  -0.0052   0.00    1.2
2018/03/11 10:57:31.000   78.254770841   16.249358682   344.0656   2   8   0.0096   0.0120   0.0142   0.0068  -0.0050  -0.0052   0.00    1.2
2018/03/11 10:57:32.000   78.254770843   16.249358671   344.0660   2   8   0.0095   0.0120   0.0142   0.0068  -0.0050  -0.0052   0.00    1.2
2018/03/11 10:57:33.000   78.254770852   16.249358658   344.0666   2   8   0.0095   0.0119   0.0141   0.0068  -0.0050  -0.0052   0.00    1.2
2018/03/11 10:57:34.000   78.254770854   16.249358631   344.0675   2   8   0.0095   0.0119   0.0141   0.0068  -0.0050  -0.0051   0.00    1.2
2018/03/11 10:57:35.000   78.254770859   16.249358614   344.0683   2   8   0.0095   0.0119   0.0141   0.0068  -0.0050  -0.0051   0.00    1.2
2018/03/11 10:57:36.000   78.254770868   16.249358599   344.0698   2   8   0.0095   0.0119   0.0140   0.0068  -0.0050  -0.0051   0.00    1.2
2018/03/11 10:57:37.000   78.254770871   16.249358562   344.0707   2   8   0.0094   0.0118   0.0140   0.0067  -0.0050  -0.0051   0.00    1.2
2018/03/11 10:57:38.000   78.254770874   16.249358516   344.0718   2   8   0.0094   0.0118   0.0140   0.0067  -0.0049  -0.0051   0.00    1.2
2018/03/11 10:57:39.000   78.254770880   16.249358506   344.0728   2   8   0.0094   0.0118   0.0140   0.0067  -0.0049  -0.0051   0.00    1.2
2018/03/11 10:57:40.000   78.254770888   16.249358494   344.0734   2   8   0.0094   0.0118   0.0139   0.0067  -0.0049  -0.0051   0.00    1.3
2018/03/11 10:57:41.000   78.254770893   16.249358480   344.0739   2   8   0.0094   0.0117   0.0139   0.0067  -0.0049  -0.0051   0.00    1.3
2018/03/11 10:57:42.000   78.254770895   16.249358479   344.0749   2   8   0.0093   0.0117   0.0139   0.0067  -0.0049  -0.0050   0.00    1.3
2018/03/11 10:57:43.000   78.254770897   16.249358470   344.0761   2   8   0.0093   0.0117   0.0138   0.0067  -0.0049  -0.0050   0.00    1.3
2018/03/11 10:57:44.000   78.254770901   16.249358474   344.0775   2   8   0.0093   0.0117   0.0138   0.0066  -0.0049  -0.0050   0.00    1.3
2018/03/11 10:57:45.000   78.254770905   16.249358487   344.0790   2   8   0.0093   0.0116   0.0138   0.0066  -0.0049  -0.0050   0.00    1.3
2018/03/11 10:57:46.000   78.254770909   16.249358493   344.0806   2   8   0.0093   0.0116   0.0137   0.0066  -0.0049  -0.0050   0.00    1.3
2018/03/11 10:57:47.000   78.254770914   16.249358511   344.0818   2   8   0.0092   0.0116   0.0137   0.0066  -0.0048  -0.0050   0.00    1.3
2018/03/11 10:57:48.000   78.254770916   16.249358534   344.0835   2   8   0.0092   0.0116   0.0137   0.0066  -0.0048  -0.0050   0.00    1.3
2018/03/11 10:57:49.000   78.254770918   16.249358559   344.0850   2   8   0.0092   0.0116   0.0137   0.0066  -0.0048  -0.0050   0.00    1.3
2018/03/11 10:57:50.000   78.254770920   16.249358585   344.0866   2   8   0.0092   0.0115   0.0136   0.0066  -0.0048  -0.0050   0.00    1.3
2018/03/11 10:57:51.000   78.254770923   16.249358623   344.0874   2   8   0.0092   0.0115   0.0136   0.0066  -0.0048  -0.0050   0.00    1.3
2018/03/11 10:57:52.000   78.254770926   16.249358657   344.0888   2   8   0.0091   0.0115   0.0136   0.0065  -0.0048  -0.0049   0.00    1.3
2018/03/11 10:57:53.000   78.254770927   16.249358673   344.0905   2   8   0.0091   0.0115   0.0135   0.0065  -0.0048  -0.0049   0.00    1.3
2018/03/11 10:57:54.000   78.254770931   16.249358718   344.0919   2   8   0.0091   0.0114   0.0135   0.0065  -0.0048  -0.0049   0.00    1.3
2018/03/11 10:57:55.000   78.254770934   16.249358737   344.0928   2   8   0.0091   0.0114   0.0135   0.0065  -0.0048  -0.0049   0.00    1.3
2018/03/11 10:57:56.000   78.254770937   16.249358764   344.0942   2   8   0.0091   0.0114   0.0135   0.0065  -0.0047  -0.0049   0.00    1.4
2018/03/11 10:57:57.000   78.254770940   16.249358791   344.0953   2   8   0.0090   0.0114   0.0134   0.0065  -0.0047  -0.0049   0.00    1.4
2018/03/11 10:57:58.000   78.254770942   16.249358814   344.0968   2   8   0.0090   0.0114   0.0134   0.0065  -0.0047  -0.0049   0.00    1.4
2018/03/11 10:57:59.000   78.254770945   16.249358860   344.0978   2   8   0.0090   0.0113   0.0134   0.0065  -0.0047  -0.0049   0.00    1.4
2018/03/11 10:58:00.000   78.254770943   16.249358876   344.0992   2   8   0.0090   0.0113   0.0133   0.0064  -0.0047  -0.0049   0.00    1.4
2018/03/11 10:58:01.000   78.254770943   16.249358906   344.1008   2   8   0.0090   0.0113   0.0133   0.0064  -0.0047  -0.0048   0.00    1.4
2018/03/11 10:58:02.000   78.254770949   16.249358951   344.1023   2   8   0.0090   0.0113   0.0133   0.0064  -0.0047  -0.0048   0.00    1.4
2018/03/11 10:58:03.000   78.254770949   16.249358991   344.1038   2   8   0.0089   0.0112   0.0133   0.0064  -0.0047  -0.0048   0.00    1.4
2018/03/11 10:58:04.000   78.254770953   16.249359046   344.1050   2   8   0.0089   0.0112   0.0132   0.0064  -0.0047  -0.0048   0.00    1.4
2018/03/11 10:58:05.000   78.254770958   16.249359091   344.1065   2   8   0.0089   0.0112   0.0132   0.0064  -0.0047  -0.0048   0.00    1.4
2018/03/11 10:58:06.000   78.254770961   16.249359138   344.1077   2   8   0.0089   0.0112   0.0132   0.0064  -0.0046  -0.0048   0.00    1.4
2018/03/11 10:58:07.000   78.254770967   16.249359202   344.1093   2   8   0.0089   0.0112   0.0131   0.0064  -0.0046  -0.0048   0.00    1.4
2018/03/11 10:58:08.000   78.254770971   16.249359256   344.1108   2   8   0.0088   0.0111   0.0131   0.0063  -0.0046  -0.0048   0.00    1.4
2018/03/11 10:58:09.000   78.254770970   16.249359297   344.1121   2   8   0.0088   0.0111   0.0131   0.0063  -0.0046  -0.0048   0.00    1.4
2018/03/11 10:58:10.000   78.254770969   16.249359335   344.1138   2   8   0.0088   0.0111   0.0131   0.0063  -0.0046  -0.0048   0.00    1.5
2018/03/11 10:58:11.000   78.254770972   16.249359376   344.1153   2   8   0.0088   0.0111   0.0130   0.0063  -0.0046  -0.0047   0.00    1.5
2018/03/11 10:58:12.000   78.254770971   16.249359416   344.1169   2   8   0.0088   0.0111   0.0130   0.0063  -0.0046  -0.0047   0.00    1.5
2018/03/11 10:58:13.000   78.254770969   16.249359466   344.1185   2   8   0.0088   0.0110   0.0130   0.0063  -0.0046  -0.0047   0.00    1.5
2018/03/11 10:58:14.000   78.254770969   16.249359500   344.1200   2   8   0.0087   0.0110   0.0130   0.0063  -0.0046  -0.0047   0.00    1.5
2018/03/11 10:58:15.000   78.254770969   16.249359553   344.1212   2   8   0.0087   0.0110   0.0129   0.0063  -0.0046  -0.0047   0.00    1.5
2018/03/11 10:58:16.000   78.254770971   16.249359583   344.1224   2   8   0.0087   0.0110   0.0129   0.0062  -0.0045  -0.0047   0.00    1.5
2018/03/11 10:58:17.000   78.254770972   16.249359635   344.1237   2   8   0.0087   0.0109   0.0129   0.0062  -0.0045  -0.0047   0.00    1.5
2018/03/11 10:58:18.000   78.254770971   16.249359659   344.1251   2   8   0.0087   0.0109   0.0128   0.0062  -0.0045  -0.0047   0.00    1.5
2018/03/11 10:58:19.000   78.254770970   16.249359696   344.1263   2   8   0.0087   0.0109   0.0128   0.0062  -0.0045  -0.0047   0.00    1.5
2018/03/11 10:58:20.000   78.254770966   16.249359732   344.1275   2   8   0.0086   0.0109   0.0128   0.0062  -0.0045  -0.0047   0.00    1.5
2018/03/11 10:58:21.000   78.254770964   16.249359773   344.1284   2   8   0.0086   0.0109   0.0128   0.0062  -0.0045  -0.0046   0.00    1.5
2018/03/11 10:58:22.000   78.254770966   16.249359821   344.1294   2   8   0.0086   0.0108   0.0127   0.0062  -0.0045  -0.0046   0.00    1.6
2018/03/11 10:58:23.000   78.254770966   16.249359872   344.1305   2   8   0.0086   0.0108   0.0127   0.0062  -0.0045  -0.0046   0.00    1.6
2018/03/11 10:58:24.000   78.254770966   16.249359903   344.1317   2   8   0.0086   0.0108   0.0127   0.0062  -0.0045  -0.0046   0.00    1.6
2018/03/11 10:58:25.000   78.254770963   16.249359932   344.1330   2   8   0.0086   0.0108   0.0127   0.0061  -0.0045  -0.0046   0.00    1.6
2018/03/11 10:58:26.000   78.254770963   16.249359959   344.1341   2   8   0.0085   0.0108   0.0126   0.0061  -0.0044  -0.0046   0.00    1.6
2018/03/11 10:58:27.000   78.254770964   16.249360024   344.1350   2   8   0.0085   0.0107   0.0126   0.0061  -0.0044  -0.0046   0.00    1.6
2018/03/11 10:58:28.000   78.254770963   16.249360057   344.1368   2   8   0.0085   0.0107   0.0126   0.0061  -0.0044  -0.0046   0.00    1.6
2018/03/11 10:58:29.000   78.254770959   16.249360093   344.1378   2   8   0.0085   0.0107   0.0126   0.0061  -0.0044  -0.0046   0.00    1.6
2018/03/11 10:58:30.000   78.254770959   16.249360138   344.1388   2   8   0.0085   0.0107   0.0125   0.0061  -0.0044  -0.0046   0.00    1.6
2018/03/11 10:58:31.000   78.254770955   16.249360160   344.1403   2   8   0.0085   0.0107   0.0125   0.0061  -0.0044  -0.0046   0.00    1.6
2018/03/11 10:58:32.000   78.254770955   16.249360187   344.1414   2   8   0.0084   0.0106   0.0125   0.0061  -0.0044  -0.0045   0.00    1.7
2018/03/11 10:58:33.000   78.254770955   16.249360231   344.1421   2   8   0.0084   0.0106   0.0125   0.0060  -0.0044  -0.0045   0.00    1.7
2018/03/11 10:58:34.000   78.254770951   16.249360255   344.1436   2   8   0.0084   0.0106   0.0124   0.0060  -0.0044  -0.0045   0.00    1.7
2018/03/11 10:58:35.000   78.254770947   16.249360273   344.1453   2   8   0.0084   0.0106   0.0124   0.0060  -0.0044  -0.0045   0.00    1.7
2018/03/11 10:58:36.000   78.254770943   16.249360299   344.1462   2   8   0.0084   0.0106   0.0124   0.0060  -0.0044  -0.0045   0.00    1.7
2018/03/11 10:58:37.000   78.254770941   16.249360318   344.1479   2   8   0.0084   0.0106   0.0124   0.0060  -0.0043  -0.0045   0.00    1.7
2018/03/11 10:58:38.000   78.254770938   16.249360343   344.1492   2   8   0.0083   0.0105   0.0123   0.0060  -0.0043  -0.0045   0.00    1.7
2018/03/11 10:58:39.000   78.254770936   16.249360363   344.1505   2   8   0.0083   0.0105   0.0123   0.0060  -0.0043  -0.0045   0.00    1.7
2018/03/11 10:58:40.000   78.254770933   16.249360388   344.1515   2   8   0.0083   0.0105   0.0123   0.0060  -0.0043  -0.0045   0.00    1.7
2018/03/11 10:58:41.000   78.254770927   16.249360418   344.1527   2   8   0.0083   0.0105   0.0123   0.0060  -0.0043  -0.0045   0.00    1.7
2018/03/11 10:58:42.000   78.254770926   16.249360442   344.1539   2   8   0.0083   0.0105   0.0122   0.0059  -0.0043  -0.0045   0.00    1.7
2018/03/11 10:58:43.000   78.254770923   16.249360450   344.1548   2   8   0.0083   0.0104   0.0122   0.0059  -0.0043  -0.0044   0.00    1.8
2018/03/11 10:58:44.000   78.254770920   16.249360475   344.1561   2   8   0.0083   0.0104   0.0122   0.0059  -0.0043  -0.0044   0.00    1.8
2018/03/11 10:58:45.000   78.254770917   16.249360497   344.1577   2   8   0.0082   0.0104   0.0122   0.0059  -0.0043  -0.0044   0.00    1.8
2018/03/11 10:58:46.000   78.254770916   16.249360538   344.1593   2   8   0.0082   0.0104   0.0121   0.0059  -0.0043  -0.0044   0.00    1.8
2018/03/11 10:58:47.000   78.254770915   16.249360572   344.1607   2   8   0.0082   0.0104   0.0121   0.0059  -0.0043  -0.0044   0.00    1.8
2018/03/11 10:58:48.000   78.254770913   16.249360604   344.1625   2   8   0.0082   0.0103   0.0121   0.0059  -0.0042  -0.0044   0.00    1.8
2018/03/11 10:58:49.000   78.254770912   16.249360647   344.1639   2   8   0.0082   0.0103   0.0121   0.0059  -0.0042  -0.0044   0.00    1.8
2018/03/11 10:58:50.000   78.254770909   16.249360677   344.1654   2   8   0.0082   0.0103   0.0120   0.0059  -0.0042  -0.0044   0.00    1.8
2018/03/11 10:58:51.000   78.254770909   16.249360700   344.1672   2   8   0.0081   0.0103   0.0120   0.0059  -0.0042  -0.0044   0.00    1.8
2018/03/11 10:58:52.000   78.254770907   16.249360726   344.1688   2   8   0.0081   0.0103   0.0120   0.0058  -0.0042  -0.0044   0.00    1.8
2018/03/11 10:58:53.000   78.254770906   16.249360757   344.1707   2   8   0.0081   0.0103   0.0120   0.0058  -0.0042  -0.0044   0.00    1.8
2018/03/11 10:58:54.000   78.254770906   16.249360781   344.1726   2   8   0.0081   0.0102   0.0119   0.0058  -0.0042  -0.0044   0.00    1.8
2018/03/11 10:58:55.000   78.254770904   16.249360784   344.1742   2   8   0.0081   0.0102   0.0119   0.0058  -0.0042  -0.0043   0.00    1.8
2018/03/11 10:58:56.000   78.254770903   16.249360816   344.1758   2   8   0.0081   0.0102   0.0119   0.0058  -0.0042  -0.0043   0.00    1.9
2018/03/11 10:58:57.000   78.254770899   16.249360842   344.1777   2   8   0.0081   0.0102   0.0119   0.0058  -0.0042  -0.0043   0.00    1.9
2018/03/11 10:58:58.000   78.254770898   16.249360876   344.1794   2   8   0.0080   0.0102   0.0118   0.0058  -0.0042  -0.0043   0.00    1.9
2018/03/11 10:58:59.000   78.254770897   16.249360916   344.1809   2   8   0.0080   0.0101   0.0118   0.0058  -0.0041  -0.0043   0.00    1.9
2018/03/11 10:59:00.000   78.254770896   16.249360961   344.1830   2   8   0.0080   0.0101   0.0118   0.0058  -0.0041  -0.0043   0.00    1.9
2018/03/11 10:59:01.000   78.254770892   16.249361003   344.1849   2   8   0.0080   0.0101   0.0118   0.0058  -0.0041  -0.0043   0.00    1.9
2018/03/11 10:59:02.000   78.254770888   16.249361027   344.1868   2   8   0.0080   0.0101   0.0118   0.0057  -0.0041  -0.0043   0.00    1.9
2018/03/11 10:59:03.000   78.254770881   16.249361061   344.1887   2   8   0.0080   0.0101   0.0117   0.0057  -0.0041  -0.0043   0.00    1.9
2018/03/11 10:59:04.000   78.254770879   16.249361079   344.1906   2   8   0.0080   0.0101   0.0117   0.0057  -0.0041  -0.0043   0.00    1.9
2018/03/11 10:59:05.000   78.254770878   16.249361112   344.1924   2   8   0.0079   0.0100   0.0117   0.0057  -0.0041  -0.0043   0.00    1.9
2018/03/11 10:59:06.000   78.254770872   16.249361144   344.1946   2   8   0.0079   0.0100   0.0117   0.0057  -0.0041  -0.0042   0.00    1.9
2018/03/11 10:59:07.000   78.254770870   16.249361206   344.1970   2   8   0.0079   0.0100   0.0116   0.0057  -0.0041  -0.0042   0.00    2.0
2018/03/11 10:59:08.000   78.254770866   16.249361253   344.1989   2   8   0.0079   0.0100   0.0116   0.0057  -0.0041  -0.0042   0.00    2.0
2018/03/11 10:59:09.000   78.254770864   16.249361316   344.2006   2   8   0.0079   0.0100   0.0116   0.0057  -0.0041  -0.0042   0.00    2.0
2018/03/11 10:59:10.000   78.254770860   16.249361353   344.2028   2   8   0.0079   0.0100   0.0116   0.0057  -0.0041  -0.0042   0.00    2.0
2018/03/11 10:59:11.000   78.254770860   16.249361401   344.2047   2   8   0.0079   0.0099   0.0115   0.0057  -0.0040  -0.0042   0.00    2.0
2018/03/11 10:59:12.000   78.254770856   16.249361461   344.2070   2   8   0.0078   0.0099   0.0115   0.0056  -0.0040  -0.0042   0.00    2.0
2018/03/11 10:59:13.000   78.254770853   16.249361513   344.2088   2   8   0.0078   0.0099   0.0115   0.0056  -0.0040  -0.0042   0.00    2.0
2018/03/11 10:59:14.000   78.254770849   16.249361552   344.2106   2   8   0.0078   0.0099   0.0115   0.0056  -0.0040  -0.0042   0.00    2.1
2018/03/11 10:59:15.000   78.254770843   16.249361589   344.2122   2   8   0.0078   0.0099   0.0115   0.0056  -0.0040  -0.0042   0.00    2.1
2018/03/11 10:59:16.000   78.254770837   16.249361632   344.2137   2   8   0.0078   0.0098   0.0114   0.0056  -0.0040  -0.0042   0.00    2.1
2018/03/11 10:59:17.000   78.254770833   16.249361653   344.2155   2   8   0.0078   0.0098   0.0114   0.0056  -0.0040  -0.0042   0.00    2.1
2018/03/11 10:59:18.000   78.254770831   16.249361695   344.2170   2   8   0.0078   0.0098   0.0114   0.0056  -0.0040  -0.0042   0.00    2.1
2018/03/11 10:59:19.000   78.254770830   16.249361746   344.2183   2   8   0.0077   0.0098   0.0114   0.0056  -0.0040  -0.0041   0.00    2.1
2018/03/11 10:59:20.000   78.254770827   16.249361774   344.2194   2   8   0.0077   0.0098   0.0114   0.0056  -0.0040  -0.0041   0.00    2.1
2018/03/11 10:59:21.000   78.254770826   16.249361821   344.2209   2   8   0.0077   0.0098   0.0113   0.0056  -0.0040  -0.0041   0.00    2.2
2018/03/11 10:59:22.000   78.254770824   16.249361859   344.2222   2   8   0.0077   0.0097   0.0113   0.0055  -0.0040  -0.0041   0.00    2.2
2018/03/11 10:59:23.000   78.254770823   16.249361890   344.2236   2   8   0.0077   0.0097   0.0113   0.0055  -0.0039  -0.0041   0.00    2.2
2018/03/11 10:59:24.000   78.254770821   16.249361911   344.2249   2   8   0.0077   0.0097   0.0113   0.0055  -0.0039  -0.0041   0.00    2.2
2018/03/11 10:59:25.000   78.254770818   16.249361942   344.2256   2   8   0.0077   0.0097   0.0112   0.0055  -0.0039  -0.0041   0.00    2.2
2018/03/11 10:59:26.000   78.254770818   16.249361979   344.2263   2   8   0.0076   0.0097   0.0112   0.0055  -0.0039  -0.0041   0.00    2.2
2018/03/11 10:59:27.000   78.254770816   16.249362012   344.2275   2   8   0.0076   0.0097   0.0112   0.0055  -0.0039  -0.0041   0.00    2.2
2018/03/11 10:59:28.000   78.254770815   16.249362050   344.2288   2   8   0.0076   0.0096   0.0112   0.0055  -0.0039  -0.0041   0.00    2.3
2018/03/11 10:59:29.000   78.254770812   16.249362079   344.2299   2   8   0.0076   0.0096   0.0112   0.0055  -0.0039  -0.0041   0.00    2.3
2018/03/11 10:59:30.000   78.254770810   16.249362118   344.2310   2   8   0.0076   0.0096   0.0111   0.0055  -0.0039  -0.0041   0.00    2.3
2018/03/11 10:59:31.000   78.254770807   16.249362163   344.2318   2   8   0.0076   0.0096   0.0111   0.0055  -0.0039  -0.0041   0.00    2.3
2018/03/11 10:59:32.000   78.254770807   16.249362210   344.2328   2   8   0.0076   0.0096   0.0111   0.0055  -0.0039  -0.0040   0.00    2.3
2018/03/11 10:59:33.000   78.254770807   16.249362274   344.2339   2   8   0.0075   0.0096   0.0111   0.0054  -0.0039  -0.0040   0.00    2.3
2018/03/11 10:59:34.000   78.254770804   16.249362309   344.2350   2   8   0.0075   0.0096   0.0111   0.0054  -0.0039  -0.0040   0.00    2.3
2018/03/11 10:59:35.000   78.254770798   16.249362340   344.2361   2   8   0.0075   0.0095   0.0110   0.0054  -0.0038  -0.0040   0.00    2.4
2018/03/11 10:59:36.000   78.254770796   16.249362385   344.2371   2   8   0.0075   0.0095   0.0110   0.0054  -0.0038  -0.0040   0.00    2.4
2018/03/11 10:59:37.000   78.254770794   16.249362433   344.2384   2   8   0.0075   0.0095   0.0110   0.0054  -0.0038  -0.0040   0.00    2.4
2018/03/11 10:59:38.000   78.254770791   16.249362465   344.2399   2   8   0.0075   0.0095   0.0110   0.0054  -0.0038  -0.0040   0.00    2.4
2018/03/11 10:59:39.000   78.254770790   16.249362521   344.2411   2   8   0.0075   0.0095   0.0109   0.0054  -0.0038  -0.0040   0.00    2.4
2018/03/11 10:59:40.000   78.254770789   16.249362583   344.2424   2   8   0.0075   0.0095   0.0109   0.0054  -0.0038  -0.0040   0.00    2.5
2018/03/11 10:59:41.000   78.254770790   16.249362647   344.2435   2   8   0.0074   0.0094   0.0109   0.0054  -0.0038  -0.0040   0.00    2.5
2018/03/11 10:59:42.000   78.254770787   16.249362718   344.2446   2   8   0.0074   0.0094   0.0109   0.0054  -0.0038  -0.0040   0.00    2.5
2018/03/11 10:59:43.000   78.254770784   16.249362780   344.2462   2   8   0.0074   0.0094   0.0109   0.0054  -0.0038  -0.0040   0.00    2.5
2018/03/11 10:59:44.000   78.254770782   16.249362824   344.2476   2   8   0.0074   0.0094   0.0108   0.0053  -0.0038  -0.0040   0.00    2.5
2018/03/11 10:59:45.000   78.254770783   16.249362871   344.2489   2   8   0.0074   0.0094   0.0108   0.0053  -0.0038  -0.0039   0.00    2.6
2018/03/11 10:59:46.000   78.254770781   16.249362935   344.2503   2   8   0.0074   0.0094   0.0108   0.0053  -0.0038  -0.0039   0.00    2.6
2018/03/11 10:59:47.000   78.254770778   16.249362997   344.2520   2   8   0.0074   0.0093   0.0108   0.0053  -0.0038  -0.0039   0.00    2.6
2018/03/11 10:59:48.000   78.254770775   16.249363053   344.2534   2   8   0.0074   0.0093   0.0108   0.0053  -0.0037  -0.0039   0.00    2.6
2018/03/11 10:59:49.000   78.254770773   16.249363103   344.2552   2   8   0.0073   0.0093   0.0107   0.0053  -0.0037  -0.0039   0.00    2.7
2018/03/11 10:59:50.000   78.254770771   16.249363162   344.2569   2   8   0.0073   0.0093   0.0107   0.0053  -0.0037  -0.0039   0.00    2.7
2018/03/11 10:59:51.000   78.254770769   16.249363205   344.2584   2   8   0.0073   0.0093   0.0107   0.0053  -0.0037  -0.0039   0.00    2.7
2018/03/11 10:59:52.000   78.254770766   16.249363261   344.2599   2   8   0.0073   0.0093   0.0107   0.0053  -0.0037  -0.0039   0.00    2.7
2018/03/11 10:59:53.000   78.254770766   16.249363336   344.2618   2   8   0.0073   0.0093   0.0107   0.0053  -0.0037  -0.0039   0.00    2.8
2018/03/11 10:59:54.000   78.254770763   16.249363398   344.2638   2   8   0.0073   0.0092   0.0106   0.0053  -0.0037  -0.0039   0.00    2.8
2018/03/11 10:59:55.000   78.254770757   16.249363459   344.2656   2   8   0.0073   0.0092   0.0106   0.0052  -0.0037  -0.0039   0.00    2.8
2018/03/11 10:59:56.000   78.254770753   16.249363516   344.2674   2   8   0.0073   0.0092   0.0106   0.0052  -0.0037  -0.0039   0.00    2.8
2018/03/11 10:59:57.000   78.254770747   16.249363544   344.2690   2   8   0.0072   0.0092   0.0106   0.0052  -0.0037  -0.0039   0.00    2.9
2018/03/11 10:59:58.000   78.254770740   16.249363574   344.2705   2   8   0.0072   0.0092   0.0106   0.0052  -0.0037  -0.0039   0.00    2.9
2018/03/11 10:59:59.000   78.254770736   16.249363604   344.2716   2   8   0.0072   0.0092   0.0105   0.0052  -0.0037  -0.0038   0.00    2.9
2018/03/11 11:00:00.000   78.254770732   16.249363651   344.2727   2   8   0.0072   0.0092   0.0105   0.0052  -0.0037  -0.0038   0.00    2.9
