% program   : RTKPOST ver.2.4.2
% inp file  : Z:\home\linda\Documents\Spring18\GitHub_Unis\data\processed_data\4625074F.obs
% inp file  : Z:\home\linda\Documents\Spring18\GitHub_Unis\data\processed_data\4625074F.nav
% obs start : 2018/03/15 12:47:45.0 GPST (week1992 391665.0s)
% obs end   : 2018/03/15 13:04:41.0 GPST (week1992 392681.0s)
% pos mode  : single
% elev mask : 15.0 deg
% ionos opt : broadcast
% tropo opt : saastamoinen
% ephemeris : broadcast
% navi sys  : gps glonass galileo qzss sbas
%
% (lat/lon/height=WGS84/ellipsoidal,Q=1:fix,2:float,3:sbas,4:dgps,5:single,6:ppp,ns=# of satellites)
%  GPST                  latitude(deg) longitude(deg)  height(m)   Q  ns   sdn(m)   sde(m)   sdu(m)  sdne(m)  sdeu(m)  sdun(m) age(s)  ratio
2018/03/15 12:47:45.000   78.246706302   16.083828577   629.8329   5   9   1.6708   1.8004   8.1062   0.5156  -1.1237   0.7464   0.00    0.0
2018/03/15 12:47:46.000   78.246708991   16.083816307   627.9106   5   9   1.6708   1.8004   8.1058   0.5157  -1.1248   0.7463   0.00    0.0
2018/03/15 12:47:47.000   78.246707797   16.083813773   626.1416   5   9   1.6708   1.8005   8.1053   0.5157  -1.1258   0.7462   0.00    0.0
2018/03/15 12:47:48.000   78.246710077   16.083803280   626.4546   5   9   1.6709   1.8005   8.1049   0.5157  -1.1268   0.7461   0.00    0.0
2018/03/15 12:47:49.000   78.246710836   16.083808160   627.2030   5   9   1.6709   1.8006   8.1044   0.5158  -1.1278   0.7460   0.00    0.0
2018/03/15 12:47:50.000   78.246711805   16.083803084   627.4330   5   9   1.6709   1.8006   8.1040   0.5158  -1.1288   0.7460   0.00    0.0
2018/03/15 12:47:51.000   78.246711342   16.083802481   627.1432   5   9   1.6709   1.8006   8.1035   0.5159  -1.1298   0.7459   0.00    0.0
2018/03/15 12:47:52.000   78.246711822   16.083814565   628.6935   5   9   1.6709   1.8007   8.1031   0.5159  -1.1308   0.7458   0.00    0.0
2018/03/15 12:47:53.000   78.246709809   16.083797797   628.9641   5   9   1.6709   1.8007   8.1026   0.5160  -1.1318   0.7457   0.00    0.0
2018/03/15 12:47:54.000   78.246710235   16.083817621   629.6696   5   9   1.6709   1.8008   8.1021   0.5160  -1.1328   0.7456   0.00    0.0
2018/03/15 12:47:55.000   78.246709647   16.083816103   629.0138   5   9   1.6709   1.8008   8.1017   0.5161  -1.1338   0.7456   0.00    0.0
2018/03/15 12:47:56.000   78.246709596   16.083822777   628.5480   5   9   1.6709   1.8008   8.1012   0.5161  -1.1348   0.7455   0.00    0.0
2018/03/15 12:47:57.000   78.246713551   16.083829253   628.7193   5   9   1.6709   1.8009   8.1008   0.5162  -1.1358   0.7454   0.00    0.0
2018/03/15 12:47:58.000   78.246714777   16.083822867   629.2932   5   9   1.6709   1.8009   8.1003   0.5162  -1.1368   0.7453   0.00    0.0
2018/03/15 12:47:59.000   78.246715363   16.083828016   630.3428   5   9   1.6710   1.8010   8.0998   0.5163  -1.1378   0.7453   0.00    0.0
2018/03/15 12:48:00.000   78.246718286   16.083822117   630.1952   5   9   1.6710   1.8010   8.0994   0.5163  -1.1388   0.7452   0.00    0.0
2018/03/15 12:48:01.000   78.246717864   16.083825023   629.7656   5   9   1.6710   1.8010   8.0989   0.5164  -1.1398   0.7451   0.00    0.0
2018/03/15 12:48:02.000   78.246714643   16.083823276   629.5190   5   9   1.6710   1.8011   8.0984   0.5164  -1.1408   0.7450   0.00    0.0
2018/03/15 12:48:03.000   78.246714439   16.083814506   628.0601   5   9   1.6710   1.8011   8.0980   0.5165  -1.1418   0.7450   0.00    0.0
2018/03/15 12:48:04.000   78.246714958   16.083805370   627.9898   5   9   1.6710   1.8012   8.0975   0.5165  -1.1428   0.7449   0.00    0.0
2018/03/15 12:48:05.000   78.246709927   16.083801293   626.4626   5   9   1.6710   1.8012   8.0970   0.5165  -1.1438   0.7448   0.00    0.0
2018/03/15 12:48:06.000   78.246710598   16.083802807   627.3165   5   9   1.6710   1.8012   8.0965   0.5166  -1.1447   0.7448   0.00    0.0
2018/03/15 12:48:07.000   78.246712383   16.083820625   629.1439   5   9   1.6710   1.8013   8.0961   0.5166  -1.1457   0.7447   0.00    0.0
2018/03/15 12:48:08.000   78.246712906   16.083822482   629.7712   5   9   1.6710   1.8013   8.0956   0.5167  -1.1467   0.7446   0.00    0.0
2018/03/15 12:48:09.000   78.246712917   16.083816085   629.8501   5   9   1.6711   1.8014   8.0951   0.5167  -1.1477   0.7445   0.00    0.0
2018/03/15 12:48:10.000   78.246711524   16.083828134   630.1539   5   9   1.6711   1.8014   8.0946   0.5168  -1.1487   0.7445   0.00    0.0
2018/03/15 12:48:11.000   78.246710750   16.083823687   629.0027   5   9   1.6711   1.8014   8.0941   0.5168  -1.1497   0.7444   0.00    0.0
2018/03/15 12:48:12.000   78.246709251   16.083829651   629.7863   5   9   1.6711   1.8015   8.0937   0.5169  -1.1506   0.7443   0.00    0.0
2018/03/15 12:48:13.000   78.246710195   16.083814049   629.0390   5   9   1.6711   1.8015   8.0932   0.5169  -1.1516   0.7443   0.00    0.0
2018/03/15 12:48:14.000   78.246708026   16.083815416   627.5232   5   9   1.6711   1.8016   8.0927   0.5170  -1.1526   0.7442   0.00    0.0
2018/03/15 12:48:15.000   78.246704569   16.083794821   627.3234   5   9   1.6711   1.8016   8.0922   0.5170  -1.1536   0.7441   0.00    0.0
2018/03/15 12:48:16.000   78.246707122   16.083804700   627.2938   5   9   1.6711   1.8017   8.0917   0.5171  -1.1545   0.7441   0.00    0.0
2018/03/15 12:48:17.000   78.246709287   16.083809345   627.4927   5   9   1.6711   1.8017   8.0912   0.5171  -1.1555   0.7440   0.00    0.0
2018/03/15 12:48:18.000   78.246712752   16.083794561   628.6637   5   9   1.6711   1.8017   8.0907   0.5172  -1.1565   0.7440   0.00    0.0
2018/03/15 12:48:19.000   78.246713353   16.083815606   629.5606   5   9   1.6712   1.8018   8.0902   0.5172  -1.1575   0.7439   0.00    0.0
2018/03/15 12:48:20.000   78.246712751   16.083830629   629.4757   5   9   1.6712   1.8018   8.0897   0.5172  -1.1584   0.7438   0.00    0.0
2018/03/15 12:48:21.000   78.246714131   16.083835383   629.5208   5   9   1.6712   1.8019   8.0892   0.5173  -1.1594   0.7438   0.00    0.0
2018/03/15 12:48:22.000   78.246711381   16.083844479   628.3987   5   9   1.6712   1.8019   8.0887   0.5173  -1.1604   0.7437   0.00    0.0
2018/03/15 12:48:23.000   78.246711495   16.083838392   628.0108   5   9   1.6712   1.8019   8.0882   0.5174  -1.1613   0.7436   0.00    0.0
2018/03/15 12:48:24.000   78.246710710   16.083838339   627.9809   5   9   1.6712   1.8020   8.0877   0.5174  -1.1623   0.7436   0.00    0.0
2018/03/15 12:48:25.000   78.246711349   16.083813311   627.5841   5   9   1.6712   1.8020   8.0872   0.5175  -1.1633   0.7435   0.00    0.0
2018/03/15 12:48:26.000   78.246711376   16.083810951   628.0408   5   9   1.6712   1.8021   8.0867   0.5175  -1.1642   0.7435   0.00    0.0
2018/03/15 12:48:27.000   78.246714070   16.083801608   628.1906   5   9   1.6712   1.8021   8.0862   0.5176  -1.1652   0.7434   0.00    0.0
2018/03/15 12:48:28.000   78.246709865   16.083797871   628.3503   5   9   1.6713   1.8021   8.0857   0.5176  -1.1661   0.7434   0.00    0.0
2018/03/15 12:48:29.000   78.246713721   16.083788339   630.5976   5   9   1.6713   1.8022   8.0852   0.5177  -1.1671   0.7433   0.00    0.0
2018/03/15 12:48:30.000   78.246714476   16.083795217   631.5506   5   9   1.6713   1.8022   8.0847   0.5177  -1.1680   0.7432   0.00    0.0
2018/03/15 12:48:31.000   78.246715887   16.083793893   630.8374   5   9   1.6713   1.8023   8.0842   0.5178  -1.1690   0.7432   0.00    0.0
2018/03/15 12:48:32.000   78.246714415   16.083807649   631.6412   5   9   1.6713   1.8023   8.0837   0.5178  -1.1700   0.7431   0.00    0.0
2018/03/15 12:48:33.000   78.246713758   16.083797409   631.4606   5   9   1.6713   1.8024   8.0832   0.5179  -1.1709   0.7431   0.00    0.0
2018/03/15 12:48:34.000   78.246712210   16.083806843   631.6281   5   9   1.6713   1.8024   8.0827   0.5179  -1.1719   0.7430   0.00    0.0
2018/03/15 12:48:35.000   78.246710408   16.083809762   630.4382   5   9   1.6713   1.8024   8.0821   0.5179  -1.1728   0.7430   0.00    0.0
2018/03/15 12:48:36.000   78.246705647   16.083817744   626.7004   5   9   1.6714   1.8025   8.0816   0.5180  -1.1738   0.7429   0.00    0.0
2018/03/15 12:48:37.000   78.246704831   16.083822599   625.7726   5   9   1.6714   1.8025   8.0811   0.5180  -1.1747   0.7429   0.00    0.0
2018/03/15 12:48:38.000   78.246711634   16.083802207   627.7432   5   9   1.6714   1.8026   8.0806   0.5181  -1.1756   0.7428   0.00    0.0
2018/03/15 12:48:39.000   78.246714198   16.083800673   628.6930   5   9   1.6714   1.8026   8.0801   0.5181  -1.1766   0.7428   0.00    0.0
2018/03/15 12:48:40.000   78.246716606   16.083796122   629.5106   5   9   1.6714   1.8027   8.0795   0.5182  -1.1775   0.7427   0.00    0.0
2018/03/15 12:48:41.000   78.246716232   16.083801224   630.9732   5   9   1.6714   1.8027   8.0790   0.5182  -1.1785   0.7427   0.00    0.0
2018/03/15 12:48:42.000   78.246716363   16.083821456   631.8869   5   9   1.6714   1.8027   8.0785   0.5183  -1.1794   0.7426   0.00    0.0
2018/03/15 12:48:43.000   78.246717792   16.083815474   631.9491   5   9   1.6714   1.8028   8.0780   0.5183  -1.1804   0.7426   0.00    0.0
2018/03/15 12:48:44.000   78.246718946   16.083820977   631.9425   5   9   1.6714   1.8028   8.0774   0.5184  -1.1813   0.7425   0.00    0.0
2018/03/15 12:48:45.000   78.246716337   16.083814769   630.5991   5   9   1.6715   1.8029   8.0769   0.5184  -1.1822   0.7425   0.00    0.0
2018/03/15 12:48:46.000   78.246716368   16.083819653   629.8564   5   9   1.6715   1.8029   8.0764   0.5185  -1.1832   0.7424   0.00    0.0
2018/03/15 12:48:47.000   78.246712263   16.083814519   627.5372   5   9   1.6715   1.8030   8.0758   0.5185  -1.1841   0.7424   0.00    0.0
2018/03/15 12:48:48.000   78.246710074   16.083830054   627.3101   5   9   1.6715   1.8030   8.0753   0.5185  -1.1850   0.7423   0.00    0.0
2018/03/15 12:48:49.000   78.246703024   16.083828747   624.8857   5   9   1.6715   1.8030   8.0748   0.5186  -1.1860   0.7423   0.00    0.0
2018/03/15 12:48:50.000   78.246707071   16.083808042   626.8599   5   9   1.6715   1.8031   8.0742   0.5186  -1.1869   0.7423   0.00    0.0
2018/03/15 12:48:51.000   78.246710444   16.083792933   628.4989   5   9   1.6715   1.8031   8.0737   0.5187  -1.1878   0.7422   0.00    0.0
2018/03/15 12:48:52.000   78.246714817   16.083780554   629.9636   5   9   1.6715   1.8032   8.0732   0.5187  -1.1887   0.7422   0.00    0.0
2018/03/15 12:48:53.000   78.246714240   16.083788839   629.8225   5   9   1.6716   1.8032   8.0726   0.5188  -1.1897   0.7421   0.00    0.0
2018/03/15 12:48:54.000   78.246712695   16.083786335   630.6368   5   9   1.6716   1.8033   8.0721   0.5188  -1.1906   0.7421   0.00    0.0
2018/03/15 12:48:55.000   78.246714777   16.083790878   631.8031   5   9   1.6716   1.8033   8.0715   0.5189  -1.1915   0.7420   0.00    0.0
2018/03/15 12:48:56.000   78.246715253   16.083791033   631.8598   5   9   1.6716   1.8033   8.0710   0.5189  -1.1924   0.7420   0.00    0.0
2018/03/15 12:48:57.000   78.246717214   16.083799896   632.4665   5   9   1.6716   1.8034   8.0704   0.5190  -1.1934   0.7420   0.00    0.0
2018/03/15 12:48:58.000   78.246713465   16.083812952   630.1681   5   9   1.6716   1.8034   8.0699   0.5190  -1.1943   0.7419   0.00    0.0
2018/03/15 12:48:59.000   78.246717794   16.083785903   632.3469   5   9   1.6716   1.8035   8.0693   0.5191  -1.1952   0.7419   0.00    0.0
2018/03/15 12:49:00.000   78.246716205   16.083795723   631.0358   5   9   1.6717   1.8035   8.0688   0.5191  -1.1961   0.7418   0.00    0.0
2018/03/15 12:49:01.000   78.246705348   16.083829686   626.2172   5   9   1.6717   1.8036   8.0682   0.5191  -1.1970   0.7418   0.00    0.0
2018/03/15 12:49:02.000   78.246707180   16.083829082   627.4523   5   9   1.6717   1.8036   8.0677   0.5192  -1.1980   0.7418   0.00    0.0
2018/03/15 12:49:03.000   78.246715298   16.083790745   629.0005   5   9   1.6717   1.8036   8.0671   0.5192  -1.1989   0.7417   0.00    0.0
2018/03/15 12:49:04.000   78.246717316   16.083779206   628.8023   5   9   1.6717   1.8037   8.0666   0.5193  -1.1998   0.7417   0.00    0.0
2018/03/15 12:49:05.000   78.246717306   16.083774789   628.9298   5   9   1.6717   1.8037   8.0660   0.5193  -1.2007   0.7417   0.00    0.0
2018/03/15 12:49:06.000   78.246716247   16.083800931   629.7913   5   9   1.6717   1.8038   8.0655   0.5194  -1.2016   0.7416   0.00    0.0
2018/03/15 12:49:07.000   78.246717711   16.083812201   630.6537   5   9   1.6717   1.8038   8.0649   0.5194  -1.2025   0.7416   0.00    0.0
2018/03/15 12:49:08.000   78.246719656   16.083814495   631.8952   5   9   1.6718   1.8039   8.0643   0.5195  -1.2034   0.7416   0.00    0.0
2018/03/15 12:49:09.000   78.246723142   16.083802587   633.5376   5   9   1.6718   1.8039   8.0638   0.5195  -1.2043   0.7415   0.00    0.0
2018/03/15 12:49:10.000   78.246721465   16.083806811   633.6407   5   9   1.6718   1.8039   8.0632   0.5196  -1.2052   0.7415   0.00    0.0
2018/03/15 12:49:11.000   78.246719918   16.083787584   633.4923   5   9   1.6718   1.8040   8.0627   0.5196  -1.2061   0.7415   0.00    0.0
2018/03/15 12:49:40.000   78.246735596   16.083700343   639.6685   5   9   1.6722   1.8053   8.0457   0.5209  -1.2319   0.7408   0.00    0.0
2018/03/15 12:49:41.000   78.246710722   16.083800329   630.8454   5   8   1.8812   1.9223   8.5594  -0.5454  -1.8571   1.7512   0.00    0.0
2018/03/15 12:49:42.000   78.246734843   16.083712317   638.8255   5   9   1.6723   1.8054   8.0445   0.5210  -1.2336   0.7408   0.00    0.0
2018/03/15 12:49:43.000   78.246718245   16.083779553   632.7812   5   9   1.6723   1.8054   8.0439   0.5211  -1.2345   0.7408   0.00    0.0
2018/03/15 12:49:44.000   78.246719169   16.083792826   632.2934   5   9   1.6723   1.8055   8.0433   0.5211  -1.2353   0.7408   0.00    0.0
2018/03/15 12:49:45.000   78.246718170   16.083783692   631.7117   5   9   1.6723   1.8055   8.0426   0.5211  -1.2362   0.7408   0.00    0.0
2018/03/15 12:49:46.000   78.246716944   16.083792399   630.3234   5   9   1.6723   1.8055   8.0420   0.5212  -1.2371   0.7408   0.00    0.0
2018/03/15 12:49:47.000   78.246719010   16.083793300   630.6928   5   9   1.6724   1.8056   8.0414   0.5212  -1.2379   0.7408   0.00    0.0
2018/03/15 12:49:48.000   78.246717763   16.083793586   630.1431   5   9   1.6724   1.8056   8.0408   0.5213  -1.2388   0.7408   0.00    0.0
2018/03/15 12:49:49.000   78.246719261   16.083770563   631.0756   5   9   1.6724   1.8057   8.0402   0.5213  -1.2397   0.7408   0.00    0.0
2018/03/15 12:49:50.000   78.246722030   16.083779847   631.8378   5   9   1.6724   1.8057   8.0396   0.5214  -1.2405   0.7408   0.00    0.0
2018/03/15 12:49:51.000   78.246725409   16.083771566   633.0047   5   9   1.6724   1.8058   8.0390   0.5214  -1.2414   0.7408   0.00    0.0
2018/03/15 12:49:52.000   78.246725821   16.083773856   633.1835   5   9   1.6724   1.8058   8.0383   0.5215  -1.2422   0.7407   0.00    0.0
2018/03/15 12:49:53.000   78.246712317   16.083825904   627.8835   5   8   1.8811   1.9231   8.5423  -0.5454  -1.8595   1.7434   0.00    0.0
2018/03/15 12:49:54.000   78.246726903   16.083779528   635.0596   5   9   1.6725   1.8059   8.0371   0.5216  -1.2439   0.7407   0.00    0.0
2018/03/15 12:49:55.000   78.246719438   16.083791389   632.6992   5   9   1.6725   1.8060   8.0365   0.5216  -1.2448   0.7407   0.00    0.0
2018/03/15 12:49:56.000   78.246716781   16.083796757   632.9871   5   9   1.6725   1.8060   8.0358   0.5216  -1.2456   0.7407   0.00    0.0
2018/03/15 12:49:57.000   78.246713638   16.083786059   631.7664   5   9   1.6725   1.8060   8.0352   0.5217  -1.2465   0.7407   0.00    0.0
2018/03/15 12:49:58.000   78.246711956   16.083780102   632.0768   5   9   1.6725   1.8061   8.0346   0.5217  -1.2473   0.7407   0.00    0.0
2018/03/15 12:49:59.000   78.246711280   16.083781405   630.6412   5   9   1.6726   1.8061   8.0340   0.5218  -1.2482   0.7407   0.00    0.0
2018/03/15 12:50:00.000   78.246713594   16.083783569   630.4016   5   9   1.6726   1.8062   8.0333   0.5218  -1.2490   0.7407   0.00    0.0
2018/03/15 12:50:01.000   78.246714269   16.083776137   631.1681   5   9   1.6726   1.8062   8.0327   0.5219  -1.2499   0.7407   0.00    0.0
2018/03/15 12:50:02.000   78.246713377   16.083785333   630.6920   5   9   1.6726   1.8063   8.0321   0.5219  -1.2507   0.7407   0.00    0.0
2018/03/15 12:50:03.000   78.246711861   16.083785249   629.6275   5   9   1.6726   1.8063   8.0314   0.5220  -1.2516   0.7407   0.00    0.0
2018/03/15 12:50:04.000   78.246708307   16.083800955   627.4321   5   9   1.6726   1.8064   8.0308   0.5220  -1.2524   0.7408   0.00    0.0
2018/03/15 12:50:05.000   78.246707436   16.083817870   627.3983   5   9   1.6727   1.8064   8.0302   0.5220  -1.2533   0.7408   0.00    0.0
2018/03/15 12:50:06.000   78.246710358   16.083813897   629.5986   5   9   1.6727   1.8065   8.0295   0.5221  -1.2541   0.7408   0.00    0.0
2018/03/15 12:50:07.000   78.246712531   16.083812172   631.3275   5   9   1.6727   1.8065   8.0289   0.5221  -1.2550   0.7408   0.00    0.0
2018/03/15 12:50:08.000   78.246713460   16.083815720   630.6916   5   9   1.6727   1.8065   8.0283   0.5222  -1.2558   0.7408   0.00    0.0
2018/03/15 12:50:09.000   78.246713639   16.083818689   630.5148   5   9   1.6727   1.8066   8.0276   0.5222  -1.2566   0.7408   0.00    0.0
2018/03/15 12:50:10.000   78.246714222   16.083813143   631.1618   5   9   1.6727   1.8066   8.0270   0.5223  -1.2575   0.7408   0.00    0.0
2018/03/15 12:50:11.000   78.246714124   16.083799010   630.5015   5   9   1.6728   1.8067   8.0263   0.5223  -1.2583   0.7408   0.00    0.0
2018/03/15 12:50:12.000   78.246714668   16.083810154   631.4267   5   9   1.6728   1.8067   8.0257   0.5224  -1.2591   0.7408   0.00    0.0
2018/03/15 12:50:13.000   78.246715279   16.083792495   630.5139   5   9   1.6728   1.8068   8.0250   0.5224  -1.2600   0.7408   0.00    0.0
2018/03/15 12:50:14.000   78.246714916   16.083793872   629.2845   5   9   1.6728   1.8068   8.0244   0.5224  -1.2608   0.7408   0.00    0.0
2018/03/15 12:50:15.000   78.246713992   16.083796201   628.3449   5   9   1.6728   1.8069   8.0237   0.5225  -1.2616   0.7408   0.00    0.0
2018/03/15 12:50:16.000   78.246711067   16.083804690   628.1485   5   9   1.6729   1.8069   8.0231   0.5225  -1.2625   0.7408   0.00    0.0
2018/03/15 12:50:17.000   78.246704094   16.083827355   625.8421   5   9   1.6729   1.8070   8.0224   0.5226  -1.2633   0.7408   0.00    0.0
2018/03/15 12:50:18.000   78.246706722   16.083830756   627.0077   5   9   1.6729   1.8070   8.0218   0.5226  -1.2641   0.7409   0.00    0.0
2018/03/15 12:50:19.000   78.246705808   16.083825890   629.3529   5   9   1.6729   1.8071   8.0211   0.5227  -1.2650   0.7409   0.00    0.0
2018/03/15 12:50:20.000   78.246709873   16.083816255   630.7502   5   9   1.6729   1.8071   8.0205   0.5227  -1.2658   0.7409   0.00    0.0
2018/03/15 12:50:21.000   78.246709415   16.083815280   631.0930   5   9   1.6729   1.8071   8.0198   0.5228  -1.2666   0.7409   0.00    0.0
2018/03/15 12:50:22.000   78.246711649   16.083793791   631.2186   5   9   1.6730   1.8072   8.0192   0.5228  -1.2674   0.7409   0.00    0.0
2018/03/15 12:50:23.000   78.246709258   16.083786211   631.3286   5   9   1.6730   1.8072   8.0185   0.5228  -1.2682   0.7409   0.00    0.0
2018/03/15 12:50:24.000   78.246707916   16.083790685   630.6828   5   9   1.6730   1.8073   8.0178   0.5229  -1.2691   0.7409   0.00    0.0
2018/03/15 12:50:25.000   78.246711721   16.083802696   630.8518   5   9   1.6730   1.8073   8.0172   0.5229  -1.2699   0.7410   0.00    0.0
2018/03/15 12:50:26.000   78.246712848   16.083792126   629.4314   5   9   1.6730   1.8074   8.0165   0.5230  -1.2707   0.7410   0.00    0.0
2018/03/15 12:50:27.000   78.246714436   16.083801440   629.5687   5   9   1.6731   1.8074   8.0158   0.5230  -1.2715   0.7410   0.00    0.0
2018/03/15 12:50:28.000   78.246712414   16.083810890   628.6937   5   9   1.6731   1.8075   8.0152   0.5231  -1.2723   0.7410   0.00    0.0
2018/03/15 12:50:29.000   78.246707411   16.083822592   626.8646   5   9   1.6731   1.8075   8.0145   0.5231  -1.2732   0.7410   0.00    0.0
2018/03/15 12:50:30.000   78.246708130   16.083822472   626.8490   5   9   1.6731   1.8076   8.0138   0.5231  -1.2740   0.7410   0.00    0.0
2018/03/15 12:50:31.000   78.246714465   16.083826115   628.7109   5   9   1.6731   1.8076   8.0132   0.5232  -1.2748   0.7411   0.00    0.0
2018/03/15 12:50:32.000   78.246714509   16.083813588   630.5569   5   9   1.6732   1.8077   8.0125   0.5232  -1.2756   0.7411   0.00    0.0
2018/03/15 12:50:33.000   78.246714163   16.083811043   629.5565   5   9   1.6732   1.8077   8.0118   0.5233  -1.2764   0.7411   0.00    0.0
2018/03/15 12:50:34.000   78.246713263   16.083817431   629.9626   5   9   1.6732   1.8078   8.0112   0.5233  -1.2772   0.7411   0.00    0.0
2018/03/15 12:50:35.000   78.246711739   16.083814776   629.6965   5   9   1.6732   1.8078   8.0105   0.5234  -1.2780   0.7411   0.00    0.0
2018/03/15 12:50:36.000   78.246711418   16.083801763   629.9976   5   9   1.6732   1.8078   8.0098   0.5234  -1.2788   0.7412   0.00    0.0
2018/03/15 12:50:37.000   78.246712310   16.083807254   629.5797   5   9   1.6733   1.8079   8.0091   0.5235  -1.2797   0.7412   0.00    0.0
2018/03/15 12:50:38.000   78.246707150   16.083808689   629.9012   5   9   1.6733   1.8079   8.0085   0.5235  -1.2805   0.7412   0.00    0.0
2018/03/15 12:50:39.000   78.246706261   16.083793242   628.7104   5   9   1.6733   1.8080   8.0078   0.5235  -1.2813   0.7412   0.00    0.0
2018/03/15 12:50:40.000   78.246706775   16.083809879   628.8051   5   9   1.6733   1.8080   8.0071   0.5236  -1.2821   0.7413   0.00    0.0
2018/03/15 12:50:41.000   78.246704862   16.083817937   627.5953   5   9   1.6733   1.8081   8.0064   0.5236  -1.2829   0.7413   0.00    0.0
2018/03/15 12:50:42.000   78.246707301   16.083816906   627.6309   5   9   1.6734   1.8081   8.0057   0.5237  -1.2837   0.7413   0.00    0.0
2018/03/15 12:50:43.000   78.246707067   16.083813764   627.8815   5   9   1.6734   1.8082   8.0051   0.5237  -1.2845   0.7413   0.00    0.0
2018/03/15 12:50:44.000   78.246708682   16.083804576   629.1059   5   9   1.6734   1.8082   8.0044   0.5238  -1.2853   0.7414   0.00    0.0
2018/03/15 12:50:45.000   78.246706679   16.083808748   629.2660   5   9   1.6734   1.8083   8.0037   0.5238  -1.2861   0.7414   0.00    0.0
2018/03/15 12:50:46.000   78.246706686   16.083803342   629.5087   5   9   1.6734   1.8083   8.0030   0.5238  -1.2869   0.7414   0.00    0.0
2018/03/15 12:50:47.000   78.246708375   16.083805689   628.8068   5   9   1.6735   1.8084   8.0023   0.5239  -1.2877   0.7415   0.00    0.0
2018/03/15 12:50:48.000   78.246705989   16.083810473   629.4477   5   9   1.6735   1.8084   8.0016   0.5239  -1.2885   0.7415   0.00    0.0
2018/03/15 12:50:49.000   78.246705580   16.083816079   629.0719   5   9   1.6735   1.8085   8.0009   0.5240  -1.2893   0.7415   0.00    0.0
2018/03/15 12:50:50.000   78.246705529   16.083813445   628.0437   5   9   1.6735   1.8085   8.0002   0.5240  -1.2901   0.7416   0.00    0.0
2018/03/15 12:50:51.000   78.246707126   16.083805500   627.9313   5   9   1.6735   1.8086   7.9995   0.5241  -1.2909   0.7416   0.00    0.0
2018/03/15 12:50:52.000   78.246706924   16.083805929   627.1120   5   9   1.6736   1.8086   7.9988   0.5241  -1.2916   0.7416   0.00    0.0
2018/03/15 12:50:53.000   78.246710865   16.083811165   627.6310   5   9   1.6736   1.8087   7.9981   0.5242  -1.2924   0.7416   0.00    0.0
2018/03/15 12:50:54.000   78.246711039   16.083813952   628.4118   5   9   1.6736   1.8087   7.9974   0.5242  -1.2932   0.7417   0.00    0.0
2018/03/15 12:50:55.000   78.246711332   16.083804124   628.0690   5   9   1.6736   1.8087   7.9967   0.5242  -1.2940   0.7417   0.00    0.0
2018/03/15 12:50:56.000   78.246711640   16.083817935   628.0806   5   9   1.6736   1.8088   7.9960   0.5243  -1.2948   0.7418   0.00    0.0
2018/03/15 12:50:57.000   78.246713382   16.083813532   628.4024   5   9   1.6737   1.8088   7.9953   0.5243  -1.2956   0.7418   0.00    0.0
2018/03/15 12:50:58.000   78.246715384   16.083814408   629.0446   5   9   1.6737   1.8089   7.9946   0.5244  -1.2964   0.7418   0.00    0.0
2018/03/15 12:50:59.000   78.246713767   16.083802750   628.4156   5   9   1.6737   1.8089   7.9939   0.5244  -1.2972   0.7419   0.00    0.0
2018/03/15 12:51:00.000   78.246711259   16.083795056   628.5911   5   9   1.6737   1.8090   7.9932   0.5245  -1.2979   0.7419   0.00    0.0
2018/03/15 12:51:01.000   78.246709605   16.083791641   628.9806   5   9   1.6737   1.8090   7.9925   0.5245  -1.2987   0.7419   0.00    0.0
2018/03/15 12:51:02.000   78.246705398   16.083795170   629.5523   5   9   1.6738   1.8091   7.9918   0.5245  -1.2995   0.7420   0.00    0.0
2018/03/15 12:51:03.000   78.246700538   16.083790353   629.7359   5   9   1.6738   1.8091   7.9911   0.5246  -1.3003   0.7420   0.00    0.0
2018/03/15 12:51:04.000   78.246703038   16.083810584   629.9513   5   9   1.6738   1.8092   7.9904   0.5246  -1.3011   0.7421   0.00    0.0
2018/03/15 12:51:05.000   78.246702962   16.083810520   630.5568   5   9   1.6738   1.8092   7.9897   0.5247  -1.3018   0.7421   0.00    0.0
2018/03/15 12:51:06.000   78.246702597   16.083828379   629.6242   5   9   1.6738   1.8093   7.9890   0.5247  -1.3026   0.7421   0.00    0.0
2018/03/15 12:51:07.000   78.246704078   16.083816199   629.4103   5   9   1.6739   1.8093   7.9883   0.5248  -1.3034   0.7422   0.00    0.0
2018/03/15 12:51:08.000   78.246708298   16.083820319   629.0545   5   9   1.6739   1.8094   7.9875   0.5248  -1.3042   0.7422   0.00    0.0
2018/03/15 12:51:09.000   78.246710535   16.083799459   628.3938   5   9   1.6739   1.8094   7.9868   0.5248  -1.3050   0.7423   0.00    0.0
2018/03/15 12:51:10.000   78.246712719   16.083798782   628.1505   5   9   1.6739   1.8095   7.9861   0.5249  -1.3057   0.7423   0.00    0.0
2018/03/15 12:51:11.000   78.246710590   16.083804224   627.1238   5   9   1.6740   1.8095   7.9854   0.5249  -1.3065   0.7424   0.00    0.0
2018/03/15 12:51:12.000   78.246710387   16.083818915   628.6095   5   9   1.6740   1.8096   7.9847   0.5250  -1.3073   0.7424   0.00    0.0
2018/03/15 12:51:13.000   78.246707599   16.083828103   627.0259   5   9   1.6740   1.8096   7.9840   0.5250  -1.3080   0.7425   0.00    0.0
2018/03/15 12:51:14.000   78.246705897   16.083837335   628.5110   5   9   1.6740   1.8097   7.9832   0.5251  -1.3088   0.7425   0.00    0.0
2018/03/15 12:51:15.000   78.246706400   16.083830437   628.2674   5   9   1.6740   1.8097   7.9825   0.5251  -1.3096   0.7425   0.00    0.0
2018/03/15 12:51:16.000   78.246705368   16.083840200   628.1981   5   9   1.6741   1.8098   7.9818   0.5251  -1.3103   0.7426   0.00    0.0
2018/03/15 12:51:17.000   78.246707599   16.083832974   629.8065   5   9   1.6741   1.8098   7.9811   0.5252  -1.3111   0.7426   0.00    0.0
2018/03/15 12:51:18.000   78.246708073   16.083828691   631.4300   5   9   1.6741   1.8099   7.9803   0.5252  -1.3119   0.7427   0.00    0.0
2018/03/15 12:51:19.000   78.246709148   16.083831461   631.3891   5   9   1.6741   1.8099   7.9796   0.5253  -1.3126   0.7427   0.00    0.0
2018/03/15 12:51:20.000   78.246712174   16.083828616   630.8004   5   9   1.6742   1.8099   7.9789   0.5253  -1.3134   0.7428   0.00    0.0
2018/03/15 12:51:21.000   78.246709524   16.083815996   629.0629   5   9   1.6742   1.8100   7.9781   0.5254  -1.3142   0.7428   0.00    0.0
2018/03/15 12:51:22.000   78.246712846   16.083820162   628.5029   5   9   1.6742   1.8100   7.9774   0.5254  -1.3149   0.7429   0.00    0.0
2018/03/15 12:51:23.000   78.246711487   16.083799566   627.2078   5   9   1.6742   1.8101   7.9767   0.5254  -1.3157   0.7429   0.00    0.0
2018/03/15 12:51:24.000   78.246711515   16.083785687   626.5078   5   9   1.6742   1.8101   7.9760   0.5255  -1.3164   0.7430   0.00    0.0
2018/03/15 12:51:25.000   78.246706953   16.083797562   627.2153   5   9   1.6743   1.8102   7.9752   0.5255  -1.3172   0.7431   0.00    0.0
2018/03/15 12:51:26.000   78.246704337   16.083806599   628.4925   5   9   1.6743   1.8102   7.9745   0.5256  -1.3180   0.7431   0.00    0.0
2018/03/15 12:51:27.000   78.246703552   16.083811723   628.7880   5   9   1.6743   1.8103   7.9737   0.5256  -1.3187   0.7432   0.00    0.0
2018/03/15 12:51:28.000   78.246704827   16.083822427   629.9338   5   9   1.6743   1.8103   7.9730   0.5257  -1.3195   0.7432   0.00    0.0
2018/03/15 12:51:29.000   78.246705351   16.083828973   629.4949   5   9   1.6744   1.8104   7.9723   0.5257  -1.3202   0.7433   0.00    0.0
2018/03/15 12:51:30.000   78.246705926   16.083840720   629.8253   5   9   1.6744   1.8104   7.9715   0.5257  -1.3210   0.7433   0.00    0.0
2018/03/15 12:51:31.000   78.246707998   16.083837629   630.8415   5   9   1.6744   1.8105   7.9708   0.5258  -1.3217   0.7434   0.00    0.0
2018/03/15 12:51:32.000   78.246709997   16.083832850   629.6057   5   9   1.6744   1.8105   7.9700   0.5258  -1.3225   0.7434   0.00    0.0
2018/03/15 12:51:33.000   78.246713551   16.083828722   629.1469   5   9   1.6745   1.8106   7.9693   0.5259  -1.3232   0.7435   0.00    0.0
2018/03/15 12:51:34.000   78.246712638   16.083826233   627.2302   5   9   1.6745   1.8106   7.9686   0.5259  -1.3240   0.7436   0.00    0.0
2018/03/15 12:51:35.000   78.246712909   16.083815218   628.5383   5   9   1.6745   1.8107   7.9678   0.5259  -1.3247   0.7436   0.00    0.0
2018/03/15 12:51:36.000   78.246712574   16.083801162   627.6730   5   9   1.6745   1.8107   7.9671   0.5260  -1.3255   0.7437   0.00    0.0
2018/03/15 12:51:37.000   78.246712595   16.083813932   627.9915   5   9   1.6745   1.8108   7.9663   0.5260  -1.3262   0.7437   0.00    0.0
2018/03/15 12:51:38.000   78.246710453   16.083819322   628.4993   5   9   1.6746   1.8108   7.9656   0.5261  -1.3270   0.7438   0.00    0.0
2018/03/15 12:51:39.000   78.246705556   16.083825214   628.1074   5   9   1.6746   1.8109   7.9648   0.5261  -1.3277   0.7439   0.00    0.0
2018/03/15 12:51:40.000   78.246702590   16.083825194   629.3287   5   9   1.6746   1.8109   7.9641   0.5262  -1.3285   0.7439   0.00    0.0
2018/03/15 12:51:41.000   78.246702103   16.083818349   629.2237   5   9   1.6746   1.8110   7.9633   0.5262  -1.3292   0.7440   0.00    0.0
2018/03/15 12:51:42.000   78.246701050   16.083823089   629.4189   5   9   1.6747   1.8110   7.9625   0.5262  -1.3299   0.7441   0.00    0.0
2018/03/15 12:51:43.000   78.246703809   16.083824659   630.5288   5   9   1.6747   1.8111   7.9618   0.5263  -1.3307   0.7441   0.00    0.0
2018/03/15 12:51:44.000   78.246704909   16.083815410   631.1778   5   9   1.6747   1.8111   7.9610   0.5263  -1.3314   0.7442   0.00    0.0
2018/03/15 12:51:45.000   78.246708610   16.083825005   630.6315   5   9   1.6747   1.8112   7.9603   0.5264  -1.3322   0.7443   0.00    0.0
2018/03/15 12:51:46.000   78.246708342   16.083815863   629.2706   5   9   1.6748   1.8112   7.9595   0.5264  -1.3329   0.7443   0.00    0.0
2018/03/15 12:51:47.000   78.246711567   16.083812850   628.1142   5   9   1.6748   1.8113   7.9588   0.5264  -1.3336   0.7444   0.00    0.0
2018/03/15 12:51:48.000   78.246713725   16.083799268   628.2234   5   9   1.6748   1.8113   7.9580   0.5265  -1.3344   0.7444   0.00    0.0
2018/03/15 12:51:49.000   78.246712266   16.083797248   627.7735   5   9   1.6748   1.8114   7.9572   0.5265  -1.3351   0.7445   0.00    0.0
2018/03/15 12:51:50.000   78.246710684   16.083814314   627.7907   5   9   1.6749   1.8114   7.9565   0.5266  -1.3358   0.7446   0.00    0.0
2018/03/15 12:51:51.000   78.246709176   16.083820266   629.3196   5   9   1.6749   1.8115   7.9557   0.5266  -1.3366   0.7447   0.00    0.0
2018/03/15 12:51:52.000   78.246710386   16.083825992   629.2583   5   9   1.6749   1.8115   7.9549   0.5267  -1.3373   0.7447   0.00    0.0
2018/03/15 12:51:53.000   78.246709055   16.083837485   629.1537   5   9   1.6749   1.8116   7.9542   0.5267  -1.3380   0.7448   0.00    0.0
2018/03/15 12:51:54.000   78.246710343   16.083845134   629.4440   5   9   1.6750   1.8116   7.9534   0.5267  -1.3388   0.7449   0.00    0.0
2018/03/15 12:51:55.000   78.246709543   16.083836596   628.7744   5   9   1.6750   1.8117   7.9526   0.5268  -1.3395   0.7449   0.00    0.0
2018/03/15 12:51:56.000   78.246712500   16.083820064   629.3623   5   9   1.6750   1.8117   7.9519   0.5268  -1.3402   0.7450   0.00    0.0
2018/03/15 12:51:57.000   78.246711452   16.083810141   628.3921   5   9   1.6750   1.8118   7.9511   0.5269  -1.3409   0.7451   0.00    0.0
2018/03/15 12:51:58.000   78.246711247   16.083817163   627.9238   5   9   1.6751   1.8118   7.9503   0.5269  -1.3417   0.7452   0.00    0.0
2018/03/15 12:51:59.000   78.246712873   16.083815020   627.8508   5   9   1.6751   1.8119   7.9495   0.5269  -1.3424   0.7452   0.00    0.0
2018/03/15 12:52:00.000   78.246712186   16.083799717   628.6317   5   9   1.6751   1.8119   7.9488   0.5270  -1.3431   0.7453   0.00    0.0
2018/03/15 12:52:01.000   78.246710925   16.083808061   628.6072   5   9   1.6751   1.8120   7.9480   0.5270  -1.3438   0.7454   0.00    0.0
2018/03/15 12:52:02.000   78.246711155   16.083810135   629.1543   5   9   1.6752   1.8120   7.9472   0.5271  -1.3446   0.7455   0.00    0.0
2018/03/15 12:52:03.000   78.246707375   16.083809887   629.3236   5   9   1.6752   1.8121   7.9464   0.5271  -1.3453   0.7455   0.00    0.0
2018/03/15 12:52:04.000   78.246706114   16.083811793   629.8380   5   9   1.6752   1.8121   7.9457   0.5272  -1.3460   0.7456   0.00    0.0
2018/03/15 12:52:05.000   78.246706312   16.083802740   629.4071   5   9   1.6752   1.8122   7.9449   0.5272  -1.3467   0.7457   0.00    0.0
2018/03/15 12:52:06.000   78.246705581   16.083803343   629.7359   5   9   1.6753   1.8122   7.9441   0.5272  -1.3474   0.7458   0.00    0.0
2018/03/15 12:52:07.000   78.246706492   16.083805400   628.1907   5   9   1.6753   1.8123   7.9433   0.5273  -1.3482   0.7459   0.00    0.0
2018/03/15 12:52:08.000   78.246706715   16.083823107   628.6462   5   9   1.6753   1.8123   7.9425   0.5273  -1.3489   0.7459   0.00    0.0
2018/03/15 12:52:09.000   78.246709514   16.083820512   629.0043   5   9   1.6753   1.8124   7.9417   0.5274  -1.3496   0.7460   0.00    0.0
2018/03/15 12:52:10.000   78.246709880   16.083809588   628.9187   5   9   1.6754   1.8124   7.9410   0.5274  -1.3503   0.7461   0.00    0.0
2018/03/15 12:52:11.000   78.246710464   16.083820510   628.5241   5   9   1.6754   1.8125   7.9402   0.5274  -1.3510   0.7462   0.00    0.0
2018/03/15 12:52:12.000   78.246710342   16.083827533   628.8410   5   9   1.6754   1.8125   7.9394   0.5275  -1.3517   0.7463   0.00    0.0
2018/03/15 12:52:13.000   78.246713219   16.083829649   628.7209   5   9   1.6754   1.8126   7.9386   0.5275  -1.3524   0.7463   0.00    0.0
2018/03/15 12:52:14.000   78.246713515   16.083833739   629.1320   5   9   1.6755   1.8126   7.9378   0.5276  -1.3532   0.7464   0.00    0.0
2018/03/15 12:52:15.000   78.246712421   16.083842989   629.5257   5   9   1.6755   1.8127   7.9370   0.5276  -1.3539   0.7465   0.00    0.0
2018/03/15 12:52:16.000   78.246711605   16.083837311   628.8691   5   9   1.6755   1.8127   7.9362   0.5276  -1.3546   0.7466   0.00    0.0
2018/03/15 12:52:17.000   78.246714818   16.083832032   629.2178   5   9   1.6755   1.8128   7.9354   0.5277  -1.3553   0.7467   0.00    0.0
2018/03/15 12:52:18.000   78.246714057   16.083831213   626.9356   5   9   1.6756   1.8128   7.9346   0.5277  -1.3560   0.7468   0.00    0.0
2018/03/15 12:52:19.000   78.246711470   16.083811789   627.6135   5   9   1.6756   1.8129   7.9338   0.5278  -1.3567   0.7469   0.00    0.0
2018/03/15 12:52:20.000   78.246712149   16.083807879   627.9725   5   9   1.6756   1.8129   7.9330   0.5278  -1.3574   0.7469   0.00    0.0
2018/03/15 12:52:21.000   78.246709506   16.083811532   627.7238   5   9   1.6756   1.8130   7.9322   0.5278  -1.3581   0.7470   0.00    0.0
2018/03/15 12:52:22.000   78.246710336   16.083825599   628.9490   5   9   1.6757   1.8130   7.9314   0.5279  -1.3588   0.7471   0.00    0.0
2018/03/15 12:52:23.000   78.246708443   16.083821431   629.0310   5   9   1.6757   1.8131   7.9306   0.5279  -1.3595   0.7472   0.00    0.0
2018/03/15 12:52:24.000   78.246709733   16.083834814   629.3486   5   9   1.6757   1.8131   7.9298   0.5280  -1.3602   0.7473   0.00    0.0
2018/03/15 12:52:25.000   78.246710115   16.083831936   629.8212   5   9   1.6757   1.8132   7.9290   0.5280  -1.3609   0.7474   0.00    0.0
2018/03/15 12:52:26.000   78.246709266   16.083831671   629.9457   5   9   1.6758   1.8132   7.9282   0.5280  -1.3616   0.7475   0.00    0.0
2018/03/15 12:52:27.000   78.246708989   16.083833776   629.7593   5   9   1.6758   1.8133   7.9274   0.5281  -1.3623   0.7476   0.00    0.0
2018/03/15 12:52:28.000   78.246710936   16.083836248   628.6685   5   9   1.6758   1.8133   7.9266   0.5281  -1.3630   0.7477   0.00    0.0
2018/03/15 12:52:29.000   78.246712098   16.083833768   627.7498   5   9   1.6759   1.8134   7.9258   0.5282  -1.3637   0.7478   0.00    0.0
2018/03/15 12:52:30.000   78.246712843   16.083835303   628.2619   5   9   1.6759   1.8134   7.9250   0.5282  -1.3644   0.7479   0.00    0.0
2018/03/15 12:52:31.000   78.246713924   16.083816791   627.9900   5   9   1.6759   1.8135   7.9242   0.5283  -1.3651   0.7479   0.00    0.0
2018/03/15 12:52:32.000   78.246712966   16.083821939   627.7291   5   9   1.6759   1.8135   7.9234   0.5283  -1.3658   0.7480   0.00    0.0
2018/03/15 12:52:33.000   78.246711887   16.083841215   628.2736   5   9   1.6760   1.8136   7.9226   0.5283  -1.3665   0.7481   0.00    0.0
2018/03/15 12:52:34.000   78.246711688   16.083828345   628.3467   5   9   1.6760   1.8136   7.9218   0.5284  -1.3672   0.7482   0.00    0.0
2018/03/15 12:52:35.000   78.246711286   16.083837000   629.8502   5   9   1.6760   1.8137   7.9209   0.5284  -1.3679   0.7483   0.00    0.0
2018/03/15 12:52:36.000   78.246710532   16.083839370   629.3399   5   9   1.6760   1.8137   7.9201   0.5285  -1.3686   0.7484   0.00    0.0
2018/03/15 12:52:37.000   78.246709338   16.083829161   629.4191   5   9   1.6761   1.8138   7.9193   0.5285  -1.3692   0.7485   0.00    0.0
2018/03/15 12:52:38.000   78.246709283   16.083824157   630.5072   5   9   1.6761   1.8138   7.9185   0.5285  -1.3699   0.7486   0.00    0.0
2018/03/15 12:52:39.000   78.246709398   16.083830758   630.1642   5   9   1.6761   1.8139   7.9177   0.5286  -1.3706   0.7487   0.00    0.0
2018/03/15 12:52:40.000   78.246708961   16.083822143   628.9271   5   9   1.6762   1.8139   7.9169   0.5286  -1.3713   0.7488   0.00    0.0
2018/03/15 12:52:41.000   78.246709861   16.083819158   628.3569   5   9   1.6762   1.8140   7.9160   0.5287  -1.3720   0.7489   0.00    0.0
2018/03/15 12:52:42.000   78.246709965   16.083817841   628.5245   5   9   1.6762   1.8140   7.9152   0.5287  -1.3727   0.7490   0.00    0.0
2018/03/15 12:52:43.000   78.246710981   16.083804593   627.9405   5   9   1.6762   1.8141   7.9144   0.5287  -1.3734   0.7491   0.00    0.0
2018/03/15 12:52:44.000   78.246711359   16.083803176   627.8785   5   9   1.6763   1.8141   7.9136   0.5288  -1.3740   0.7492   0.00    0.0
2018/03/15 12:52:45.000   78.246708469   16.083815942   629.5471   5   9   1.6763   1.8142   7.9128   0.5288  -1.3747   0.7493   0.00    0.0
2018/03/15 12:52:46.000   78.246707952   16.083824159   629.6380   5   9   1.6763   1.8142   7.9119   0.5288  -1.3754   0.7494   0.00    0.0
2018/03/15 12:52:47.000   78.246709466   16.083835154   630.2165   5   9   1.6763   1.8143   7.9111   0.5289  -1.3761   0.7495   0.00    0.0
2018/03/15 12:52:48.000   78.246711897   16.083831534   630.5860   5   9   1.6764   1.8143   7.9103   0.5289  -1.3768   0.7496   0.00    0.0
2018/03/15 12:52:49.000   78.246711465   16.083833428   630.9019   5   9   1.6764   1.8144   7.9094   0.5290  -1.3774   0.7497   0.00    0.0
2018/03/15 12:52:50.000   78.246710200   16.083823589   629.8512   5   9   1.6764   1.8144   7.9086   0.5290  -1.3781   0.7499   0.00    0.0
2018/03/15 12:52:51.000   78.246712401   16.083833775   629.6370   5   9   1.6765   1.8145   7.9078   0.5291  -1.3788   0.7500   0.00    0.0
2018/03/15 12:52:52.000   78.246713722   16.083833961   629.0140   5   9   1.6765   1.8145   7.9070   0.5291  -1.3795   0.7501   0.00    0.0
2018/03/15 12:52:53.000   78.246716760   16.083826831   628.8686   5   9   1.6765   1.8146   7.9061   0.5291  -1.3801   0.7502   0.00    0.0
2018/03/15 12:52:54.000   78.246715965   16.083832152   628.2961   5   9   1.6766   1.8146   7.9053   0.5292  -1.3808   0.7503   0.00    0.0
2018/03/15 12:52:55.000   78.246714940   16.083838534   627.9979   5   9   1.6766   1.8147   7.9045   0.5292  -1.3815   0.7504   0.00    0.0
2018/03/15 12:52:56.000   78.246716458   16.083847266   627.9193   5   9   1.6766   1.8148   7.9036   0.5293  -1.3822   0.7505   0.00    0.0
2018/03/15 12:52:57.000   78.246715310   16.083842774   627.7853   5   9   1.6766   1.8148   7.9028   0.5293  -1.3828   0.7506   0.00    0.0
2018/03/15 12:52:58.000   78.246713519   16.083835797   628.5207   5   9   1.6767   1.8149   7.9019   0.5294  -1.3835   0.7507   0.00    0.0
2018/03/15 12:52:59.000   78.246710925   16.083832493   628.5179   5   9   1.6767   1.8149   7.9011   0.5294  -1.3842   0.7508   0.00    0.0
2018/03/15 12:53:00.000   78.246712759   16.083832249   629.5788   5   9   1.6767   1.8150   7.9003   0.5294  -1.3849   0.7509   0.00    0.0
2018/03/15 12:53:01.000   78.246709680   16.083818507   629.5138   5   9   1.6768   1.8150   7.8994   0.5295  -1.3855   0.7510   0.00    0.0
2018/03/15 12:53:02.000   78.246705983   16.083825397   629.9631   5   9   1.6768   1.8151   7.8986   0.5295  -1.3862   0.7511   0.00    0.0
2018/03/15 12:53:03.000   78.246708081   16.083816581   630.2700   5   9   1.6768   1.8151   7.8977   0.5296  -1.3869   0.7512   0.00    0.0
2018/03/15 12:53:04.000   78.246706196   16.083817221   630.2749   5   9   1.6769   1.8152   7.8969   0.5296  -1.3875   0.7513   0.00    0.0
2018/03/15 12:53:05.000   78.246705860   16.083821054   629.2040   5   9   1.6769   1.8152   7.8961   0.5296  -1.3882   0.7515   0.00    0.0
2018/03/15 12:53:06.000   78.246703926   16.083815012   628.9080   5   9   1.6769   1.8153   7.8952   0.5297  -1.3889   0.7516   0.00    0.0
2018/03/15 12:53:07.000   78.246707698   16.083822418   629.8057   5   9   1.6769   1.8153   7.8944   0.5297  -1.3895   0.7517   0.00    0.0
2018/03/15 12:53:08.000   78.246709063   16.083812218   629.6747   5   9   1.6770   1.8154   7.8935   0.5298  -1.3902   0.7518   0.00    0.0
2018/03/15 12:53:09.000   78.246711514   16.083808005   628.7911   5   9   1.6770   1.8154   7.8927   0.5298  -1.3908   0.7519   0.00    0.0
2018/03/15 12:53:10.000   78.246711950   16.083792184   628.4273   5   9   1.6770   1.8155   7.8918   0.5299  -1.3915   0.7520   0.00    0.0
2018/03/15 12:53:11.000   78.246712291   16.083812939   628.6978   5   9   1.6771   1.8155   7.8910   0.5299  -1.3922   0.7521   0.00    0.0
2018/03/15 12:53:12.000   78.246711120   16.083812108   628.6774   5   9   1.6771   1.8156   7.8901   0.5299  -1.3928   0.7522   0.00    0.0
2018/03/15 12:53:13.000   78.246711133   16.083828094   629.4041   5   9   1.6771   1.8156   7.8893   0.5300  -1.3935   0.7524   0.00    0.0
2018/03/15 12:53:14.000   78.246709128   16.083829337   630.2877   5   9   1.6772   1.8157   7.8884   0.5300  -1.3941   0.7525   0.00    0.0
2018/03/15 12:53:15.000   78.246712233   16.083822524   630.7624   5   9   1.6772   1.8157   7.8876   0.5301  -1.3948   0.7526   0.00    0.0
2018/03/15 12:53:16.000   78.246711565   16.083826752   629.6203   5   9   1.6772   1.8158   7.8867   0.5301  -1.3954   0.7527   0.00    0.0
2018/03/15 12:53:17.000   78.246710534   16.083830081   629.3646   5   9   1.6773   1.8158   7.8858   0.5301  -1.3961   0.7528   0.00    0.0
2018/03/15 12:53:18.000   78.246713476   16.083819302   629.3594   5   9   1.6773   1.8159   7.8850   0.5302  -1.3968   0.7529   0.00    0.0
2018/03/15 12:53:19.000   78.246712335   16.083822176   628.2105   5   9   1.6773   1.8160   7.8841   0.5302  -1.3974   0.7531   0.00    0.0
2018/03/15 12:53:20.000   78.246712349   16.083813595   628.2474   5   9   1.6774   1.8160   7.8833   0.5303  -1.3981   0.7532   0.00    0.0
2018/03/15 12:53:21.000   78.246712599   16.083801992   627.8561   5   9   1.6774   1.8161   7.8824   0.5303  -1.3987   0.7533   0.00    0.0
2018/03/15 12:53:22.000   78.246714520   16.083801414   627.8095   5   9   1.6774   1.8161   7.8815   0.5304  -1.3994   0.7534   0.00    0.0
2018/03/15 12:53:23.000   78.246711367   16.083801959   628.9167   5   9   1.6774   1.8162   7.8807   0.5304  -1.4000   0.7535   0.00    0.0
2018/03/15 12:53:24.000   78.246710080   16.083812027   629.1273   5   9   1.6775   1.8162   7.8798   0.5304  -1.4007   0.7537   0.00    0.0
2018/03/15 12:53:25.000   78.246711056   16.083812486   629.9492   5   9   1.6775   1.8163   7.8789   0.5305  -1.4013   0.7538   0.00    0.0
2018/03/15 12:53:26.000   78.246710997   16.083807726   629.8445   5   9   1.6775   1.8163   7.8781   0.5305  -1.4019   0.7539   0.00    0.0
2018/03/15 12:53:27.000   78.246709151   16.083820391   630.3472   5   9   1.6776   1.8164   7.8772   0.5306  -1.4026   0.7540   0.00    0.0
2018/03/15 12:53:28.000   78.246705037   16.083811912   629.7020   5   9   1.6776   1.8164   7.8763   0.5306  -1.4032   0.7542   0.00    0.0
2018/03/15 12:53:29.000   78.246707592   16.083832418   630.0999   5   9   1.6776   1.8165   7.8755   0.5306  -1.4039   0.7543   0.00    0.0
2018/03/15 12:53:30.000   78.246708304   16.083830992   629.5362   5   9   1.6777   1.8165   7.8746   0.5307  -1.4045   0.7544   0.00    0.0
2018/03/15 12:53:31.000   78.246708884   16.083822302   629.4825   5   9   1.6777   1.8166   7.8737   0.5307  -1.4052   0.7545   0.00    0.0
2018/03/15 12:53:32.000   78.246710841   16.083820387   628.9139   5   9   1.6777   1.8166   7.8729   0.5308  -1.4058   0.7547   0.00    0.0
2018/03/15 12:53:33.000   78.246712448   16.083811626   628.5130   5   9   1.6778   1.8167   7.8720   0.5308  -1.4064   0.7548   0.00    0.0
2018/03/15 12:53:34.000   78.246714316   16.083813952   628.2783   5   9   1.6778   1.8167   7.8711   0.5309  -1.4071   0.7549   0.00    0.0
2018/03/15 12:53:35.000   78.246714480   16.083810129   628.9188   5   9   1.6778   1.8168   7.8702   0.5309  -1.4077   0.7550   0.00    0.0
2018/03/15 12:53:36.000   78.246713166   16.083823538   629.4024   5   9   1.6779   1.8168   7.8694   0.5309  -1.4084   0.7552   0.00    0.0
2018/03/15 12:53:37.000   78.246711949   16.083824328   628.6808   5   9   1.6779   1.8169   7.8685   0.5310  -1.4090   0.7553   0.00    0.0
2018/03/15 12:53:38.000   78.246709468   16.083830081   629.0068   5   9   1.6779   1.8170   7.8676   0.5310  -1.4096   0.7554   0.00    0.0
2018/03/15 12:53:39.000   78.246709142   16.083833502   629.4725   5   9   1.6780   1.8170   7.8667   0.5311  -1.4103   0.7556   0.00    0.0
2018/03/15 12:53:40.000   78.246709869   16.083825797   629.2579   5   9   1.6780   1.8171   7.8659   0.5311  -1.4109   0.7557   0.00    0.0
2018/03/15 12:53:41.000   78.246710858   16.083825148   629.6089   5   9   1.6780   1.8171   7.8650   0.5311  -1.4115   0.7558   0.00    0.0
2018/03/15 12:53:42.000   78.246713568   16.083824326   629.8163   5   9   1.6781   1.8172   7.8641   0.5312  -1.4122   0.7560   0.00    0.0
2018/03/15 12:53:43.000   78.246713560   16.083817742   629.9651   5   9   1.6781   1.8172   7.8632   0.5312  -1.4128   0.7561   0.00    0.0
2018/03/15 12:53:44.000   78.246713673   16.083825681   628.9108   5   9   1.6781   1.8173   7.8623   0.5313  -1.4134   0.7562   0.00    0.0
2018/03/15 12:53:45.000   78.246715219   16.083813085   628.9073   5   9   1.6782   1.8173   7.8614   0.5313  -1.4141   0.7564   0.00    0.0
2018/03/15 12:53:46.000   78.246716585   16.083804558   628.9554   5   9   1.6782   1.8174   7.8606   0.5313  -1.4147   0.7565   0.00    0.0
2018/03/15 12:53:47.000   78.246714328   16.083804717   629.3333   5   9   1.6782   1.8174   7.8597   0.5314  -1.4153   0.7566   0.00    0.0
2018/03/15 12:53:48.000   78.246714200   16.083820892   629.0814   5   9   1.6783   1.8175   7.8588   0.5314  -1.4159   0.7568   0.00    0.0
2018/03/15 12:53:49.000   78.246711918   16.083826898   629.8083   5   9   1.6783   1.8175   7.8579   0.5315  -1.4166   0.7569   0.00    0.0
2018/03/15 12:53:50.000   78.246709823   16.083819257   629.8555   5   9   1.6783   1.8176   7.8570   0.5315  -1.4172   0.7570   0.00    0.0
2018/03/15 12:53:51.000   78.246711832   16.083825216   629.5714   5   9   1.6784   1.8176   7.8561   0.5315  -1.4178   0.7572   0.00    0.0
2018/03/15 12:53:52.000   78.246712583   16.083816819   629.3207   5   9   1.6784   1.8177   7.8552   0.5316  -1.4185   0.7573   0.00    0.0
2018/03/15 12:53:53.000   78.246709243   16.083818922   627.8976   5   9   1.6784   1.8178   7.8543   0.5316  -1.4191   0.7574   0.00    0.0
2018/03/15 12:53:54.000   78.246711286   16.083824388   628.8396   5   9   1.6785   1.8178   7.8534   0.5317  -1.4197   0.7576   0.00    0.0
2018/03/15 12:53:55.000   78.246712979   16.083825331   628.8629   5   9   1.6785   1.8179   7.8526   0.5317  -1.4203   0.7577   0.00    0.0
2018/03/15 12:53:56.000   78.246715638   16.083825239   629.1080   5   9   1.6785   1.8179   7.8517   0.5317  -1.4209   0.7579   0.00    0.0
2018/03/15 12:53:57.000   78.246718209   16.083823388   628.8560   5   9   1.6786   1.8180   7.8508   0.5318  -1.4216   0.7580   0.00    0.0
2018/03/15 12:53:58.000   78.246717395   16.083828785   628.6250   5   9   1.6786   1.8180   7.8499   0.5318  -1.4222   0.7581   0.00    0.0
2018/03/15 12:53:59.000   78.246715951   16.083812392   629.0021   5   9   1.6786   1.8181   7.8490   0.5319  -1.4228   0.7583   0.00    0.0
2018/03/15 12:54:00.000   78.246714945   16.083836685   630.0351   5   9   1.6787   1.8181   7.8481   0.5319  -1.4234   0.7584   0.00    0.0
2018/03/15 12:54:01.000   78.246710872   16.083820425   630.1207   5   9   1.6787   1.8182   7.8472   0.5319  -1.4240   0.7586   0.00    0.0
2018/03/15 12:54:02.000   78.246710036   16.083815567   628.8374   5   9   1.6787   1.8182   7.8463   0.5320  -1.4246   0.7587   0.00    0.0
2018/03/15 12:54:03.000   78.246708611   16.083822603   628.7294   5   9   1.6788   1.8183   7.8454   0.5320  -1.4253   0.7589   0.00    0.0
2018/03/15 12:54:04.000   78.246708193   16.083808745   628.7948   5   9   1.6788   1.8183   7.8445   0.5321  -1.4259   0.7590   0.00    0.0
2018/03/15 12:54:05.000   78.246710512   16.083806259   627.9157   5   9   1.6788   1.8184   7.8436   0.5321  -1.4265   0.7592   0.00    0.0
2018/03/15 12:54:06.000   78.246709797   16.083799435   628.8498   5   9   1.6789   1.8184   7.8427   0.5321  -1.4271   0.7593   0.00    0.0
2018/03/15 12:54:07.000   78.246711659   16.083801017   628.8615   5   9   1.6789   1.8185   7.8418   0.5322  -1.4277   0.7594   0.00    0.0
2018/03/15 12:54:08.000   78.246712618   16.083810747   629.3642   5   9   1.6790   1.8186   7.8409   0.5322  -1.4283   0.7596   0.00    0.0
2018/03/15 12:54:09.000   78.246711674   16.083820528   629.4653   5   9   1.6790   1.8186   7.8399   0.5323  -1.4289   0.7597   0.00    0.0
2018/03/15 12:54:10.000   78.246712252   16.083828878   629.9988   5   9   1.6790   1.8187   7.8390   0.5323  -1.4295   0.7599   0.00    0.0
2018/03/15 12:54:11.000   78.246711516   16.083837076   629.6571   5   9   1.6791   1.8187   7.8381   0.5323  -1.4301   0.7600   0.00    0.0
2018/03/15 12:54:12.000   78.246712612   16.083833826   629.8131   5   9   1.6791   1.8188   7.8372   0.5324  -1.4308   0.7602   0.00    0.0
2018/03/15 12:54:13.000   78.246713427   16.083824324   628.3952   5   9   1.6791   1.8188   7.8363   0.5324  -1.4314   0.7603   0.00    0.0
2018/03/15 12:54:14.000   78.246713887   16.083821003   628.3617   5   9   1.6792   1.8189   7.8354   0.5325  -1.4320   0.7605   0.00    0.0
2018/03/15 12:54:15.000   78.246716129   16.083806632   627.8958   5   9   1.6792   1.8189   7.8345   0.5325  -1.4326   0.7606   0.00    0.0
2018/03/15 12:54:16.000   78.246716987   16.083799591   627.9937   5   9   1.6792   1.8190   7.8336   0.5325  -1.4332   0.7608   0.00    0.0
2018/03/15 12:54:17.000   78.246712567   16.083805197   628.1931   5   9   1.6793   1.8190   7.8327   0.5326  -1.4338   0.7609   0.00    0.0
2018/03/15 12:54:18.000   78.246713787   16.083829446   629.1640   5   9   1.6793   1.8191   7.8317   0.5326  -1.4344   0.7611   0.00    0.0
2018/03/15 12:54:19.000   78.246711373   16.083837187   630.3277   5   9   1.6793   1.8191   7.8308   0.5327  -1.4350   0.7612   0.00    0.0
2018/03/15 12:54:20.000   78.246709771   16.083830541   630.7971   5   9   1.6794   1.8192   7.8299   0.5327  -1.4356   0.7614   0.00    0.0
2018/03/15 12:54:21.000   78.246708479   16.083825639   630.8580   5   9   1.6794   1.8193   7.8290   0.5327  -1.4362   0.7616   0.00    0.0
2018/03/15 12:54:22.000   78.246710435   16.083825060   630.7260   5   9   1.6794   1.8193   7.8281   0.5328  -1.4368   0.7617   0.00    0.0
2018/03/15 12:54:23.000   78.246712582   16.083830489   629.2141   5   9   1.6795   1.8194   7.8272   0.5328  -1.4374   0.7619   0.00    0.0
2018/03/15 12:54:24.000   78.246711300   16.083820340   628.8093   5   9   1.6795   1.8194   7.8262   0.5329  -1.4380   0.7620   0.00    0.0
2018/03/15 12:54:25.000   78.246712474   16.083812781   629.0252   5   9   1.6796   1.8195   7.8253   0.5329  -1.4386   0.7622   0.00    0.0
2018/03/15 12:54:26.000   78.246711993   16.083808345   627.0709   5   9   1.6796   1.8195   7.8244   0.5329  -1.4392   0.7623   0.00    0.0
2018/03/15 12:54:27.000   78.246712179   16.083801716   627.5437   5   9   1.6796   1.8196   7.8235   0.5330  -1.4398   0.7625   0.00    0.0
2018/03/15 12:54:28.000   78.246710909   16.083808773   628.5979   5   9   1.6797   1.8196   7.8225   0.5330  -1.4404   0.7626   0.00    0.0
2018/03/15 12:54:29.000   78.246712176   16.083805606   629.4016   5   9   1.6797   1.8197   7.8216   0.5330  -1.4410   0.7628   0.00    0.0
2018/03/15 12:54:30.000   78.246708864   16.083824369   629.4155   5   9   1.6797   1.8197   7.8207   0.5331  -1.4415   0.7630   0.00    0.0
2018/03/15 12:54:31.000   78.246707805   16.083819480   629.8197   5   9   1.6798   1.8198   7.8198   0.5331  -1.4421   0.7631   0.00    0.0
2018/03/15 12:54:32.000   78.246708308   16.083820710   630.7913   5   9   1.6798   1.8198   7.8188   0.5332  -1.4427   0.7633   0.00    0.0
2018/03/15 12:54:33.000   78.246706948   16.083821418   629.2371   5   9   1.6798   1.8199   7.8179   0.5332  -1.4433   0.7634   0.00    0.0
2018/03/15 12:54:34.000   78.246708131   16.083818679   629.1673   5   9   1.6799   1.8200   7.8170   0.5332  -1.4439   0.7636   0.00    0.0
2018/03/15 12:54:35.000   78.246708410   16.083812458   628.6743   5   9   1.6799   1.8200   7.8160   0.5333  -1.4445   0.7638   0.00    0.0
2018/03/15 12:54:36.000   78.246707407   16.083808506   628.1968   5   9   1.6800   1.8201   7.8151   0.5333  -1.4451   0.7639   0.00    0.0
2018/03/15 12:54:37.000   78.246708302   16.083814650   628.3821   5   9   1.6800   1.8201   7.8142   0.5334  -1.4457   0.7641   0.00    0.0
2018/03/15 12:54:38.000   78.246711609   16.083814957   627.4686   5   9   1.6800   1.8202   7.8133   0.5334  -1.4463   0.7643   0.00    0.0
2018/03/15 12:54:39.000   78.246712459   16.083808440   627.6157   5   9   1.6801   1.8202   7.8123   0.5334  -1.4468   0.7644   0.00    0.0
2018/03/15 12:54:40.000   78.246713300   16.083808403   628.3452   5   9   1.6801   1.8203   7.8114   0.5335  -1.4474   0.7646   0.00    0.0
2018/03/15 12:54:41.000   78.246715117   16.083811570   629.3488   5   9   1.6801   1.8203   7.8104   0.5335  -1.4480   0.7647   0.00    0.0
2018/03/15 12:54:42.000   78.246713049   16.083821693   629.3695   5   9   1.6802   1.8204   7.8095   0.5335  -1.4486   0.7649   0.00    0.0
2018/03/15 12:54:43.000   78.246712765   16.083810133   628.8738   5   9   1.6802   1.8204   7.8086   0.5336  -1.4492   0.7651   0.00    0.0
2018/03/15 12:54:44.000   78.246712118   16.083814390   629.5939   5   9   1.6803   1.8205   7.8076   0.5336  -1.4498   0.7652   0.00    0.0
2018/03/15 12:54:45.000   78.246712230   16.083816244   628.9458   5   9   1.6803   1.8206   7.8067   0.5337  -1.4503   0.7654   0.00    0.0
2018/03/15 12:54:46.000   78.246712038   16.083816123   628.3534   5   9   1.6803   1.8206   7.8058   0.5337  -1.4509   0.7656   0.00    0.0
2018/03/15 12:54:47.000   78.246710824   16.083817146   629.7420   5   9   1.6804   1.8207   7.8048   0.5337  -1.4515   0.7657   0.00    0.0
2018/03/15 12:54:48.000   78.246712139   16.083814705   630.0286   5   9   1.6804   1.8207   7.8039   0.5338  -1.4521   0.7659   0.00    0.0
2018/03/15 12:54:49.000   78.246711640   16.083813558   629.1927   5   9   1.6804   1.8208   7.8029   0.5338  -1.4526   0.7661   0.00    0.0
2018/03/15 12:54:50.000   78.246710831   16.083802140   627.7905   5   9   1.6805   1.8208   7.8020   0.5338  -1.4532   0.7663   0.00    0.0
2018/03/15 12:54:51.000   78.246712097   16.083804370   627.8288   5   9   1.6805   1.8209   7.8010   0.5339  -1.4538   0.7664   0.00    0.0
2018/03/15 12:54:52.000   78.246712838   16.083811359   627.7845   5   9   1.6806   1.8209   7.8001   0.5339  -1.4544   0.7666   0.00    0.0
2018/03/15 12:54:53.000   78.246712890   16.083806888   628.3842   5   9   1.6806   1.8210   7.7992   0.5340  -1.4550   0.7668   0.00    0.0
2018/03/15 12:54:54.000   78.246711179   16.083817981   628.2300   5   9   1.6806   1.8210   7.7982   0.5340  -1.4555   0.7669   0.00    0.0
2018/03/15 12:54:55.000   78.246710353   16.083837108   629.1288   5   9   1.6807   1.8211   7.7973   0.5340  -1.4561   0.7671   0.00    0.0
2018/03/15 12:54:56.000   78.246711796   16.083825956   629.5464   5   9   1.6807   1.8212   7.7963   0.5341  -1.4567   0.7673   0.00    0.0
2018/03/15 12:54:57.000   78.246711020   16.083830421   628.9307   5   9   1.6807   1.8212   7.7954   0.5341  -1.4572   0.7675   0.00    0.0
2018/03/15 12:54:58.000   78.246712382   16.083828693   628.5780   5   9   1.6808   1.8213   7.7944   0.5341  -1.4578   0.7676   0.00    0.0
2018/03/15 12:54:59.000   78.246709872   16.083821344   629.4591   5   9   1.6808   1.8213   7.7935   0.5342  -1.4584   0.7678   0.00    0.0
2018/03/15 12:55:00.000   78.246711483   16.083812669   629.0677   5   9   1.6809   1.8214   7.7925   0.5342  -1.4589   0.7680   0.00    0.0
2018/03/15 12:55:01.000   78.246711235   16.083815146   628.3630   5   9   1.6809   1.8214   7.7916   0.5343  -1.4595   0.7682   0.00    0.0
2018/03/15 12:55:02.000   78.246710828   16.083819683   628.5356   5   9   1.6809   1.8215   7.7906   0.5343  -1.4601   0.7683   0.00    0.0
2018/03/15 12:55:03.000   78.246710952   16.083825079   628.4844   5   9   1.6810   1.8215   7.7897   0.5343  -1.4606   0.7685   0.00    0.0
2018/03/15 12:55:04.000   78.246713957   16.083826845   629.0271   5   9   1.6810   1.8216   7.7887   0.5344  -1.4612   0.7687   0.00    0.0
2018/03/15 12:55:05.000   78.246712674   16.083824650   629.1597   5   9   1.6811   1.8216   7.7877   0.5344  -1.4618   0.7689   0.00    0.0
2018/03/15 12:55:06.000   78.246713484   16.083833878   629.1058   5   9   1.6811   1.8217   7.7868   0.5344  -1.4623   0.7690   0.00    0.0
2018/03/15 12:55:07.000   78.246711488   16.083822567   629.8015   5   9   1.6811   1.8218   7.7858   0.5345  -1.4629   0.7692   0.00    0.0
2018/03/15 12:55:08.000   78.246711293   16.083829059   629.1985   5   9   1.6812   1.8218   7.7849   0.5345  -1.4635   0.7694   0.00    0.0
2018/03/15 12:55:09.000   78.246710955   16.083815165   628.6630   5   9   1.6812   1.8219   7.7839   0.5346  -1.4640   0.7696   0.00    0.0
