% program   : RTKPOST ver.2.4.2
% inp file  : Z:\home\linda\Documents\Spring18\GitHub_Unis\data\processed_data\46250723.obs
% inp file  : Z:\home\linda\Documents\Spring18\GitHub_Unis\data\base_station_data\lyrs0720.18o
% inp file  : Z:\home\linda\Documents\Spring18\GitHub_Unis\data\processed_data\46250723.nav
% obs start : 2018/03/13 12:56:14.0 GPST (week1992 219374.0s)
% obs end   : 2018/03/13 13:11:18.0 GPST (week1992 220278.0s)
% pos mode  : static
% freqs     : L1+L2
% solution  : forward
% elev mask : 15.0 deg
% dynamics  : on
% tidecorr  : off
% ionos opt : iono-free
% tropo opt : saastamoinen
% ephemeris : broadcast
% navi sys  : gps glonass galileo qzss sbas
% amb res   : fix and hold
% amb glo   : on
% val thres : 3.0
% antenna1  :                       ( 0.0000  0.0000  0.0000)
% antenna2  :                       ( 0.0000  0.0000  0.0000)
% ref pos   : 78.228825638   15.397310064   495.6816
%
% (lat/lon/height=WGS84/ellipsoidal,Q=1:fix,2:float,3:sbas,4:dgps,5:single,6:ppp,ns=# of satellites)
%  GPST                  latitude(deg) longitude(deg)  height(m)   Q  ns   sdn(m)   sde(m)   sdu(m)  sdne(m)  sdeu(m)  sdun(m) age(s)  ratio
2018/03/13 12:56:14.000   78.254767269   16.249379356   342.0256   2   9   1.0309   0.9364   3.8924   0.1214   0.9234   1.0822   0.00    1.1
2018/03/13 12:56:15.000   78.254770520   16.249378226   341.6759   2   9   0.7302   0.6629   2.7652   0.0877   0.6565   0.7696   0.00    1.1
2018/03/13 12:56:16.000   78.254772571   16.249373580   342.9861   2   9   0.5964   0.5415   2.2601   0.0720   0.5366   0.6293   0.00    1.0
2018/03/13 12:56:17.000   78.254768804   16.249366114   342.0874   2   9   0.5166   0.4690   1.9573   0.0625   0.4647   0.5450   0.00    1.1
2018/03/13 12:56:18.000   78.254768139   16.249350574   341.5952   2   9   0.4621   0.4195   1.7496   0.0558   0.4153   0.4872   0.00    1.1
2018/03/13 12:56:19.000   78.254766793   16.249337922   341.9242   2   9   0.4218   0.3829   1.5955   0.0508   0.3787   0.4443   0.00    1.1
2018/03/13 12:56:20.000   78.254766471   16.249326746   341.5465   2   9   0.3904   0.3544   1.4752   0.0469   0.3501   0.4108   0.00    1.1
2018/03/13 12:56:21.000   78.254766775   16.249320221   341.2452   2   9   0.3651   0.3315   1.3777   0.0436   0.3268   0.3836   0.00    1.1
2018/03/13 12:56:22.000   78.254767395   16.249320832   340.8546   2   9   0.3441   0.3125   1.2965   0.0409   0.3075   0.3609   0.00    1.2
2018/03/13 12:56:23.000   78.254767903   16.249327737   340.8882   2   9   0.3264   0.2964   1.2273   0.0385   0.2910   0.3415   0.00    1.2
2018/03/13 12:56:24.000   78.254767400   16.249331293   340.6232   2   9   0.3111   0.2825   1.1674   0.0364   0.2767   0.3247   0.00    1.2
2018/03/13 12:56:25.000   78.254766876   16.249332150   340.6752   2   9   0.2977   0.2704   1.1148   0.0345   0.2641   0.3100   0.00    1.2
2018/03/13 12:56:26.000   78.254767594   16.249332914   341.2267   2   9   0.2859   0.2597   1.0680   0.0328   0.2529   0.2969   0.00    1.2
2018/03/13 12:56:27.000   78.254766403   16.249337265   341.5464   2   9   0.2753   0.2501   1.0260   0.0313   0.2429   0.2850   0.00    1.2
2018/03/13 12:56:28.000   78.254766731   16.249342074   341.8587   2   9   0.2658   0.2416   0.9880   0.0298   0.2337   0.2743   0.00    1.2
2018/03/13 12:56:29.000   78.254767537   16.249344924   342.2331   2   9   0.2573   0.2338   0.9533   0.0285   0.2254   0.2645   0.00    1.2
2018/03/13 12:56:30.000   78.254767228   16.249348761   342.0298   2   9   0.2494   0.2267   0.9214   0.0272   0.2178   0.2555   0.00    1.2
2018/03/13 12:56:31.000   78.254767344   16.249350841   342.2279   2   9   0.2422   0.2202   0.8920   0.0260   0.2107   0.2472   0.00    1.2
2018/03/13 12:56:32.000   78.254767521   16.249353694   342.4597   2   9   0.2356   0.2142   0.8647   0.0249   0.2041   0.2394   0.00    1.2
2018/03/13 12:56:33.000   78.254767043   16.249355248   342.5260   2   9   0.2295   0.2087   0.8392   0.0238   0.1980   0.2322   0.00    1.2
2018/03/13 12:56:34.000   78.254766672   16.249356997   342.3474   2   9   0.2238   0.2036   0.8154   0.0228   0.1922   0.2254   0.00    1.3
2018/03/13 12:56:35.000   78.254767533   16.249356164   342.5609   2   9   0.2185   0.1988   0.7930   0.0218   0.1868   0.2190   0.00    1.2
2018/03/13 12:56:36.000   78.254767578   16.249355963   342.5202   2   9   0.2135   0.1943   0.7719   0.0208   0.1817   0.2130   0.00    1.2
2018/03/13 12:56:37.000   78.254767574   16.249356808   342.4255   2   9   0.2088   0.1901   0.7519   0.0199   0.1769   0.2073   0.00    1.2
2018/03/13 12:56:38.000   78.254768355   16.249357707   342.6348   2   9   0.2044   0.1861   0.7330   0.0190   0.1723   0.2018   0.00    1.2
2018/03/13 12:56:39.000   78.254768445   16.249358011   342.6507   2   9   0.2003   0.1824   0.7150   0.0181   0.1679   0.1966   0.00    1.2
2018/03/13 12:56:40.000   78.254768177   16.249359153   342.5426   2   9   0.1963   0.1789   0.6979   0.0173   0.1638   0.1917   0.00    1.2
2018/03/13 12:56:41.000   78.254768419   16.249358184   342.7025   2   9   0.1926   0.1755   0.6815   0.0164   0.1598   0.1870   0.00    1.2
2018/03/13 12:56:42.000   78.254768402   16.249357291   342.8157   2   9   0.1891   0.1723   0.6659   0.0156   0.1560   0.1825   0.00    1.2
2018/03/13 12:56:43.000   78.254767641   16.249355911   342.7040   2   9   0.1857   0.1693   0.6509   0.0148   0.1523   0.1781   0.00    1.2
2018/03/13 12:56:44.000   78.254766993   16.249355494   342.6853   2   9   0.1825   0.1664   0.6366   0.0140   0.1488   0.1739   0.00    1.2
2018/03/13 12:56:45.000   78.254766344   16.249354884   342.6072   2   9   0.1795   0.1637   0.6228   0.0132   0.1455   0.1699   0.00    1.2
2018/03/13 12:56:46.000   78.254766186   16.249355108   342.4993   2   9   0.1765   0.1611   0.6096   0.0124   0.1422   0.1661   0.00    1.3
2018/03/13 12:56:47.000   78.254766136   16.249355588   342.4480   2   9   0.1737   0.1586   0.5968   0.0117   0.1391   0.1623   0.00    1.3
2018/03/13 12:56:48.000   78.254766414   16.249356431   342.5164   2   9   0.1711   0.1562   0.5845   0.0109   0.1361   0.1587   0.00    1.3
2018/03/13 12:56:49.000   78.254766471   16.249356174   342.4669   2   9   0.1685   0.1539   0.5726   0.0101   0.1332   0.1552   0.00    1.3
2018/03/13 12:56:50.000   78.254766278   16.249354674   342.5570   2   9   0.1660   0.1516   0.5612   0.0094   0.1304   0.1519   0.00    1.3
2018/03/13 12:56:51.000   78.254766170   16.249353937   342.7222   2   9   0.1636   0.1495   0.5501   0.0086   0.1276   0.1486   0.00    1.3
2018/03/13 12:56:52.000   78.254765980   16.249354052   342.8414   2   9   0.1613   0.1474   0.5394   0.0078   0.1250   0.1454   0.00    1.3
2018/03/13 12:56:53.000   78.254766014   16.249354948   342.9602   2   9   0.1591   0.1455   0.5290   0.0070   0.1225   0.1424   0.00    1.3
2018/03/13 12:56:54.000   78.254766305   16.249354977   343.0697   2   9   0.1570   0.1436   0.5189   0.0061   0.1200   0.1394   0.00    1.3
2018/03/13 12:56:55.000   78.254766694   16.249355496   343.2131   2   9   0.1549   0.1417   0.5092   0.0052   0.1176   0.1365   0.00    1.3
2018/03/13 12:56:56.000   78.254767138   16.249355605   343.3097   2   9   0.1529   0.1399   0.4997   0.0041   0.1152   0.1337   0.00    1.3
2018/03/13 12:56:57.000   78.254767546   16.249356281   343.3809   2   9   0.1510   0.1382   0.4906   0.0029   0.1130   0.1309   0.00    1.3
2018/03/13 12:56:58.000   78.254767789   16.249357201   343.3777   2   9   0.1491   0.1365   0.4817   0.0002   0.1108   0.1283   0.00    1.3
2018/03/13 12:56:59.000   78.254767998   16.249357361   343.2912   2   9   0.1473   0.1349   0.4730  -0.0027   0.1086   0.1257   0.00    1.3
2018/03/13 12:57:00.000   78.254768241   16.249357074   343.2120   2   9   0.1456   0.1334   0.4646  -0.0038   0.1065   0.1232   0.00    1.3
2018/03/13 12:57:01.000   78.254768711   16.249357067   343.2045   2   9   0.1439   0.1318   0.4565  -0.0045   0.1045   0.1207   0.00    1.3
2018/03/13 12:57:02.000   78.254769189   16.249356532   343.2006   2   9   0.1422   0.1304   0.4485  -0.0051   0.1025   0.1183   0.00    1.3
2018/03/13 12:57:03.000   78.254769493   16.249355924   343.1492   2   9   0.1406   0.1289   0.4408  -0.0056   0.1006   0.1160   0.00    1.3
2018/03/13 12:57:04.000   78.254769713   16.249355013   343.2008   2   9   0.1391   0.1275   0.4332  -0.0060   0.0987   0.1137   0.00    1.3
2018/03/13 12:57:05.000   78.254770090   16.249354587   343.3122   2   9   0.1376   0.1262   0.4259  -0.0064   0.0969   0.1115   0.00    1.3
2018/03/13 12:57:06.000   78.254770185   16.249354485   343.3101   2   9   0.1361   0.1249   0.4188  -0.0066   0.0951   0.1094   0.00    1.3
2018/03/13 12:57:07.000   78.254770281   16.249354887   343.3482   2   9   0.1347   0.1236   0.4118  -0.0069   0.0934   0.1072   0.00    1.3
2018/03/13 12:57:08.000   78.254770400   16.249354519   343.4107   2   9   0.1333   0.1223   0.4051  -0.0071   0.0917   0.1052   0.00    1.3
2018/03/13 12:57:09.000   78.254770282   16.249355122   343.3638   2   9   0.1319   0.1211   0.3984  -0.0073   0.0901   0.1032   0.00    1.3
2018/03/13 12:57:10.000   78.254770351   16.249355078   343.3751   2   9   0.1306   0.1199   0.3920  -0.0074   0.0884   0.1012   0.00    1.3
2018/03/13 12:57:11.000   78.254770587   16.249355577   343.4233   2   9   0.1293   0.1188   0.3857  -0.0075   0.0869   0.0993   0.00    1.3
2018/03/13 12:57:12.000   78.254770673   16.249356077   343.4340   2   9   0.1280   0.1176   0.3796  -0.0076   0.0853   0.0974   0.00    1.3
2018/03/13 12:57:13.000   78.254770581   16.249356111   343.4426   2   9   0.1268   0.1165   0.3736  -0.0077   0.0838   0.0956   0.00    1.3
2018/03/13 12:57:14.000   78.254770662   16.249355775   343.4883   2   9   0.1256   0.1154   0.3678  -0.0077   0.0824   0.0938   0.00    1.3
2018/03/13 12:57:15.000   78.254770589   16.249354106   343.4665   2   9   0.1244   0.1144   0.3621  -0.0078   0.0809   0.0920   0.00    1.3
2018/03/13 12:57:16.000   78.254770595   16.249352180   343.4616   2   9   0.1232   0.1134   0.3565  -0.0078   0.0795   0.0903   0.00    1.3
2018/03/13 12:57:17.000   78.254770701   16.249349987   343.5263   2   9   0.1221   0.1123   0.3511  -0.0078   0.0782   0.0886   0.00    1.3
2018/03/13 12:57:18.000   78.254770760   16.249349283   343.5748   2   9   0.1210   0.1114   0.3458  -0.0077   0.0768   0.0870   0.00    1.3
2018/03/13 12:57:19.000   78.254770842   16.249348857   343.5943   2   9   0.1199   0.1104   0.3406  -0.0077   0.0755   0.0854   0.00    1.3
2018/03/13 12:57:20.000   78.254771073   16.249348590   343.7067   2   9   0.1189   0.1094   0.3355  -0.0077   0.0742   0.0838   0.00    1.3
2018/03/13 12:57:21.000   78.254771081   16.249349520   343.7828   2   9   0.1179   0.1085   0.3306  -0.0076   0.0730   0.0823   0.00    1.3
2018/03/13 12:57:22.000   78.254771073   16.249350546   343.8586   2   9   0.1169   0.1076   0.3258  -0.0075   0.0718   0.0808   0.00    1.3
2018/03/13 12:57:23.000   78.254771280   16.249351003   343.9329   2   9   0.1159   0.1067   0.3210  -0.0074   0.0706   0.0793   0.00    1.3
2018/03/13 12:57:24.000   78.254771446   16.249352188   343.9695   2   9   0.1149   0.1059   0.3164  -0.0073   0.0694   0.0779   0.00    1.3
2018/03/13 12:57:25.000   78.254771571   16.249353408   343.9475   2   9   0.1140   0.1050   0.3119  -0.0072   0.0682   0.0764   0.00    1.3
2018/03/13 12:57:26.000   78.254771739   16.249353701   343.9180   2   9   0.1130   0.1042   0.3075  -0.0071   0.0671   0.0750   0.00    1.3
2018/03/13 12:57:27.000   78.254771911   16.249354303   343.9014   2   9   0.1121   0.1033   0.3031  -0.0069   0.0660   0.0737   0.00    1.2
2018/03/13 12:57:28.000   78.254771873   16.249355131   343.8981   2   9   0.1112   0.1025   0.2989  -0.0068   0.0650   0.0724   0.00    1.2
2018/03/13 12:57:29.000   78.254772042   16.249354972   343.9133   2   9   0.1103   0.1017   0.2948  -0.0066   0.0639   0.0711   0.00    1.2
2018/03/13 12:57:30.000   78.254772162   16.249354618   343.9234   2   9   0.1095   0.1010   0.2907  -0.0064   0.0629   0.0698   0.00    1.2
2018/03/13 12:57:31.000   78.254772131   16.249354132   343.9211   2   9   0.1086   0.1002   0.2868  -0.0062   0.0619   0.0685   0.00    1.2
2018/03/13 12:57:32.000   78.254772130   16.249353224   343.9313   2   9   0.1078   0.0995   0.2829  -0.0060   0.0609   0.0673   0.00    1.2
2018/03/13 12:57:33.000   78.254772184   16.249352786   343.9247   2   9   0.1070   0.0987   0.2791  -0.0058   0.0599   0.0661   0.00    1.2
2018/03/13 12:57:34.000   78.254772151   16.249352792   343.9337   2   9   0.1062   0.0980   0.2754  -0.0056   0.0589   0.0649   0.00    1.2
2018/03/13 12:57:35.000   78.254772239   16.249352581   343.9473   2   9   0.1054   0.0973   0.2717  -0.0053   0.0580   0.0637   0.00    1.2
2018/03/13 12:57:36.000   78.254772210   16.249353105   343.9399   2   9   0.1046   0.0966   0.2682  -0.0051   0.0571   0.0626   0.00    1.2
2018/03/13 12:57:37.000   78.254772152   16.249353690   343.9364   2   9   0.1038   0.0959   0.2647  -0.0048   0.0562   0.0615   0.00    1.2
2018/03/13 12:57:38.000   78.254772165   16.249354317   343.9413   2   9   0.1031   0.0952   0.2612  -0.0044   0.0553   0.0604   0.00    1.2
2018/03/13 12:57:39.000   78.254772006   16.249354754   343.9465   2   9   0.1024   0.0946   0.2579  -0.0041   0.0545   0.0593   0.00    1.2
2018/03/13 12:57:40.000   78.254771882   16.249354738   343.9236   2   9   0.1016   0.0939   0.2546  -0.0037   0.0536   0.0582   0.00    1.2
2018/03/13 12:57:41.000   78.254771816   16.249354373   343.9286   2   9   0.1009   0.0933   0.2514  -0.0032   0.0528   0.0572   0.00    1.1
2018/03/13 12:57:42.000   78.254771684   16.249354666   343.9190   2   9   0.1002   0.0926   0.2482  -0.0027   0.0520   0.0562   0.00    1.1
2018/03/13 12:57:43.000   78.254771803   16.249354247   343.9489   2   9   0.0995   0.0920   0.2451  -0.0020   0.0512   0.0552   0.00    1.1
2018/03/13 12:57:44.000   78.254771921   16.249353933   343.9678   2   9   0.0989   0.0914   0.2421  -0.0010   0.0504   0.0542   0.00    1.1
2018/03/13 12:57:45.000   78.254771965   16.249353797   343.9527   2   9   0.0982   0.0908   0.2391   0.0015   0.0496   0.0532   0.00    1.1
2018/03/13 12:57:46.000   78.254772084   16.249354056   343.9520   2   9   0.0975   0.0902   0.2362   0.0024   0.0489   0.0522   0.00    1.1
2018/03/13 12:57:47.000   78.254772231   16.249354270   343.9541   2   9   0.0969   0.0896   0.2333   0.0030   0.0481   0.0513   0.00    1.1
2018/03/13 12:57:48.000   78.254772305   16.249354753   343.9637   2   9   0.0962   0.0890   0.2305   0.0035   0.0474   0.0504   0.00    1.1
2018/03/13 12:57:49.000   78.254772550   16.249355118   344.0171   2   9   0.0956   0.0884   0.2278   0.0039   0.0467   0.0495   0.00    1.1
2018/03/13 12:57:50.000   78.254772706   16.249355018   344.0622   2   9   0.0950   0.0879   0.2251   0.0043   0.0460   0.0486   0.00    1.1
2018/03/13 12:57:51.000   78.254772669   16.249355241   344.0930   2   9   0.0944   0.0873   0.2225   0.0047   0.0453   0.0477   0.00    1.1
2018/03/13 12:57:52.000   78.254772745   16.249355100   344.1428   2   9   0.0938   0.0868   0.2199   0.0050   0.0446   0.0468   0.00    1.1
2018/03/13 12:57:53.000   78.254772834   16.249354920   344.1776   2   9   0.0932   0.0862   0.2173   0.0054   0.0439   0.0460   0.00    1.1
2018/03/13 12:57:54.000   78.254772867   16.249355411   344.1677   2   9   0.0926   0.0857   0.2148   0.0057   0.0433   0.0452   0.00    1.0
2018/03/13 12:57:55.000   78.254773031   16.249355350   344.1672   2   9   0.0920   0.0852   0.2123   0.0060   0.0426   0.0443   0.00    1.0
2018/03/13 12:57:56.000   78.254773119   16.249355293   344.1664   2   9   0.0914   0.0847   0.2099   0.0062   0.0420   0.0435   0.00    1.0
2018/03/13 12:57:57.000   78.254773081   16.249355376   344.1677   2   9   0.0909   0.0841   0.2076   0.0065   0.0414   0.0427   0.00    1.0
2018/03/13 12:57:58.000   78.254773194   16.249355266   344.2033   2   9   0.0903   0.0836   0.2053   0.0067   0.0408   0.0419   0.00    1.0
2018/03/13 12:57:59.000   78.254773330   16.249354625   344.2407   2   9   0.0898   0.0831   0.2030   0.0070   0.0402   0.0412   0.00    1.0
2018/03/13 12:58:00.000   78.254773260   16.249354287   344.2563   2   9   0.0892   0.0826   0.2007   0.0072   0.0396   0.0404   0.00    1.0
2018/03/13 12:58:01.000   78.254773274   16.249353646   344.2574   2   9   0.0887   0.0822   0.1985   0.0074   0.0390   0.0397   0.00    1.0
2018/03/13 12:58:02.000   78.254773337   16.249353501   344.2312   2   9   0.0882   0.0817   0.1964   0.0076   0.0385   0.0389   0.00    1.0
2018/03/13 12:58:03.000   78.254773406   16.249353789   344.1987   2   9   0.0877   0.0812   0.1942   0.0078   0.0379   0.0382   0.00    1.0
2018/03/13 12:58:04.000   78.254773423   16.249353666   344.1822   2   9   0.0871   0.0807   0.1922   0.0080   0.0373   0.0375   0.00    1.0
2018/03/13 12:58:05.000   78.254773477   16.249353500   344.1686   2   9   0.0866   0.0803   0.1901   0.0082   0.0368   0.0368   0.00    1.0
2018/03/13 12:58:06.000   78.254773472   16.249353588   344.1746   2   9   0.0861   0.0798   0.1881   0.0084   0.0363   0.0361   0.00    1.0
2018/03/13 12:58:07.000   78.254773411   16.249353768   344.2034   2   9   0.0856   0.0794   0.1861   0.0086   0.0357   0.0354   0.00    1.0
2018/03/13 12:58:08.000   78.254773436   16.249353928   344.2263   2   9   0.0852   0.0789   0.1842   0.0088   0.0352   0.0347   0.00    1.1
2018/03/13 12:58:09.000   78.254773372   16.249354298   344.2334   2   9   0.0847   0.0785   0.1823   0.0090   0.0347   0.0340   0.00    1.1
2018/03/13 12:58:10.000   78.254773320   16.249354694   344.2405   2   9   0.0842   0.0781   0.1804   0.0091   0.0342   0.0334   0.00    1.1
2018/03/13 12:58:11.000   78.254773345   16.249354964   344.2644   2   9   0.0837   0.0776   0.1785   0.0093   0.0337   0.0327   0.00    1.1
2018/03/13 12:58:12.000   78.254773362   16.249355216   344.2721   2   9   0.0833   0.0772   0.1767   0.0094   0.0332   0.0321   0.00    1.1
2018/03/13 12:58:13.000   78.254773344   16.249355269   344.2918   2   9   0.0828   0.0768   0.1749   0.0096   0.0328   0.0314   0.00    1.1
2018/03/13 12:58:14.000   78.254773391   16.249355084   344.2992   2   9   0.0823   0.0764   0.1732   0.0097   0.0323   0.0308   0.00    1.1
2018/03/13 12:58:15.000   78.254773378   16.249354629   344.3192   2   9   0.0819   0.0760   0.1715   0.0099   0.0318   0.0302   0.00    1.1
2018/03/13 12:58:16.000   78.254773433   16.249354245   344.3245   2   9   0.0815   0.0756   0.1698   0.0100   0.0314   0.0296   0.00    1.1
2018/03/13 12:58:17.000   78.254773515   16.249353950   344.3230   2   9   0.0810   0.0751   0.1681   0.0102   0.0309   0.0289   0.00    1.1
2018/03/13 12:58:18.000   78.254773525   16.249353639   344.3223   2   9   0.0806   0.0748   0.1665   0.0103   0.0305   0.0283   0.00    1.1
2018/03/13 12:58:19.000   78.254773589   16.249353697   344.3149   2   9   0.0802   0.0744   0.1648   0.0104   0.0300   0.0277   0.00    1.1
2018/03/13 12:58:20.000   78.254773575   16.249353727   344.3068   2   9   0.0797   0.0740   0.1633   0.0106   0.0296   0.0272   0.00    1.1
2018/03/13 12:58:21.000   78.254773548   16.249353758   344.3069   2   9   0.0793   0.0736   0.1617   0.0107   0.0292   0.0266   0.00    1.1
2018/03/13 12:58:22.000   78.254773543   16.249353790   344.2998   2   9   0.0789   0.0732   0.1602   0.0108   0.0288   0.0260   0.00    1.1
2018/03/13 12:58:23.000   78.254773585   16.249353681   344.2963   2   9   0.0785   0.0728   0.1586   0.0109   0.0284   0.0254   0.00    1.1
2018/03/13 12:58:24.000   78.254773696   16.249353364   344.3105   2   9   0.0781   0.0725   0.1571   0.0111   0.0280   0.0249   0.00    1.1
2018/03/13 12:58:25.000   78.254773663   16.249353114   344.3268   2   9   0.0777   0.0721   0.1557   0.0112   0.0276   0.0243   0.00    1.1
2018/03/13 12:58:26.000   78.254773594   16.249353008   344.3393   2   9   0.0773   0.0717   0.1542   0.0113   0.0272   0.0237   0.00    1.1
2018/03/13 12:58:27.000   78.254773577   16.249352860   344.3626   2   9   0.0769   0.0714   0.1528   0.0114   0.0268   0.0232   0.00    1.1
2018/03/13 12:58:28.000   78.254773610   16.249352700   344.3727   2   9   0.0765   0.0710   0.1514   0.0115   0.0264   0.0226   0.00    1.1
2018/03/13 12:58:29.000   78.254773532   16.249352949   344.3753   2   9   0.0761   0.0707   0.1500   0.0116   0.0260   0.0221   0.00    1.1
2018/03/13 12:58:30.000   78.254773479   16.249352968   344.3936   2   9   0.0757   0.0703   0.1487   0.0117   0.0256   0.0215   0.00    1.1
2018/03/13 12:58:31.000   78.254773402   16.249353012   344.4170   2   9   0.0754   0.0700   0.1473   0.0118   0.0253   0.0210   0.00    1.1
2018/03/13 12:58:32.000   78.254773320   16.249353176   344.4293   2   9   0.0750   0.0696   0.1460   0.0119   0.0249   0.0205   0.00    1.1
2018/03/13 12:58:33.000   78.254773324   16.249353114   344.4438   2   9   0.0746   0.0693   0.1447   0.0120   0.0246   0.0199   0.00    1.1
2018/03/13 12:58:34.000   78.254773303   16.249353110   344.4466   2   9   0.0743   0.0690   0.1435   0.0121   0.0242   0.0194   0.00    1.1
2018/03/13 12:58:35.000   78.254773166   16.249352977   344.4444   2   9   0.0739   0.0686   0.1422   0.0122   0.0239   0.0189   0.00    1.1
2018/03/13 12:58:36.000   78.254773188   16.249352779   344.4575   2   9   0.0735   0.0683   0.1410   0.0122   0.0235   0.0183   0.00    1.1
2018/03/13 12:58:37.000   78.254773182   16.249352237   344.4629   2   9   0.0732   0.0680   0.1397   0.0123   0.0232   0.0178   0.00    1.1
2018/03/13 12:58:38.000   78.254773188   16.249351785   344.4651   2   9   0.0728   0.0676   0.1385   0.0124   0.0228   0.0173   0.00    1.1
2018/03/13 12:58:39.000   78.254773315   16.249351480   344.4653   2   9   0.0725   0.0673   0.1374   0.0125   0.0225   0.0168   0.00    1.1
2018/03/13 12:58:40.000   78.254773325   16.249351427   344.4657   2   9   0.0721   0.0670   0.1362   0.0126   0.0222   0.0162   0.00    1.1
2018/03/13 12:58:41.000   78.254773276   16.249351513   344.4630   2   9   0.0718   0.0667   0.1350   0.0127   0.0219   0.0157   0.00    1.1
2018/03/13 12:58:42.000   78.254773260   16.249351424   344.4731   2   9   0.0715   0.0664   0.1339   0.0127   0.0215   0.0152   0.00    1.1
2018/03/13 12:58:43.000   78.254773176   16.249351686   344.4864   2   9   0.0711   0.0661   0.1328   0.0128   0.0212   0.0146   0.00    1.1
2018/03/13 12:58:44.000   78.254773095   16.249351961   344.5052   2   9   0.0708   0.0658   0.1317   0.0129   0.0209   0.0141   0.00    1.1
2018/03/13 12:58:45.000   78.254773092   16.249352385   344.5228   2   9   0.0705   0.0655   0.1306   0.0129   0.0206   0.0136   0.00    1.1
2018/03/13 12:58:46.000   78.254773101   16.249352887   344.5314   2   9   0.0701   0.0652   0.1295   0.0130   0.0203   0.0130   0.00    1.1
2018/03/13 12:58:47.000   78.254773063   16.249353104   344.5341   2   9   0.0698   0.0649   0.1285   0.0131   0.0200   0.0125   0.00    1.1
2018/03/13 12:58:48.000   78.254773066   16.249353450   344.5383   2   9   0.0695   0.0646   0.1274   0.0131   0.0197   0.0119   0.00    1.1
2018/03/13 12:58:49.000   78.254773054   16.249353439   344.5293   2   9   0.0692   0.0643   0.1264   0.0132   0.0194   0.0114   0.00    1.1
2018/03/13 12:58:50.000   78.254773011   16.249353299   344.5161   2   9   0.0689   0.0640   0.1254   0.0133   0.0191   0.0108   0.00    1.1
2018/03/13 12:58:51.000   78.254772959   16.249352940   344.4992   2   9   0.0686   0.0637   0.1244   0.0133   0.0188   0.0102   0.00    1.1
2018/03/13 12:58:52.000   78.254772881   16.249352709   344.4946   2   9   0.0682   0.0634   0.1234   0.0134   0.0186   0.0096   0.00    1.1
2018/03/13 12:58:53.000   78.254772887   16.249352459   344.4897   2   9   0.0679   0.0632   0.1225   0.0134   0.0183   0.0090   0.00    1.1
2018/03/13 12:58:54.000   78.254772874   16.249352401   344.4882   2   9   0.0676   0.0629   0.1215   0.0135   0.0180   0.0083   0.00    1.1
2018/03/13 12:58:55.000   78.254772849   16.249352357   344.4961   2   9   0.0673   0.0626   0.1206   0.0135   0.0177   0.0076   0.00    1.1
2018/03/13 12:58:56.000   78.254772896   16.249352647   344.5025   2   9   0.0670   0.0623   0.1196   0.0136   0.0175   0.0069   0.00    1.1
2018/03/13 12:58:57.000   78.254772858   16.249353120   344.5007   2   9   0.0668   0.0621   0.1187   0.0137   0.0172   0.0061   0.00    1.1
2018/03/13 12:58:58.000   78.254772788   16.249353477   344.4947   2   9   0.0665   0.0618   0.1178   0.0137   0.0169   0.0052   0.00    1.1
2018/03/13 12:58:59.000   78.254772737   16.249353629   344.4909   2   9   0.0662   0.0615   0.1169   0.0138   0.0167   0.0042   0.00    1.1
2018/03/13 12:59:00.000   78.254772759   16.249354022   344.4854   2   9   0.0659   0.0613   0.1160   0.0138   0.0164   0.0028   0.00    1.1
2018/03/13 12:59:01.000   78.254772738   16.249354394   344.4898   2   9   0.0656   0.0610   0.1152   0.0138   0.0161  -0.0011   0.00    1.1
2018/03/13 12:59:02.000   78.254772787   16.249354351   344.4907   2   9   0.0653   0.0607   0.1143   0.0139   0.0159  -0.0032   0.00    1.1
2018/03/13 12:59:03.000   78.254772808   16.249354317   344.4923   2   9   0.0650   0.0605   0.1135   0.0139   0.0156  -0.0043   0.00    1.1
2018/03/13 12:59:04.000   78.254772760   16.249354220   344.4967   2   9   0.0648   0.0602   0.1126   0.0140   0.0154  -0.0052   0.00    1.1
2018/03/13 12:59:05.000   78.254772804   16.249353987   344.5006   2   9   0.0645   0.0600   0.1118   0.0140   0.0151  -0.0059   0.00    1.1
2018/03/13 12:59:06.000   78.254772798   16.249353681   344.5015   2   9   0.0642   0.0597   0.1110   0.0141   0.0149  -0.0065   0.00    1.1
2018/03/13 12:59:07.000   78.254772709   16.249353436   344.5080   2   9   0.0639   0.0595   0.1102   0.0141   0.0146  -0.0071   0.00    1.1
2018/03/13 12:59:08.000   78.254772662   16.249353125   344.5203   2   9   0.0637   0.0592   0.1094   0.0141   0.0144  -0.0076   0.00    1.1
2018/03/13 12:59:09.000   78.254772633   16.249352953   344.5368   2   9   0.0634   0.0590   0.1086   0.0142   0.0142  -0.0081   0.00    1.1
2018/03/13 12:59:10.000   78.254772587   16.249352989   344.5613   2   9   0.0632   0.0588   0.1078   0.0142   0.0139  -0.0085   0.00    1.1
2018/03/13 12:59:11.000   78.254772573   16.249353004   344.5890   2   9   0.0629   0.0585   0.1071   0.0142   0.0137  -0.0089   0.00    1.1
2018/03/13 12:59:12.000   78.254772505   16.249353130   344.6124   2   9   0.0626   0.0583   0.1063   0.0143   0.0135  -0.0092   0.00    1.1
2018/03/13 12:59:13.000   78.254772421   16.249353292   344.6287   2   9   0.0624   0.0580   0.1056   0.0143   0.0132  -0.0096   0.00    1.1
2018/03/13 12:59:14.000   78.254772465   16.249353105   344.6453   2   9   0.0621   0.0578   0.1048   0.0143   0.0130  -0.0099   0.00    1.1
2018/03/13 12:59:15.000   78.254772468   16.249352863   344.6492   2   9   0.0619   0.0576   0.1041   0.0144   0.0128  -0.0102   0.00    1.1
2018/03/13 12:59:16.000   78.254772436   16.249352410   344.6485   2   9   0.0616   0.0573   0.1034   0.0144   0.0125  -0.0104   0.00    1.1
2018/03/13 12:59:17.000   78.254772412   16.249351919   344.6484   2   9   0.0614   0.0571   0.1027   0.0144   0.0123  -0.0107   0.00    1.1
2018/03/13 12:59:18.000   78.254772409   16.249351396   344.6446   2   9   0.0611   0.0569   0.1020   0.0145   0.0121  -0.0110   0.00    1.1
2018/03/13 12:59:19.000   78.254772383   16.249350882   344.6440   2   9   0.0609   0.0567   0.1013   0.0145   0.0119  -0.0112   0.00    1.1
2018/03/13 12:59:20.000   78.254772380   16.249350491   344.6464   2   9   0.0606   0.0564   0.1006   0.0145   0.0117  -0.0114   0.00    1.1
2018/03/13 12:59:21.000   78.254772326   16.249350250   344.6447   2   9   0.0604   0.0562   0.0999   0.0145   0.0114  -0.0116   0.00    1.1
2018/03/13 12:59:22.000   78.254772250   16.249350434   344.6422   2   9   0.0602   0.0560   0.0992   0.0146   0.0112  -0.0118   0.00    1.1
2018/03/13 12:59:23.000   78.254772232   16.249350633   344.6384   2   9   0.0599   0.0558   0.0986   0.0146   0.0110  -0.0120   0.00    1.1
2018/03/13 12:59:24.000   78.254772150   16.249350977   344.6362   2   9   0.0597   0.0556   0.0979   0.0146   0.0108  -0.0122   0.00    1.1
2018/03/13 12:59:25.000   78.254772092   16.249351134   344.6428   2   9   0.0595   0.0554   0.0973   0.0146   0.0106  -0.0124   0.00    1.1
2018/03/13 12:59:26.000   78.254772053   16.249351131   344.6502   2   9   0.0592   0.0551   0.0967   0.0146   0.0104  -0.0125   0.00    1.1
2018/03/13 12:59:27.000   78.254772062   16.249351066   344.6525   2   9   0.0590   0.0549   0.0960   0.0147   0.0101  -0.0127   0.00    1.1
2018/03/13 12:59:28.000   78.254772028   16.249351111   344.6521   2   9   0.0588   0.0547   0.0954   0.0147   0.0099  -0.0128   0.00    1.1
2018/03/13 12:59:29.000   78.254772016   16.249351045   344.6517   2   9   0.0585   0.0545   0.0948   0.0147   0.0097  -0.0130   0.00    1.1
2018/03/13 12:59:30.000   78.254772018   16.249351009   344.6480   2   9   0.0583   0.0543   0.0942   0.0147   0.0095  -0.0131   0.00    1.1
2018/03/13 12:59:31.000   78.254771925   16.249351190   344.6470   2   9   0.0581   0.0541   0.0936   0.0147   0.0093  -0.0133   0.00    1.1
2018/03/13 12:59:32.000   78.254771815   16.249351107   344.6432   2   9   0.0579   0.0539   0.0930   0.0148   0.0091  -0.0134   0.00    1.1
2018/03/13 12:59:33.000   78.254771718   16.249351066   344.6467   2   9   0.0576   0.0537   0.0924   0.0148   0.0089  -0.0135   0.00    1.1
2018/03/13 12:59:34.000   78.254771612   16.249350751   344.6487   2   9   0.0574   0.0535   0.0918   0.0148   0.0087  -0.0136   0.00    1.0
2018/03/13 12:59:35.000   78.254771500   16.249350389   344.6485   2   9   0.0572   0.0533   0.0912   0.0148   0.0085  -0.0137   0.00    1.0
2018/03/13 12:59:36.000   78.254771438   16.249350095   344.6535   2   9   0.0570   0.0531   0.0907   0.0148   0.0082  -0.0139   0.00    1.0
2018/03/13 12:59:37.000   78.254771452   16.249350184   344.6526   2   9   0.0568   0.0529   0.0901   0.0148   0.0080  -0.0140   0.00    1.0
2018/03/13 12:59:38.000   78.254771467   16.249350410   344.6467   2   9   0.0566   0.0527   0.0896   0.0148   0.0078  -0.0141   0.00    1.0
2018/03/13 12:59:39.000   78.254771450   16.249350555   344.6434   2   9   0.0564   0.0525   0.0890   0.0149   0.0076  -0.0141   0.00    1.0
2018/03/13 12:59:40.000   78.254771456   16.249350895   344.6331   2   9   0.0562   0.0523   0.0885   0.0149   0.0074  -0.0142   0.00    1.0
2018/03/13 12:59:41.000   78.254771450   16.249351311   344.6218   2   9   0.0560   0.0521   0.0879   0.0149   0.0072  -0.0143   0.00    1.0
2018/03/13 12:59:42.000   78.254771426   16.249351312   344.6199   2   9   0.0557   0.0520   0.0874   0.0149   0.0070  -0.0144   0.00    1.0
2018/03/13 12:59:43.000   78.254771462   16.249351406   344.6156   2   9   0.0555   0.0518   0.0869   0.0149   0.0068  -0.0145   0.00    1.0
2018/03/13 12:59:44.000   78.254771479   16.249351471   344.6072   2   9   0.0553   0.0516   0.0864   0.0149   0.0066  -0.0146   0.00    1.0
2018/03/13 12:59:45.000   78.254771525   16.249351379   344.6029   2   9   0.0551   0.0514   0.0859   0.0149   0.0063  -0.0146   0.00    1.0
2018/03/13 12:59:46.000   78.254771528   16.249351408   344.5959   2   9   0.0549   0.0512   0.0854   0.0149   0.0061  -0.0147   0.00    1.0
2018/03/13 12:59:47.000   78.254771505   16.249351428   344.5896   2   9   0.0547   0.0510   0.0849   0.0149   0.0059  -0.0148   0.00    1.0
2018/03/13 12:59:48.000   78.254771480   16.249351252   344.5905   2   9   0.0545   0.0508   0.0844   0.0149   0.0057  -0.0148   0.00    1.0
2018/03/13 12:59:49.000   78.254771448   16.249351039   344.5922   2   9   0.0544   0.0507   0.0839   0.0149   0.0054  -0.0149   0.00    1.0
2018/03/13 12:59:50.000   78.254771387   16.249350757   344.5942   2   9   0.0542   0.0505   0.0834   0.0150   0.0052  -0.0150   0.00    1.0
2018/03/13 12:59:51.000   78.254771374   16.249350286   344.6013   2   9   0.0540   0.0503   0.0829   0.0150   0.0050  -0.0150   0.00    1.0
2018/03/13 12:59:52.000   78.254771340   16.249349911   344.6061   2   9   0.0538   0.0501   0.0824   0.0150   0.0047  -0.0151   0.00    1.0
2018/03/13 12:59:53.000   78.254771311   16.249349869   344.6083   2   9   0.0536   0.0500   0.0820   0.0150   0.0045  -0.0151   0.00    1.0
2018/03/13 12:59:54.000   78.254771275   16.249349849   344.6114   2   9   0.0534   0.0498   0.0815   0.0150   0.0042  -0.0152   0.00    1.0
2018/03/13 12:59:55.000   78.254771202   16.249349804   344.6114   2   9   0.0532   0.0496   0.0810   0.0150   0.0040  -0.0152   0.00    1.0
2018/03/13 12:59:56.000   78.254771152   16.249349917   344.6133   2   9   0.0530   0.0495   0.0806   0.0150   0.0037  -0.0153   0.00    1.0
2018/03/13 12:59:57.000   78.254771108   16.249349812   344.6177   2   9   0.0528   0.0493   0.0801   0.0150   0.0034  -0.0153   0.00    1.0
2018/03/13 12:59:58.000   78.254771071   16.249349839   344.6149   2   9   0.0527   0.0491   0.0797   0.0150   0.0031  -0.0153   0.00    1.0
2018/03/13 12:59:59.000   78.254771031   16.249349821   344.6127   2   9   0.0525   0.0490   0.0792   0.0150   0.0027  -0.0154   0.00    1.0
2018/03/13 13:00:00.000   78.254771024   16.249349642   344.6081   2   9   0.0523   0.0488   0.0788   0.0150   0.0023  -0.0154   0.00    1.0
2018/03/13 13:00:01.000   78.254770998   16.249349353   344.5980   2   9   0.0521   0.0486   0.0784   0.0150   0.0019  -0.0155   0.00    1.0
2018/03/13 13:00:02.000   78.254770957   16.249348972   344.5901   2   9   0.0519   0.0485   0.0779   0.0150   0.0013  -0.0155   0.00    1.0
2018/03/13 13:00:03.000   78.254770951   16.249348737   344.5843   2   9   0.0518   0.0483   0.0775   0.0150  -0.0004  -0.0155   0.00    1.0
2018/03/13 13:00:04.000   78.254770918   16.249348524   344.5771   2   9   0.0516   0.0481   0.0771   0.0150  -0.0014  -0.0156   0.00    1.0
2018/03/13 13:00:05.000   78.254770896   16.249348423   344.5760   2   9   0.0514   0.0480   0.0767   0.0150  -0.0019  -0.0156   0.00    1.0
2018/03/13 13:00:06.000   78.254770902   16.249348316   344.5750   2   9   0.0512   0.0478   0.0763   0.0150  -0.0023  -0.0156   0.00    1.0
2018/03/13 13:00:07.000   78.254770878   16.249348153   344.5765   2   9   0.0511   0.0477   0.0759   0.0150  -0.0026  -0.0156   0.00    1.0
2018/03/13 13:00:08.000   78.254770840   16.249348081   344.5806   2   9   0.0509   0.0475   0.0755   0.0150  -0.0029  -0.0157   0.00    1.0
2018/03/13 13:00:09.000   78.254770775   16.249347968   344.5846   2   9   0.0507   0.0473   0.0751   0.0150  -0.0032  -0.0157   0.00    1.1
2018/03/13 13:00:10.000   78.254770732   16.249347902   344.5834   2   9   0.0506   0.0472   0.0747   0.0150  -0.0034  -0.0157   0.00    1.1
2018/03/13 13:00:11.000   78.254770684   16.249348028   344.5816   2   9   0.0504   0.0470   0.0743   0.0150  -0.0036  -0.0157   0.00    1.1
2018/03/13 13:00:12.000   78.254770641   16.249348078   344.5753   2   9   0.0502   0.0469   0.0739   0.0150  -0.0038  -0.0157   0.00    1.1
2018/03/13 13:00:13.000   78.254770619   16.249348162   344.5662   2   9   0.0501   0.0467   0.0735   0.0150  -0.0040  -0.0158   0.00    1.1
2018/03/13 13:00:14.000   78.254770604   16.249348114   344.5544   2   9   0.0499   0.0466   0.0731   0.0150  -0.0042  -0.0158   0.00    1.1
2018/03/13 13:00:15.000   78.254770590   16.249348040   344.5440   2   9   0.0497   0.0464   0.0728   0.0150  -0.0043  -0.0158   0.00    1.1
2018/03/13 13:00:16.000   78.254770616   16.249347800   344.5346   2   9   0.0496   0.0463   0.0724   0.0150  -0.0045  -0.0158   0.00    1.1
2018/03/13 13:00:17.000   78.254770634   16.249347660   344.5284   2   9   0.0494   0.0461   0.0720   0.0150  -0.0046  -0.0158   0.00    1.0
2018/03/13 13:00:18.000   78.254770625   16.249347729   344.5295   2   9   0.0493   0.0460   0.0717   0.0150  -0.0047  -0.0158   0.00    1.0
2018/03/13 13:00:19.000   78.254770637   16.249347847   344.5329   2   9   0.0491   0.0458   0.0713   0.0149  -0.0049  -0.0159   0.00    1.0
2018/03/13 13:00:20.000   78.254770623   16.249348076   344.5336   2   9   0.0489   0.0457   0.0709   0.0149  -0.0050  -0.0159   0.00    1.0
2018/03/13 13:00:21.000   78.254770616   16.249348386   344.5362   2   9   0.0488   0.0456   0.0706   0.0149  -0.0051  -0.0159   0.00    1.0
2018/03/13 13:00:22.000   78.254770616   16.249348601   344.5370   2   9   0.0486   0.0454   0.0702   0.0149  -0.0052  -0.0159   0.00    1.0
2018/03/13 13:00:23.000   78.254770599   16.249348951   344.5330   2   9   0.0485   0.0453   0.0699   0.0149  -0.0053  -0.0159   0.00    1.0
2018/03/13 13:00:24.000   78.254770575   16.249349086   344.5254   2   9   0.0483   0.0451   0.0695   0.0149  -0.0054  -0.0159   0.00    1.0
2018/03/13 13:00:25.000   78.254770594   16.249349125   344.5125   2   9   0.0482   0.0450   0.0692   0.0149  -0.0055  -0.0159   0.00    1.0
2018/03/13 13:00:26.000   78.254770575   16.249349186   344.5008   2   9   0.0480   0.0449   0.0689   0.0149  -0.0056  -0.0159   0.00    1.0
2018/03/13 13:00:27.000   78.254770610   16.249349143   344.4942   2   9   0.0479   0.0447   0.0685   0.0149  -0.0057  -0.0159   0.00    1.0
2018/03/13 13:00:28.000   78.254770645   16.249349064   344.4921   2   9   0.0477   0.0446   0.0682   0.0149  -0.0058  -0.0159   0.00    1.0
2018/03/13 13:00:29.000   78.254770631   16.249348999   344.4892   2   9   0.0476   0.0444   0.0679   0.0149  -0.0059  -0.0159   0.00    1.0
2018/03/13 13:00:30.000   78.254770614   16.249348982   344.4910   2   9   0.0474   0.0443   0.0675   0.0149  -0.0059  -0.0159   0.00    1.0
2018/03/13 13:00:31.000   78.254770586   16.249348745   344.4922   2   9   0.0473   0.0442   0.0672   0.0149  -0.0060  -0.0159   0.00    1.0
2018/03/13 13:00:32.000   78.254770537   16.249348766   344.4911   2   9   0.0471   0.0440   0.0669   0.0149  -0.0061  -0.0159   0.00    1.0
2018/03/13 13:00:33.000   78.254770535   16.249348903   344.4895   2   9   0.0470   0.0439   0.0666   0.0148  -0.0061  -0.0159   0.00    1.0
2018/03/13 13:00:34.000   78.254770532   16.249349106   344.4879   2   9   0.0468   0.0438   0.0663   0.0148  -0.0062  -0.0159   0.00    1.0
2018/03/13 13:00:35.000   78.254770530   16.249349247   344.4845   2   9   0.0467   0.0437   0.0660   0.0148  -0.0063  -0.0159   0.00    1.0
2018/03/13 13:00:36.000   78.254770534   16.249349326   344.4807   2   9   0.0465   0.0435   0.0656   0.0148  -0.0063  -0.0159   0.00    1.0
2018/03/13 13:00:37.000   78.254770543   16.249349374   344.4735   2   9   0.0464   0.0434   0.0653   0.0148  -0.0064  -0.0159   0.00    1.0
2018/03/13 13:00:38.000   78.254770530   16.249349522   344.4681   2   9   0.0463   0.0433   0.0650   0.0148  -0.0065  -0.0159   0.00    1.0
2018/03/13 13:00:39.000   78.254770526   16.249349561   344.4605   2   9   0.0461   0.0431   0.0647   0.0148  -0.0065  -0.0159   0.00    1.1
2018/03/13 13:00:40.000   78.254770527   16.249349789   344.4501   2   9   0.0460   0.0430   0.0644   0.0148  -0.0066  -0.0159   0.00    1.1
2018/03/13 13:00:41.000   78.254770551   16.249349976   344.4451   2   9   0.0458   0.0429   0.0641   0.0148  -0.0066  -0.0159   0.00    1.1
2018/03/13 13:00:42.000   78.254770581   16.249350234   344.4406   2   9   0.0457   0.0428   0.0639   0.0148  -0.0067  -0.0159   0.00    1.1
2018/03/13 13:00:43.000   78.254770581   16.249350369   344.4388   2   9   0.0456   0.0426   0.0636   0.0147  -0.0067  -0.0159   0.00    1.1
2018/03/13 13:00:44.000   78.254770563   16.249350313   344.4397   2   9   0.0454   0.0425   0.0633   0.0147  -0.0068  -0.0159   0.00    1.1
2018/03/13 13:00:45.000   78.254770540   16.249350309   344.4407   2   9   0.0453   0.0424   0.0630   0.0147  -0.0068  -0.0159   0.00    1.1
2018/03/13 13:00:46.000   78.254770541   16.249350181   344.4408   2   9   0.0452   0.0423   0.0627   0.0147  -0.0068  -0.0159   0.00    1.1
2018/03/13 13:00:47.000   78.254770541   16.249350153   344.4420   2   9   0.0450   0.0421   0.0624   0.0147  -0.0069  -0.0159   0.00    1.1
2018/03/13 13:00:48.000   78.254770521   16.249350261   344.4412   2   9   0.0449   0.0420   0.0621   0.0147  -0.0069  -0.0159   0.00    1.1
2018/03/13 13:00:49.000   78.254770537   16.249350533   344.4399   2   9   0.0448   0.0419   0.0619   0.0147  -0.0070  -0.0158   0.00    1.1
2018/03/13 13:00:50.000   78.254770567   16.249350783   344.4371   2   9   0.0446   0.0418   0.0616   0.0147  -0.0070  -0.0158   0.00    1.1
2018/03/13 13:00:51.000   78.254770575   16.249351053   344.4327   2   9   0.0445   0.0417   0.0613   0.0147  -0.0070  -0.0158   0.00    1.1
2018/03/13 13:00:52.000   78.254770588   16.249351213   344.4287   2   9   0.0444   0.0415   0.0611   0.0146  -0.0071  -0.0158   0.00    1.1
2018/03/13 13:00:53.000   78.254770599   16.249351296   344.4245   2   9   0.0443   0.0414   0.0608   0.0146  -0.0071  -0.0158   0.00    1.1
2018/03/13 13:00:54.000   78.254770568   16.249351369   344.4221   2   9   0.0441   0.0413   0.0605   0.0146  -0.0071  -0.0158   0.00    1.1
2018/03/13 13:00:55.000   78.254770553   16.249351367   344.4199   2   9   0.0440   0.0412   0.0603   0.0146  -0.0072  -0.0158   0.00    1.1
2018/03/13 13:00:56.000   78.254770535   16.249351268   344.4190   2   9   0.0439   0.0411   0.0600   0.0146  -0.0072  -0.0158   0.00    1.1
2018/03/13 13:00:57.000   78.254770510   16.249351294   344.4105   2   9   0.0437   0.0410   0.0598   0.0146  -0.0072  -0.0158   0.00    1.1
2018/03/13 13:00:58.000   78.254770517   16.249351235   344.4025   2   9   0.0436   0.0409   0.0595   0.0146  -0.0073  -0.0158   0.00    1.1
2018/03/13 13:00:59.000   78.254770550   16.249351281   344.3887   2   9   0.0435   0.0407   0.0593   0.0146  -0.0073  -0.0157   0.00    1.1
2018/03/13 13:01:00.000   78.254770583   16.249351469   344.3730   2   9   0.0434   0.0406   0.0590   0.0145  -0.0073  -0.0157   0.00    1.2
2018/03/13 13:01:01.000   78.254770639   16.249351629   344.3603   2   9   0.0433   0.0405   0.0588   0.0145  -0.0074  -0.0157   0.00    1.2
2018/03/13 13:01:02.000   78.254770657   16.249351770   344.3466   2   9   0.0431   0.0404   0.0585   0.0145  -0.0074  -0.0157   0.00    1.2
2018/03/13 13:01:03.000   78.254770665   16.249351886   344.3385   2   9   0.0430   0.0403   0.0583   0.0145  -0.0074  -0.0157   0.00    1.2
2018/03/13 13:01:04.000   78.254770672   16.249351991   344.3345   2   9   0.0429   0.0402   0.0580   0.0145  -0.0074  -0.0157   0.00    1.2
2018/03/13 13:01:05.000   78.254770645   16.249352196   344.3298   2   9   0.0428   0.0401   0.0578   0.0145  -0.0074  -0.0157   0.00    1.2
2018/03/13 13:01:06.000   78.254770615   16.249352300   344.3298   2   9   0.0427   0.0400   0.0575   0.0145  -0.0075  -0.0156   0.00    1.2
2018/03/13 13:01:07.000   78.254770603   16.249352405   344.3308   2   9   0.0425   0.0399   0.0573   0.0145  -0.0075  -0.0156   0.00    1.2
2018/03/13 13:01:08.000   78.254770560   16.249352478   344.3315   2   9   0.0424   0.0398   0.0571   0.0144  -0.0075  -0.0156   0.00    1.2
2018/03/13 13:01:09.000   78.254770539   16.249352582   344.3312   2   9   0.0423   0.0397   0.0568   0.0144  -0.0075  -0.0156   0.00    1.2
2018/03/13 13:01:10.000   78.254770534   16.249352543   344.3283   2   9   0.0422   0.0395   0.0566   0.0144  -0.0075  -0.0156   0.00    1.2
2018/03/13 13:01:11.000   78.254770498   16.249352539   344.3262   2   9   0.0421   0.0394   0.0564   0.0144  -0.0076  -0.0156   0.00    1.2
2018/03/13 13:01:12.000   78.254770468   16.249352482   344.3277   2   9   0.0420   0.0393   0.0562   0.0144  -0.0076  -0.0156   0.00    1.2
2018/03/13 13:01:13.000   78.254770445   16.249352363   344.3297   2   9   0.0418   0.0392   0.0559   0.0144  -0.0076  -0.0155   0.00    1.2
2018/03/13 13:01:14.000   78.254770407   16.249352271   344.3316   2   9   0.0417   0.0391   0.0557   0.0144  -0.0076  -0.0155   0.00    1.2
2018/03/13 13:01:15.000   78.254770393   16.249352223   344.3333   2   9   0.0416   0.0390   0.0555   0.0143  -0.0076  -0.0155   0.00    1.2
2018/03/13 13:01:16.000   78.254770381   16.249352124   344.3351   2   9   0.0415   0.0389   0.0553   0.0143  -0.0076  -0.0155   0.00    1.2
2018/03/13 13:01:17.000   78.254770396   16.249352196   344.3326   2   9   0.0414   0.0388   0.0550   0.0143  -0.0077  -0.0155   0.00    1.2
2018/03/13 13:01:18.000   78.254770425   16.249352320   344.3301   2   9   0.0413   0.0387   0.0548   0.0143  -0.0077  -0.0155   0.00    1.2
2018/03/13 13:01:19.000   78.254770466   16.249352474   344.3293   2   9   0.0412   0.0386   0.0546   0.0143  -0.0077  -0.0154   0.00    1.2
2018/03/13 13:01:20.000   78.254770490   16.249352546   344.3288   2   9   0.0411   0.0385   0.0544   0.0143  -0.0077  -0.0154   0.00    1.3
2018/03/13 13:01:21.000   78.254770494   16.249352601   344.3311   2   9   0.0410   0.0384   0.0542   0.0142  -0.0077  -0.0154   0.00    1.3
2018/03/13 13:01:22.000   78.254770499   16.249352727   344.3334   2   9   0.0408   0.0383   0.0540   0.0142  -0.0077  -0.0154   0.00    1.3
2018/03/13 13:01:23.000   78.254770502   16.249352827   344.3344   2   9   0.0407   0.0382   0.0538   0.0142  -0.0077  -0.0154   0.00    1.3
2018/03/13 13:01:24.000   78.254770505   16.249352998   344.3346   2   9   0.0406   0.0381   0.0536   0.0142  -0.0077  -0.0154   0.00    1.3
2018/03/13 13:01:25.000   78.254770520   16.249353206   344.3312   2   9   0.0405   0.0380   0.0534   0.0142  -0.0078  -0.0153   0.00    1.3
2018/03/13 13:01:26.000   78.254770528   16.249353293   344.3263   2   9   0.0404   0.0379   0.0532   0.0142  -0.0078  -0.0153   0.00    1.3
2018/03/13 13:01:27.000   78.254770526   16.249353438   344.3219   2   9   0.0403   0.0378   0.0530   0.0142  -0.0078  -0.0153   0.00    1.3
2018/03/13 13:01:28.000   78.254770549   16.249353437   344.3160   2   9   0.0402   0.0377   0.0528   0.0141  -0.0078  -0.0153   0.00    1.3
2018/03/13 13:01:29.000   78.254770560   16.249353395   344.3103   2   9   0.0401   0.0377   0.0526   0.0141  -0.0078  -0.0153   0.00    1.3
2018/03/13 13:01:30.000   78.254770564   16.249353351   344.3044   2   9   0.0400   0.0376   0.0524   0.0141  -0.0078  -0.0152   0.00    1.3
2018/03/13 13:01:31.000   78.254770587   16.249353283   344.2998   2   9   0.0399   0.0375   0.0522   0.0141  -0.0078  -0.0152   0.00    1.3
2018/03/13 13:01:32.000   78.254770607   16.249353200   344.2969   2   9   0.0398   0.0374   0.0520   0.0141  -0.0078  -0.0152   0.00    1.3
2018/03/13 13:01:33.000   78.254770628   16.249353212   344.2938   2   9   0.0397   0.0373   0.0518   0.0141  -0.0078  -0.0152   0.00    1.3
2018/03/13 13:01:34.000   78.254770663   16.249353185   344.2926   2   9   0.0396   0.0372   0.0516   0.0140  -0.0078  -0.0152   0.00    1.3
2018/03/13 13:01:35.000   78.254770704   16.249353169   344.2875   2   9   0.0395   0.0371   0.0514   0.0140  -0.0078  -0.0152   0.00    1.3
2018/03/13 13:01:36.000   78.254770728   16.249353207   344.2822   2   9   0.0394   0.0370   0.0512   0.0140  -0.0078  -0.0151   0.00    1.3
2018/03/13 13:01:37.000   78.254770799   16.249353394   344.2753   2   9   0.0393   0.0369   0.0510   0.0140  -0.0078  -0.0151   0.00    1.4
2018/03/13 13:01:38.000   78.254770831   16.249353531   344.2679   2   9   0.0392   0.0368   0.0508   0.0140  -0.0079  -0.0151   0.00    1.4
2018/03/13 13:01:39.000   78.254770851   16.249353586   344.2609   2   9   0.0391   0.0367   0.0507   0.0140  -0.0079  -0.0151   0.00    1.4
2018/03/13 13:01:40.000   78.254770875   16.249353531   344.2561   2   9   0.0390   0.0366   0.0505   0.0140  -0.0079  -0.0151   0.00    1.4
2018/03/13 13:01:41.000   78.254770884   16.249353502   344.2505   2   9   0.0389   0.0366   0.0503   0.0139  -0.0079  -0.0150   0.00    1.4
2018/03/13 13:01:42.000   78.254770863   16.249353496   344.2492   2   9   0.0388   0.0365   0.0501   0.0139  -0.0079  -0.0150   0.00    1.4
2018/03/13 13:01:43.000   78.254770852   16.249353545   344.2491   2   9   0.0387   0.0364   0.0499   0.0139  -0.0079  -0.0150   0.00    1.4
2018/03/13 13:01:44.000   78.254770838   16.249353678   344.2501   2   9   0.0386   0.0363   0.0498   0.0139  -0.0079  -0.0150   0.00    1.4
2018/03/13 13:01:45.000   78.254770851   16.249353843   344.2509   2   9   0.0385   0.0362   0.0496   0.0139  -0.0079  -0.0150   0.00    1.4
2018/03/13 13:01:46.000   78.254770871   16.249354007   344.2515   2   9   0.0384   0.0361   0.0494   0.0139  -0.0079  -0.0149   0.00    1.4
2018/03/13 13:01:47.000   78.254770864   16.249354176   344.2515   2   9   0.0383   0.0360   0.0492   0.0138  -0.0079  -0.0149   0.00    1.4
2018/03/13 13:01:48.000   78.254770873   16.249354239   344.2500   2   9   0.0382   0.0359   0.0491   0.0138  -0.0079  -0.0149   0.00    1.4
2018/03/13 13:01:49.000   78.254770883   16.249354289   344.2484   2   9   0.0381   0.0359   0.0489   0.0138  -0.0079  -0.0149   0.00    1.4
2018/03/13 13:01:50.000   78.254770881   16.249354247   344.2493   2   9   0.0380   0.0358   0.0487   0.0138  -0.0079  -0.0149   0.00    1.4
2018/03/13 13:01:51.000   78.254770893   16.249354257   344.2523   2   9   0.0379   0.0357   0.0485   0.0138  -0.0079  -0.0148   0.00    1.4
2018/03/13 13:01:52.000   78.254770882   16.249354325   344.2548   2   9   0.0379   0.0356   0.0484   0.0138  -0.0079  -0.0148   0.00    1.4
2018/03/13 13:01:53.000   78.254770870   16.249354340   344.2565   2   9   0.0378   0.0355   0.0482   0.0137  -0.0079  -0.0148   0.00    1.4
2018/03/13 13:01:54.000   78.254770870   16.249354358   344.2580   2   9   0.0377   0.0354   0.0480   0.0137  -0.0079  -0.0148   0.00    1.4
2018/03/13 13:01:55.000   78.254770865   16.249354392   344.2594   2   9   0.0376   0.0354   0.0479   0.0137  -0.0079  -0.0148   0.00    1.4
2018/03/13 13:01:56.000   78.254770854   16.249354385   344.2607   2   9   0.0375   0.0353   0.0477   0.0137  -0.0079  -0.0147   0.00    1.4
2018/03/13 13:01:57.000   78.254770860   16.249354456   344.2616   2   9   0.0374   0.0352   0.0476   0.0137  -0.0079  -0.0147   0.00    1.4
2018/03/13 13:01:58.000   78.254770867   16.249354499   344.2614   2   9   0.0373   0.0351   0.0474   0.0137  -0.0079  -0.0147   0.00    1.4
2018/03/13 13:01:59.000   78.254770889   16.249354585   344.2602   2   9   0.0372   0.0350   0.0472   0.0136  -0.0079  -0.0147   0.00    1.4
2018/03/13 13:02:00.000   78.254770892   16.249354647   344.2599   2   9   0.0371   0.0350   0.0471   0.0136  -0.0079  -0.0146   0.00    1.4
2018/03/13 13:02:01.000   78.254770897   16.249354743   344.2597   2   9   0.0370   0.0349   0.0469   0.0136  -0.0079  -0.0146   0.00    1.4
2018/03/13 13:02:02.000   78.254770892   16.249354736   344.2597   2   9   0.0370   0.0348   0.0468   0.0136  -0.0079  -0.0146   0.00    1.4
2018/03/13 13:02:03.000   78.254770881   16.249354723   344.2589   2   9   0.0369   0.0347   0.0466   0.0136  -0.0079  -0.0146   0.00    1.4
2018/03/13 13:02:04.000   78.254770881   16.249354803   344.2569   2   9   0.0368   0.0346   0.0465   0.0136  -0.0079  -0.0146   0.00    1.4
2018/03/13 13:02:05.000   78.254770888   16.249354855   344.2550   2   9   0.0367   0.0346   0.0463   0.0135  -0.0079  -0.0145   0.00    1.4
2018/03/13 13:02:06.000   78.254770905   16.249354964   344.2549   2   9   0.0366   0.0345   0.0462   0.0135  -0.0079  -0.0145   0.00    1.4
2018/03/13 13:02:07.000   78.254770926   16.249355085   344.2559   2   9   0.0365   0.0344   0.0460   0.0135  -0.0079  -0.0145   0.00    1.4
2018/03/13 13:02:08.000   78.254770922   16.249355076   344.2567   2   9   0.0364   0.0343   0.0459   0.0135  -0.0079  -0.0145   0.00    1.4
2018/03/13 13:02:09.000   78.254770908   16.249355046   344.2599   2   9   0.0364   0.0343   0.0457   0.0135  -0.0079  -0.0145   0.00    1.4
2018/03/13 13:02:10.000   78.254770880   16.249354956   344.2639   2   9   0.0363   0.0342   0.0456   0.0135  -0.0079  -0.0144   0.00    1.4
2018/03/13 13:02:11.000   78.254770845   16.249354914   344.2668   2   9   0.0362   0.0341   0.0454   0.0134  -0.0079  -0.0144   0.00    1.4
2018/03/13 13:02:12.000   78.254770823   16.249354876   344.2700   2   9   0.0361   0.0340   0.0453   0.0134  -0.0079  -0.0144   0.00    1.4
2018/03/13 13:02:13.000   78.254770808   16.249354856   344.2698   2   9   0.0360   0.0340   0.0451   0.0134  -0.0079  -0.0144   0.00    1.4
2018/03/13 13:02:14.000   78.254770826   16.249355003   344.2673   2   9   0.0359   0.0339   0.0450   0.0134  -0.0079  -0.0144   0.00    1.4
2018/03/13 13:02:15.000   78.254770848   16.249355055   344.2659   2   9   0.0359   0.0338   0.0448   0.0134  -0.0079  -0.0143   0.00    1.4
2018/03/13 13:02:16.000   78.254770866   16.249355112   344.2640   2   9   0.0358   0.0337   0.0447   0.0134  -0.0079  -0.0143   0.00    1.4
2018/03/13 13:02:17.000   78.254770899   16.249355220   344.2616   2   9   0.0357   0.0337   0.0445   0.0133  -0.0079  -0.0143   0.00    1.4
2018/03/13 13:02:18.000   78.254770927   16.249355278   344.2605   2   9   0.0356   0.0336   0.0444   0.0133  -0.0079  -0.0143   0.00    1.4
2018/03/13 13:02:19.000   78.254770948   16.249355380   344.2606   2   9   0.0355   0.0335   0.0443   0.0133  -0.0079  -0.0143   0.00    1.4
2018/03/13 13:02:20.000   78.254770953   16.249355460   344.2623   2   9   0.0355   0.0334   0.0441   0.0133  -0.0078  -0.0142   0.00    1.4
2018/03/13 13:02:21.000   78.254770978   16.249355564   344.2618   2   9   0.0354   0.0334   0.0440   0.0133  -0.0078  -0.0142   0.00    1.4
2018/03/13 13:02:22.000   78.254771001   16.249355587   344.2601   2   9   0.0353   0.0333   0.0439   0.0133  -0.0078  -0.0142   0.00    1.4
2018/03/13 13:02:23.000   78.254771016   16.249355660   344.2578   2   9   0.0352   0.0332   0.0437   0.0132  -0.0078  -0.0142   0.00    1.4
2018/03/13 13:02:24.000   78.254771034   16.249355725   344.2543   2   9   0.0351   0.0332   0.0436   0.0132  -0.0078  -0.0141   0.00    1.4
2018/03/13 13:02:25.000   78.254771045   16.249355737   344.2504   2   9   0.0351   0.0331   0.0435   0.0132  -0.0078  -0.0141   0.00    1.4
2018/03/13 13:02:26.000   78.254771052   16.249355760   344.2463   2   9   0.0350   0.0330   0.0433   0.0132  -0.0078  -0.0141   0.00    1.4
2018/03/13 13:02:27.000   78.254771059   16.249355824   344.2421   2   9   0.0349   0.0330   0.0432   0.0132  -0.0078  -0.0141   0.00    1.4
2018/03/13 13:02:28.000   78.254771086   16.249355939   344.2398   2   9   0.0348   0.0329   0.0431   0.0132  -0.0078  -0.0141   0.00    1.4
2018/03/13 13:02:29.000   78.254771117   16.249355981   344.2393   2   9   0.0348   0.0328   0.0429   0.0131  -0.0078  -0.0140   0.00    1.4
2018/03/13 13:02:30.000   78.254771138   16.249355994   344.2402   2   9   0.0347   0.0327   0.0428   0.0131  -0.0078  -0.0140   0.00    1.4
2018/03/13 13:02:31.000   78.254771158   16.249355993   344.2413   2   9   0.0346   0.0327   0.0427   0.0131  -0.0078  -0.0140   0.00    1.4
2018/03/13 13:02:32.000   78.254771167   16.249355969   344.2420   2   9   0.0345   0.0326   0.0425   0.0131  -0.0078  -0.0140   0.00    1.4
2018/03/13 13:02:33.000   78.254771160   16.249356074   344.2432   2   9   0.0345   0.0325   0.0424   0.0131  -0.0078  -0.0140   0.00    1.4
2018/03/13 13:02:34.000   78.254771180   16.249356265   344.2440   2   9   0.0344   0.0325   0.0423   0.0131  -0.0078  -0.0139   0.00    1.4
2018/03/13 13:02:35.000   78.254771202   16.249356507   344.2433   2   9   0.0343   0.0324   0.0422   0.0130  -0.0078  -0.0139   0.00    1.4
2018/03/13 13:02:36.000   78.254771226   16.249356664   344.2424   2   9   0.0342   0.0323   0.0420   0.0130  -0.0078  -0.0139   0.00    1.4
2018/03/13 13:02:37.000   78.254771235   16.249356737   344.2428   2   9   0.0342   0.0323   0.0419   0.0130  -0.0078  -0.0139   0.00    1.4
2018/03/13 13:02:38.000   78.254771242   16.249356781   344.2429   2   9   0.0341   0.0322   0.0418   0.0130  -0.0078  -0.0139   0.00    1.4
2018/03/13 13:02:39.000   78.254771250   16.249356837   344.2433   2   9   0.0340   0.0321   0.0417   0.0130  -0.0078  -0.0138   0.00    1.4
2018/03/13 13:02:40.000   78.254771272   16.249356971   344.2426   2   9   0.0339   0.0321   0.0415   0.0130  -0.0078  -0.0138   0.00    1.4
2018/03/13 13:02:41.000   78.254771289   16.249357060   344.2408   2   9   0.0339   0.0320   0.0414   0.0129  -0.0077  -0.0138   0.00    1.4
2018/03/13 13:02:42.000   78.254771306   16.249357181   344.2405   2   9   0.0338   0.0320   0.0413   0.0129  -0.0077  -0.0138   0.00    1.4
2018/03/13 13:02:43.000   78.254771308   16.249357270   344.2409   2   9   0.0337   0.0319   0.0412   0.0129  -0.0077  -0.0137   0.00    1.4
2018/03/13 13:02:44.000   78.254771320   16.249357387   344.2412   2   9   0.0337   0.0318   0.0411   0.0129  -0.0077  -0.0137   0.00    1.4
2018/03/13 13:02:45.000   78.254771328   16.249357434   344.2409   2   9   0.0336   0.0318   0.0410   0.0129  -0.0077  -0.0137   0.00    1.4
2018/03/13 13:02:46.000   78.254771321   16.249357590   344.2408   2   9   0.0335   0.0317   0.0408   0.0129  -0.0077  -0.0137   0.00    1.4
2018/03/13 13:02:47.000   78.254771329   16.249357820   344.2404   2   9   0.0334   0.0316   0.0407   0.0128  -0.0077  -0.0137   0.00    1.4
2018/03/13 13:02:48.000   78.254771362   16.249358116   344.2384   2   9   0.0334   0.0316   0.0406   0.0128  -0.0077  -0.0136   0.00    1.4
2018/03/13 13:02:49.000   78.254771393   16.249358436   344.2350   2   9   0.0333   0.0315   0.0405   0.0128  -0.0077  -0.0136   0.00    1.4
2018/03/13 13:02:50.000   78.254771432   16.249358619   344.2329   2   9   0.0332   0.0314   0.0404   0.0128  -0.0077  -0.0136   0.00    1.4
2018/03/13 13:02:51.000   78.254771457   16.249358766   344.2320   2   9   0.0332   0.0314   0.0403   0.0128  -0.0077  -0.0136   0.00    1.4
2018/03/13 13:02:52.000   78.254771451   16.249358835   344.2316   2   9   0.0331   0.0313   0.0401   0.0128  -0.0077  -0.0136   0.00    1.4
2018/03/13 13:02:53.000   78.254771442   16.249358836   344.2320   2   9   0.0330   0.0313   0.0400   0.0128  -0.0077  -0.0135   0.00    1.4
2018/03/13 13:02:54.000   78.254771431   16.249358771   344.2326   2   9   0.0330   0.0312   0.0399   0.0127  -0.0077  -0.0135   0.00    1.4
2018/03/13 13:02:55.000   78.254771409   16.249358718   344.2335   2   9   0.0329   0.0311   0.0398   0.0127  -0.0077  -0.0135   0.00    1.4
2018/03/13 13:02:56.000   78.254771406   16.249358665   344.2344   2   9   0.0328   0.0311   0.0397   0.0127  -0.0077  -0.0135   0.00    1.4
2018/03/13 13:02:57.000   78.254771411   16.249358667   344.2331   2   9   0.0328   0.0310   0.0396   0.0127  -0.0076  -0.0135   0.00    1.4
2018/03/13 13:02:58.000   78.254771408   16.249358684   344.2328   2   9   0.0327   0.0310   0.0395   0.0127  -0.0076  -0.0134   0.00    1.4
2018/03/13 13:02:59.000   78.254771416   16.249358690   344.2323   2   9   0.0326   0.0309   0.0394   0.0127  -0.0076  -0.0134   0.00    1.4
2018/03/13 13:03:00.000   78.254771411   16.249358657   344.2320   2   9   0.0326   0.0308   0.0393   0.0126  -0.0076  -0.0134   0.00    1.4
2018/03/13 13:03:01.000   78.254771429   16.249358736   344.2320   2   9   0.0325   0.0308   0.0392   0.0126  -0.0076  -0.0134   0.00    1.4
2018/03/13 13:03:02.000   78.254771430   16.249358810   344.2333   2   9   0.0324   0.0307   0.0391   0.0126  -0.0076  -0.0134   0.00    1.4
2018/03/13 13:03:03.000   78.254771421   16.249358855   344.2342   2   9   0.0324   0.0307   0.0389   0.0126  -0.0076  -0.0133   0.00    1.4
2018/03/13 13:03:04.000   78.254771419   16.249358934   344.2341   2   9   0.0323   0.0306   0.0388   0.0126  -0.0076  -0.0133   0.00    1.4
2018/03/13 13:03:05.000   78.254771422   16.249358969   344.2336   2   9   0.0322   0.0305   0.0387   0.0126  -0.0076  -0.0133   0.00    1.4
2018/03/13 13:03:06.000   78.254771423   16.249358988   344.2322   2   9   0.0322   0.0305   0.0386   0.0125  -0.0076  -0.0133   0.00    1.4
2018/03/13 13:03:07.000   78.254771440   16.249358974   344.2288   2   9   0.0321   0.0304   0.0385   0.0125  -0.0076  -0.0133   0.00    1.4
