% program   : RTKPOST ver.2.4.2
% inp file  : Z:\home\linda\Documents\Spring18\GitHub_Unis\data\processed_data\46250705.obs
% inp file  : Z:\home\linda\Documents\Spring18\GitHub_Unis\data\base_station_data\lyrs0700.18o
% inp file  : Z:\home\linda\Documents\Spring18\GitHub_Unis\data\processed_data\46250705.nav
% obs start : 2018/03/11 12:25:09.0 GPST (week1992  44709.0s)
% obs end   : 2018/03/11 12:40:16.0 GPST (week1992  45616.0s)
% pos mode  : static
% freqs     : L1+L2
% solution  : forward
% elev mask : 15.0 deg
% dynamics  : on
% tidecorr  : off
% ionos opt : iono-free
% tropo opt : saastamoinen
% ephemeris : broadcast
% navi sys  : gps glonass galileo qzss sbas
% amb res   : fix and hold
% amb glo   : on
% val thres : 3.0
% antenna1  :                       ( 0.0000  0.0000  0.0000)
% antenna2  :                       ( 0.0000  0.0000  0.0000)
% ref pos   : 78.228825638   15.397310064   495.6816
%
% (lat/lon/height=WGS84/ellipsoidal,Q=1:fix,2:float,3:sbas,4:dgps,5:single,6:ppp,ns=# of satellites)
%  GPST                  latitude(deg) longitude(deg)  height(m)   Q  ns   sdn(m)   sde(m)   sdu(m)  sdne(m)  sdeu(m)  sdun(m) age(s)  ratio
2018/03/11 12:25:09.000   78.256417116   16.214711174   421.5304   2   8   1.1064   0.9911   5.1896  -0.5327   1.3504  -1.0740   0.00    1.1
2018/03/11 12:25:10.000   78.256418963   16.214741555   423.3286   2   8   0.7834   0.7020   3.6983  -0.3779   0.9624  -0.7655   0.00    1.2
2018/03/11 12:25:11.000   78.256423120   16.214744652   423.9121   2   8   0.6399   0.5735   3.0253  -0.3088   0.7874  -0.6264   0.00    1.3
2018/03/11 12:25:12.000   78.256425926   16.214737528   425.0285   2   8   0.5543   0.4967   2.6202  -0.2675   0.6821  -0.5427   0.00    1.2
2018/03/11 12:25:13.000   78.256426532   16.214735969   425.3810   2   8   0.4958   0.4443   2.3415  -0.2393   0.6096  -0.4851   0.00    1.1
2018/03/11 12:25:14.000   78.256425000   16.214725888   426.4657   2   8   0.4526   0.4055   2.1342  -0.2184   0.5558  -0.4424   0.00    1.1
2018/03/11 12:25:15.000   78.256424197   16.214721678   426.7966   2   8   0.4190   0.3753   1.9717  -0.2021   0.5136  -0.4089   0.00    1.1
2018/03/11 12:25:16.000   78.256422823   16.214726092   427.1160   2   8   0.3919   0.3510   1.8396  -0.1889   0.4793  -0.3817   0.00    1.2
2018/03/11 12:25:17.000   78.256421981   16.214727840   427.4901   2   8   0.3694   0.3308   1.7291  -0.1780   0.4506  -0.3590   0.00    1.2
2018/03/11 12:25:18.000   78.256420054   16.214728660   427.2624   2   8   0.3503   0.3137   1.6347  -0.1687   0.4262  -0.3397   0.00    1.3
2018/03/11 12:25:19.000   78.256417097   16.214727879   426.8728   2   8   0.3340   0.2989   1.5526  -0.1607   0.4049  -0.3229   0.00    1.3
2018/03/11 12:25:20.000   78.256415557   16.214731171   427.2794   2   8   0.3196   0.2860   1.4802  -0.1537   0.3861  -0.3081   0.00    1.4
2018/03/11 12:25:21.000   78.256416521   16.214732439   427.4024   2   8   0.3070   0.2746   1.4155  -0.1475   0.3694  -0.2949   0.00    1.4
2018/03/11 12:25:22.000   78.256416828   16.214732401   427.1826   2   8   0.2957   0.2645   1.3573  -0.1420   0.3543  -0.2830   0.00    1.4
2018/03/11 12:25:23.000   78.256416399   16.214730012   426.7342   2   8   0.2856   0.2553   1.3043  -0.1370   0.3407  -0.2723   0.00    1.4
2018/03/11 12:25:24.000   78.256417345   16.214727417   426.5032   2   8   0.2764   0.2470   1.2558  -0.1324   0.3281  -0.2624   0.00    1.3
2018/03/11 12:25:25.000   78.256419982   16.214729798   426.1533   2   8   0.2681   0.2395   1.2111  -0.1283   0.3166  -0.2534   0.00    1.3
2018/03/11 12:25:26.000   78.256421804   16.214727183   425.8425   2   8   0.2604   0.2325   1.1697  -0.1245   0.3059  -0.2450   0.00    1.2
2018/03/11 12:25:27.000   78.256422247   16.214725911   425.6430   2   8   0.2533   0.2262   1.1311  -0.1210   0.2959  -0.2372   0.00    1.2
2018/03/11 12:25:28.000   78.256421763   16.214724548   425.6969   2   8   0.2468   0.2202   1.0950  -0.1177   0.2866  -0.2299   0.00    1.2
2018/03/11 12:25:29.000   78.256422003   16.214725271   425.6920   2   8   0.2407   0.2147   1.0611  -0.1147   0.2779  -0.2231   0.00    1.2
2018/03/11 12:25:30.000   78.256422175   16.214728092   425.7577   2   8   0.2351   0.2096   1.0291  -0.1118   0.2697  -0.2167   0.00    1.2
2018/03/11 12:25:31.000   78.256421369   16.214728017   425.9388   2   8   0.2298   0.2048   0.9990  -0.1092   0.2619  -0.2107   0.00    1.2
2018/03/11 12:25:32.000   78.256420235   16.214727538   425.9647   2   8   0.2248   0.2003   0.9704  -0.1067   0.2546  -0.2050   0.00    1.3
2018/03/11 12:25:33.000   78.256419712   16.214727740   425.8207   2   8   0.2202   0.1960   0.9432  -0.1043   0.2476  -0.1996   0.00    1.3
2018/03/11 12:25:34.000   78.256419775   16.214727493   425.5113   2   8   0.2158   0.1920   0.9174  -0.1021   0.2410  -0.1944   0.00    1.3
2018/03/11 12:25:35.000   78.256419362   16.214725578   425.4923   2   8   0.2116   0.1882   0.8928  -0.1000   0.2346  -0.1895   0.00    1.3
2018/03/11 12:25:36.000   78.256418254   16.214723904   425.7573   2   8   0.2077   0.1847   0.8693  -0.0980   0.2286  -0.1849   0.00    1.3
2018/03/11 12:25:37.000   78.256418619   16.214722386   425.8981   2   8   0.2039   0.1813   0.8468  -0.0961   0.2228  -0.1804   0.00    1.3
2018/03/11 12:25:38.000   78.256419585   16.214723510   426.0154   2   8   0.2003   0.1780   0.8253  -0.0942   0.2173  -0.1762   0.00    1.2
2018/03/11 12:25:39.000   78.256419687   16.214722607   425.9980   2   8   0.1970   0.1749   0.8046  -0.0925   0.2120  -0.1721   0.00    1.2
2018/03/11 12:25:40.000   78.256419545   16.214721896   426.0286   2   8   0.1937   0.1720   0.7848  -0.0909   0.2069  -0.1682   0.00    1.2
2018/03/11 12:25:41.000   78.256420187   16.214722874   426.1187   2   8   0.1906   0.1692   0.7657  -0.0893   0.2021  -0.1644   0.00    1.2
2018/03/11 12:25:42.000   78.256421474   16.214722983   426.1462   2   8   0.1877   0.1665   0.7474  -0.0878   0.1974  -0.1608   0.00    1.2
2018/03/11 12:25:43.000   78.256422237   16.214723501   426.1014   2   8   0.1848   0.1639   0.7298  -0.0863   0.1929  -0.1573   0.00    1.1
2018/03/11 12:25:44.000   78.256422396   16.214721771   425.8492   2   8   0.1821   0.1614   0.7128  -0.0849   0.1885  -0.1540   0.00    1.1
2018/03/11 12:25:45.000   78.256421975   16.214721252   425.7916   2   8   0.1795   0.1590   0.6964  -0.0836   0.1843  -0.1508   0.00    1.1
2018/03/11 12:25:46.000   78.256422372   16.214722795   425.7227   2   8   0.1770   0.1568   0.6806  -0.0823   0.1803  -0.1477   0.00    1.1
2018/03/11 12:25:47.000   78.256422869   16.214723516   425.6854   2   8   0.1746   0.1546   0.6653  -0.0810   0.1764  -0.1447   0.00    1.1
2018/03/11 12:25:48.000   78.256422619   16.214723913   425.5761   2   8   0.1722   0.1524   0.6505  -0.0798   0.1726  -0.1418   0.00    1.1
2018/03/11 12:25:49.000   78.256422051   16.214723841   425.4624   2   8   0.1700   0.1504   0.6363  -0.0786   0.1690  -0.1390   0.00    1.1
2018/03/11 12:25:50.000   78.256421764   16.214725792   425.5891   2   8   0.1678   0.1484   0.6225  -0.0775   0.1654  -0.1364   0.00    1.2
2018/03/11 12:25:51.000   78.256422130   16.214726287   425.7097   2   8   0.1657   0.1465   0.6092  -0.0764   0.1620  -0.1338   0.00    1.1
2018/03/11 12:25:52.000   78.256422098   16.214726255   425.8379   2   8   0.1637   0.1447   0.5963  -0.0754   0.1588  -0.1313   0.00    1.1
2018/03/11 12:25:53.000   78.256421761   16.214726102   425.9209   2   8   0.1617   0.1429   0.5838  -0.0744   0.1556  -0.1288   0.00    1.1
2018/03/11 12:25:54.000   78.256421904   16.214725224   426.0122   2   8   0.1598   0.1412   0.5717  -0.0734   0.1525  -0.1265   0.00    1.1
2018/03/11 12:25:55.000   78.256421954   16.214725325   426.0751   2   8   0.1579   0.1395   0.5600  -0.0724   0.1495  -0.1242   0.00    1.1
2018/03/11 12:25:56.000   78.256422249   16.214725279   426.0811   2   8   0.1561   0.1379   0.5486  -0.0715   0.1466  -0.1220   0.00    1.1
2018/03/11 12:25:57.000   78.256422351   16.214725699   425.9878   2   8   0.1544   0.1363   0.5376  -0.0706   0.1438  -0.1199   0.00    1.1
2018/03/11 12:25:58.000   78.256422569   16.214726049   425.9374   2   8   0.1527   0.1348   0.5270  -0.0697   0.1411  -0.1178   0.00    1.1
2018/03/11 12:25:59.000   78.256422646   16.214726894   425.8855   2   8   0.1511   0.1333   0.5166  -0.0689   0.1384  -0.1158   0.00    1.1
2018/03/11 12:26:00.000   78.256422637   16.214727838   425.8776   2   8   0.1495   0.1318   0.5065  -0.0680   0.1359  -0.1138   0.00    1.1
2018/03/11 12:26:01.000   78.256422584   16.214728122   425.8752   2   8   0.1479   0.1304   0.4968  -0.0672   0.1334  -0.1120   0.00    1.1
2018/03/11 12:26:02.000   78.256422610   16.214729732   425.8579   2   8   0.1464   0.1291   0.4873  -0.0664   0.1310  -0.1101   0.00    1.1
2018/03/11 12:26:03.000   78.256422676   16.214731067   425.8620   2   8   0.1449   0.1278   0.4781  -0.0657   0.1286  -0.1083   0.00    1.1
2018/03/11 12:26:04.000   78.256422908   16.214731680   425.8382   2   8   0.1435   0.1265   0.4692  -0.0649   0.1263  -0.1066   0.00    1.1
2018/03/11 12:26:05.000   78.256423037   16.214731940   425.8294   2   8   0.1420   0.1252   0.4605  -0.0642   0.1241  -0.1049   0.00    1.1
2018/03/11 12:26:06.000   78.256422870   16.214731956   425.8605   2   8   0.1407   0.1240   0.4521  -0.0635   0.1220  -0.1033   0.00    1.1
2018/03/11 12:26:07.000   78.256422761   16.214731219   425.8337   2   8   0.1393   0.1228   0.4438  -0.0628   0.1199  -0.1017   0.00    1.1
2018/03/11 12:26:08.000   78.256423105   16.214731211   425.7909   2   8   0.1380   0.1216   0.4359  -0.0621   0.1179  -0.1002   0.00    1.1
2018/03/11 12:26:09.000   78.256423514   16.214731216   425.7374   2   8   0.1367   0.1205   0.4281  -0.0615   0.1159  -0.0987   0.00    1.1
2018/03/11 12:26:10.000   78.256423395   16.214731256   425.7143   2   8   0.1355   0.1194   0.4206  -0.0608   0.1140  -0.0972   0.00    1.1
2018/03/11 12:26:11.000   78.256423060   16.214731084   425.7024   2   8   0.1343   0.1183   0.4132  -0.0602   0.1121  -0.0958   0.00    1.1
2018/03/11 12:26:12.000   78.256422898   16.214731599   425.6862   2   8   0.1331   0.1172   0.4061  -0.0596   0.1103  -0.0944   0.00    1.1
2018/03/11 12:26:13.000   78.256423103   16.214732936   425.6647   2   8   0.1319   0.1162   0.3991  -0.0590   0.1085  -0.0931   0.00    1.1
2018/03/11 12:26:14.000   78.256423178   16.214734387   425.6414   2   8   0.1308   0.1152   0.3923  -0.0584   0.1068  -0.0918   0.00    1.1
2018/03/11 12:26:15.000   78.256423267   16.214734793   425.6286   2   8   0.1296   0.1142   0.3857  -0.0578   0.1051  -0.0905   0.00    1.1
2018/03/11 12:26:16.000   78.256423424   16.214734140   425.6366   2   8   0.1285   0.1132   0.3793  -0.0573   0.1035  -0.0893   0.00    1.1
2018/03/11 12:26:17.000   78.256423660   16.214734328   425.6231   2   8   0.1275   0.1123   0.3731  -0.0567   0.1019  -0.0881   0.00    1.1
2018/03/11 12:26:18.000   78.256424062   16.214734405   425.6167   2   8   0.1264   0.1113   0.3669  -0.0562   0.1003  -0.0869   0.00    1.1
2018/03/11 12:26:19.000   78.256424234   16.214733966   425.6264   2   8   0.1254   0.1104   0.3610  -0.0556   0.0988  -0.0857   0.00    1.1
2018/03/11 12:26:20.000   78.256424281   16.214733948   425.6324   2   8   0.1244   0.1095   0.3552  -0.0551   0.0973  -0.0846   0.00    1.1
2018/03/11 12:26:21.000   78.256424382   16.214733859   425.6002   2   8   0.1234   0.1086   0.3496  -0.0546   0.0959  -0.0835   0.00    1.0
2018/03/11 12:26:22.000   78.256424263   16.214734378   425.5613   2   8   0.1224   0.1078   0.3440  -0.0541   0.0945  -0.0825   0.00    1.0
2018/03/11 12:26:23.000   78.256424038   16.214734610   425.5312   2   8   0.1214   0.1069   0.3387  -0.0536   0.0931  -0.0814   0.00    1.0
2018/03/11 12:26:24.000   78.256423948   16.214734566   425.4977   2   8   0.1205   0.1061   0.3334  -0.0531   0.0918  -0.0804   0.00    1.0
2018/03/11 12:26:25.000   78.256423999   16.214734723   425.5119   2   8   0.1195   0.1053   0.3283  -0.0526   0.0905  -0.0794   0.00    1.0
2018/03/11 12:26:26.000   78.256423918   16.214735518   425.5328   2   8   0.1186   0.1045   0.3233  -0.0522   0.0892  -0.0785   0.00    1.0
2018/03/11 12:26:27.000   78.256423907   16.214736166   425.5348   2   8   0.1177   0.1037   0.3185  -0.0517   0.0880  -0.0775   0.00    1.0
2018/03/11 12:26:28.000   78.256423818   16.214736321   425.5357   2   8   0.1169   0.1030   0.3137  -0.0513   0.0867  -0.0766   0.00    1.0
2018/03/11 12:26:29.000   78.256424090   16.214736474   425.5500   2   8   0.1160   0.1022   0.3091  -0.0508   0.0856  -0.0757   0.00    1.0
2018/03/11 12:26:30.000   78.256424461   16.214736954   425.5727   2   8   0.1151   0.1015   0.3045  -0.0504   0.0844  -0.0748   0.00    1.0
2018/03/11 12:26:31.000   78.256424635   16.214737498   425.5634   2   8   0.1143   0.1007   0.3001  -0.0500   0.0833  -0.0740   0.00    1.0
2018/03/11 12:26:32.000   78.256424629   16.214737519   425.5274   2   8   0.1135   0.1000   0.2958  -0.0495   0.0822  -0.0731   0.00    1.0
2018/03/11 12:26:33.000   78.256424592   16.214737254   425.4972   2   8   0.1127   0.0993   0.2915  -0.0491   0.0811  -0.0723   0.00    1.0
2018/03/11 12:26:34.000   78.256424818   16.214737428   425.4806   2   8   0.1119   0.0986   0.2874  -0.0487   0.0800  -0.0715   0.00    1.0
2018/03/11 12:26:35.000   78.256425133   16.214737579   425.4762   2   8   0.1111   0.0979   0.2834  -0.0483   0.0790  -0.0707   0.00    1.0
2018/03/11 12:26:36.000   78.256425213   16.214737647   425.4633   2   8   0.1103   0.0973   0.2794  -0.0479   0.0780  -0.0699   0.00    1.0
2018/03/11 12:26:37.000   78.256424968   16.214737025   425.4394   2   8   0.1095   0.0966   0.2756  -0.0475   0.0770  -0.0692   0.00    1.0
2018/03/11 12:26:38.000   78.256424921   16.214736834   425.4563   2   8   0.1088   0.0960   0.2718  -0.0471   0.0761  -0.0685   0.00    1.0
2018/03/11 12:26:39.000   78.256425113   16.214737414   425.4969   2   8   0.1081   0.0953   0.2681  -0.0468   0.0751  -0.0677   0.00    1.0
2018/03/11 12:26:40.000   78.256425131   16.214737496   425.5410   2   8   0.1073   0.0947   0.2645  -0.0464   0.0742  -0.0670   0.00    1.1
2018/03/11 12:26:41.000   78.256424943   16.214737326   425.5574   2   8   0.1066   0.0941   0.2610  -0.0460   0.0733  -0.0664   0.00    1.1
2018/03/11 12:26:42.000   78.256424841   16.214737456   425.5654   2   8   0.1059   0.0935   0.2575  -0.0457   0.0724  -0.0657   0.00    1.1
2018/03/11 12:26:43.000   78.256425059   16.214737427   425.5604   2   8   0.1052   0.0929   0.2541  -0.0453   0.0716  -0.0650   0.00    1.1
2018/03/11 12:26:44.000   78.256425177   16.214738001   425.5647   2   8   0.1045   0.0923   0.2508  -0.0450   0.0707  -0.0644   0.00    1.1
2018/03/11 12:26:45.000   78.256425098   16.214737956   425.5560   2   8   0.1038   0.0917   0.2476  -0.0446   0.0699  -0.0637   0.00    1.1
2018/03/11 12:26:46.000   78.256424878   16.214737913   425.5284   2   8   0.1032   0.0911   0.2444  -0.0443   0.0691  -0.0631   0.00    1.1
2018/03/11 12:26:47.000   78.256424862   16.214738265   425.5269   2   8   0.1025   0.0906   0.2413  -0.0439   0.0683  -0.0625   0.00    1.1
2018/03/11 12:26:48.000   78.256424864   16.214738266   425.5244   2   8   0.1018   0.0900   0.2383  -0.0436   0.0675  -0.0619   0.00    1.1
2018/03/11 12:26:49.000   78.256424853   16.214738356   425.4870   2   8   0.1012   0.0894   0.2353  -0.0433   0.0667  -0.0613   0.00    1.1
2018/03/11 12:26:50.000   78.256424602   16.214738276   425.4495   2   8   0.1006   0.0889   0.2324  -0.0430   0.0660  -0.0608   0.00    1.1
2018/03/11 12:26:51.000   78.256424620   16.214738458   425.4518   2   8   0.0999   0.0884   0.2295  -0.0426   0.0653  -0.0602   0.00    1.1
2018/03/11 12:26:52.000   78.256424800   16.214738691   425.4688   2   8   0.0993   0.0878   0.2267  -0.0423   0.0645  -0.0596   0.00    1.1
2018/03/11 12:26:53.000   78.256424870   16.214739205   425.4769   2   8   0.0987   0.0873   0.2240  -0.0420   0.0638  -0.0591   0.00    1.1
2018/03/11 12:26:54.000   78.256424603   16.214739491   425.4835   2   8   0.0981   0.0868   0.2213  -0.0417   0.0631  -0.0586   0.00    1.1
2018/03/11 12:26:55.000   78.256424408   16.214739385   425.4908   2   8   0.0975   0.0863   0.2186  -0.0414   0.0625  -0.0580   0.00    1.1
2018/03/11 12:26:56.000   78.256424539   16.214739876   425.5069   2   8   0.0969   0.0858   0.2161  -0.0411   0.0618  -0.0575   0.00    1.1
2018/03/11 12:26:57.000   78.256424737   16.214740381   425.5123   2   8   0.0963   0.0853   0.2135  -0.0408   0.0612  -0.0570   0.00    1.2
2018/03/11 12:26:58.000   78.256424688   16.214740785   425.5005   2   8   0.0958   0.0848   0.2110  -0.0405   0.0605  -0.0565   0.00    1.2
2018/03/11 12:26:59.000   78.256424386   16.214740436   425.4906   2   8   0.0952   0.0843   0.2086  -0.0402   0.0599  -0.0561   0.00    1.2
2018/03/11 12:27:00.000   78.256424161   16.214740409   425.4904   2   8   0.0946   0.0838   0.2062  -0.0399   0.0593  -0.0556   0.00    1.2
2018/03/11 12:27:01.000   78.256424080   16.214740821   425.5055   2   8   0.0941   0.0834   0.2039  -0.0397   0.0587  -0.0551   0.00    1.2
2018/03/11 12:27:02.000   78.256424139   16.214741086   425.4836   2   8   0.0935   0.0829   0.2016  -0.0394   0.0581  -0.0546   0.00    1.2
2018/03/11 12:27:03.000   78.256424002   16.214741274   425.4680   2   8   0.0930   0.0825   0.1993  -0.0391   0.0575  -0.0542   0.00    1.2
2018/03/11 12:27:04.000   78.256423669   16.214740915   425.4697   2   8   0.0925   0.0820   0.1971  -0.0388   0.0569  -0.0538   0.00    1.2
2018/03/11 12:27:05.000   78.256423544   16.214740979   425.4994   2   8   0.0919   0.0816   0.1949  -0.0386   0.0564  -0.0533   0.00    1.2
2018/03/11 12:27:06.000   78.256423572   16.214741130   425.5171   2   8   0.0914   0.0811   0.1928  -0.0383   0.0558  -0.0529   0.00    1.2
2018/03/11 12:27:07.000   78.256423560   16.214741175   425.5188   2   8   0.0909   0.0807   0.1907  -0.0380   0.0553  -0.0525   0.00    1.2
2018/03/11 12:27:08.000   78.256423542   16.214741572   425.5172   2   8   0.0904   0.0802   0.1887  -0.0378   0.0548  -0.0521   0.00    1.2
2018/03/11 12:27:09.000   78.256423714   16.214741959   425.5310   2   8   0.0899   0.0798   0.1866  -0.0375   0.0542  -0.0517   0.00    1.2
2018/03/11 12:27:10.000   78.256423919   16.214742298   425.5447   2   8   0.0894   0.0794   0.1847  -0.0373   0.0537  -0.0513   0.00    1.3
2018/03/11 12:27:11.000   78.256423956   16.214742115   425.5499   2   8   0.0889   0.0790   0.1827  -0.0370   0.0532  -0.0509   0.00    1.3
2018/03/11 12:27:12.000   78.256423910   16.214742529   425.5309   2   8   0.0884   0.0786   0.1808  -0.0368   0.0527  -0.0505   0.00    1.3
2018/03/11 12:27:13.000   78.256423868   16.214743060   425.5127   2   8   0.0879   0.0781   0.1789  -0.0365   0.0523  -0.0501   0.00    1.3
2018/03/11 12:27:14.000   78.256423947   16.214743441   425.5051   2   8   0.0874   0.0777   0.1771  -0.0363   0.0518  -0.0497   0.00    1.3
2018/03/11 12:27:15.000   78.256423985   16.214743712   425.5039   2   8   0.0869   0.0773   0.1753  -0.0360   0.0513  -0.0493   0.00    1.3
2018/03/11 12:27:16.000   78.256423951   16.214743883   425.4864   2   8   0.0865   0.0769   0.1735  -0.0358   0.0508  -0.0490   0.00    1.3
2018/03/11 12:27:17.000   78.256423792   16.214743754   425.4555   2   8   0.0860   0.0765   0.1717  -0.0355   0.0504  -0.0486   0.00    1.3
2018/03/11 12:27:18.000   78.256423792   16.214743405   425.4415   2   8   0.0856   0.0762   0.1700  -0.0353   0.0499  -0.0483   0.00    1.3
2018/03/11 12:27:19.000   78.256423784   16.214743277   425.4482   2   8   0.0851   0.0758   0.1683  -0.0351   0.0495  -0.0479   0.00    1.3
2018/03/11 12:27:20.000   78.256423809   16.214742991   425.4573   2   8   0.0846   0.0754   0.1667  -0.0349   0.0491  -0.0476   0.00    1.3
2018/03/11 12:27:21.000   78.256423713   16.214742438   425.4546   2   8   0.0842   0.0750   0.1650  -0.0346   0.0487  -0.0473   0.00    1.3
2018/03/11 12:27:22.000   78.256423599   16.214742315   425.4515   2   8   0.0838   0.0746   0.1634  -0.0344   0.0482  -0.0469   0.00    1.3
2018/03/11 12:27:23.000   78.256423753   16.214742541   425.4659   2   8   0.0833   0.0743   0.1618  -0.0342   0.0478  -0.0466   0.00    1.3
2018/03/11 12:27:24.000   78.256423966   16.214742547   425.4773   2   8   0.0829   0.0739   0.1603  -0.0340   0.0474  -0.0463   0.00    1.3
2018/03/11 12:27:25.000   78.256424069   16.214742663   425.4844   2   8   0.0825   0.0736   0.1588  -0.0337   0.0470  -0.0460   0.00    1.3
2018/03/11 12:27:26.000   78.256424096   16.214742803   425.4782   2   8   0.0820   0.0732   0.1573  -0.0335   0.0466  -0.0457   0.00    1.3
2018/03/11 12:27:27.000   78.256424085   16.214743046   425.4800   2   8   0.0816   0.0728   0.1558  -0.0333   0.0462  -0.0453   0.00    1.3
2018/03/11 12:27:28.000   78.256424049   16.214742921   425.4816   2   8   0.0812   0.0725   0.1543  -0.0331   0.0459  -0.0450   0.00    1.3
2018/03/11 12:27:29.000   78.256424045   16.214742862   425.4890   2   8   0.0808   0.0721   0.1529  -0.0329   0.0455  -0.0447   0.00    1.3
2018/03/11 12:27:30.000   78.256424024   16.214742417   425.4779   2   8   0.0804   0.0718   0.1515  -0.0327   0.0451  -0.0445   0.00    1.3
2018/03/11 12:27:31.000   78.256423920   16.214742319   425.4626   2   8   0.0800   0.0715   0.1501  -0.0325   0.0448  -0.0442   0.00    1.3
2018/03/11 12:27:32.000   78.256423857   16.214742268   425.4498   2   8   0.0796   0.0711   0.1487  -0.0323   0.0444  -0.0439   0.00    1.4
2018/03/11 12:27:33.000   78.256423862   16.214742322   425.4405   2   8   0.0792   0.0708   0.1474  -0.0321   0.0441  -0.0436   0.00    1.4
2018/03/11 12:27:34.000   78.256423852   16.214742529   425.4366   2   8   0.0788   0.0705   0.1461  -0.0319   0.0437  -0.0433   0.00    1.4
2018/03/11 12:27:35.000   78.256423873   16.214742592   425.4277   2   8   0.0784   0.0701   0.1448  -0.0317   0.0434  -0.0430   0.00    1.4
2018/03/11 12:27:36.000   78.256424019   16.214742887   425.4295   2   8   0.0780   0.0698   0.1435  -0.0315   0.0430  -0.0428   0.00    1.4
2018/03/11 12:27:37.000   78.256424234   16.214743041   425.4372   2   8   0.0776   0.0695   0.1422  -0.0313   0.0427  -0.0425   0.00    1.4
2018/03/11 12:27:38.000   78.256424393   16.214743284   425.4388   2   8   0.0773   0.0692   0.1410  -0.0311   0.0424  -0.0422   0.00    1.4
2018/03/11 12:27:39.000   78.256424473   16.214743425   425.4261   2   8   0.0769   0.0689   0.1398  -0.0309   0.0421  -0.0420   0.00    1.4
2018/03/11 12:27:40.000   78.256424562   16.214743732   425.4190   2   8   0.0765   0.0685   0.1386  -0.0307   0.0417  -0.0417   0.00    1.4
2018/03/11 12:27:41.000   78.256424621   16.214744148   425.4161   2   8   0.0761   0.0682   0.1374  -0.0305   0.0414  -0.0415   0.00    1.4
2018/03/11 12:27:42.000   78.256424701   16.214744279   425.4161   2   8   0.0758   0.0679   0.1362  -0.0303   0.0411  -0.0412   0.00    1.4
2018/03/11 12:27:43.000   78.256424763   16.214744145   425.4154   2   8   0.0754   0.0676   0.1351  -0.0302   0.0408  -0.0410   0.00    1.4
2018/03/11 12:27:44.000   78.256424718   16.214744277   425.4049   2   8   0.0751   0.0673   0.1339  -0.0300   0.0405  -0.0407   0.00    1.4
2018/03/11 12:27:45.000   78.256424507   16.214743646   425.3853   2   8   0.0747   0.0670   0.1328  -0.0298   0.0402  -0.0405   0.00    1.4
2018/03/11 12:27:46.000   78.256424385   16.214743371   425.3726   2   8   0.0744   0.0667   0.1317  -0.0296   0.0399  -0.0403   0.00    1.4
2018/03/11 12:27:47.000   78.256424384   16.214743323   425.3627   2   8   0.0740   0.0664   0.1306  -0.0294   0.0397  -0.0400   0.00    1.4
2018/03/11 12:27:48.000   78.256424375   16.214743224   425.3588   2   8   0.0737   0.0662   0.1295  -0.0293   0.0394  -0.0398   0.00    1.5
2018/03/11 12:27:49.000   78.256424235   16.214742981   425.3602   2   8   0.0733   0.0659   0.1285  -0.0291   0.0391  -0.0396   0.00    1.5
2018/03/11 12:27:50.000   78.256424185   16.214742778   425.3704   2   8   0.0730   0.0656   0.1275  -0.0289   0.0388  -0.0394   0.00    1.5
2018/03/11 12:27:51.000   78.256424404   16.214742999   425.3894   2   8   0.0726   0.0653   0.1264  -0.0287   0.0386  -0.0391   0.00    1.5
2018/03/11 12:27:52.000   78.256424624   16.214743044   425.4055   2   8   0.0723   0.0650   0.1254  -0.0286   0.0383  -0.0389   0.00    1.5
2018/03/11 12:27:53.000   78.256424746   16.214743114   425.4158   2   8   0.0720   0.0647   0.1244  -0.0284   0.0380  -0.0387   0.00    1.5
2018/03/11 12:27:54.000   78.256424779   16.214743074   425.4158   2   8   0.0717   0.0645   0.1235  -0.0282   0.0378  -0.0385   0.00    1.5
2018/03/11 12:27:55.000   78.256424808   16.214743176   425.4064   2   8   0.0713   0.0642   0.1225  -0.0281   0.0375  -0.0383   0.00    1.5
2018/03/11 12:27:56.000   78.256424848   16.214743053   425.4026   2   8   0.0710   0.0639   0.1215  -0.0279   0.0373  -0.0381   0.00    1.5
2018/03/11 12:27:57.000   78.256424857   16.214743056   425.3881   2   8   0.0707   0.0636   0.1206  -0.0277   0.0370  -0.0379   0.00    1.5
2018/03/11 12:27:58.000   78.256424817   16.214742976   425.3708   2   8   0.0704   0.0634   0.1197  -0.0276   0.0368  -0.0377   0.00    1.5
2018/03/11 12:27:59.000   78.256424710   16.214742906   425.3544   2   8   0.0701   0.0631   0.1188  -0.0274   0.0365  -0.0375   0.00    1.5
2018/03/11 12:28:00.000   78.256424554   16.214742889   425.3446   2   8   0.0697   0.0629   0.1178  -0.0273   0.0363  -0.0373   0.00    1.5
2018/03/11 12:28:01.000   78.256424450   16.214742950   425.3359   2   8   0.0694   0.0626   0.1170  -0.0271   0.0360  -0.0371   0.00    1.5
2018/03/11 12:28:02.000   78.256424374   16.214742883   425.3394   2   8   0.0691   0.0623   0.1161  -0.0269   0.0358  -0.0369   0.00    1.5
2018/03/11 12:28:03.000   78.256424341   16.214742698   425.3548   2   8   0.0688   0.0621   0.1152  -0.0268   0.0356  -0.0367   0.00    1.5
2018/03/11 12:28:04.000   78.256424374   16.214742568   425.3766   2   8   0.0685   0.0618   0.1144  -0.0266   0.0354  -0.0365   0.00    1.5
2018/03/11 12:28:05.000   78.256424430   16.214742372   425.3915   2   8   0.0682   0.0616   0.1135  -0.0265   0.0351  -0.0363   0.00    1.5
2018/03/11 12:28:06.000   78.256424431   16.214742280   425.4070   2   8   0.0679   0.0613   0.1127  -0.0263   0.0349  -0.0361   0.00    1.5
2018/03/11 12:28:07.000   78.256424441   16.214742029   425.4217   2   8   0.0676   0.0611   0.1119  -0.0262   0.0347  -0.0359   0.00    1.5
2018/03/11 12:28:08.000   78.256424463   16.214741959   425.4353   2   8   0.0673   0.0608   0.1111  -0.0260   0.0345  -0.0358   0.00    1.5
2018/03/11 12:28:09.000   78.256424512   16.214742109   425.4443   2   8   0.0671   0.0606   0.1103  -0.0259   0.0343  -0.0356   0.00    1.5
2018/03/11 12:28:10.000   78.256424532   16.214741991   425.4391   2   8   0.0668   0.0603   0.1095  -0.0257   0.0340  -0.0354   0.00    1.6
2018/03/11 12:28:11.000   78.256424463   16.214741837   425.4236   2   8   0.0665   0.0601   0.1087  -0.0256   0.0338  -0.0352   0.00    1.6
2018/03/11 12:28:12.000   78.256424369   16.214741891   425.4093   2   8   0.0662   0.0599   0.1079  -0.0255   0.0336  -0.0350   0.00    1.6
2018/03/11 12:28:13.000   78.256424290   16.214742089   425.3944   2   8   0.0659   0.0596   0.1072  -0.0253   0.0334  -0.0349   0.00    1.6
2018/03/11 12:28:14.000   78.256424266   16.214742286   425.3999   2   8   0.0656   0.0594   0.1064  -0.0252   0.0332  -0.0347   0.00    1.6
2018/03/11 12:28:15.000   78.256424234   16.214742483   425.4027   2   8   0.0654   0.0592   0.1057  -0.0250   0.0330  -0.0345   0.00    1.6
2018/03/11 12:28:16.000   78.256424205   16.214742574   425.4061   2   8   0.0651   0.0589   0.1049  -0.0249   0.0328  -0.0344   0.00    1.6
2018/03/11 12:28:17.000   78.256424112   16.214742630   425.4051   2   7   0.0648   0.0587   0.1043  -0.0248   0.0326  -0.0342   0.00    2.2
2018/03/11 12:28:18.000   78.256424136   16.214742596   425.4156   2   7   0.0646   0.0585   0.1037  -0.0246   0.0325  -0.0340   0.00    2.2
2018/03/11 12:28:19.000   78.256424223   16.214742559   425.4251   2   7   0.0643   0.0583   0.1032  -0.0245   0.0323  -0.0338   0.00    2.2
2018/03/11 12:28:20.000   78.256424281   16.214742522   425.4311   2   7   0.0641   0.0580   0.1026  -0.0244   0.0321  -0.0336   0.00    2.2
2018/03/11 12:28:21.000   78.256424220   16.214742351   425.4321   2   7   0.0638   0.0578   0.1020  -0.0243   0.0319  -0.0334   0.00    2.2
2018/03/11 12:28:22.000   78.256424140   16.214742351   425.4292   2   7   0.0636   0.0576   0.1014  -0.0241   0.0317  -0.0333   0.00    2.2
2018/03/11 12:28:23.000   78.256424132   16.214742553   425.4319   2   7   0.0634   0.0574   0.1008  -0.0240   0.0316  -0.0331   0.00    2.2
2018/03/11 12:28:24.000   78.256424130   16.214742528   425.4376   2   7   0.0631   0.0572   0.1003  -0.0239   0.0314  -0.0329   0.00    2.2
2018/03/11 12:28:25.000   78.256424084   16.214742510   425.4444   2   7   0.0629   0.0569   0.0997  -0.0238   0.0312  -0.0327   0.00    2.2
2018/03/11 12:28:26.000   78.256423986   16.214742544   425.4460   2   7   0.0626   0.0567   0.0992  -0.0236   0.0310  -0.0326   0.00    2.2
2018/03/11 12:28:27.000   78.256423911   16.214742698   425.4496   2   7   0.0624   0.0565   0.0986  -0.0235   0.0309  -0.0324   0.00    2.2
2018/03/11 12:28:28.000   78.256423931   16.214742915   425.4491   2   7   0.0622   0.0563   0.0981  -0.0234   0.0307  -0.0322   0.00    2.2
2018/03/11 12:28:29.000   78.256423938   16.214743127   425.4495   2   7   0.0619   0.0561   0.0975  -0.0233   0.0305  -0.0321   0.00    2.2
2018/03/11 12:28:30.000   78.256423931   16.214743101   425.4487   2   7   0.0617   0.0559   0.0970  -0.0231   0.0304  -0.0319   0.00    2.2
2018/03/11 12:28:31.000   78.256423893   16.214743034   425.4498   2   7   0.0615   0.0557   0.0965  -0.0230   0.0302  -0.0318   0.00    2.2
2018/03/11 12:28:32.000   78.256423922   16.214743081   425.4487   2   7   0.0612   0.0555   0.0959  -0.0229   0.0300  -0.0316   0.00    2.2
2018/03/11 12:28:33.000   78.256423996   16.214743139   425.4486   2   7   0.0610   0.0553   0.0954  -0.0228   0.0299  -0.0314   0.00    2.1
2018/03/11 12:28:34.000   78.256423997   16.214743051   425.4431   2   7   0.0608   0.0551   0.0949  -0.0227   0.0297  -0.0313   0.00    2.1
2018/03/11 12:28:35.000   78.256423923   16.214742939   425.4360   2   7   0.0606   0.0549   0.0944  -0.0226   0.0296  -0.0311   0.00    2.1
2018/03/11 12:28:36.000   78.256423894   16.214742959   425.4321   2   7   0.0603   0.0547   0.0939  -0.0224   0.0294  -0.0310   0.00    2.1
2018/03/11 12:28:37.000   78.256423923   16.214743033   425.4358   2   7   0.0601   0.0545   0.0934  -0.0223   0.0293  -0.0308   0.00    2.1
2018/03/11 12:28:38.000   78.256423939   16.214742888   425.4429   2   7   0.0599   0.0543   0.0929  -0.0222   0.0291  -0.0307   0.00    2.1
2018/03/11 12:28:39.000   78.256423889   16.214742797   425.4414   2   7   0.0597   0.0541   0.0924  -0.0221   0.0290  -0.0305   0.00    2.1
2018/03/11 12:28:40.000   78.256423775   16.214742709   425.4356   2   7   0.0594   0.0539   0.0919  -0.0220   0.0288  -0.0304   0.00    2.1
2018/03/11 12:28:41.000   78.256423734   16.214742592   425.4440   2   7   0.0592   0.0537   0.0914  -0.0219   0.0287  -0.0302   0.00    2.1
2018/03/11 12:28:42.000   78.256423798   16.214742524   425.4526   2   7   0.0590   0.0535   0.0909  -0.0218   0.0285  -0.0301   0.00    2.1
2018/03/11 12:28:43.000   78.256423862   16.214742636   425.4540   2   7   0.0588   0.0533   0.0905  -0.0217   0.0284  -0.0300   0.00    2.1
2018/03/11 12:28:44.000   78.256423871   16.214742521   425.4529   2   7   0.0586   0.0531   0.0900  -0.0216   0.0282  -0.0298   0.00    2.1
2018/03/11 12:28:45.000   78.256423849   16.214742266   425.4517   2   7   0.0584   0.0529   0.0895  -0.0215   0.0281  -0.0297   0.00    2.1
2018/03/11 12:28:46.000   78.256423987   16.214742260   425.4554   2   7   0.0582   0.0528   0.0891  -0.0213   0.0279  -0.0296   0.00    2.1
2018/03/11 12:28:47.000   78.256424124   16.214742308   425.4593   2   7   0.0580   0.0526   0.0886  -0.0212   0.0278  -0.0294   0.00    2.1
2018/03/11 12:28:48.000   78.256424217   16.214742563   425.4605   2   7   0.0578   0.0524   0.0882  -0.0211   0.0277  -0.0293   0.00    2.0
2018/03/11 12:28:49.000   78.256424204   16.214742463   425.4598   2   7   0.0576   0.0522   0.0877  -0.0210   0.0275  -0.0292   0.00    2.0
2018/03/11 12:28:50.000   78.256424173   16.214742320   425.4588   2   7   0.0574   0.0520   0.0873  -0.0209   0.0274  -0.0290   0.00    2.0
2018/03/11 12:28:51.000   78.256424210   16.214742308   425.4570   2   7   0.0571   0.0519   0.0868  -0.0208   0.0273  -0.0289   0.00    2.0
2018/03/11 12:28:52.000   78.256424263   16.214742164   425.4565   2   7   0.0569   0.0517   0.0864  -0.0207   0.0271  -0.0288   0.00    2.0
2018/03/11 12:28:53.000   78.256424252   16.214741965   425.4536   2   7   0.0567   0.0515   0.0860  -0.0206   0.0270  -0.0286   0.00    2.0
2018/03/11 12:28:54.000   78.256424191   16.214742059   425.4476   2   7   0.0566   0.0513   0.0855  -0.0205   0.0269  -0.0285   0.00    2.0
2018/03/11 12:28:55.000   78.256424110   16.214741936   425.4400   2   7   0.0564   0.0512   0.0851  -0.0204   0.0267  -0.0284   0.00    2.0
2018/03/11 12:28:56.000   78.256424034   16.214741915   425.4335   2   7   0.0562   0.0510   0.0847  -0.0203   0.0266  -0.0283   0.00    2.1
2018/03/11 12:28:57.000   78.256423967   16.214741951   425.4309   2   7   0.0560   0.0508   0.0843  -0.0202   0.0265  -0.0282   0.00    2.1
2018/03/11 12:28:58.000   78.256423901   16.214741990   425.4304   2   7   0.0558   0.0506   0.0838  -0.0201   0.0264  -0.0280   0.00    2.1
2018/03/11 12:28:59.000   78.256423901   16.214742110   425.4332   2   7   0.0556   0.0505   0.0834  -0.0200   0.0262  -0.0279   0.00    2.1
2018/03/11 12:29:00.000   78.256423932   16.214741963   425.4402   2   7   0.0554   0.0503   0.0830  -0.0199   0.0261  -0.0278   0.00    2.1
2018/03/11 12:29:01.000   78.256423950   16.214742014   425.4501   2   7   0.0552   0.0501   0.0826  -0.0198   0.0260  -0.0277   0.00    2.0
2018/03/11 12:29:02.000   78.256423978   16.214742020   425.4611   2   7   0.0550   0.0500   0.0822  -0.0197   0.0259  -0.0276   0.00    2.0
2018/03/11 12:29:03.000   78.256423997   16.214741927   425.4692   2   7   0.0548   0.0498   0.0818  -0.0196   0.0257  -0.0275   0.00    2.0
2018/03/11 12:29:04.000   78.256424028   16.214741695   425.4768   2   7   0.0546   0.0496   0.0814  -0.0195   0.0256  -0.0274   0.00    2.0
2018/03/11 12:29:05.000   78.256424045   16.214741529   425.4823   2   7   0.0545   0.0495   0.0810  -0.0195   0.0255  -0.0272   0.00    2.0
2018/03/11 12:29:06.000   78.256424029   16.214741447   425.4796   2   7   0.0543   0.0493   0.0807  -0.0194   0.0254  -0.0271   0.00    2.0
2018/03/11 12:29:07.000   78.256423965   16.214741484   425.4727   2   7   0.0541   0.0492   0.0803  -0.0193   0.0253  -0.0270   0.00    2.0
2018/03/11 12:29:08.000   78.256423903   16.214741440   425.4634   2   7   0.0539   0.0490   0.0799  -0.0192   0.0252  -0.0269   0.00    2.0
2018/03/11 12:29:09.000   78.256423852   16.214741361   425.4523   2   7   0.0537   0.0488   0.0795  -0.0191   0.0251  -0.0268   0.00    2.0
2018/03/11 12:29:10.000   78.256423793   16.214741440   425.4450   2   7   0.0535   0.0487   0.0792  -0.0190   0.0249  -0.0267   0.00    2.0
2018/03/11 12:29:11.000   78.256423732   16.214741520   425.4344   2   7   0.0534   0.0485   0.0788  -0.0189   0.0248  -0.0266   0.00    2.1
2018/03/11 12:29:12.000   78.256423660   16.214741509   425.4305   2   7   0.0532   0.0484   0.0784  -0.0188   0.0247  -0.0265   0.00    2.1
2018/03/11 12:29:13.000   78.256423678   16.214741683   425.4342   2   7   0.0530   0.0482   0.0781  -0.0187   0.0246  -0.0264   0.00    2.1
2018/03/11 12:29:14.000   78.256423740   16.214741833   425.4408   2   7   0.0528   0.0481   0.0777  -0.0186   0.0245  -0.0263   0.00    2.0
2018/03/11 12:29:15.000   78.256423754   16.214741811   425.4494   2   7   0.0527   0.0479   0.0773  -0.0185   0.0244  -0.0262   0.00    2.0
2018/03/11 12:29:16.000   78.256423766   16.214741778   425.4604   2   7   0.0525   0.0478   0.0770  -0.0185   0.0243  -0.0261   0.00    2.0
2018/03/11 12:29:17.000   78.256423822   16.214741737   425.4676   2   7   0.0523   0.0476   0.0766  -0.0184   0.0242  -0.0260   0.00    2.0
2018/03/11 12:29:18.000   78.256423860   16.214741719   425.4743   2   7   0.0522   0.0475   0.0763  -0.0183   0.0241  -0.0259   0.00    2.0
2018/03/11 12:29:19.000   78.256423879   16.214741738   425.4717   2   7   0.0520   0.0473   0.0759  -0.0182   0.0240  -0.0258   0.00    2.0
2018/03/11 12:29:20.000   78.256423814   16.214741650   425.4679   2   7   0.0518   0.0472   0.0756  -0.0181   0.0239  -0.0257   0.00    2.0
2018/03/11 12:29:21.000   78.256423711   16.214741680   425.4638   2   7   0.0516   0.0470   0.0753  -0.0180   0.0238  -0.0256   0.00    2.0
2018/03/11 12:29:22.000   78.256423668   16.214741835   425.4595   2   7   0.0515   0.0469   0.0749  -0.0180   0.0237  -0.0255   0.00    2.0
2018/03/11 12:29:23.000   78.256423628   16.214742069   425.4588   2   7   0.0513   0.0467   0.0746  -0.0179   0.0236  -0.0254   0.00    2.0
2018/03/11 12:29:24.000   78.256423588   16.214742153   425.4554   2   7   0.0512   0.0466   0.0743  -0.0178   0.0235  -0.0253   0.00    2.0
2018/03/11 12:29:25.000   78.256423522   16.214742183   425.4497   2   7   0.0510   0.0464   0.0739  -0.0177   0.0234  -0.0253   0.00    2.0
2018/03/11 12:29:26.000   78.256423413   16.214742318   425.4510   2   7   0.0508   0.0463   0.0736  -0.0176   0.0233  -0.0252   0.00    2.0
2018/03/11 12:29:27.000   78.256423432   16.214742454   425.4557   2   7   0.0507   0.0461   0.0733  -0.0175   0.0232  -0.0251   0.00    2.0
2018/03/11 12:29:28.000   78.256423500   16.214742521   425.4598   2   7   0.0505   0.0460   0.0730  -0.0175   0.0231  -0.0250   0.00    2.0
2018/03/11 12:29:29.000   78.256423501   16.214742538   425.4602   2   7   0.0503   0.0459   0.0727  -0.0174   0.0230  -0.0249   0.00    1.9
2018/03/11 12:29:30.000   78.256423451   16.214742493   425.4579   2   7   0.0502   0.0457   0.0723  -0.0173   0.0229  -0.0248   0.00    2.0
2018/03/11 12:29:31.000   78.256423433   16.214742505   425.4588   2   7   0.0500   0.0456   0.0720  -0.0172   0.0228  -0.0247   0.00    1.9
2018/03/11 12:29:32.000   78.256423487   16.214742490   425.4604   2   7   0.0499   0.0455   0.0717  -0.0171   0.0227  -0.0246   0.00    1.9
2018/03/11 12:29:33.000   78.256423531   16.214742603   425.4607   2   7   0.0497   0.0453   0.0714  -0.0171   0.0226  -0.0246   0.00    1.9
2018/03/11 12:29:34.000   78.256423516   16.214742842   425.4601   2   7   0.0496   0.0452   0.0711  -0.0170   0.0225  -0.0245   0.00    1.9
2018/03/11 12:29:35.000   78.256423422   16.214743034   425.4567   2   7   0.0494   0.0450   0.0708  -0.0169   0.0224  -0.0244   0.00    1.9
2018/03/11 12:29:36.000   78.256423336   16.214743178   425.4569   2   7   0.0493   0.0449   0.0705  -0.0168   0.0223  -0.0243   0.00    1.9
2018/03/11 12:29:37.000   78.256423310   16.214743273   425.4590   2   7   0.0491   0.0448   0.0702  -0.0168   0.0223  -0.0242   0.00    1.9
2018/03/11 12:29:38.000   78.256423320   16.214743470   425.4600   2   7   0.0490   0.0447   0.0699  -0.0167   0.0222  -0.0241   0.00    1.9
2018/03/11 12:29:39.000   78.256423293   16.214743522   425.4554   2   7   0.0488   0.0445   0.0696  -0.0166   0.0221  -0.0241   0.00    1.9
2018/03/11 12:29:40.000   78.256423210   16.214743479   425.4525   2   7   0.0487   0.0444   0.0693  -0.0165   0.0220  -0.0240   0.00    1.9
2018/03/11 12:29:41.000   78.256423130   16.214743395   425.4513   2   7   0.0485   0.0443   0.0691  -0.0165   0.0219  -0.0239   0.00    1.9
2018/03/11 12:29:42.000   78.256423115   16.214743306   425.4529   2   7   0.0484   0.0441   0.0688  -0.0164   0.0218  -0.0238   0.00    1.9
2018/03/11 12:29:43.000   78.256423106   16.214743296   425.4563   2   7   0.0482   0.0440   0.0685  -0.0163   0.0217  -0.0238   0.00    1.9
2018/03/11 12:29:44.000   78.256423062   16.214743302   425.4598   2   7   0.0481   0.0439   0.0682  -0.0162   0.0217  -0.0237   0.00    1.9
2018/03/11 12:29:45.000   78.256423039   16.214743331   425.4648   2   7   0.0479   0.0437   0.0679  -0.0162   0.0216  -0.0236   0.00    1.9
2018/03/11 12:29:46.000   78.256423066   16.214743485   425.4738   2   7   0.0478   0.0436   0.0677  -0.0161   0.0215  -0.0235   0.00    1.9
2018/03/11 12:29:47.000   78.256423097   16.214743486   425.4814   2   7   0.0476   0.0435   0.0674  -0.0160   0.0214  -0.0235   0.00    1.9
2018/03/11 12:29:48.000   78.256423079   16.214743406   425.4885   2   7   0.0475   0.0434   0.0671  -0.0160   0.0213  -0.0234   0.00    1.9
2018/03/11 12:29:49.000   78.256423080   16.214743402   425.4928   2   7   0.0474   0.0432   0.0668  -0.0159   0.0212  -0.0233   0.00    1.9
2018/03/11 12:29:50.000   78.256423113   16.214743463   425.4935   2   7   0.0472   0.0431   0.0666  -0.0158   0.0212  -0.0232   0.00    1.9
2018/03/11 12:29:51.000   78.256423135   16.214743422   425.4939   2   7   0.0471   0.0430   0.0663  -0.0157   0.0211  -0.0232   0.00    1.9
2018/03/11 12:29:52.000   78.256423145   16.214743483   425.4920   2   7   0.0469   0.0429   0.0661  -0.0157   0.0210  -0.0231   0.00    1.9
2018/03/11 12:29:53.000   78.256423129   16.214743438   425.4841   2   7   0.0468   0.0428   0.0658  -0.0156   0.0209  -0.0230   0.00    1.9
2018/03/11 12:29:54.000   78.256423085   16.214743509   425.4734   2   7   0.0467   0.0426   0.0655  -0.0155   0.0208  -0.0229   0.00    1.9
2018/03/11 12:29:55.000   78.256423073   16.214743588   425.4673   2   7   0.0465   0.0425   0.0653  -0.0155   0.0208  -0.0229   0.00    1.9
2018/03/11 12:29:56.000   78.256423093   16.214743690   425.4653   2   7   0.0464   0.0424   0.0650  -0.0154   0.0207  -0.0228   0.00    1.9
2018/03/11 12:29:57.000   78.256423129   16.214743906   425.4644   2   7   0.0463   0.0423   0.0648  -0.0153   0.0206  -0.0227   0.00    1.8
2018/03/11 12:29:58.000   78.256423157   16.214743901   425.4630   2   7   0.0461   0.0422   0.0645  -0.0153   0.0205  -0.0227   0.00    1.8
2018/03/11 12:29:59.000   78.256423175   16.214743847   425.4646   2   7   0.0460   0.0421   0.0643  -0.0152   0.0205  -0.0226   0.00    1.8
2018/03/11 12:30:00.000   78.256423242   16.214743779   425.4690   2   7   0.0459   0.0419   0.0640  -0.0151   0.0204  -0.0225   0.00    1.8
2018/03/11 12:30:01.000   78.256423330   16.214743631   425.4743   2   7   0.0457   0.0418   0.0638  -0.0151   0.0203  -0.0225   0.00    1.8
2018/03/11 12:30:02.000   78.256423407   16.214743496   425.4760   2   7   0.0456   0.0417   0.0635  -0.0150   0.0203  -0.0224   0.00    1.8
2018/03/11 12:30:03.000   78.256423449   16.214743403   425.4759   2   7   0.0455   0.0416   0.0633  -0.0149   0.0202  -0.0223   0.00    1.8
2018/03/11 12:30:04.000   78.256423433   16.214743207   425.4738   2   7   0.0454   0.0415   0.0631  -0.0149   0.0201  -0.0223   0.00    1.8
2018/03/11 12:30:05.000   78.256423429   16.214743023   425.4723   2   7   0.0452   0.0414   0.0628  -0.0148   0.0200  -0.0222   0.00    1.7
2018/03/11 12:30:06.000   78.256423434   16.214742893   425.4709   2   7   0.0451   0.0413   0.0626  -0.0147   0.0200  -0.0221   0.00    1.7
2018/03/11 12:30:07.000   78.256423435   16.214742822   425.4690   2   7   0.0450   0.0411   0.0624  -0.0147   0.0199  -0.0221   0.00    1.7
2018/03/11 12:30:08.000   78.256423438   16.214742744   425.4651   2   7   0.0448   0.0410   0.0621  -0.0146   0.0198  -0.0220   0.00    1.7
2018/03/11 12:30:09.000   78.256423418   16.214742615   425.4616   2   7   0.0447   0.0409   0.0619  -0.0146   0.0198  -0.0220   0.00    1.7
2018/03/11 12:30:10.000   78.256423400   16.214742534   425.4612   2   7   0.0446   0.0408   0.0617  -0.0145   0.0197  -0.0219   0.00    1.7
2018/03/11 12:30:11.000   78.256423397   16.214742414   425.4625   2   7   0.0445   0.0407   0.0614  -0.0144   0.0196  -0.0218   0.00    1.7
2018/03/11 12:30:12.000   78.256423411   16.214742275   425.4659   2   7   0.0443   0.0406   0.0612  -0.0144   0.0196  -0.0218   0.00    1.7
2018/03/11 12:30:13.000   78.256423426   16.214742299   425.4688   2   7   0.0442   0.0405   0.0610  -0.0143   0.0195  -0.0217   0.00    1.7
2018/03/11 12:30:14.000   78.256423436   16.214742207   425.4710   2   7   0.0441   0.0404   0.0608  -0.0143   0.0194  -0.0217   0.00    1.6
2018/03/11 12:30:15.000   78.256423465   16.214742200   425.4736   2   7   0.0440   0.0403   0.0605  -0.0142   0.0194  -0.0216   0.00    1.6
2018/03/11 12:30:16.000   78.256423488   16.214742289   425.4751   2   7   0.0439   0.0402   0.0603  -0.0141   0.0193  -0.0215   0.00    1.6
2018/03/11 12:30:17.000   78.256423494   16.214742373   425.4768   2   7   0.0437   0.0401   0.0601  -0.0141   0.0192  -0.0215   0.00    1.6
2018/03/11 12:30:18.000   78.256423493   16.214742315   425.4771   2   7   0.0436   0.0400   0.0599  -0.0140   0.0192  -0.0214   0.00    1.6
2018/03/11 12:30:19.000   78.256423476   16.214742243   425.4772   2   7   0.0435   0.0399   0.0597  -0.0140   0.0191  -0.0214   0.00    1.6
2018/03/11 12:30:20.000   78.256423450   16.214742216   425.4785   2   7   0.0434   0.0398   0.0595  -0.0139   0.0190  -0.0213   0.00    1.6
2018/03/11 12:30:21.000   78.256423455   16.214742248   425.4786   2   7   0.0433   0.0397   0.0593  -0.0138   0.0190  -0.0212   0.00    1.6
2018/03/11 12:30:22.000   78.256423466   16.214742238   425.4776   2   7   0.0432   0.0395   0.0591  -0.0138   0.0189  -0.0212   0.00    1.6
2018/03/11 12:30:23.000   78.256423432   16.214742139   425.4778   2   7   0.0430   0.0394   0.0588  -0.0137   0.0188  -0.0211   0.00    1.6
2018/03/11 12:30:24.000   78.256423389   16.214742083   425.4775   2   7   0.0429   0.0393   0.0586  -0.0137   0.0188  -0.0211   0.00    1.6
2018/03/11 12:30:25.000   78.256423355   16.214742131   425.4802   2   7   0.0428   0.0392   0.0584  -0.0136   0.0187  -0.0210   0.00    1.6
2018/03/11 12:30:26.000   78.256423361   16.214742113   425.4825   2   7   0.0427   0.0391   0.0582  -0.0136   0.0187  -0.0210   0.00    1.6
2018/03/11 12:30:27.000   78.256423339   16.214742081   425.4838   2   7   0.0426   0.0390   0.0580  -0.0135   0.0186  -0.0209   0.00    1.6
2018/03/11 12:30:28.000   78.256423279   16.214742149   425.4848   2   7   0.0425   0.0389   0.0578  -0.0134   0.0185  -0.0209   0.00    1.6
2018/03/11 12:30:29.000   78.256423249   16.214742093   425.4866   2   7   0.0424   0.0388   0.0576  -0.0134   0.0185  -0.0208   0.00    1.5
2018/03/11 12:30:30.000   78.256423268   16.214742152   425.4920   2   7   0.0423   0.0388   0.0574  -0.0133   0.0184  -0.0208   0.00    1.5
2018/03/11 12:30:31.000   78.256423323   16.214742188   425.4991   2   7   0.0421   0.0387   0.0572  -0.0133   0.0184  -0.0207   0.00    1.5
2018/03/11 12:30:32.000   78.256423363   16.214742316   425.5044   2   7   0.0420   0.0386   0.0571  -0.0132   0.0183  -0.0206   0.00    1.5
2018/03/11 12:30:33.000   78.256423352   16.214742324   425.5061   2   7   0.0419   0.0385   0.0569  -0.0132   0.0182  -0.0206   0.00    1.5
2018/03/11 12:30:34.000   78.256423286   16.214742247   425.5066   2   7   0.0418   0.0384   0.0567  -0.0131   0.0182  -0.0205   0.00    1.5
2018/03/11 12:30:35.000   78.256423267   16.214742374   425.5092   2   7   0.0417   0.0383   0.0565  -0.0131   0.0181  -0.0205   0.00    1.5
2018/03/11 12:30:36.000   78.256423289   16.214742476   425.5120   2   7   0.0416   0.0382   0.0563  -0.0130   0.0181  -0.0204   0.00    1.5
2018/03/11 12:30:37.000   78.256423324   16.214742550   425.5102   2   7   0.0415   0.0381   0.0561  -0.0130   0.0180  -0.0204   0.00    1.5
2018/03/11 12:30:38.000   78.256423320   16.214742734   425.5056   2   7   0.0414   0.0380   0.0559  -0.0129   0.0180  -0.0203   0.00    1.5
2018/03/11 12:30:39.000   78.256423260   16.214742770   425.4960   2   7   0.0413   0.0379   0.0557  -0.0129   0.0179  -0.0203   0.00    1.5
2018/03/11 12:30:40.000   78.256423154   16.214742663   425.4928   2   7   0.0412   0.0378   0.0555  -0.0128   0.0179  -0.0202   0.00    1.5
2018/03/11 12:30:41.000   78.256423176   16.214742709   425.4925   2   7   0.0411   0.0377   0.0554  -0.0128   0.0178  -0.0202   0.00    1.5
2018/03/11 12:30:42.000   78.256423213   16.214742816   425.4946   2   7   0.0410   0.0376   0.0552  -0.0127   0.0177  -0.0201   0.00    1.5
2018/03/11 12:30:43.000   78.256423216   16.214742917   425.4951   2   7   0.0409   0.0375   0.0550  -0.0127   0.0177  -0.0201   0.00    1.5
2018/03/11 12:30:44.000   78.256423157   16.214742917   425.4929   2   7   0.0408   0.0374   0.0548  -0.0126   0.0176  -0.0200   0.00    1.4
2018/03/11 12:30:45.000   78.256423187   16.214742861   425.4994   2   7   0.0407   0.0373   0.0546  -0.0125   0.0176  -0.0200   0.00    1.4
2018/03/11 12:30:46.000   78.256423304   16.214742911   425.5096   2   7   0.0406   0.0373   0.0545  -0.0125   0.0175  -0.0200   0.00    1.4
2018/03/11 12:30:47.000   78.256423408   16.214742858   425.5172   2   7   0.0405   0.0372   0.0543  -0.0124   0.0175  -0.0199   0.00    1.4
2018/03/11 12:30:48.000   78.256423464   16.214742781   425.5191   2   7   0.0404   0.0371   0.0541  -0.0124   0.0174  -0.0199   0.00    1.4
2018/03/11 12:30:49.000   78.256423443   16.214742613   425.5159   2   7   0.0403   0.0370   0.0540  -0.0124   0.0174  -0.0198   0.00    1.4
2018/03/11 12:30:50.000   78.256423426   16.214742507   425.5156   2   7   0.0402   0.0369   0.0538  -0.0123   0.0173  -0.0198   0.00    1.4
2018/03/11 12:30:51.000   78.256423494   16.214742503   425.5151   2   7   0.0401   0.0368   0.0536  -0.0123   0.0173  -0.0197   0.00    1.4
2018/03/11 12:30:52.000   78.256423566   16.214742549   425.5144   2   7   0.0400   0.0367   0.0534  -0.0122   0.0172  -0.0197   0.00    1.3
2018/03/11 12:30:53.000   78.256423633   16.214742630   425.5100   2   7   0.0399   0.0366   0.0533  -0.0122   0.0172  -0.0196   0.00    1.3
2018/03/11 12:30:54.000   78.256423649   16.214742662   425.5020   2   7   0.0398   0.0366   0.0531  -0.0121   0.0171  -0.0196   0.00    1.3
2018/03/11 12:30:55.000   78.256423538   16.214742454   425.5002   2   7   0.0397   0.0365   0.0529  -0.0121   0.0171  -0.0195   0.00    1.3
2018/03/11 12:30:56.000   78.256423558   16.214742434   425.5037   2   7   0.0396   0.0364   0.0528  -0.0120   0.0170  -0.0195   0.00    1.3
2018/03/11 12:30:57.000   78.256423602   16.214742470   425.5083   2   7   0.0395   0.0363   0.0526  -0.0120   0.0170  -0.0194   0.00    1.3
2018/03/11 12:30:58.000   78.256423602   16.214742421   425.5105   2   7   0.0394   0.0362   0.0525  -0.0119   0.0169  -0.0194   0.00    1.3
2018/03/11 12:30:59.000   78.256423548   16.214742251   425.5094   2   7   0.0393   0.0361   0.0523  -0.0119   0.0169  -0.0194   0.00    1.3
2018/03/11 12:31:00.000   78.256423518   16.214742115   425.5128   2   7   0.0392   0.0361   0.0521  -0.0118   0.0168  -0.0193   0.00    1.3
2018/03/11 12:31:01.000   78.256423584   16.214742074   425.5162   2   7   0.0391   0.0360   0.0520  -0.0118   0.0168  -0.0193   0.00    1.3
2018/03/11 12:31:02.000   78.256423635   16.214742026   425.5187   2   7   0.0390   0.0359   0.0518  -0.0117   0.0167  -0.0192   0.00    1.3
2018/03/11 12:31:03.000   78.256423641   16.214742029   425.5181   2   7   0.0389   0.0358   0.0517  -0.0117   0.0167  -0.0192   0.00    1.2
2018/03/11 12:31:04.000   78.256423601   16.214741879   425.5154   2   7   0.0388   0.0357   0.0515  -0.0116   0.0166  -0.0191   0.00    1.2
2018/03/11 12:31:05.000   78.256423574   16.214741778   425.5158   2   7   0.0387   0.0356   0.0514  -0.0116   0.0166  -0.0191   0.00    1.2
2018/03/11 12:31:06.000   78.256423595   16.214741822   425.5178   2   7   0.0386   0.0356   0.0512  -0.0116   0.0165  -0.0191   0.00    1.2
2018/03/11 12:31:07.000   78.256423647   16.214741922   425.5220   2   7   0.0386   0.0355   0.0510  -0.0115   0.0165  -0.0190   0.00    1.2
2018/03/11 12:31:08.000   78.256423672   16.214741899   425.5246   2   7   0.0385   0.0354   0.0509  -0.0115   0.0164  -0.0190   0.00    1.2
2018/03/11 12:31:09.000   78.256423647   16.214741805   425.5240   2   7   0.0384   0.0353   0.0507  -0.0114   0.0164  -0.0189   0.00    1.2
2018/03/11 12:31:10.000   78.256423600   16.214741677   425.5240   2   7   0.0383   0.0352   0.0506  -0.0114   0.0164  -0.0189   0.00    1.2
2018/03/11 12:31:11.000   78.256423620   16.214741712   425.5277   2   7   0.0382   0.0352   0.0504  -0.0113   0.0163  -0.0189   0.00    1.2
2018/03/11 12:31:12.000   78.256423642   16.214741717   425.5310   2   7   0.0381   0.0351   0.0503  -0.0113   0.0163  -0.0188   0.00    1.2
2018/03/11 12:31:13.000   78.256423641   16.214741644   425.5317   2   7   0.0380   0.0350   0.0502  -0.0113   0.0162  -0.0188   0.00    1.2
2018/03/11 12:31:14.000   78.256423596   16.214741588   425.5315   2   7   0.0379   0.0349   0.0500  -0.0112   0.0162  -0.0187   0.00    1.2
2018/03/11 12:31:15.000   78.256423570   16.214741550   425.5325   2   7   0.0378   0.0349   0.0499  -0.0112   0.0161  -0.0187   0.00    1.2
2018/03/11 12:31:16.000   78.256423610   16.214741557   425.5350   2   7   0.0378   0.0348   0.0497  -0.0111   0.0161  -0.0187   0.00    1.2
2018/03/11 12:31:17.000   78.256423643   16.214741564   425.5406   2   7   0.0377   0.0347   0.0496  -0.0111   0.0161  -0.0186   0.00    1.2
2018/03/11 12:31:18.000   78.256423655   16.214741590   425.5458   2   7   0.0376   0.0346   0.0494  -0.0110   0.0160  -0.0186   0.00    1.2
2018/03/11 12:31:19.000   78.256423661   16.214741557   425.5486   2   7   0.0375   0.0345   0.0493  -0.0110   0.0160  -0.0185   0.00    1.1
2018/03/11 12:31:20.000   78.256423648   16.214741515   425.5512   2   7   0.0374   0.0345   0.0491  -0.0110   0.0159  -0.0185   0.00    1.1
2018/03/11 12:31:21.000   78.256423654   16.214741575   425.5544   2   7   0.0373   0.0344   0.0490  -0.0109   0.0159  -0.0185   0.00    1.1
2018/03/11 12:31:22.000   78.256423659   16.214741657   425.5564   2   7   0.0373   0.0343   0.0489  -0.0109   0.0158  -0.0184   0.00    1.1
2018/03/11 12:31:23.000   78.256423648   16.214741774   425.5562   2   7   0.0372   0.0342   0.0487  -0.0108   0.0158  -0.0184   0.00    1.1
2018/03/11 12:31:24.000   78.256423633   16.214741779   425.5532   2   7   0.0371   0.0342   0.0486  -0.0108   0.0158  -0.0184   0.00    1.1
2018/03/11 12:31:25.000   78.256423610   16.214741900   425.5505   2   7   0.0370   0.0341   0.0485  -0.0108   0.0157  -0.0183   0.00    1.1
2018/03/11 12:31:26.000   78.256423596   16.214742029   425.5483   2   7   0.0369   0.0340   0.0483  -0.0107   0.0157  -0.0183   0.00    1.1
2018/03/11 12:31:27.000   78.256423586   16.214742113   425.5455   2   7   0.0368   0.0340   0.0482  -0.0107   0.0156  -0.0182   0.00    1.1
2018/03/11 12:31:28.000   78.256423582   16.214742195   425.5434   2   7   0.0368   0.0339   0.0481  -0.0106   0.0156  -0.0182   0.00    1.1
2018/03/11 12:31:29.000   78.256423598   16.214742289   425.5432   2   7   0.0367   0.0338   0.0479  -0.0106   0.0156  -0.0182   0.00    1.1
2018/03/11 12:31:30.000   78.256423615   16.214742247   425.5451   2   7   0.0366   0.0337   0.0478  -0.0106   0.0155  -0.0181   0.00    1.1
2018/03/11 12:31:31.000   78.256423629   16.214742239   425.5487   2   7   0.0365   0.0337   0.0477  -0.0105   0.0155  -0.0181   0.00    1.1
2018/03/11 12:31:32.000   78.256423652   16.214742253   425.5516   2   7   0.0364   0.0336   0.0475  -0.0105   0.0154  -0.0181   0.00    1.1
2018/03/11 12:31:33.000   78.256423683   16.214742241   425.5519   2   7   0.0364   0.0335   0.0474  -0.0104   0.0154  -0.0180   0.00    1.1
2018/03/11 12:31:34.000   78.256423694   16.214742140   425.5529   2   7   0.0363   0.0335   0.0473  -0.0104   0.0154  -0.0180   0.00    1.1
2018/03/11 12:31:35.000   78.256423686   16.214742033   425.5552   2   7   0.0362   0.0334   0.0471  -0.0104   0.0153  -0.0180   0.00    1.1
2018/03/11 12:31:36.000   78.256423694   16.214742011   425.5555   2   7   0.0361   0.0333   0.0470  -0.0103   0.0153  -0.0179   0.00    1.1
2018/03/11 12:31:37.000   78.256423692   16.214742004   425.5534   2   7   0.0360   0.0332   0.0469  -0.0103   0.0152  -0.0179   0.00    1.0
2018/03/11 12:31:38.000   78.256423678   16.214741989   425.5525   2   7   0.0360   0.0332   0.0468  -0.0103   0.0152  -0.0179   0.00    1.0
2018/03/11 12:31:39.000   78.256423660   16.214741954   425.5528   2   7   0.0359   0.0331   0.0466  -0.0102   0.0152  -0.0178   0.00    1.0
2018/03/11 12:31:40.000   78.256423651   16.214741909   425.5532   2   7   0.0358   0.0330   0.0465  -0.0102   0.0151  -0.0178   0.00    1.0
2018/03/11 12:31:41.000   78.256423652   16.214741867   425.5541   2   7   0.0357   0.0330   0.0464  -0.0101   0.0151  -0.0177   0.00    1.0
2018/03/11 12:31:42.000   78.256423654   16.214741834   425.5546   2   7   0.0357   0.0329   0.0463  -0.0101   0.0150  -0.0177   0.00    1.0
2018/03/11 12:31:43.000   78.256423649   16.214741840   425.5532   2   7   0.0356   0.0328   0.0462  -0.0101   0.0150  -0.0177   0.00    1.0
2018/03/11 12:31:44.000   78.256423634   16.214741791   425.5510   2   7   0.0355   0.0328   0.0460  -0.0100   0.0150  -0.0176   0.00    1.0
2018/03/11 12:31:45.000   78.256423613   16.214741717   425.5497   2   7   0.0354   0.0327   0.0459  -0.0100   0.0149  -0.0176   0.00    1.0
2018/03/11 12:31:46.000   78.256423611   16.214741765   425.5486   2   7   0.0354   0.0326   0.0458  -0.0100   0.0149  -0.0176   0.00    1.0
2018/03/11 12:31:47.000   78.256423617   16.214741825   425.5473   2   7   0.0353   0.0326   0.0457  -0.0099   0.0149  -0.0175   0.00    1.0
2018/03/11 12:31:48.000   78.256423609   16.214741846   425.5462   2   7   0.0352   0.0325   0.0456  -0.0099   0.0148  -0.0175   0.00    1.0
2018/03/11 12:31:49.000   78.256423573   16.214741836   425.5458   2   7   0.0351   0.0324   0.0454  -0.0099   0.0148  -0.0175   0.00    1.0
2018/03/11 12:31:50.000   78.256423548   16.214741897   425.5458   2   7   0.0351   0.0324   0.0453  -0.0098   0.0148  -0.0175   0.00    1.0
2018/03/11 12:31:51.000   78.256423547   16.214742010   425.5463   2   7   0.0350   0.0323   0.0452  -0.0098   0.0147  -0.0174   0.00    1.0
2018/03/11 12:31:52.000   78.256423553   16.214742012   425.5477   2   7   0.0349   0.0322   0.0451  -0.0097   0.0147  -0.0174   0.00    1.0
2018/03/11 12:31:53.000   78.256423545   16.214742058   425.5502   2   7   0.0349   0.0322   0.0450  -0.0097   0.0147  -0.0174   0.00    1.0
2018/03/11 12:31:54.000   78.256423541   16.214742114   425.5534   2   7   0.0348   0.0321   0.0449  -0.0097   0.0146  -0.0173   0.00    1.0
2018/03/11 12:31:55.000   78.256423525   16.214742121   425.5560   2   7   0.0347   0.0321   0.0447  -0.0096   0.0146  -0.0173   0.00    1.0
2018/03/11 12:31:56.000   78.256423508   16.214742146   425.5570   2   7   0.0346   0.0320   0.0446  -0.0096   0.0145  -0.0173   0.00    1.0
2018/03/11 12:31:57.000   78.256423509   16.214742272   425.5583   2   7   0.0346   0.0319   0.0445  -0.0096   0.0145  -0.0172   0.00    1.0
2018/03/11 12:31:58.000   78.256423509   16.214742364   425.5590   2   7   0.0345   0.0319   0.0444  -0.0095   0.0145  -0.0172   0.00    1.0
2018/03/11 12:31:59.000   78.256423496   16.214742330   425.5596   2   7   0.0344   0.0318   0.0443  -0.0095   0.0144  -0.0172   0.00    1.0
2018/03/11 12:32:00.000   78.256423486   16.214742321   425.5592   2   7   0.0344   0.0317   0.0442  -0.0095   0.0144  -0.0171   0.00    1.0
2018/03/11 12:32:01.000   78.256423489   16.214742404   425.5588   2   7   0.0343   0.0317   0.0441  -0.0094   0.0144  -0.0171   0.00    1.0
2018/03/11 12:32:02.000   78.256423494   16.214742451   425.5589   2   7   0.0342   0.0316   0.0440  -0.0094   0.0143  -0.0171   0.00    1.0
