% program   : RTKPOST ver.2.4.2
% inp file  : Z:\home\linda\Documents\Spring18\GitHub_Unis\data\processed_data\46250704.obs
% inp file  : Z:\home\linda\Documents\Spring18\GitHub_Unis\data\base_station_data\lyrs0700.18o
% inp file  : Z:\home\linda\Documents\Spring18\GitHub_Unis\data\processed_data\46250704.nav
% obs start : 2018/03/11 12:07:04.0 GPST (week1992  43624.0s)
% obs end   : 2018/03/11 12:22:36.0 GPST (week1992  44556.0s)
% pos mode  : static
% freqs     : L1+L2
% solution  : forward
% elev mask : 15.0 deg
% dynamics  : on
% tidecorr  : off
% ionos opt : broadcast
% tropo opt : saastamoinen
% ephemeris : broadcast
% navi sys  : gps glonass galileo qzss sbas
% amb res   : fix and hold
% amb glo   : on
% val thres : 3.0
% antenna1  :                       ( 0.0000  0.0000  0.0000)
% antenna2  :                       ( 0.0000  0.0000  0.0000)
% ref pos   : 78.228825638   15.397310064   495.6816
%
% (lat/lon/height=WGS84/ellipsoidal,Q=1:fix,2:float,3:sbas,4:dgps,5:single,6:ppp,ns=# of satellites)
%  GPST                  latitude(deg) longitude(deg)  height(m)   Q  ns   sdn(m)   sde(m)   sdu(m)  sdne(m)  sdeu(m)  sdun(m) age(s)  ratio
2018/03/11 12:07:04.000   78.256423483   16.214731048   425.6720   2   9   0.4131   0.3909   1.5542  -0.1576   0.2443   0.3416   0.00    1.4
2018/03/11 12:07:05.000   78.256424797   16.214740548   426.3737   2   9   0.2941   0.2778   1.1063  -0.1124   0.1705   0.2435   0.00    1.6
2018/03/11 12:07:06.000   78.256425053   16.214740418   426.1344   2   9   0.2407   0.2272   0.9049  -0.0920   0.1386   0.1991   0.00    1.9
2018/03/11 12:07:07.000   78.256424939   16.214742892   426.0655   2   9   0.2086   0.1969   0.7840  -0.0798   0.1198   0.1725   0.00    2.1
2018/03/11 12:07:08.000   78.256424632   16.214744421   426.0836   2   9   0.1867   0.1762   0.7010  -0.0714   0.1070   0.1541   0.00    2.3
2018/03/11 12:07:09.000   78.256424550   16.214746505   426.0273   2   9   0.1705   0.1609   0.6394  -0.0653   0.0976   0.1405   0.00    2.5
2018/03/11 12:07:10.000   78.256424230   16.214746896   425.8840   2   9   0.1579   0.1490   0.5913  -0.0604   0.0903   0.1298   0.00    2.6
2018/03/11 12:07:11.000   78.256424172   16.214745833   425.8608   2   9   0.1477   0.1394   0.5524  -0.0566   0.0844   0.1212   0.00    2.7
2018/03/11 12:07:12.000   78.256424223   16.214745428   425.6548   2   9   0.1392   0.1314   0.5199  -0.0533   0.0795   0.1139   0.00    3.0
2018/03/11 12:07:13.000   78.256422638   16.214741791   425.5442   1   9   0.0013   0.0012   0.0050  -0.0005   0.0008   0.0011   0.00    3.2
2018/03/11 12:07:14.000   78.256422638   16.214741801   425.5437   1   9   0.0013   0.0012   0.0048  -0.0005   0.0007   0.0010   0.00    3.3
2018/03/11 12:07:15.000   78.256422636   16.214741806   425.5427   1   9   0.0012   0.0011   0.0046  -0.0005   0.0007   0.0010   0.00    3.4
2018/03/11 12:07:16.000   78.256422635   16.214741803   425.5416   1   9   0.0012   0.0011   0.0044  -0.0004   0.0007   0.0010   0.00    3.5
2018/03/11 12:07:17.000   78.256422634   16.214741807   425.5405   1   9   0.0011   0.0011   0.0042  -0.0004   0.0006   0.0009   0.00    3.7
2018/03/11 12:07:18.000   78.256422633   16.214741811   425.5394   1   9   0.0011   0.0010   0.0041  -0.0004   0.0006   0.0009   0.00    4.0
2018/03/11 12:07:19.000   78.256422632   16.214741817   425.5382   1   9   0.0010   0.0010   0.0039  -0.0004   0.0006   0.0009   0.00    4.0
2018/03/11 12:07:20.000   78.256422631   16.214741819   425.5371   1   9   0.0010   0.0010   0.0038  -0.0004   0.0006   0.0008   0.00    4.0
2018/03/11 12:07:21.000   78.256422629   16.214741819   425.5364   1   9   0.0010   0.0009   0.0037  -0.0004   0.0006   0.0008   0.00    4.1
2018/03/11 12:07:22.000   78.256422629   16.214741812   425.5357   1   9   0.0010   0.0009   0.0036  -0.0004   0.0006   0.0008   0.00    4.2
2018/03/11 12:07:23.000   78.256422630   16.214741813   425.5352   1   9   0.0009   0.0009   0.0035  -0.0004   0.0005   0.0008   0.00   14.2
2018/03/11 12:07:24.000   78.256422631   16.214741810   425.5340   1   9   0.0009   0.0009   0.0034  -0.0003   0.0005   0.0008   0.00   19.9
2018/03/11 12:07:25.000   78.256422631   16.214741810   425.5340   1   9   0.0009   0.0008   0.0034  -0.0003   0.0005   0.0007   0.00   26.2
2018/03/11 12:07:26.000   78.256422632   16.214741812   425.5329   1   9   0.0009   0.0008   0.0033  -0.0003   0.0005   0.0007   0.00   31.7
2018/03/11 12:07:27.000   78.256422632   16.214741815   425.5321   1   9   0.0009   0.0008   0.0032  -0.0003   0.0005   0.0007   0.00   38.5
2018/03/11 12:07:28.000   78.256422632   16.214741815   425.5315   1   9   0.0008   0.0008   0.0032  -0.0003   0.0005   0.0007   0.00   44.9
2018/03/11 12:07:29.000   78.256422634   16.214741812   425.5308   1   9   0.0008   0.0008   0.0031  -0.0003   0.0005   0.0007   0.00   51.2
2018/03/11 12:07:30.000   78.256422634   16.214741809   425.5302   1   9   0.0008   0.0008   0.0030  -0.0003   0.0005   0.0007   0.00   58.4
2018/03/11 12:07:31.000   78.256422635   16.214741806   425.5296   1   9   0.0008   0.0007   0.0030  -0.0003   0.0005   0.0007   0.00   65.2
2018/03/11 12:07:32.000   78.256422636   16.214741808   425.5291   1   9   0.0008   0.0007   0.0029  -0.0003   0.0004   0.0006   0.00   71.1
2018/03/11 12:07:33.000   78.256422637   16.214741804   425.5285   1   9   0.0008   0.0007   0.0029  -0.0003   0.0004   0.0006   0.00   78.5
2018/03/11 12:07:34.000   78.256422637   16.214741803   425.5280   1   9   0.0008   0.0007   0.0028  -0.0003   0.0004   0.0006   0.00   86.2
2018/03/11 12:07:35.000   78.256422639   16.214741804   425.5271   1   9   0.0007   0.0007   0.0028  -0.0003   0.0004   0.0006   0.00   91.8
2018/03/11 12:07:36.000   78.256422640   16.214741799   425.5263   1   9   0.0007   0.0007   0.0028  -0.0003   0.0004   0.0006   0.00   99.8
2018/03/11 12:07:37.000   78.256422641   16.214741794   425.5255   1   9   0.0007   0.0007   0.0027  -0.0003   0.0004   0.0006   0.00  108.8
2018/03/11 12:07:38.000   78.256422642   16.214741792   425.5248   1   9   0.0007   0.0007   0.0027  -0.0003   0.0004   0.0006   0.00  114.5
2018/03/11 12:07:39.000   78.256422643   16.214741787   425.5242   1   9   0.0007   0.0007   0.0026  -0.0003   0.0004   0.0006   0.00  122.5
2018/03/11 12:07:40.000   78.256422644   16.214741782   425.5236   1   9   0.0007   0.0006   0.0026  -0.0003   0.0004   0.0006   0.00  130.0
2018/03/11 12:07:41.000   78.256422646   16.214741776   425.5228   1   9   0.0007   0.0006   0.0026  -0.0003   0.0004   0.0006   0.00  135.8
2018/03/11 12:07:42.000   78.256422648   16.214741771   425.5222   1   9   0.0007   0.0006   0.0025  -0.0003   0.0004   0.0006   0.00  142.2
2018/03/11 12:07:43.000   78.256422650   16.214741764   425.5217   1   9   0.0007   0.0006   0.0025  -0.0003   0.0004   0.0005   0.00  148.3
2018/03/11 12:07:44.000   78.256422653   16.214741755   425.5213   1   9   0.0007   0.0006   0.0025  -0.0003   0.0004   0.0005   0.00  152.9
2018/03/11 12:07:45.000   78.256422655   16.214741747   425.5209   1   9   0.0006   0.0006   0.0024  -0.0002   0.0004   0.0005   0.00  158.5
2018/03/11 12:07:46.000   78.256422656   16.214741741   425.5205   1   9   0.0006   0.0006   0.0024  -0.0002   0.0004   0.0005   0.00  166.9
2018/03/11 12:07:47.000   78.256422658   16.214741734   425.5200   1   9   0.0006   0.0006   0.0024  -0.0002   0.0004   0.0005   0.00  172.9
2018/03/11 12:07:48.000   78.256422660   16.214741730   425.5196   1   9   0.0006   0.0006   0.0024  -0.0002   0.0004   0.0005   0.00  177.3
2018/03/11 12:07:49.000   78.256422662   16.214741722   425.5194   1   9   0.0006   0.0006   0.0023  -0.0002   0.0004   0.0005   0.00  183.2
2018/03/11 12:07:50.000   78.256422663   16.214741718   425.5191   1   9   0.0006   0.0006   0.0023  -0.0002   0.0004   0.0005   0.00  186.6
2018/03/11 12:07:51.000   78.256422665   16.214741713   425.5187   1   9   0.0006   0.0006   0.0023  -0.0002   0.0004   0.0005   0.00  187.8
2018/03/11 12:07:52.000   78.256422667   16.214741710   425.5186   1   9   0.0006   0.0006   0.0023  -0.0002   0.0004   0.0005   0.00  189.9
2018/03/11 12:07:53.000   78.256422667   16.214741705   425.5183   1   9   0.0006   0.0006   0.0022  -0.0002   0.0003   0.0005   0.00  193.2
2018/03/11 12:07:54.000   78.256422668   16.214741700   425.5181   1   9   0.0006   0.0006   0.0022  -0.0002   0.0003   0.0005   0.00  193.9
2018/03/11 12:07:55.000   78.256422668   16.214741697   425.5177   1   9   0.0006   0.0005   0.0022  -0.0002   0.0003   0.0005   0.00  195.4
2018/03/11 12:07:56.000   78.256422669   16.214741691   425.5174   1   9   0.0006   0.0005   0.0022  -0.0002   0.0003   0.0005   0.00  195.2
2018/03/11 12:07:57.000   78.256422669   16.214741688   425.5173   1   9   0.0006   0.0005   0.0022  -0.0002   0.0003   0.0005   0.00  194.5
2018/03/11 12:07:58.000   78.256422670   16.214741681   425.5169   1   9   0.0006   0.0005   0.0021  -0.0002   0.0003   0.0005   0.00  194.0
2018/03/11 12:07:59.000   78.256422671   16.214741675   425.5167   1   9   0.0006   0.0005   0.0021  -0.0002   0.0003   0.0005   0.00  193.6
2018/03/11 12:08:00.000   78.256422671   16.214741670   425.5163   1   9   0.0006   0.0005   0.0021  -0.0002   0.0003   0.0005   0.00  191.7
2018/03/11 12:08:01.000   78.256422671   16.214741666   425.5161   1   9   0.0006   0.0005   0.0021  -0.0002   0.0003   0.0004   0.00  190.9
2018/03/11 12:08:02.000   78.256422671   16.214741660   425.5160   1   9   0.0005   0.0005   0.0021  -0.0002   0.0003   0.0004   0.00  189.1
2018/03/11 12:08:03.000   78.256422671   16.214741658   425.5159   1   9   0.0005   0.0005   0.0020  -0.0002   0.0003   0.0004   0.00  187.7
2018/03/11 12:08:04.000   78.256422670   16.214741654   425.5157   1   9   0.0005   0.0005   0.0020  -0.0002   0.0003   0.0004   0.00  185.9
2018/03/11 12:08:05.000   78.256422669   16.214741650   425.5155   1   9   0.0005   0.0005   0.0020  -0.0002   0.0003   0.0004   0.00  184.1
2018/03/11 12:08:06.000   78.256422669   16.214741647   425.5155   1   9   0.0005   0.0005   0.0020  -0.0002   0.0003   0.0004   0.00  183.3
2018/03/11 12:08:07.000   78.256422669   16.214741642   425.5154   1   9   0.0005   0.0005   0.0020  -0.0002   0.0003   0.0004   0.00  183.1
2018/03/11 12:08:08.000   78.256422668   16.214741638   425.5153   1   9   0.0005   0.0005   0.0020  -0.0002   0.0003   0.0004   0.00  183.2
2018/03/11 12:08:09.000   78.256422668   16.214741635   425.5152   1   9   0.0005   0.0005   0.0020  -0.0002   0.0003   0.0004   0.00  184.2
2018/03/11 12:08:10.000   78.256422668   16.214741631   425.5153   1   9   0.0005   0.0005   0.0019  -0.0002   0.0003   0.0004   0.00  184.9
2018/03/11 12:08:11.000   78.256422668   16.214741627   425.5153   1   9   0.0005   0.0005   0.0019  -0.0002   0.0003   0.0004   0.00  186.8
2018/03/11 12:08:12.000   78.256422669   16.214741624   425.5153   1   9   0.0005   0.0005   0.0019  -0.0002   0.0003   0.0004   0.00  187.8
2018/03/11 12:08:13.000   78.256422669   16.214741620   425.5153   1   9   0.0005   0.0005   0.0019  -0.0002   0.0003   0.0004   0.00  188.6
2018/03/11 12:08:14.000   78.256422669   16.214741618   425.5154   1   9   0.0005   0.0005   0.0019  -0.0002   0.0003   0.0004   0.00  189.3
2018/03/11 12:08:15.000   78.256422669   16.214741615   425.5153   1   9   0.0005   0.0005   0.0019  -0.0002   0.0003   0.0004   0.00  189.9
2018/03/11 12:08:16.000   78.256422669   16.214741613   425.5154   1   9   0.0005   0.0005   0.0019  -0.0002   0.0003   0.0004   0.00  190.7
2018/03/11 12:08:17.000   78.256422670   16.214741610   425.5154   1   9   0.0005   0.0005   0.0018  -0.0002   0.0003   0.0004   0.00  191.5
2018/03/11 12:08:18.000   78.256422670   16.214741608   425.5155   1   9   0.0005   0.0005   0.0018  -0.0002   0.0003   0.0004   0.00  191.3
2018/03/11 12:08:19.000   78.256422669   16.214741605   425.5155   1   9   0.0005   0.0005   0.0018  -0.0002   0.0003   0.0004   0.00  191.7
2018/03/11 12:08:20.000   78.256422669   16.214741602   425.5155   1   9   0.0005   0.0005   0.0018  -0.0002   0.0003   0.0004   0.00  191.3
2018/03/11 12:08:21.000   78.256422669   16.214741600   425.5154   1   9   0.0005   0.0004   0.0018  -0.0002   0.0003   0.0004   0.00  190.7
2018/03/11 12:08:22.000   78.256422669   16.214741596   425.5153   1   9   0.0005   0.0004   0.0018  -0.0002   0.0003   0.0004   0.00  191.0
2018/03/11 12:08:23.000   78.256422669   16.214741592   425.5152   1   9   0.0005   0.0004   0.0018  -0.0002   0.0003   0.0004   0.00  190.4
2018/03/11 12:08:24.000   78.256422669   16.214741590   425.5150   1   9   0.0005   0.0004   0.0018  -0.0002   0.0003   0.0004   0.00  189.2
2018/03/11 12:08:25.000   78.256422668   16.214741587   425.5148   1   9   0.0005   0.0004   0.0018  -0.0002   0.0003   0.0004   0.00  189.6
2018/03/11 12:08:26.000   78.256422668   16.214741586   425.5145   1   9   0.0005   0.0004   0.0017  -0.0002   0.0003   0.0004   0.00  189.8
2018/03/11 12:08:27.000   78.256422667   16.214741584   425.5142   1   9   0.0005   0.0004   0.0017  -0.0002   0.0003   0.0004   0.00  189.7
2018/03/11 12:08:28.000   78.256422666   16.214741583   425.5139   1   9   0.0005   0.0004   0.0017  -0.0002   0.0003   0.0004   0.00  189.3
2018/03/11 12:08:29.000   78.256422665   16.214741582   425.5136   1   9   0.0005   0.0004   0.0017  -0.0002   0.0003   0.0004   0.00  189.0
2018/03/11 12:08:30.000   78.256422665   16.214741582   425.5133   1   9   0.0005   0.0004   0.0017  -0.0002   0.0003   0.0004   0.00  188.1
2018/03/11 12:08:31.000   78.256422664   16.214741580   425.5130   1   9   0.0004   0.0004   0.0017  -0.0002   0.0003   0.0004   0.00  188.5
2018/03/11 12:08:32.000   78.256422664   16.214741579   425.5127   1   9   0.0004   0.0004   0.0017  -0.0002   0.0003   0.0004   0.00  188.2
2018/03/11 12:08:33.000   78.256422664   16.214741578   425.5124   1   9   0.0004   0.0004   0.0017  -0.0002   0.0003   0.0004   0.00  188.3
2018/03/11 12:08:34.000   78.256422663   16.214741576   425.5123   1   9   0.0004   0.0004   0.0017  -0.0002   0.0003   0.0004   0.00  189.0
2018/03/11 12:08:35.000   78.256422663   16.214741575   425.5120   1   9   0.0004   0.0004   0.0017  -0.0002   0.0003   0.0004   0.00  190.1
2018/03/11 12:08:36.000   78.256422663   16.214741574   425.5118   1   9   0.0004   0.0004   0.0017  -0.0002   0.0003   0.0004   0.00  190.9
2018/03/11 12:08:37.000   78.256422664   16.214741574   425.5116   1   9   0.0004   0.0004   0.0016  -0.0002   0.0003   0.0004   0.00  192.7
2018/03/11 12:08:38.000   78.256422664   16.214741573   425.5115   1   9   0.0004   0.0004   0.0016  -0.0002   0.0003   0.0003   0.00  195.1
2018/03/11 12:08:39.000   78.256422664   16.214741571   425.5114   1   9   0.0004   0.0004   0.0016  -0.0002   0.0003   0.0003   0.00  197.9
2018/03/11 12:08:40.000   78.256422665   16.214741571   425.5112   1   9   0.0004   0.0004   0.0016  -0.0002   0.0003   0.0003   0.00  200.7
2018/03/11 12:08:41.000   78.256422665   16.214741571   425.5111   1   9   0.0004   0.0004   0.0016  -0.0002   0.0003   0.0003   0.00  203.5
2018/03/11 12:08:42.000   78.256422665   16.214741570   425.5110   1   9   0.0004   0.0004   0.0016  -0.0002   0.0003   0.0003   0.00  205.9
2018/03/11 12:08:43.000   78.256422666   16.214741568   425.5108   1   9   0.0004   0.0004   0.0016  -0.0002   0.0003   0.0003   0.00  208.4
2018/03/11 12:08:44.000   78.256422666   16.214741569   425.5107   1   9   0.0004   0.0004   0.0016  -0.0002   0.0003   0.0003   0.00  210.6
2018/03/11 12:08:45.000   78.256422666   16.214741568   425.5105   1   9   0.0004   0.0004   0.0016  -0.0002   0.0003   0.0003   0.00  213.2
2018/03/11 12:08:46.000   78.256422666   16.214741567   425.5103   1   9   0.0004   0.0004   0.0016  -0.0002   0.0003   0.0003   0.00  214.7
2018/03/11 12:08:47.000   78.256422667   16.214741567   425.5102   1   9   0.0004   0.0004   0.0016  -0.0002   0.0003   0.0003   0.00  216.2
2018/03/11 12:08:48.000   78.256422667   16.214741566   425.5100   1   9   0.0004   0.0004   0.0016  -0.0002   0.0003   0.0003   0.00  217.9
2018/03/11 12:08:49.000   78.256422667   16.214741564   425.5098   1   9   0.0004   0.0004   0.0016  -0.0002   0.0003   0.0003   0.00  219.1
2018/03/11 12:08:50.000   78.256422668   16.214741562   425.5096   1   9   0.0004   0.0004   0.0015  -0.0002   0.0003   0.0003   0.00  220.5
2018/03/11 12:08:51.000   78.256422668   16.214741560   425.5094   1   9   0.0004   0.0004   0.0015  -0.0002   0.0003   0.0003   0.00  221.3
2018/03/11 12:08:52.000   78.256422669   16.214741557   425.5092   1   9   0.0004   0.0004   0.0015  -0.0002   0.0003   0.0003   0.00  221.2
2018/03/11 12:08:53.000   78.256422670   16.214741557   425.5091   1   9   0.0004   0.0004   0.0015  -0.0002   0.0003   0.0003   0.00  221.6
2018/03/11 12:08:54.000   78.256422670   16.214741556   425.5088   1   9   0.0004   0.0004   0.0015  -0.0002   0.0003   0.0003   0.00  222.0
2018/03/11 12:08:55.000   78.256422670   16.214741553   425.5086   1   9   0.0004   0.0004   0.0015  -0.0002   0.0002   0.0003   0.00  221.8
2018/03/11 12:08:56.000   78.256422671   16.214741552   425.5085   1   9   0.0004   0.0004   0.0015  -0.0002   0.0002   0.0003   0.00  220.6
2018/03/11 12:08:57.000   78.256422672   16.214741550   425.5083   1   9   0.0004   0.0004   0.0015  -0.0002   0.0002   0.0003   0.00  219.5
2018/03/11 12:08:58.000   78.256422672   16.214741547   425.5081   1   9   0.0004   0.0004   0.0015  -0.0002   0.0002   0.0003   0.00  218.0
2018/03/11 12:08:59.000   78.256422673   16.214741544   425.5079   1   9   0.0004   0.0004   0.0015  -0.0002   0.0002   0.0003   0.00  216.2
2018/03/11 12:09:00.000   78.256422674   16.214741542   425.5077   1   9   0.0004   0.0004   0.0015  -0.0001   0.0002   0.0003   0.00  214.3
2018/03/11 12:09:01.000   78.256422674   16.214741540   425.5074   1   9   0.0004   0.0004   0.0015  -0.0001   0.0002   0.0003   0.00  213.1
2018/03/11 12:09:02.000   78.256422675   16.214741537   425.5072   1   9   0.0004   0.0004   0.0015  -0.0001   0.0002   0.0003   0.00  212.2
2018/03/11 12:09:03.000   78.256422675   16.214741535   425.5070   1   9   0.0004   0.0004   0.0015  -0.0001   0.0002   0.0003   0.00  211.6
2018/03/11 12:09:04.000   78.256422676   16.214741534   425.5068   1   9   0.0004   0.0004   0.0015  -0.0001   0.0002   0.0003   0.00  210.9
2018/03/11 12:09:05.000   78.256422677   16.214741531   425.5066   1   9   0.0004   0.0004   0.0015  -0.0001   0.0002   0.0003   0.00  210.2
2018/03/11 12:09:06.000   78.256422678   16.214741529   425.5066   1   9   0.0004   0.0004   0.0015  -0.0001   0.0002   0.0003   0.00  209.6
2018/03/11 12:09:07.000   78.256422680   16.214741526   425.5064   1   9   0.0004   0.0004   0.0014  -0.0001   0.0002   0.0003   0.00  209.4
2018/03/11 12:09:08.000   78.256422680   16.214741523   425.5063   1   9   0.0004   0.0004   0.0014  -0.0001   0.0002   0.0003   0.00  209.8
2018/03/11 12:09:09.000   78.256422681   16.214741519   425.5060   1   9   0.0004   0.0004   0.0014  -0.0001   0.0002   0.0003   0.00  210.2
2018/03/11 12:09:10.000   78.256422682   16.214741517   425.5059   1   9   0.0004   0.0004   0.0014  -0.0001   0.0002   0.0003   0.00  211.0
2018/03/11 12:09:11.000   78.256422683   16.214741517   425.5057   1   9   0.0004   0.0004   0.0014  -0.0001   0.0002   0.0003   0.00  211.7
2018/03/11 12:09:12.000   78.256422683   16.214741514   425.5055   1   9   0.0004   0.0004   0.0014  -0.0001   0.0002   0.0003   0.00  212.3
2018/03/11 12:09:13.000   78.256422684   16.214741513   425.5053   1   9   0.0004   0.0004   0.0014  -0.0001   0.0002   0.0003   0.00  213.0
2018/03/11 12:09:14.000   78.256422684   16.214741512   425.5051   1   9   0.0004   0.0004   0.0014  -0.0001   0.0002   0.0003   0.00  214.2
2018/03/11 12:09:15.000   78.256422685   16.214741512   425.5050   1   9   0.0004   0.0003   0.0014  -0.0001   0.0002   0.0003   0.00  214.3
2018/03/11 12:09:16.000   78.256422685   16.214741511   425.5048   1   9   0.0004   0.0003   0.0014  -0.0001   0.0002   0.0003   0.00  214.3
2018/03/11 12:09:17.000   78.256422685   16.214741511   425.5047   1   9   0.0004   0.0003   0.0014  -0.0001   0.0002   0.0003   0.00  214.4
2018/03/11 12:09:18.000   78.256422686   16.214741509   425.5045   1   9   0.0004   0.0003   0.0014  -0.0001   0.0002   0.0003   0.00  213.9
2018/03/11 12:09:19.000   78.256422686   16.214741508   425.5042   1   9   0.0004   0.0003   0.0014  -0.0001   0.0002   0.0003   0.00  212.6
2018/03/11 12:09:20.000   78.256422686   16.214741507   425.5040   1   9   0.0004   0.0003   0.0014  -0.0001   0.0002   0.0003   0.00  212.1
2018/03/11 12:09:21.000   78.256422687   16.214741506   425.5038   1   9   0.0004   0.0003   0.0014  -0.0001   0.0002   0.0003   0.00  211.6
2018/03/11 12:09:22.000   78.256422687   16.214741504   425.5036   1   9   0.0004   0.0003   0.0014  -0.0001   0.0002   0.0003   0.00  210.9
2018/03/11 12:09:23.000   78.256422687   16.214741502   425.5034   1   9   0.0004   0.0003   0.0014  -0.0001   0.0002   0.0003   0.00  210.2
2018/03/11 12:09:24.000   78.256422688   16.214741500   425.5032   1   9   0.0004   0.0003   0.0014  -0.0001   0.0002   0.0003   0.00  209.5
2018/03/11 12:09:25.000   78.256422688   16.214741499   425.5031   1   9   0.0004   0.0003   0.0014  -0.0001   0.0002   0.0003   0.00  208.8
2018/03/11 12:09:26.000   78.256422688   16.214741497   425.5029   1   9   0.0004   0.0003   0.0014  -0.0001   0.0002   0.0003   0.00  207.9
2018/03/11 12:09:27.000   78.256422688   16.214741495   425.5027   1   9   0.0004   0.0003   0.0013  -0.0001   0.0002   0.0003   0.00  207.5
2018/03/11 12:09:28.000   78.256422688   16.214741494   425.5025   1   9   0.0004   0.0003   0.0013  -0.0001   0.0002   0.0003   0.00  206.9
2018/03/11 12:09:29.000   78.256422689   16.214741494   425.5024   1   9   0.0004   0.0003   0.0013  -0.0001   0.0002   0.0003   0.00  206.4
2018/03/11 12:09:30.000   78.256422689   16.214741493   425.5022   1   9   0.0004   0.0003   0.0013  -0.0001   0.0002   0.0003   0.00  205.9
2018/03/11 12:09:31.000   78.256422689   16.214741492   425.5020   1   9   0.0003   0.0003   0.0013  -0.0001   0.0002   0.0003   0.00  205.2
2018/03/11 12:09:32.000   78.256422689   16.214741491   425.5018   1   9   0.0003   0.0003   0.0013  -0.0001   0.0002   0.0003   0.00  204.5
2018/03/11 12:09:33.000   78.256422689   16.214741490   425.5016   1   9   0.0003   0.0003   0.0013  -0.0001   0.0002   0.0003   0.00  204.2
2018/03/11 12:09:34.000   78.256422689   16.214741490   425.5015   1   9   0.0003   0.0003   0.0013  -0.0001   0.0002   0.0003   0.00  204.4
2018/03/11 12:09:35.000   78.256422689   16.214741489   425.5014   1   9   0.0003   0.0003   0.0013  -0.0001   0.0002   0.0003   0.00  204.6
2018/03/11 12:09:36.000   78.256422689   16.214741489   425.5013   1   9   0.0003   0.0003   0.0013  -0.0001   0.0002   0.0003   0.00  205.2
2018/03/11 12:09:37.000   78.256422690   16.214741488   425.5013   1   9   0.0003   0.0003   0.0013  -0.0001   0.0002   0.0003   0.00  206.4
2018/03/11 12:09:38.000   78.256422690   16.214741488   425.5012   1   9   0.0003   0.0003   0.0013  -0.0001   0.0002   0.0003   0.00  207.2
2018/03/11 12:09:39.000   78.256422690   16.214741487   425.5011   1   9   0.0003   0.0003   0.0013  -0.0001   0.0002   0.0003   0.00  208.2
2018/03/11 12:09:40.000   78.256422690   16.214741486   425.5010   1   9   0.0003   0.0003   0.0013  -0.0001   0.0002   0.0003   0.00  209.1
2018/03/11 12:09:41.000   78.256422690   16.214741484   425.5010   1   9   0.0003   0.0003   0.0013  -0.0001   0.0002   0.0003   0.00  209.2
2018/03/11 12:09:42.000   78.256422691   16.214741484   425.5010   1   9   0.0003   0.0003   0.0013  -0.0001   0.0002   0.0003   0.00  209.0
2018/03/11 12:09:43.000   78.256422691   16.214741483   425.5010   1   9   0.0003   0.0003   0.0013  -0.0001   0.0002   0.0003   0.00  208.7
2018/03/11 12:09:44.000   78.256422691   16.214741482   425.5010   1   9   0.0003   0.0003   0.0013  -0.0001   0.0002   0.0003   0.00  208.7
2018/03/11 12:09:45.000   78.256422691   16.214741482   425.5010   1   9   0.0003   0.0003   0.0013  -0.0001   0.0002   0.0003   0.00  208.4
2018/03/11 12:09:46.000   78.256422692   16.214741482   425.5010   1   9   0.0003   0.0003   0.0013  -0.0001   0.0002   0.0003   0.00  208.3
2018/03/11 12:09:47.000   78.256422692   16.214741481   425.5011   1   9   0.0003   0.0003   0.0013  -0.0001   0.0002   0.0003   0.00  208.5
2018/03/11 12:09:48.000   78.256422692   16.214741481   425.5011   1   9   0.0003   0.0003   0.0013  -0.0001   0.0002   0.0003   0.00  208.0
2018/03/11 12:09:49.000   78.256422692   16.214741481   425.5012   1   9   0.0003   0.0003   0.0013  -0.0001   0.0002   0.0003   0.00  207.5
2018/03/11 12:09:50.000   78.256422693   16.214741480   425.5013   1   9   0.0003   0.0003   0.0013  -0.0001   0.0002   0.0003   0.00  207.4
2018/03/11 12:09:51.000   78.256422693   16.214741480   425.5013   1   9   0.0003   0.0003   0.0013  -0.0001   0.0002   0.0003   0.00  207.1
2018/03/11 12:09:52.000   78.256422693   16.214741480   425.5013   1   9   0.0003   0.0003   0.0013  -0.0001   0.0002   0.0003   0.00  206.6
2018/03/11 12:09:53.000   78.256422693   16.214741481   425.5013   1   9   0.0003   0.0003   0.0013  -0.0001   0.0002   0.0003   0.00  206.1
2018/03/11 12:09:54.000   78.256422694   16.214741481   425.5012   1   9   0.0003   0.0003   0.0012  -0.0001   0.0002   0.0003   0.00  205.8
2018/03/11 12:09:55.000   78.256422694   16.214741482   425.5011   1   9   0.0003   0.0003   0.0012  -0.0001   0.0002   0.0003   0.00  205.2
2018/03/11 12:09:56.000   78.256422694   16.214741482   425.5011   1   9   0.0003   0.0003   0.0012  -0.0001   0.0002   0.0003   0.00  204.7
2018/03/11 12:09:57.000   78.256422694   16.214741482   425.5011   1   9   0.0003   0.0003   0.0012  -0.0001   0.0002   0.0003   0.00  204.4
2018/03/11 12:09:58.000   78.256422694   16.214741483   425.5010   1   9   0.0003   0.0003   0.0012  -0.0001   0.0002   0.0003   0.00  203.7
2018/03/11 12:09:59.000   78.256422695   16.214741483   425.5010   1   9   0.0003   0.0003   0.0012  -0.0001   0.0002   0.0003   0.00  203.7
2018/03/11 12:10:00.000   78.256422694   16.214741485   425.5011   1   9   0.0003   0.0003   0.0012  -0.0001   0.0002   0.0003   0.00  204.2
2018/03/11 12:10:01.000   78.256422695   16.214741485   425.5011   1   9   0.0003   0.0003   0.0012  -0.0001   0.0002   0.0003   0.00  203.7
2018/03/11 12:10:02.000   78.256422695   16.214741486   425.5011   1   9   0.0003   0.0003   0.0012  -0.0001   0.0002   0.0003   0.00  203.8
2018/03/11 12:10:03.000   78.256422695   16.214741486   425.5011   1   9   0.0003   0.0003   0.0012  -0.0001   0.0002   0.0003   0.00  203.8
2018/03/11 12:10:04.000   78.256422695   16.214741486   425.5011   1   9   0.0003   0.0003   0.0012  -0.0001   0.0002   0.0003   0.00  203.8
2018/03/11 12:10:05.000   78.256422695   16.214741486   425.5011   1   9   0.0003   0.0003   0.0012  -0.0001   0.0002   0.0002   0.00  203.4
2018/03/11 12:10:06.000   78.256422696   16.214741486   425.5012   1   9   0.0003   0.0003   0.0012  -0.0001   0.0002   0.0002   0.00  203.1
2018/03/11 12:10:07.000   78.256422696   16.214741487   425.5013   1   9   0.0003   0.0003   0.0012  -0.0001   0.0002   0.0002   0.00  202.9
2018/03/11 12:10:08.000   78.256422696   16.214741487   425.5013   1   9   0.0003   0.0003   0.0012  -0.0001   0.0002   0.0002   0.00  203.1
2018/03/11 12:10:09.000   78.256422696   16.214741487   425.5014   1   9   0.0003   0.0003   0.0012  -0.0001   0.0002   0.0002   0.00  202.9
2018/03/11 12:10:10.000   78.256422697   16.214741488   425.5014   1   9   0.0003   0.0003   0.0012  -0.0001   0.0002   0.0002   0.00  202.8
2018/03/11 12:10:11.000   78.256422697   16.214741488   425.5015   1   9   0.0003   0.0003   0.0012  -0.0001   0.0002   0.0002   0.00  203.0
2018/03/11 12:10:12.000   78.256422698   16.214741488   425.5015   1   9   0.0003   0.0003   0.0012  -0.0001   0.0002   0.0002   0.00  203.2
2018/03/11 12:10:13.000   78.256422698   16.214741488   425.5016   1   9   0.0003   0.0003   0.0012  -0.0001   0.0002   0.0002   0.00  202.9
2018/03/11 12:10:14.000   78.256422699   16.214741489   425.5016   1   9   0.0003   0.0003   0.0012  -0.0001   0.0002   0.0002   0.00  203.0
2018/03/11 12:10:15.000   78.256422699   16.214741489   425.5017   1   9   0.0003   0.0003   0.0012  -0.0001   0.0002   0.0002   0.00  202.4
2018/03/11 12:10:16.000   78.256422699   16.214741489   425.5018   1   9   0.0003   0.0003   0.0012  -0.0001   0.0002   0.0002   0.00  201.5
2018/03/11 12:10:17.000   78.256422700   16.214741490   425.5018   1   9   0.0003   0.0003   0.0012  -0.0001   0.0002   0.0002   0.00  200.7
2018/03/11 12:10:18.000   78.256422700   16.214741491   425.5019   1   9   0.0003   0.0003   0.0012  -0.0001   0.0002   0.0002   0.00  199.6
2018/03/11 12:10:19.000   78.256422701   16.214741491   425.5019   1   9   0.0003   0.0003   0.0012  -0.0001   0.0002   0.0002   0.00  199.0
2018/03/11 12:10:20.000   78.256422702   16.214741491   425.5019   1   9   0.0003   0.0003   0.0012  -0.0001   0.0002   0.0002   0.00  198.4
2018/03/11 12:10:21.000   78.256422702   16.214741491   425.5019   1   9   0.0003   0.0003   0.0012  -0.0001   0.0002   0.0002   0.00  198.1
2018/03/11 12:10:22.000   78.256422703   16.214741491   425.5020   1   9   0.0003   0.0003   0.0012  -0.0001   0.0002   0.0002   0.00  197.3
2018/03/11 12:10:23.000   78.256422704   16.214741492   425.5020   1   9   0.0003   0.0003   0.0012  -0.0001   0.0002   0.0002   0.00  196.4
2018/03/11 12:10:24.000   78.256422704   16.214741492   425.5020   1   9   0.0003   0.0003   0.0012  -0.0001   0.0002   0.0002   0.00  195.7
2018/03/11 12:10:25.000   78.256422705   16.214741492   425.5019   1   9   0.0003   0.0003   0.0012  -0.0001   0.0002   0.0002   0.00  194.6
2018/03/11 12:10:26.000   78.256422706   16.214741492   425.5020   1   9   0.0003   0.0003   0.0012  -0.0001   0.0002   0.0002   0.00  193.6
2018/03/11 12:10:27.000   78.256422706   16.214741492   425.5019   1   9   0.0003   0.0003   0.0012  -0.0001   0.0002   0.0002   0.00  192.8
2018/03/11 12:10:28.000   78.256422707   16.214741493   425.5019   1   9   0.0003   0.0003   0.0012  -0.0001   0.0002   0.0002   0.00  192.1
2018/03/11 12:10:29.000   78.256422708   16.214741493   425.5019   1   9   0.0003   0.0003   0.0011  -0.0001   0.0002   0.0002   0.00  191.4
2018/03/11 12:10:30.000   78.256422708   16.214741493   425.5018   1   9   0.0003   0.0003   0.0011  -0.0001   0.0002   0.0002   0.00  190.8
2018/03/11 12:10:31.000   78.256422709   16.214741493   425.5018   1   9   0.0003   0.0003   0.0011  -0.0001   0.0002   0.0002   0.00  189.7
2018/03/11 12:10:32.000   78.256422710   16.214741493   425.5018   1   9   0.0003   0.0003   0.0011  -0.0001   0.0002   0.0002   0.00  188.8
2018/03/11 12:10:33.000   78.256422710   16.214741493   425.5018   1   9   0.0003   0.0003   0.0011  -0.0001   0.0002   0.0002   0.00  188.0
2018/03/11 12:10:34.000   78.256422711   16.214741494   425.5018   1   9   0.0003   0.0003   0.0011  -0.0001   0.0002   0.0002   0.00  187.5
2018/03/11 12:10:35.000   78.256422712   16.214741494   425.5018   1   9   0.0003   0.0003   0.0011  -0.0001   0.0002   0.0002   0.00  186.7
2018/03/11 12:10:36.000   78.256422712   16.214741495   425.5018   1   9   0.0003   0.0003   0.0011  -0.0001   0.0002   0.0002   0.00  185.3
2018/03/11 12:10:37.000   78.256422713   16.214741494   425.5018   1   9   0.0003   0.0003   0.0011  -0.0001   0.0002   0.0002   0.00  184.0
2018/03/11 12:10:38.000   78.256422714   16.214741494   425.5018   1   9   0.0003   0.0003   0.0011  -0.0001   0.0002   0.0002   0.00  182.9
2018/03/11 12:10:39.000   78.256422715   16.214741494   425.5018   1   9   0.0003   0.0003   0.0011  -0.0001   0.0002   0.0002   0.00  182.2
2018/03/11 12:10:40.000   78.256422715   16.214741493   425.5018   1   9   0.0003   0.0003   0.0011  -0.0001   0.0002   0.0002   0.00  181.2
2018/03/11 12:10:41.000   78.256422716   16.214741493   425.5018   1   9   0.0003   0.0003   0.0011  -0.0001   0.0002   0.0002   0.00  180.3
2018/03/11 12:10:42.000   78.256422717   16.214741493   425.5017   1   9   0.0003   0.0003   0.0011  -0.0001   0.0002   0.0002   0.00  179.6
2018/03/11 12:10:43.000   78.256422718   16.214741493   425.5018   1   9   0.0003   0.0003   0.0011  -0.0001   0.0002   0.0002   0.00  178.9
2018/03/11 12:10:44.000   78.256422719   16.214741494   425.5018   1   9   0.0003   0.0003   0.0011  -0.0001   0.0002   0.0002   0.00  178.0
2018/03/11 12:10:45.000   78.256422719   16.214741494   425.5018   1   9   0.0003   0.0003   0.0011  -0.0001   0.0002   0.0002   0.00  176.8
2018/03/11 12:10:46.000   78.256422720   16.214741494   425.5018   1   9   0.0003   0.0003   0.0011  -0.0001   0.0002   0.0002   0.00  176.1
2018/03/11 12:10:47.000   78.256422721   16.214741495   425.5018   1   9   0.0003   0.0003   0.0011  -0.0001   0.0002   0.0002   0.00  175.3
2018/03/11 12:10:48.000   78.256422722   16.214741496   425.5018   1   9   0.0003   0.0003   0.0011  -0.0001   0.0002   0.0002   0.00  174.9
2018/03/11 12:10:49.000   78.256422722   16.214741496   425.5018   1   9   0.0003   0.0003   0.0011  -0.0001   0.0002   0.0002   0.00  173.9
2018/03/11 12:10:50.000   78.256422723   16.214741497   425.5018   1   9   0.0003   0.0003   0.0011  -0.0001   0.0002   0.0002   0.00  173.4
2018/03/11 12:10:51.000   78.256422724   16.214741498   425.5018   1   9   0.0003   0.0003   0.0011  -0.0001   0.0002   0.0002   0.00  173.1
2018/03/11 12:10:52.000   78.256422724   16.214741499   425.5019   1   9   0.0003   0.0003   0.0011  -0.0001   0.0002   0.0002   0.00  173.0
2018/03/11 12:10:53.000   78.256422725   16.214741500   425.5019   1   9   0.0003   0.0003   0.0011  -0.0001   0.0002   0.0002   0.00  172.7
2018/03/11 12:10:54.000   78.256422725   16.214741501   425.5019   1   9   0.0003   0.0003   0.0011  -0.0001   0.0002   0.0002   0.00  172.6
2018/03/11 12:10:55.000   78.256422726   16.214741502   425.5020   1   9   0.0003   0.0003   0.0011  -0.0001   0.0002   0.0002   0.00  172.5
2018/03/11 12:10:56.000   78.256422726   16.214741503   425.5020   1   9   0.0003   0.0003   0.0011  -0.0001   0.0002   0.0002   0.00  172.2
2018/03/11 12:10:57.000   78.256422727   16.214741505   425.5021   1   9   0.0003   0.0003   0.0011  -0.0001   0.0002   0.0002   0.00  172.0
2018/03/11 12:10:58.000   78.256422727   16.214741506   425.5021   1   9   0.0003   0.0003   0.0011  -0.0001   0.0002   0.0002   0.00  171.8
2018/03/11 12:10:59.000   78.256422727   16.214741507   425.5022   1   9   0.0003   0.0003   0.0011  -0.0001   0.0002   0.0002   0.00  171.5
2018/03/11 12:11:00.000   78.256422728   16.214741508   425.5022   1   9   0.0003   0.0003   0.0011  -0.0001   0.0002   0.0002   0.00  171.3
2018/03/11 12:11:01.000   78.256422728   16.214741509   425.5023   1   9   0.0003   0.0003   0.0011  -0.0001   0.0002   0.0002   0.00  171.5
2018/03/11 12:11:02.000   78.256422728   16.214741511   425.5023   1   9   0.0003   0.0003   0.0011  -0.0001   0.0002   0.0002   0.00  171.5
2018/03/11 12:11:03.000   78.256422728   16.214741513   425.5024   1   9   0.0003   0.0003   0.0011  -0.0001   0.0002   0.0002   0.00  171.7
2018/03/11 12:11:04.000   78.256422729   16.214741514   425.5024   1   9   0.0003   0.0003   0.0011  -0.0001   0.0002   0.0002   0.00  172.0
2018/03/11 12:11:05.000   78.256422729   16.214741516   425.5024   1   9   0.0003   0.0003   0.0011  -0.0001   0.0002   0.0002   0.00  172.2
2018/03/11 12:11:06.000   78.256422729   16.214741517   425.5025   1   9   0.0003   0.0003   0.0011  -0.0001   0.0002   0.0002   0.00  172.0
2018/03/11 12:11:07.000   78.256422729   16.214741519   425.5026   1   9   0.0003   0.0003   0.0011  -0.0001   0.0002   0.0002   0.00  172.3
2018/03/11 12:11:08.000   78.256422729   16.214741521   425.5027   1   9   0.0003   0.0003   0.0011  -0.0001   0.0002   0.0002   0.00  172.8
2018/03/11 12:11:09.000   78.256422729   16.214741523   425.5027   1   9   0.0003   0.0003   0.0011  -0.0001   0.0002   0.0002   0.00  172.9
2018/03/11 12:11:10.000   78.256422730   16.214741524   425.5028   1   9   0.0003   0.0003   0.0011  -0.0001   0.0002   0.0002   0.00  173.1
2018/03/11 12:11:11.000   78.256422730   16.214741527   425.5029   1   9   0.0003   0.0003   0.0011  -0.0001   0.0002   0.0002   0.00  173.5
2018/03/11 12:11:12.000   78.256422730   16.214741529   425.5030   1   9   0.0003   0.0003   0.0011  -0.0001   0.0002   0.0002   0.00  173.8
2018/03/11 12:11:13.000   78.256422730   16.214741531   425.5031   1   9   0.0003   0.0003   0.0011  -0.0001   0.0002   0.0002   0.00  174.3
2018/03/11 12:11:14.000   78.256422730   16.214741533   425.5032   1   9   0.0003   0.0003   0.0011  -0.0001   0.0002   0.0002   0.00  174.8
2018/03/11 12:11:15.000   78.256422730   16.214741534   425.5033   1   9   0.0003   0.0003   0.0011  -0.0001   0.0002   0.0002   0.00  175.2
2018/03/11 12:11:16.000   78.256422730   16.214741536   425.5034   1   9   0.0003   0.0003   0.0011  -0.0001   0.0002   0.0002   0.00  175.7
2018/03/11 12:11:17.000   78.256422730   16.214741538   425.5035   1   9   0.0003   0.0003   0.0011  -0.0001   0.0002   0.0002   0.00  176.1
2018/03/11 12:11:18.000   78.256422730   16.214741539   425.5036   1   9   0.0003   0.0003   0.0011  -0.0001   0.0002   0.0002   0.00  176.4
2018/03/11 12:11:19.000   78.256422730   16.214741540   425.5037   1   9   0.0003   0.0003   0.0010  -0.0001   0.0002   0.0002   0.00  176.8
2018/03/11 12:11:20.000   78.256422730   16.214741542   425.5038   1   9   0.0003   0.0003   0.0010  -0.0001   0.0002   0.0002   0.00  176.9
2018/03/11 12:11:21.000   78.256422730   16.214741543   425.5040   1   9   0.0003   0.0003   0.0010  -0.0001   0.0002   0.0002   0.00  177.3
2018/03/11 12:11:22.000   78.256422730   16.214741544   425.5041   1   9   0.0003   0.0003   0.0010  -0.0001   0.0002   0.0002   0.00  177.7
2018/03/11 12:11:23.000   78.256422730   16.214741546   425.5043   1   9   0.0003   0.0003   0.0010  -0.0001   0.0002   0.0002   0.00  177.8
2018/03/11 12:11:24.000   78.256422730   16.214741547   425.5044   1   9   0.0003   0.0003   0.0010  -0.0001   0.0002   0.0002   0.00  178.0
2018/03/11 12:11:25.000   78.256422729   16.214741549   425.5046   1   9   0.0003   0.0003   0.0010  -0.0001   0.0002   0.0002   0.00  178.5
2018/03/11 12:11:26.000   78.256422729   16.214741551   425.5047   1   9   0.0003   0.0003   0.0010  -0.0001   0.0002   0.0002   0.00  178.7
2018/03/11 12:11:27.000   78.256422729   16.214741552   425.5048   1   9   0.0003   0.0003   0.0010  -0.0001   0.0002   0.0002   0.00  178.8
2018/03/11 12:11:28.000   78.256422729   16.214741553   425.5050   1   9   0.0003   0.0003   0.0010  -0.0001   0.0002   0.0002   0.00  179.1
2018/03/11 12:11:29.000   78.256422729   16.214741554   425.5051   1   9   0.0003   0.0003   0.0010  -0.0001   0.0002   0.0002   0.00  179.7
2018/03/11 12:11:30.000   78.256422730   16.214741555   425.5053   1   9   0.0003   0.0003   0.0010  -0.0001   0.0002   0.0002   0.00  179.8
2018/03/11 12:11:31.000   78.256422730   16.214741556   425.5055   1   9   0.0003   0.0003   0.0010  -0.0001   0.0002   0.0002   0.00  180.2
2018/03/11 12:11:32.000   78.256422730   16.214741557   425.5056   1   9   0.0003   0.0003   0.0010  -0.0001   0.0002   0.0002   0.00  180.6
2018/03/11 12:11:33.000   78.256422730   16.214741558   425.5058   1   9   0.0003   0.0003   0.0010  -0.0001   0.0002   0.0002   0.00  180.9
2018/03/11 12:11:34.000   78.256422730   16.214741560   425.5060   1   9   0.0003   0.0003   0.0010  -0.0001   0.0002   0.0002   0.00  181.0
2018/03/11 12:11:35.000   78.256422730   16.214741560   425.5062   1   9   0.0003   0.0003   0.0010  -0.0001   0.0002   0.0002   0.00  181.2
2018/03/11 12:11:36.000   78.256422730   16.214741562   425.5063   1   9   0.0003   0.0003   0.0010  -0.0001   0.0002   0.0002   0.00  181.1
2018/03/11 12:11:37.000   78.256422730   16.214741563   425.5065   1   9   0.0003   0.0003   0.0010  -0.0001   0.0002   0.0002   0.00  181.1
2018/03/11 12:11:38.000   78.256422730   16.214741564   425.5067   1   9   0.0003   0.0003   0.0010  -0.0001   0.0002   0.0002   0.00  181.3
2018/03/11 12:11:39.000   78.256422730   16.214741564   425.5068   1   9   0.0003   0.0003   0.0010  -0.0001   0.0002   0.0002   0.00  181.1
2018/03/11 12:11:40.000   78.256422730   16.214741565   425.5069   1   9   0.0003   0.0003   0.0010  -0.0001   0.0002   0.0002   0.00  180.9
2018/03/11 12:11:41.000   78.256422730   16.214741566   425.5070   1   9   0.0003   0.0003   0.0010  -0.0001   0.0002   0.0002   0.00  180.6
2018/03/11 12:11:42.000   78.256422730   16.214741566   425.5072   1   9   0.0003   0.0003   0.0010  -0.0001   0.0002   0.0002   0.00  180.5
2018/03/11 12:11:43.000   78.256422730   16.214741567   425.5073   1   9   0.0003   0.0003   0.0010  -0.0001   0.0002   0.0002   0.00  180.3
2018/03/11 12:11:44.000   78.256422730   16.214741568   425.5075   1   9   0.0003   0.0002   0.0010  -0.0001   0.0002   0.0002   0.00  180.1
2018/03/11 12:11:45.000   78.256422730   16.214741568   425.5076   1   9   0.0003   0.0002   0.0010  -0.0001   0.0002   0.0002   0.00  180.5
2018/03/11 12:11:46.000   78.256422730   16.214741569   425.5077   1   9   0.0003   0.0002   0.0010  -0.0001   0.0002   0.0002   0.00  180.5
2018/03/11 12:11:47.000   78.256422730   16.214741570   425.5078   1   9   0.0003   0.0002   0.0010  -0.0001   0.0002   0.0002   0.00  180.8
2018/03/11 12:11:48.000   78.256422730   16.214741571   425.5080   1   9   0.0003   0.0002   0.0010  -0.0001   0.0002   0.0002   0.00  181.0
2018/03/11 12:11:49.000   78.256422730   16.214741571   425.5081   1   9   0.0003   0.0002   0.0010  -0.0001   0.0002   0.0002   0.00  180.9
2018/03/11 12:11:50.000   78.256422730   16.214741572   425.5082   1   9   0.0003   0.0002   0.0010  -0.0001   0.0002   0.0002   0.00  181.0
2018/03/11 12:11:51.000   78.256422730   16.214741573   425.5083   1   9   0.0003   0.0002   0.0010  -0.0001   0.0002   0.0002   0.00  181.3
2018/03/11 12:11:52.000   78.256422730   16.214741573   425.5085   1   9   0.0003   0.0002   0.0010  -0.0001   0.0002   0.0002   0.00  181.3
2018/03/11 12:11:53.000   78.256422730   16.214741574   425.5086   1   9   0.0003   0.0002   0.0010  -0.0001   0.0002   0.0002   0.00  181.7
2018/03/11 12:11:54.000   78.256422730   16.214741574   425.5087   1   9   0.0003   0.0002   0.0010  -0.0001   0.0002   0.0002   0.00  182.1
2018/03/11 12:11:55.000   78.256422730   16.214741574   425.5089   1   9   0.0003   0.0002   0.0010  -0.0001   0.0002   0.0002   0.00  182.7
2018/03/11 12:11:56.000   78.256422730   16.214741575   425.5090   1   9   0.0003   0.0002   0.0010  -0.0001   0.0002   0.0002   0.00  183.2
2018/03/11 12:11:57.000   78.256422730   16.214741576   425.5091   1   9   0.0003   0.0002   0.0010  -0.0001   0.0002   0.0002   0.00  184.2
2018/03/11 12:11:58.000   78.256422730   16.214741577   425.5092   1   9   0.0003   0.0002   0.0010  -0.0001   0.0002   0.0002   0.00  185.5
2018/03/11 12:11:59.000   78.256422730   16.214741578   425.5093   1   9   0.0003   0.0002   0.0010  -0.0001   0.0002   0.0002   0.00  186.4
2018/03/11 12:12:00.000   78.256422730   16.214741579   425.5093   1   9   0.0003   0.0002   0.0010  -0.0001   0.0002   0.0002   0.00  187.5
2018/03/11 12:12:01.000   78.256422731   16.214741580   425.5094   1   9   0.0003   0.0002   0.0010  -0.0001   0.0002   0.0002   0.00  188.4
2018/03/11 12:12:02.000   78.256422731   16.214741581   425.5095   1   9   0.0003   0.0002   0.0010  -0.0001   0.0002   0.0002   0.00  189.4
2018/03/11 12:12:03.000   78.256422731   16.214741582   425.5095   1   9   0.0003   0.0002   0.0010  -0.0001   0.0002   0.0002   0.00  190.5
2018/03/11 12:12:04.000   78.256422731   16.214741584   425.5095   1   9   0.0003   0.0002   0.0010  -0.0001   0.0002   0.0002   0.00  191.3
2018/03/11 12:12:05.000   78.256422731   16.214741585   425.5096   1   9   0.0003   0.0002   0.0010  -0.0001   0.0002   0.0002   0.00  192.0
2018/03/11 12:12:06.000   78.256422731   16.214741586   425.5096   1   9   0.0003   0.0002   0.0010  -0.0001   0.0002   0.0002   0.00  193.1
2018/03/11 12:12:07.000   78.256422731   16.214741588   425.5097   1   9   0.0003   0.0002   0.0010  -0.0001   0.0002   0.0002   0.00  194.2
2018/03/11 12:12:08.000   78.256422731   16.214741589   425.5097   1   9   0.0003   0.0002   0.0010  -0.0001   0.0002   0.0002   0.00  195.4
2018/03/11 12:12:09.000   78.256422731   16.214741590   425.5098   1   9   0.0003   0.0002   0.0010  -0.0001   0.0002   0.0002   0.00  196.3
2018/03/11 12:12:10.000   78.256422731   16.214741592   425.5098   1   9   0.0003   0.0002   0.0010  -0.0001   0.0002   0.0002   0.00  197.1
2018/03/11 12:12:11.000   78.256422731   16.214741593   425.5098   1   9   0.0003   0.0002   0.0010  -0.0001   0.0002   0.0002   0.00  198.1
2018/03/11 12:12:12.000   78.256422731   16.214741595   425.5098   1   9   0.0003   0.0002   0.0010  -0.0001   0.0002   0.0002   0.00  199.2
2018/03/11 12:12:13.000   78.256422730   16.214741596   425.5099   1   9   0.0003   0.0002   0.0010  -0.0001   0.0002   0.0002   0.00  200.0
2018/03/11 12:12:14.000   78.256422730   16.214741598   425.5098   1   9   0.0003   0.0002   0.0010  -0.0001   0.0002   0.0002   0.00  200.7
2018/03/11 12:12:15.000   78.256422730   16.214741599   425.5098   1   9   0.0002   0.0002   0.0010  -0.0001   0.0002   0.0002   0.00  201.9
2018/03/11 12:12:16.000   78.256422730   16.214741600   425.5098   1   9   0.0002   0.0002   0.0010  -0.0001   0.0002   0.0002   0.00  202.6
2018/03/11 12:12:18.000   78.256422730   16.214741602   425.5098   1   9   0.0002   0.0002   0.0010  -0.0001   0.0002   0.0002   0.00  203.9
2018/03/11 12:12:19.000   78.256422730   16.214741603   425.5097   1   9   0.0002   0.0002   0.0010  -0.0001   0.0002   0.0002   0.00  205.5
2018/03/11 12:12:20.000   78.256422730   16.214741605   425.5097   1   9   0.0002   0.0002   0.0010  -0.0001   0.0002   0.0002   0.00  207.4
2018/03/11 12:12:21.000   78.256422730   16.214741607   425.5097   1   9   0.0002   0.0002   0.0010  -0.0001   0.0002   0.0002   0.00  208.6
2018/03/11 12:12:22.000   78.256422730   16.214741609   425.5097   1   9   0.0002   0.0002   0.0010  -0.0001   0.0002   0.0002   0.00  210.2
2018/03/11 12:12:23.000   78.256422730   16.214741611   425.5097   1   9   0.0002   0.0002   0.0010  -0.0001   0.0002   0.0002   0.00  211.8
2018/03/11 12:12:24.000   78.256422730   16.214741612   425.5097   1   9   0.0002   0.0002   0.0010  -0.0001   0.0002   0.0002   0.00  213.0
2018/03/11 12:12:25.000   78.256422730   16.214741614   425.5097   1   9   0.0002   0.0002   0.0010  -0.0001   0.0002   0.0002   0.00  214.4
2018/03/11 12:12:26.000   78.256422730   16.214741616   425.5097   1   9   0.0002   0.0002   0.0010  -0.0001   0.0002   0.0002   0.00  215.7
2018/03/11 12:12:27.000   78.256422730   16.214741618   425.5097   1   9   0.0002   0.0002   0.0010  -0.0001   0.0002   0.0002   0.00  217.2
2018/03/11 12:12:28.000   78.256422729   16.214741620   425.5097   1   9   0.0002   0.0002   0.0010  -0.0001   0.0002   0.0002   0.00  218.9
2018/03/11 12:12:29.000   78.256422730   16.214741621   425.5096   1   9   0.0002   0.0002   0.0010  -0.0001   0.0002   0.0002   0.00  220.2
2018/03/11 12:12:30.000   78.256422730   16.214741622   425.5096   1   9   0.0002   0.0002   0.0010  -0.0001   0.0002   0.0002   0.00  221.3
2018/03/11 12:12:31.000   78.256422730   16.214741623   425.5096   1   9   0.0002   0.0002   0.0010  -0.0001   0.0002   0.0002   0.00  222.4
2018/03/11 12:12:32.000   78.256422730   16.214741625   425.5095   1   9   0.0002   0.0002   0.0009  -0.0001   0.0002   0.0002   0.00  223.6
2018/03/11 12:12:33.000   78.256422729   16.214741626   425.5095   1   9   0.0002   0.0002   0.0009  -0.0001   0.0002   0.0002   0.00  225.0
2018/03/11 12:12:34.000   78.256422729   16.214741627   425.5095   1   9   0.0002   0.0002   0.0009  -0.0001   0.0002   0.0002   0.00  226.2
2018/03/11 12:12:35.000   78.256422729   16.214741629   425.5094   1   9   0.0002   0.0002   0.0009  -0.0001   0.0002   0.0002   0.00  227.7
2018/03/11 12:12:36.000   78.256422729   16.214741630   425.5094   1   9   0.0002   0.0002   0.0009  -0.0001   0.0002   0.0002   0.00  229.1
2018/03/11 12:12:37.000   78.256422729   16.214741631   425.5093   1   9   0.0002   0.0002   0.0009  -0.0001   0.0002   0.0002   0.00  230.5
2018/03/11 12:12:38.000   78.256422729   16.214741632   425.5093   1   9   0.0002   0.0002   0.0009  -0.0001   0.0002   0.0002   0.00  231.8
2018/03/11 12:12:39.000   78.256422729   16.214741634   425.5093   1   9   0.0002   0.0002   0.0009  -0.0001   0.0002   0.0002   0.00  232.8
2018/03/11 12:12:40.000   78.256422729   16.214741635   425.5092   1   9   0.0002   0.0002   0.0009  -0.0001   0.0002   0.0002   0.00  234.2
2018/03/11 12:12:41.000   78.256422729   16.214741636   425.5092   1   9   0.0002   0.0002   0.0009  -0.0001   0.0002   0.0002   0.00  235.7
2018/03/11 12:12:42.000   78.256422729   16.214741637   425.5092   1   9   0.0002   0.0002   0.0009  -0.0001   0.0002   0.0002   0.00  237.4
2018/03/11 12:12:43.000   78.256422729   16.214741638   425.5091   1   9   0.0002   0.0002   0.0009  -0.0001   0.0002   0.0002   0.00  239.3
2018/03/11 12:12:44.000   78.256422729   16.214741639   425.5091   1   9   0.0002   0.0002   0.0009  -0.0001   0.0002   0.0002   0.00  241.2
2018/03/11 12:12:45.000   78.256422728   16.214741640   425.5091   1   9   0.0002   0.0002   0.0009  -0.0001   0.0002   0.0002   0.00  243.0
2018/03/11 12:12:46.000   78.256422728   16.214741641   425.5090   1   9   0.0002   0.0002   0.0009  -0.0001   0.0002   0.0002   0.00  244.5
2018/03/11 12:12:47.000   78.256422728   16.214741642   425.5090   1   9   0.0002   0.0002   0.0009  -0.0001   0.0002   0.0002   0.00  245.7
2018/03/11 12:12:48.000   78.256422728   16.214741643   425.5090   1   9   0.0002   0.0002   0.0009  -0.0001   0.0002   0.0002   0.00  247.3
2018/03/11 12:12:49.000   78.256422728   16.214741644   425.5090   1   9   0.0002   0.0002   0.0009  -0.0001   0.0002   0.0002   0.00  248.7
2018/03/11 12:12:50.000   78.256422728   16.214741645   425.5089   1   9   0.0002   0.0002   0.0009  -0.0001   0.0002   0.0002   0.00  249.6
2018/03/11 12:12:51.000   78.256422728   16.214741645   425.5089   1   9   0.0002   0.0002   0.0009  -0.0001   0.0002   0.0002   0.00  250.5
2018/03/11 12:12:52.000   78.256422728   16.214741646   425.5089   1   9   0.0002   0.0002   0.0009  -0.0001   0.0002   0.0002   0.00  251.4
2018/03/11 12:12:53.000   78.256422728   16.214741646   425.5089   1   9   0.0002   0.0002   0.0009  -0.0001   0.0002   0.0002   0.00  252.2
2018/03/11 12:12:54.000   78.256422728   16.214741647   425.5089   1   9   0.0002   0.0002   0.0009  -0.0001   0.0002   0.0002   0.00  253.4
2018/03/11 12:12:55.000   78.256422727   16.214741647   425.5088   1   9   0.0002   0.0002   0.0009  -0.0001   0.0002   0.0002   0.00  255.0
2018/03/11 12:12:56.000   78.256422727   16.214741648   425.5088   1   9   0.0002   0.0002   0.0009  -0.0001   0.0002   0.0002   0.00  256.5
2018/03/11 12:12:57.000   78.256422727   16.214741649   425.5088   1   9   0.0002   0.0002   0.0009  -0.0001   0.0002   0.0002   0.00  257.4
2018/03/11 12:12:58.000   78.256422727   16.214741650   425.5088   1   9   0.0002   0.0002   0.0009  -0.0001   0.0002   0.0002   0.00  258.7
2018/03/11 12:12:59.000   78.256422727   16.214741650   425.5087   1   9   0.0002   0.0002   0.0009  -0.0001   0.0002   0.0002   0.00  259.8
2018/03/11 12:13:00.000   78.256422727   16.214741652   425.5087   1   9   0.0002   0.0002   0.0009  -0.0001   0.0002   0.0002   0.00  261.2
2018/03/11 12:13:01.000   78.256422726   16.214741652   425.5087   1   9   0.0002   0.0002   0.0009  -0.0001   0.0002   0.0002   0.00  262.9
2018/03/11 12:13:02.000   78.256422726   16.214741654   425.5087   1   9   0.0002   0.0002   0.0009  -0.0001   0.0002   0.0002   0.00  264.3
2018/03/11 12:13:03.000   78.256422726   16.214741654   425.5087   1   9   0.0002   0.0002   0.0009  -0.0001   0.0002   0.0002   0.00  266.0
2018/03/11 12:13:04.000   78.256422726   16.214741655   425.5087   1   9   0.0002   0.0002   0.0009  -0.0001   0.0002   0.0002   0.00  267.6
2018/03/11 12:13:05.000   78.256422725   16.214741656   425.5086   1   9   0.0002   0.0002   0.0009  -0.0001   0.0002   0.0002   0.00  269.5
2018/03/11 12:13:06.000   78.256422725   16.214741658   425.5086   1   9   0.0002   0.0002   0.0009  -0.0001   0.0002   0.0002   0.00  271.4
2018/03/11 12:13:07.000   78.256422725   16.214741659   425.5086   1   9   0.0002   0.0002   0.0009  -0.0001   0.0002   0.0002   0.00  273.6
2018/03/11 12:13:08.000   78.256422725   16.214741660   425.5085   1   9   0.0002   0.0002   0.0009  -0.0001   0.0002   0.0002   0.00  276.2
2018/03/11 12:13:09.000   78.256422724   16.214741662   425.5085   1   9   0.0002   0.0002   0.0009  -0.0001   0.0002   0.0002   0.00  278.7
2018/03/11 12:13:10.000   78.256422724   16.214741663   425.5085   1   9   0.0002   0.0002   0.0009  -0.0001   0.0002   0.0002   0.00  281.3
2018/03/11 12:13:11.000   78.256422724   16.214741665   425.5084   1   9   0.0002   0.0002   0.0009  -0.0001   0.0002   0.0002   0.00  283.9
2018/03/11 12:13:12.000   78.256422723   16.214741666   425.5084   1   9   0.0002   0.0002   0.0009  -0.0001   0.0002   0.0002   0.00  286.7
2018/03/11 12:13:13.000   78.256422723   16.214741668   425.5084   1   9   0.0002   0.0002   0.0009  -0.0001   0.0002   0.0002   0.00  289.4
2018/03/11 12:13:14.000   78.256422723   16.214741670   425.5083   1   9   0.0002   0.0002   0.0009  -0.0001   0.0002   0.0002   0.00  291.9
2018/03/11 12:13:15.000   78.256422723   16.214741671   425.5083   1   9   0.0002   0.0002   0.0009  -0.0001   0.0002   0.0002   0.00  294.6
2018/03/11 12:13:16.000   78.256422722   16.214741673   425.5082   1   9   0.0002   0.0002   0.0009  -0.0001   0.0002   0.0002   0.00  297.4
2018/03/11 12:13:17.000   78.256422722   16.214741674   425.5082   1   9   0.0002   0.0002   0.0009  -0.0001   0.0002   0.0002   0.00  299.4
2018/03/11 12:13:18.000   78.256422722   16.214741676   425.5082   1   9   0.0002   0.0002   0.0009  -0.0001   0.0002   0.0002   0.00  301.4
2018/03/11 12:13:19.000   78.256422721   16.214741677   425.5082   1   9   0.0002   0.0002   0.0009  -0.0001   0.0002   0.0002   0.00  303.2
2018/03/11 12:13:20.000   78.256422721   16.214741678   425.5082   1   9   0.0002   0.0002   0.0009  -0.0001   0.0002   0.0002   0.00  305.1
2018/03/11 12:13:21.000   78.256422721   16.214741679   425.5081   1   9   0.0002   0.0002   0.0009  -0.0001   0.0002   0.0002   0.00  307.0
2018/03/11 12:13:22.000   78.256422721   16.214741681   425.5081   1   9   0.0002   0.0002   0.0009  -0.0001   0.0002   0.0002   0.00  309.2
2018/03/11 12:13:23.000   78.256422721   16.214741682   425.5081   1   9   0.0002   0.0002   0.0009  -0.0001   0.0002   0.0002   0.00  311.3
2018/03/11 12:13:24.000   78.256422720   16.214741683   425.5081   1   9   0.0002   0.0002   0.0009  -0.0001   0.0002   0.0002   0.00  313.6
2018/03/11 12:13:25.000   78.256422720   16.214741685   425.5081   1   9   0.0002   0.0002   0.0009  -0.0001   0.0002   0.0002   0.00  315.2
2018/03/11 12:13:26.000   78.256422720   16.214741686   425.5081   1   9   0.0002   0.0002   0.0009  -0.0001   0.0002   0.0002   0.00  317.3
2018/03/11 12:13:27.000   78.256422720   16.214741687   425.5081   1   9   0.0002   0.0002   0.0009  -0.0001   0.0002   0.0002   0.00  319.1
2018/03/11 12:13:28.000   78.256422719   16.214741688   425.5081   1   9   0.0002   0.0002   0.0009  -0.0001   0.0002   0.0002   0.00  321.2
2018/03/11 12:13:29.000   78.256422719   16.214741689   425.5081   1   9   0.0002   0.0002   0.0009  -0.0001   0.0002   0.0002   0.00  323.1
2018/03/11 12:13:30.000   78.256422719   16.214741690   425.5081   1   9   0.0002   0.0002   0.0009  -0.0001   0.0002   0.0002   0.00  324.2
2018/03/11 12:13:31.000   78.256422719   16.214741690   425.5081   1   9   0.0002   0.0002   0.0009  -0.0001   0.0002   0.0002   0.00  325.4
2018/03/11 12:13:32.000   78.256422719   16.214741692   425.5081   1   9   0.0002   0.0002   0.0009  -0.0001   0.0002   0.0002   0.00  327.0
2018/03/11 12:13:33.000   78.256422719   16.214741693   425.5081   1   9   0.0002   0.0002   0.0009  -0.0001   0.0002   0.0002   0.00  328.2
2018/03/11 12:13:34.000   78.256422718   16.214741694   425.5081   1   9   0.0002   0.0002   0.0009  -0.0001   0.0002   0.0002   0.00  329.6
2018/03/11 12:13:35.000   78.256422718   16.214741694   425.5081   1   9   0.0002   0.0002   0.0009  -0.0001   0.0002   0.0002   0.00  332.1
2018/03/11 12:13:36.000   78.256422718   16.214741696   425.5082   1   9   0.0002   0.0002   0.0009  -0.0001   0.0002   0.0002   0.00  334.1
2018/03/11 12:13:37.000   78.256422718   16.214741698   425.5082   1   9   0.0002   0.0002   0.0009  -0.0001   0.0002   0.0002   0.00  336.0
2018/03/11 12:13:38.000   78.256422718   16.214741699   425.5082   1   9   0.0002   0.0002   0.0009  -0.0001   0.0002   0.0002   0.00  338.9
2018/03/11 12:13:39.000   78.256422717   16.214741700   425.5082   1   9   0.0002   0.0002   0.0009  -0.0001   0.0002   0.0002   0.00  341.6
2018/03/11 12:13:40.000   78.256422717   16.214741702   425.5082   1   9   0.0002   0.0002   0.0009  -0.0001   0.0002   0.0002   0.00  344.4
2018/03/11 12:13:41.000   78.256422717   16.214741703   425.5082   1   9   0.0002   0.0002   0.0009  -0.0001   0.0002   0.0002   0.00  347.3
2018/03/11 12:13:42.000   78.256422717   16.214741705   425.5082   1   9   0.0002   0.0002   0.0009  -0.0001   0.0002   0.0002   0.00  349.8
2018/03/11 12:13:43.000   78.256422716   16.214741706   425.5082   1   9   0.0002   0.0002   0.0009  -0.0001   0.0002   0.0002   0.00  352.4
2018/03/11 12:13:44.000   78.256422716   16.214741707   425.5082   1   9   0.0002   0.0002   0.0009  -0.0001   0.0002   0.0002   0.00  354.6
2018/03/11 12:13:45.000   78.256422716   16.214741708   425.5082   1   9   0.0002   0.0002   0.0009  -0.0001   0.0002   0.0002   0.00  356.9
2018/03/11 12:13:46.000   78.256422716   16.214741709   425.5082   1   9   0.0002   0.0002   0.0009  -0.0001   0.0002   0.0002   0.00  358.8
2018/03/11 12:13:47.000   78.256422715   16.214741710   425.5082   1   9   0.0002   0.0002   0.0009  -0.0001   0.0002   0.0002   0.00  360.4
2018/03/11 12:13:48.000   78.256422715   16.214741711   425.5082   1   9   0.0002   0.0002   0.0009  -0.0001   0.0002   0.0002   0.00  361.7
2018/03/11 12:13:49.000   78.256422715   16.214741712   425.5082   1   9   0.0002   0.0002   0.0009  -0.0001   0.0002   0.0002   0.00  363.3
2018/03/11 12:13:50.000   78.256422715   16.214741713   425.5082   1   9   0.0002   0.0002   0.0009  -0.0001   0.0002   0.0002   0.00  365.4
2018/03/11 12:13:51.000   78.256422714   16.214741714   425.5082   1   9   0.0002   0.0002   0.0009  -0.0001   0.0002   0.0002   0.00  367.4
2018/03/11 12:13:52.000   78.256422714   16.214741716   425.5082   1   9   0.0002   0.0002   0.0009  -0.0001   0.0002   0.0002   0.00  369.1
2018/03/11 12:13:53.000   78.256422714   16.214741717   425.5082   1   9   0.0002   0.0002   0.0009  -0.0001   0.0002   0.0002   0.00  371.3
2018/03/11 12:13:54.000   78.256422713   16.214741719   425.5082   1   9   0.0002   0.0002   0.0009  -0.0001   0.0002   0.0002   0.00  373.3
2018/03/11 12:13:55.000   78.256422713   16.214741720   425.5081   1   9   0.0002   0.0002   0.0009  -0.0001   0.0002   0.0002   0.00  375.4
2018/03/11 12:13:56.000   78.256422713   16.214741721   425.5081   1   9   0.0002   0.0002   0.0009  -0.0001   0.0002   0.0002   0.00  377.3
2018/03/11 12:13:57.000   78.256422712   16.214741722   425.5080   1   9   0.0002   0.0002   0.0009  -0.0001   0.0002   0.0002   0.00  378.5
2018/03/11 12:13:58.000   78.256422712   16.214741723   425.5080   1   9   0.0002   0.0002   0.0009  -0.0001   0.0002   0.0002   0.00  378.9
