% program   : RTKPOST ver.2.4.2
% inp file  : Z:\home\linda\Documents\Spring18\GitHub_Unis\data\processed_data\4625074I.obs
% inp file  : Z:\home\linda\Documents\Spring18\GitHub_Unis\data\base_station_data\lyrs0740.18o
% inp file  : Z:\home\linda\Documents\Spring18\GitHub_Unis\data\processed_data\4625074I.nav
% obs start : 2018/03/15 14:07:50.0 GPST (week1992 396470.0s)
% obs end   : 2018/03/15 14:22:55.0 GPST (week1992 397375.0s)
% pos mode  : static
% freqs     : L1+L2
% solution  : forward
% elev mask : 15.0 deg
% dynamics  : on
% tidecorr  : off
% ionos opt : broadcast
% tropo opt : saastamoinen
% ephemeris : broadcast
% navi sys  : gps glonass galileo qzss sbas
% amb res   : fix and hold
% amb glo   : on
% val thres : 3.0
% antenna1  :                       ( 0.0000  0.0000  0.0000)
% antenna2  :                       ( 0.0000  0.0000  0.0000)
% ref pos   : 78.228825638   15.397310064   495.6816
%
% (lat/lon/height=WGS84/ellipsoidal,Q=1:fix,2:float,3:sbas,4:dgps,5:single,6:ppp,ns=# of satellites)
%  GPST                  latitude(deg) longitude(deg)  height(m)   Q  ns   sdn(m)   sde(m)   sdu(m)  sdne(m)  sdeu(m)  sdun(m) age(s)  ratio
2018/03/15 14:07:50.000   78.251300735   16.154749898   563.2355   2   8   0.6533   0.4323   3.3655  -0.2894  -0.7709   1.3481   0.00    1.1
2018/03/15 14:07:51.000   78.251301556   16.154754937   563.5487   2   8   0.4642   0.3070   2.3946  -0.2060  -0.5488   0.9585   0.00    1.2
2018/03/15 14:07:52.000   78.251301888   16.154759332   563.2172   2   8   0.3791   0.2509   1.9559  -0.1682  -0.4483   0.7827   0.00    1.3
2018/03/15 14:07:53.000   78.251301195   16.154756474   562.9589   2   8   0.3279   0.2173   1.6909  -0.1453  -0.3876   0.6765   0.00    1.5
2018/03/15 14:07:54.000   78.251301610   16.154757720   563.0665   2   8   0.2927   0.1943   1.5078  -0.1295  -0.3456   0.6031   0.00    1.5
2018/03/15 14:07:55.000   78.251302463   16.154753539   563.3758   2   8   0.2664   0.1773   1.3708  -0.1176  -0.3142   0.5483   0.00    1.4
2018/03/15 14:07:56.000   78.251302051   16.154751375   563.3660   2   8   0.2457   0.1640   1.2628  -0.1083  -0.2894   0.5050   0.00    1.4
2018/03/15 14:07:57.000   78.251302647   16.154750577   563.5541   2   8   0.2289   0.1533   1.1744  -0.1006  -0.2691   0.4695   0.00    1.3
2018/03/15 14:07:58.000   78.251302641   16.154749747   563.6046   2   8   0.2148   0.1444   1.1000  -0.0941  -0.2521   0.4397   0.00    1.2
2018/03/15 14:07:59.000   78.251303020   16.154747857   563.9806   2   8   0.2027   0.1368   1.0359  -0.0885  -0.2374   0.4140   0.00    1.0
2018/03/15 14:08:00.000   78.251303523   16.154747466   564.2035   2   8   0.1922   0.1302   0.9798  -0.0836  -0.2245   0.3915   0.00    1.1
2018/03/15 14:08:01.000   78.251303812   16.154747180   564.3949   2   8   0.1829   0.1245   0.9301  -0.0792  -0.2131   0.3715   0.00    1.2
2018/03/15 14:08:02.000   78.251304000   16.154747676   564.5810   2   8   0.1746   0.1194   0.8853  -0.0753  -0.2028   0.3535   0.00    1.3
2018/03/15 14:08:03.000   78.251304144   16.154747812   564.7403   2   8   0.1671   0.1149   0.8448  -0.0717  -0.1936   0.3372   0.00    1.4
2018/03/15 14:08:04.000   78.251304158   16.154748136   564.7720   2   8   0.1602   0.1108   0.8078  -0.0684  -0.1851   0.3224   0.00    1.4
2018/03/15 14:08:05.000   78.251304206   16.154747342   564.9682   2   8   0.1540   0.1071   0.7737  -0.0654  -0.1773   0.3087   0.00    1.3
2018/03/15 14:08:06.000   78.251304146   16.154746302   565.1419   2   8   0.1482   0.1037   0.7422  -0.0626  -0.1700   0.2960   0.00    1.3
2018/03/15 14:08:07.000   78.251304577   16.154746563   565.3796   2   8   0.1429   0.1006   0.7129  -0.0600  -0.1633   0.2842   0.00    1.2
2018/03/15 14:08:08.000   78.251305055   16.154746019   565.7158   2   8   0.1380   0.0978   0.6856  -0.0576  -0.1571   0.2732   0.00    1.2
2018/03/15 14:08:09.000   78.251305831   16.154744555   566.2006   2   8   0.1333   0.0951   0.6600  -0.0553  -0.1512   0.2629   0.00    1.1
2018/03/15 14:08:10.000   78.251306161   16.154743247   566.3971   2   8   0.1290   0.0926   0.6360  -0.0531  -0.1457   0.2532   0.00    1.1
2018/03/15 14:08:11.000   78.251306394   16.154741741   566.6257   2   8   0.1250   0.0903   0.6133  -0.0511  -0.1405   0.2441   0.00    1.0
2018/03/15 14:08:12.000   78.251306832   16.154740497   566.9205   2   8   0.1212   0.0882   0.5920  -0.0492  -0.1356   0.2355   0.00    1.1
2018/03/15 14:08:13.000   78.251306889   16.154739838   566.8918   2   8   0.1176   0.0862   0.5718  -0.0473  -0.1310   0.2273   0.00    1.2
2018/03/15 14:08:14.000   78.251307118   16.154738487   566.9845   2   8   0.1142   0.0843   0.5526  -0.0456  -0.1266   0.2196   0.00    1.2
2018/03/15 14:08:15.000   78.251307197   16.154737682   566.9825   2   8   0.1110   0.0825   0.5344  -0.0440  -0.1224   0.2123   0.00    1.2
2018/03/15 14:08:16.000   78.251307310   16.154737587   566.9350   2   8   0.1079   0.0808   0.5172  -0.0424  -0.1185   0.2053   0.00    1.3
2018/03/15 14:08:17.000   78.251307336   16.154736794   566.8774   2   8   0.1051   0.0792   0.5008  -0.0409  -0.1147   0.1987   0.00    1.3
2018/03/15 14:08:18.000   78.251307396   16.154736939   566.8284   2   8   0.1023   0.0777   0.4851  -0.0395  -0.1112   0.1923   0.00    1.3
2018/03/15 14:08:19.000   78.251307393   16.154736350   566.7475   2   8   0.0997   0.0762   0.4702  -0.0381  -0.1077   0.1863   0.00    1.4
2018/03/15 14:08:20.000   78.251307328   16.154735668   566.6482   2   8   0.0972   0.0748   0.4560  -0.0368  -0.1045   0.1806   0.00    1.4
2018/03/15 14:08:21.000   78.251307341   16.154735004   566.5687   2   8   0.0949   0.0735   0.4424  -0.0356  -0.1014   0.1751   0.00    1.5
2018/03/15 14:08:22.000   78.251307185   16.154734645   566.4337   2   8   0.0926   0.0723   0.4294  -0.0344  -0.0984   0.1698   0.00    1.5
2018/03/15 14:08:23.000   78.251306837   16.154733961   566.2716   2   8   0.0905   0.0711   0.4170  -0.0333  -0.0956   0.1648   0.00    1.5
2018/03/15 14:08:24.000   78.251306270   16.154733465   566.0100   2   8   0.0884   0.0699   0.4051  -0.0322  -0.0929   0.1600   0.00    1.5
2018/03/15 14:08:25.000   78.251305275   16.154733301   565.5592   2   8   0.0864   0.0688   0.3937  -0.0312  -0.0903   0.1554   0.00    1.5
2018/03/15 14:08:26.000   78.251304272   16.154732781   565.1607   2   8   0.0845   0.0678   0.3828  -0.0301  -0.0878   0.1510   0.00    1.4
2018/03/15 14:08:27.000   78.251303076   16.154733024   564.6691   2   8   0.0827   0.0668   0.3723  -0.0292  -0.0854   0.1467   0.00    1.3
2018/03/15 14:08:28.000   78.251302098   16.154732538   564.3105   2   8   0.0810   0.0658   0.3623  -0.0283  -0.0831   0.1427   0.00    1.3
2018/03/15 14:08:29.000   78.251301135   16.154731766   563.9653   2   8   0.0793   0.0649   0.3527  -0.0274  -0.0809   0.1388   0.00    1.2
2018/03/15 14:08:30.000   78.251300243   16.154731410   563.6461   2   8   0.0777   0.0640   0.3434  -0.0265  -0.0788   0.1350   0.00    1.1
2018/03/15 14:08:31.000   78.251299518   16.154730657   563.4445   2   8   0.0762   0.0631   0.3345  -0.0257  -0.0767   0.1314   0.00    1.0
2018/03/15 14:08:32.000   78.251298821   16.154729796   563.2592   2   8   0.0747   0.0623   0.3260  -0.0249  -0.0748   0.1280   0.00    1.0
2018/03/15 14:08:33.000   78.251298157   16.154729496   563.0765   2   8   0.0733   0.0614   0.3178  -0.0242  -0.0729   0.1246   0.00    1.0
2018/03/15 14:08:34.000   78.251297335   16.154729050   562.8052   2   8   0.0720   0.0607   0.3099  -0.0234  -0.0711   0.1214   0.00    1.0
2018/03/15 14:08:35.000   78.251296564   16.154728705   562.5632   2   8   0.0707   0.0599   0.3023  -0.0227  -0.0694   0.1183   0.00    1.0
2018/03/15 14:08:36.000   78.251295703   16.154728049   562.2996   2   8   0.0694   0.0592   0.2950  -0.0221  -0.0677   0.1154   0.00    1.0
2018/03/15 14:08:37.000   78.251294857   16.154727852   562.0656   2   8   0.0682   0.0585   0.2879  -0.0214  -0.0661   0.1125   0.00    1.0
2018/03/15 14:08:38.000   78.251294037   16.154727037   561.8458   2   8   0.0670   0.0578   0.2811  -0.0208  -0.0645   0.1097   0.00    1.0
2018/03/15 14:08:39.000   78.251293201   16.154726171   561.6973   2   8   0.0659   0.0571   0.2745  -0.0202  -0.0630   0.1071   0.00    1.1
2018/03/15 14:08:40.000   78.251292309   16.154725654   561.4636   2   8   0.0648   0.0565   0.2682  -0.0196  -0.0616   0.1045   0.00    1.1
2018/03/15 14:08:41.000   78.251291373   16.154725091   561.2128   2   8   0.0637   0.0559   0.2621  -0.0190  -0.0602   0.1020   0.00    1.2
2018/03/15 14:08:42.000   78.251290516   16.154724754   560.9658   2   8   0.0627   0.0553   0.2562  -0.0185  -0.0589   0.0996   0.00    1.2
2018/03/15 14:08:43.000   78.251289799   16.154724522   560.7543   2   8   0.0617   0.0547   0.2506  -0.0180  -0.0576   0.0973   0.00    1.2
2018/03/15 14:08:44.000   78.251289147   16.154724059   560.5861   2   8   0.0608   0.0541   0.2451  -0.0174  -0.0563   0.0951   0.00    1.2
2018/03/15 14:08:45.000   78.251288644   16.154723915   560.4715   2   8   0.0599   0.0535   0.2398  -0.0170  -0.0551   0.0929   0.00    1.2
2018/03/15 14:08:46.000   78.251288212   16.154723605   560.3775   2   8   0.0590   0.0530   0.2346  -0.0165  -0.0539   0.0909   0.00    1.2
2018/03/15 14:08:47.000   78.251287958   16.154723188   560.3581   2   8   0.0581   0.0525   0.2297  -0.0160  -0.0528   0.0888   0.00    1.2
2018/03/15 14:08:48.000   78.251287851   16.154722708   560.3951   2   8   0.0573   0.0519   0.2249  -0.0156  -0.0517   0.0869   0.00    1.2
2018/03/15 14:08:49.000   78.251287775   16.154722187   560.4327   2   8   0.0564   0.0514   0.2202  -0.0152  -0.0507   0.0850   0.00    1.2
2018/03/15 14:08:50.000   78.251287845   16.154721541   560.5066   2   8   0.0557   0.0509   0.2157  -0.0147  -0.0496   0.0832   0.00    1.3
2018/03/15 14:08:51.000   78.251287945   16.154721223   560.5760   2   8   0.0549   0.0505   0.2114  -0.0143  -0.0486   0.0814   0.00    1.3
2018/03/15 14:08:52.000   78.251288062   16.154720498   560.6854   2   8   0.0542   0.0500   0.2072  -0.0140  -0.0477   0.0797   0.00    1.3
2018/03/15 14:08:53.000   78.251288327   16.154719902   560.8509   2   8   0.0534   0.0495   0.2031  -0.0136  -0.0468   0.0780   0.00    1.3
2018/03/15 14:08:54.000   78.251288609   16.154718866   561.0512   2   8   0.0527   0.0491   0.1991  -0.0132  -0.0458   0.0764   0.00    1.3
2018/03/15 14:08:55.000   78.251288931   16.154717843   561.3086   2   8   0.0520   0.0487   0.1953  -0.0129  -0.0450   0.0749   0.00    1.3
2018/03/15 14:08:56.000   78.251289364   16.154716926   561.5497   2   8   0.0514   0.0482   0.1916  -0.0125  -0.0441   0.0734   0.00    1.3
2018/03/15 14:08:57.000   78.251289787   16.154715772   561.8019   2   8   0.0507   0.0478   0.1880  -0.0122  -0.0433   0.0719   0.00    1.4
2018/03/15 14:08:58.000   78.251290216   16.154715020   562.0480   2   8   0.0501   0.0474   0.1845  -0.0119  -0.0425   0.0705   0.00    1.4
2018/03/15 14:08:59.000   78.251290713   16.154714564   562.2890   2   8   0.0495   0.0470   0.1811  -0.0116  -0.0417   0.0691   0.00    1.3
2018/03/15 14:09:00.000   78.251291175   16.154713954   562.5128   2   8   0.0489   0.0466   0.1778  -0.0113  -0.0410   0.0677   0.00    1.4
2018/03/15 14:09:01.000   78.251291669   16.154713639   562.7739   2   8   0.0483   0.0462   0.1746  -0.0110  -0.0402   0.0664   0.00    1.4
2018/03/15 14:09:02.000   78.251292127   16.154713393   562.9951   2   8   0.0478   0.0458   0.1714  -0.0107  -0.0395   0.0652   0.00    1.4
2018/03/15 14:09:03.000   78.251292586   16.154712965   563.2235   2   8   0.0472   0.0455   0.1684  -0.0104  -0.0388   0.0639   0.00    1.4
2018/03/15 14:09:04.000   78.251293039   16.154712879   563.4425   2   8   0.0467   0.0451   0.1655  -0.0102  -0.0382   0.0627   0.00    1.3
2018/03/15 14:09:05.000   78.251293496   16.154712818   563.6098   2   8   0.0462   0.0448   0.1626  -0.0099  -0.0375   0.0616   0.00    1.3
2018/03/15 14:09:06.000   78.251293925   16.154712992   563.7780   2   8   0.0456   0.0444   0.1598  -0.0097  -0.0369   0.0604   0.00    1.3
2018/03/15 14:09:07.000   78.251294323   16.154713187   563.9208   2   8   0.0451   0.0441   0.1571  -0.0094  -0.0363   0.0593   0.00    1.2
2018/03/15 14:09:08.000   78.251294705   16.154713296   564.0783   2   8   0.0447   0.0437   0.1545  -0.0092  -0.0357   0.0583   0.00    1.2
2018/03/15 14:09:09.000   78.251295007   16.154713356   564.2047   2   8   0.0442   0.0434   0.1519  -0.0090  -0.0351   0.0572   0.00    1.2
2018/03/15 14:09:10.000   78.251295260   16.154713393   564.2900   2   8   0.0437   0.0431   0.1494  -0.0088  -0.0345   0.0562   0.00    1.2
2018/03/15 14:09:11.000   78.251295476   16.154713410   564.3748   2   8   0.0433   0.0428   0.1470  -0.0086  -0.0340   0.0552   0.00    1.2
2018/03/15 14:09:12.000   78.251295650   16.154713427   564.4406   2   8   0.0428   0.0425   0.1446  -0.0084  -0.0334   0.0542   0.00    1.2
2018/03/15 14:09:13.000   78.251295786   16.154713447   564.5171   2   8   0.0424   0.0421   0.1423  -0.0082  -0.0329   0.0533   0.00    1.1
2018/03/15 14:09:14.000   78.251295914   16.154713429   564.5934   2   8   0.0420   0.0418   0.1401  -0.0080  -0.0324   0.0524   0.00    1.1
2018/03/15 14:09:15.000   78.251295950   16.154713467   564.6425   2   8   0.0415   0.0415   0.1379  -0.0078  -0.0319   0.0515   0.00    1.1
2018/03/15 14:09:16.000   78.251295986   16.154713560   564.6970   2   8   0.0411   0.0413   0.1358  -0.0076  -0.0314   0.0506   0.00    1.1
2018/03/15 14:09:17.000   78.251295961   16.154713686   564.7582   2   8   0.0407   0.0410   0.1337  -0.0074  -0.0309   0.0498   0.00    1.1
2018/03/15 14:09:18.000   78.251295928   16.154713970   564.8117   2   8   0.0403   0.0407   0.1317  -0.0073  -0.0305   0.0490   0.00    1.1
2018/03/15 14:09:19.000   78.251295922   16.154713887   564.8931   2   8   0.0400   0.0404   0.1297  -0.0071  -0.0300   0.0482   0.00    1.1
2018/03/15 14:09:20.000   78.251295939   16.154713557   565.0058   2   8   0.0396   0.0401   0.1277  -0.0070  -0.0296   0.0474   0.00    1.1
2018/03/15 14:09:21.000   78.251295914   16.154713126   565.0769   2   8   0.0392   0.0399   0.1260  -0.0068  -0.0291   0.0466   0.00    1.1
2018/03/15 14:09:22.000   78.251295922   16.154712910   565.1445   2   8   0.0389   0.0396   0.1242  -0.0066  -0.0287   0.0459   0.00    1.1
2018/03/15 14:09:23.000   78.251295949   16.154712652   565.1905   2   8   0.0385   0.0393   0.1225  -0.0065  -0.0282   0.0452   0.00    1.1
2018/03/15 14:09:24.000   78.251296031   16.154712552   565.2490   2   8   0.0382   0.0391   0.1209  -0.0063  -0.0278   0.0445   0.00    1.1
2018/03/15 14:09:25.000   78.251296168   16.154712462   565.3041   2   8   0.0379   0.0388   0.1192  -0.0061  -0.0274   0.0438   0.00    1.1
2018/03/15 14:09:26.000   78.251296335   16.154712334   565.3481   2   8   0.0375   0.0386   0.1176  -0.0060  -0.0270   0.0431   0.00    1.1
2018/03/15 14:09:27.000   78.251296480   16.154711954   565.3817   2   8   0.0372   0.0383   0.1162  -0.0058  -0.0265   0.0425   0.00    1.0
2018/03/15 14:09:28.000   78.251296712   16.154711748   565.4263   2   8   0.0369   0.0381   0.1147  -0.0057  -0.0261   0.0419   0.00    1.1
2018/03/15 14:09:29.000   78.251296908   16.154711509   565.4674   2   8   0.0366   0.0379   0.1133  -0.0055  -0.0257   0.0413   0.00    1.1
2018/03/15 14:09:30.000   78.251297013   16.154710882   565.5603   2   8   0.0363   0.0376   0.1119  -0.0054  -0.0253   0.0407   0.00    1.1
2018/03/15 14:09:31.000   78.251297285   16.154710750   565.5223   2   8   0.0360   0.0374   0.1105  -0.0053  -0.0249   0.0401   0.00    1.1
2018/03/15 14:09:32.000   78.251297503   16.154710509   565.5446   2   8   0.0357   0.0372   0.1091  -0.0051  -0.0245   0.0396   0.00    1.2
2018/03/15 14:09:33.000   78.251297733   16.154710444   565.5589   2   8   0.0354   0.0369   0.1078  -0.0050  -0.0241   0.0390   0.00    1.2
2018/03/15 14:09:34.000   78.251297904   16.154710294   565.5606   2   8   0.0351   0.0367   0.1065  -0.0049  -0.0237   0.0385   0.00    1.1
2018/03/15 14:09:35.000   78.251298160   16.154710401   565.5748   2   8   0.0348   0.0365   0.1052  -0.0048  -0.0233   0.0379   0.00    1.1
2018/03/15 14:09:36.000   78.251298422   16.154710499   565.5714   2   8   0.0345   0.0363   0.1040  -0.0047  -0.0229   0.0374   0.00    1.1
2018/03/15 14:09:37.000   78.251298627   16.154710735   565.5511   2   8   0.0342   0.0361   0.1028  -0.0046  -0.0226   0.0369   0.00    1.1
2018/03/15 14:09:38.000   78.251298835   16.154710903   565.5251   2   8   0.0340   0.0359   0.1016  -0.0045  -0.0222   0.0364   0.00    1.0
2018/03/15 14:09:39.000   78.251298992   16.154711279   565.4767   2   8   0.0337   0.0357   0.1004  -0.0044  -0.0219   0.0359   0.00    1.0
2018/03/15 14:09:40.000   78.251299149   16.154711739   565.4256   2   8   0.0334   0.0355   0.0992  -0.0043  -0.0215   0.0354   0.00    1.0
2018/03/15 14:09:41.000   78.251299314   16.154712170   565.3681   2   8   0.0332   0.0353   0.0981  -0.0042  -0.0212   0.0350   0.00    1.0
2018/03/15 14:09:42.000   78.251299431   16.154712479   565.2993   2   8   0.0329   0.0351   0.0969  -0.0041  -0.0209   0.0345   0.00    1.0
2018/03/15 14:09:43.000   78.251299565   16.154712907   565.2293   2   8   0.0327   0.0349   0.0958  -0.0040  -0.0206   0.0340   0.00    1.0
2018/03/15 14:09:44.000   78.251299700   16.154713221   565.1690   2   8   0.0324   0.0347   0.0947  -0.0039  -0.0203   0.0336   0.00    1.0
2018/03/15 14:09:45.000   78.251299838   16.154713528   565.1127   2   8   0.0322   0.0345   0.0937  -0.0038  -0.0199   0.0332   0.00    1.0
2018/03/15 14:09:46.000   78.251299971   16.154713752   565.0621   2   8   0.0319   0.0343   0.0926  -0.0038  -0.0196   0.0327   0.00    1.0
2018/03/15 14:09:47.000   78.251300105   16.154713863   565.0249   2   8   0.0317   0.0341   0.0916  -0.0037  -0.0193   0.0323   0.00    1.0
2018/03/15 14:09:48.000   78.251300225   16.154713956   564.9780   2   8   0.0315   0.0339   0.0906  -0.0036  -0.0190   0.0319   0.00    1.0
2018/03/15 14:09:49.000   78.251300323   16.154714061   564.9402   2   8   0.0312   0.0337   0.0896  -0.0036  -0.0188   0.0315   0.00    1.0
2018/03/15 14:09:50.000   78.251300410   16.154713989   564.9177   2   8   0.0310   0.0335   0.0886  -0.0035  -0.0185   0.0311   0.00    1.1
2018/03/15 14:09:51.000   78.251300517   16.154714030   564.9043   2   8   0.0308   0.0334   0.0877  -0.0035  -0.0182   0.0307   0.00    1.1
2018/03/15 14:09:52.000   78.251300690   16.154714047   564.8982   2   8   0.0306   0.0332   0.0867  -0.0034  -0.0179   0.0303   0.00    1.1
2018/03/15 14:09:53.000   78.251300811   16.154713587   564.9125   2   8   0.0303   0.0330   0.0858  -0.0034  -0.0177   0.0299   0.00    1.1
2018/03/15 14:09:54.000   78.251300936   16.154713381   564.9250   2   8   0.0301   0.0328   0.0849  -0.0033  -0.0174   0.0295   0.00    1.1
2018/03/15 14:09:55.000   78.251301064   16.154713161   564.9308   2   8   0.0299   0.0327   0.0840  -0.0033  -0.0171   0.0292   0.00    1.1
2018/03/15 14:09:56.000   78.251301195   16.154713240   564.9342   2   8   0.0297   0.0325   0.0831  -0.0032  -0.0169   0.0288   0.00    1.1
2018/03/15 14:09:57.000   78.251301305   16.154713213   564.9414   2   8   0.0295   0.0323   0.0822  -0.0032  -0.0166   0.0284   0.00    1.1
2018/03/15 14:09:58.000   78.251301428   16.154713030   564.9579   2   8   0.0293   0.0322   0.0814  -0.0032  -0.0164   0.0281   0.00    1.1
2018/03/15 14:09:59.000   78.251301534   16.154712753   564.9824   2   8   0.0291   0.0320   0.0805  -0.0032  -0.0162   0.0277   0.00    1.1
2018/03/15 14:10:00.000   78.251301615   16.154712469   565.0121   2   8   0.0289   0.0318   0.0797  -0.0031  -0.0159   0.0274   0.00    1.1
2018/03/15 14:10:01.000   78.251301696   16.154712079   565.0530   2   8   0.0287   0.0317   0.0789  -0.0031  -0.0157   0.0271   0.00    1.2
2018/03/15 14:10:02.000   78.251301764   16.154711779   565.0860   2   8   0.0285   0.0315   0.0781  -0.0031  -0.0155   0.0267   0.00    1.2
2018/03/15 14:10:03.000   78.251301810   16.154711628   565.1016   2   8   0.0283   0.0314   0.0773  -0.0031  -0.0152   0.0264   0.00    1.2
2018/03/15 14:10:04.000   78.251301862   16.154711452   565.1152   2   8   0.0281   0.0312   0.0765  -0.0031  -0.0150   0.0261   0.00    1.2
2018/03/15 14:10:05.000   78.251301910   16.154711227   565.1402   2   8   0.0279   0.0310   0.0758  -0.0030  -0.0148   0.0258   0.00    1.2
2018/03/15 14:10:06.000   78.251301965   16.154711044   565.1587   2   8   0.0277   0.0309   0.0750  -0.0030  -0.0146   0.0255   0.00    1.2
2018/03/15 14:10:07.000   78.251301998   16.154710797   565.1741   2   8   0.0275   0.0307   0.0743  -0.0030  -0.0144   0.0252   0.00    1.2
2018/03/15 14:10:08.000   78.251302035   16.154710671   565.1928   2   8   0.0274   0.0306   0.0736  -0.0030  -0.0142   0.0249   0.00    1.1
2018/03/15 14:10:09.000   78.251302095   16.154710468   565.2032   2   8   0.0272   0.0304   0.0728  -0.0030  -0.0140   0.0246   0.00    1.1
2018/03/15 14:10:10.000   78.251302120   16.154710344   565.2107   2   8   0.0270   0.0303   0.0721  -0.0030  -0.0138   0.0243   0.00    1.1
2018/03/15 14:10:11.000   78.251302149   16.154710316   565.2046   2   8   0.0268   0.0302   0.0714  -0.0030  -0.0136   0.0240   0.00    1.1
2018/03/15 14:10:12.000   78.251302189   16.154710320   565.1944   2   8   0.0266   0.0300   0.0708  -0.0030  -0.0134   0.0238   0.00    1.1
2018/03/15 14:10:13.000   78.251302241   16.154710356   565.1925   2   8   0.0265   0.0299   0.0701  -0.0030  -0.0132   0.0235   0.00    1.1
2018/03/15 14:10:14.000   78.251302288   16.154710394   565.1713   2   8   0.0263   0.0297   0.0694  -0.0030  -0.0130   0.0232   0.00    1.0
2018/03/15 14:10:15.000   78.251302336   16.154710557   565.1454   2   8   0.0261   0.0296   0.0688  -0.0030  -0.0128   0.0230   0.00    1.0
2018/03/15 14:10:16.000   78.251302374   16.154710686   565.1223   2   8   0.0260   0.0294   0.0681  -0.0030  -0.0127   0.0227   0.00    1.0
2018/03/15 14:10:17.000   78.251302395   16.154710965   565.0896   2   8   0.0258   0.0293   0.0675  -0.0030  -0.0125   0.0224   0.00    1.0
2018/03/15 14:10:18.000   78.251302409   16.154711149   565.0579   2   8   0.0256   0.0292   0.0669  -0.0031  -0.0123   0.0222   0.00    1.0
2018/03/15 14:10:19.000   78.251302433   16.154711248   565.0297   2   8   0.0255   0.0290   0.0663  -0.0031  -0.0121   0.0219   0.00    1.0
2018/03/15 14:10:20.000   78.251302442   16.154711258   565.0056   2   8   0.0253   0.0289   0.0657  -0.0031  -0.0120   0.0217   0.00    1.0
2018/03/15 14:10:21.000   78.251302417   16.154711210   564.9852   2   8   0.0252   0.0288   0.0651  -0.0031  -0.0118   0.0215   0.00    1.0
2018/03/15 14:10:22.000   78.251302396   16.154711169   564.9589   2   8   0.0250   0.0286   0.0645  -0.0031  -0.0116   0.0212   0.00    1.0
2018/03/15 14:10:23.000   78.251302347   16.154711087   564.9329   2   8   0.0249   0.0285   0.0639  -0.0031  -0.0115   0.0210   0.00    1.0
2018/03/15 14:10:24.000   78.251302314   16.154711061   564.9074   2   8   0.0247   0.0284   0.0633  -0.0031  -0.0113   0.0208   0.00    1.0
2018/03/15 14:10:25.000   78.251302316   16.154711139   564.8904   2   8   0.0246   0.0282   0.0628  -0.0031  -0.0112   0.0205   0.00    1.0
2018/03/15 14:10:26.000   78.251302320   16.154711252   564.8642   2   8   0.0244   0.0281   0.0622  -0.0031  -0.0110   0.0203   0.00    1.0
2018/03/15 14:10:27.000   78.251302329   16.154711427   564.8343   2   8   0.0243   0.0280   0.0617  -0.0032  -0.0109   0.0201   0.00    1.0
2018/03/15 14:10:28.000   78.251302351   16.154711757   564.8059   2   8   0.0241   0.0279   0.0611  -0.0032  -0.0107   0.0199   0.00    1.0
2018/03/15 14:10:29.000   78.251302355   16.154712063   564.7818   2   8   0.0240   0.0277   0.0606  -0.0032  -0.0106   0.0197   0.00    1.0
2018/03/15 14:10:30.000   78.251302378   16.154712484   564.7547   2   8   0.0238   0.0276   0.0601  -0.0032  -0.0104   0.0195   0.00    1.0
2018/03/15 14:10:31.000   78.251302385   16.154712766   564.7301   2   8   0.0237   0.0275   0.0595  -0.0032  -0.0103   0.0193   0.00    1.0
2018/03/15 14:10:32.000   78.251302421   16.154713119   564.7066   2   8   0.0236   0.0274   0.0590  -0.0032  -0.0102   0.0190   0.00    1.0
2018/03/15 14:10:33.000   78.251302473   16.154713545   564.6832   2   8   0.0234   0.0272   0.0585  -0.0033  -0.0100   0.0188   0.00    1.0
2018/03/15 14:10:34.000   78.251302502   16.154713948   564.6720   2   8   0.0233   0.0271   0.0580  -0.0033  -0.0099   0.0187   0.00    1.0
2018/03/15 14:10:35.000   78.251302524   16.154714404   564.6616   2   8   0.0231   0.0270   0.0575  -0.0033  -0.0098   0.0185   0.00    1.1
2018/03/15 14:10:36.000   78.251302538   16.154714758   564.6498   2   8   0.0230   0.0269   0.0571  -0.0033  -0.0096   0.0183   0.00    1.1
2018/03/15 14:10:37.000   78.251302580   16.154715157   564.6452   2   8   0.0229   0.0268   0.0566  -0.0033  -0.0095   0.0181   0.00    1.1
2018/03/15 14:10:38.000   78.251302599   16.154715571   564.6378   2   8   0.0228   0.0266   0.0561  -0.0033  -0.0094   0.0179   0.00    1.1
2018/03/15 14:10:39.000   78.251302641   16.154715977   564.6278   2   8   0.0226   0.0265   0.0557  -0.0034  -0.0092   0.0177   0.00    1.1
2018/03/15 14:10:40.000   78.251302675   16.154716349   564.6121   2   8   0.0225   0.0264   0.0552  -0.0034  -0.0091   0.0175   0.00    1.1
2018/03/15 14:10:41.000   78.251302705   16.154716772   564.5925   2   8   0.0224   0.0263   0.0548  -0.0034  -0.0090   0.0174   0.00    1.1
2018/03/15 14:10:42.000   78.251302714   16.154717201   564.5675   2   8   0.0222   0.0262   0.0543  -0.0034  -0.0089   0.0172   0.00    1.2
2018/03/15 14:10:43.000   78.251302708   16.154717661   564.5362   2   8   0.0221   0.0261   0.0539  -0.0034  -0.0088   0.0170   0.00    1.2
2018/03/15 14:10:44.000   78.251302689   16.154718008   564.5050   2   8   0.0220   0.0260   0.0534  -0.0034  -0.0086   0.0168   0.00    1.2
2018/03/15 14:10:45.000   78.251302683   16.154718459   564.4814   2   8   0.0219   0.0259   0.0530  -0.0035  -0.0085   0.0167   0.00    1.2
2018/03/15 14:10:46.000   78.251302665   16.154718866   564.4543   2   8   0.0217   0.0257   0.0526  -0.0035  -0.0084   0.0165   0.00    1.2
2018/03/15 14:10:47.000   78.251302665   16.154719143   564.4312   2   8   0.0216   0.0256   0.0522  -0.0035  -0.0083   0.0163   0.00    1.2
2018/03/15 14:10:48.000   78.251302659   16.154719557   564.3980   2   8   0.0215   0.0255   0.0518  -0.0035  -0.0082   0.0162   0.00    1.3
2018/03/15 14:10:49.000   78.251302665   16.154719927   564.3651   2   8   0.0214   0.0254   0.0514  -0.0035  -0.0081   0.0160   0.00    1.3
2018/03/15 14:10:50.000   78.251302666   16.154720341   564.3279   2   8   0.0213   0.0253   0.0510  -0.0035  -0.0080   0.0159   0.00    1.3
2018/03/15 14:10:51.000   78.251302712   16.154720771   564.2987   2   8   0.0212   0.0252   0.0506  -0.0035  -0.0079   0.0157   0.00    1.3
2018/03/15 14:10:52.000   78.251302750   16.154721206   564.2644   2   8   0.0210   0.0251   0.0502  -0.0036  -0.0078   0.0156   0.00    1.4
2018/03/15 14:10:53.000   78.251302790   16.154721606   564.2343   2   8   0.0209   0.0250   0.0498  -0.0036  -0.0077   0.0154   0.00    1.4
2018/03/15 14:10:54.000   78.251302853   16.154721988   564.2010   2   8   0.0208   0.0249   0.0494  -0.0036  -0.0076   0.0153   0.00    1.4
2018/03/15 14:10:55.000   78.251302908   16.154722263   564.1714   2   8   0.0207   0.0248   0.0490  -0.0036  -0.0075   0.0151   0.00    1.5
2018/03/15 14:10:56.000   78.251302991   16.154722629   564.1429   2   8   0.0206   0.0247   0.0487  -0.0036  -0.0074   0.0150   0.00    1.5
2018/03/15 14:10:57.000   78.251303070   16.154722923   564.1200   2   8   0.0205   0.0246   0.0483  -0.0036  -0.0073   0.0148   0.00    1.5
2018/03/15 14:10:58.000   78.251303133   16.154723229   564.1018   2   8   0.0204   0.0245   0.0479  -0.0036  -0.0072   0.0147   0.00    1.6
2018/03/15 14:10:59.000   78.251303199   16.154723470   564.0789   2   8   0.0203   0.0244   0.0476  -0.0037  -0.0071   0.0146   0.00    1.6
2018/03/15 14:11:00.000   78.251303246   16.154723628   564.0617   2   8   0.0202   0.0243   0.0472  -0.0037  -0.0070   0.0144   0.00    1.7
2018/03/15 14:11:01.000   78.251303257   16.154723888   564.0436   2   8   0.0201   0.0242   0.0469  -0.0037  -0.0069   0.0143   0.00    1.7
2018/03/15 14:11:02.000   78.251303252   16.154724178   564.0258   2   8   0.0200   0.0241   0.0465  -0.0037  -0.0068   0.0142   0.00    1.7
2018/03/15 14:11:03.000   78.251303252   16.154724458   564.0164   2   8   0.0199   0.0240   0.0462  -0.0037  -0.0067   0.0140   0.00    1.8
2018/03/15 14:11:04.000   78.251303256   16.154724741   564.0071   2   8   0.0197   0.0239   0.0458  -0.0037  -0.0066   0.0139   0.00    1.8
2018/03/15 14:11:05.000   78.251303248   16.154724941   563.9911   2   8   0.0196   0.0238   0.0455  -0.0037  -0.0066   0.0138   0.00    1.8
2018/03/15 14:11:06.000   78.251303235   16.154725065   563.9773   2   8   0.0195   0.0237   0.0452  -0.0038  -0.0065   0.0136   0.00    1.9
2018/03/15 14:11:07.000   78.251303235   16.154725151   563.9708   2   8   0.0194   0.0236   0.0449  -0.0038  -0.0064   0.0135   0.00    1.9
2018/03/15 14:11:08.000   78.251303213   16.154725125   563.9628   2   8   0.0193   0.0235   0.0445  -0.0038  -0.0063   0.0134   0.00    1.9
2018/03/15 14:11:09.000   78.251303173   16.154725096   563.9596   2   8   0.0192   0.0234   0.0442  -0.0038  -0.0062   0.0133   0.00    1.9
2018/03/15 14:11:10.000   78.251303134   16.154724995   563.9564   2   8   0.0191   0.0233   0.0439  -0.0038  -0.0062   0.0132   0.00    1.9
2018/03/15 14:11:11.000   78.251303098   16.154724952   563.9541   2   8   0.0191   0.0232   0.0436  -0.0038  -0.0061   0.0130   0.00    1.9
2018/03/15 14:11:12.000   78.251303056   16.154724875   563.9476   2   8   0.0190   0.0231   0.0433  -0.0038  -0.0060   0.0129   0.00    1.9
2018/03/15 14:11:13.000   78.251303002   16.154724929   563.9334   2   8   0.0189   0.0231   0.0430  -0.0038  -0.0059   0.0128   0.00    1.9
2018/03/15 14:11:14.000   78.251302953   16.154725029   563.9136   2   8   0.0188   0.0230   0.0427  -0.0038  -0.0058   0.0127   0.00    1.9
2018/03/15 14:11:15.000   78.251302896   16.154725147   563.8876   2   8   0.0187   0.0229   0.0424  -0.0038  -0.0058   0.0126   0.00    1.9
2018/03/15 14:11:16.000   78.251302855   16.154725345   563.8549   2   8   0.0186   0.0228   0.0421  -0.0039  -0.0057   0.0125   0.00    1.9
2018/03/15 14:11:17.000   78.251302818   16.154725545   563.8221   2   8   0.0185   0.0227   0.0418  -0.0039  -0.0056   0.0124   0.00    1.8
2018/03/15 14:11:18.000   78.251302813   16.154725707   563.7900   2   8   0.0184   0.0226   0.0415  -0.0039  -0.0056   0.0123   0.00    1.8
2018/03/15 14:11:19.000   78.251302801   16.154725888   563.7551   2   8   0.0183   0.0225   0.0413  -0.0039  -0.0055   0.0122   0.00    1.8
2018/03/15 14:11:20.000   78.251302803   16.154726159   563.7196   2   8   0.0182   0.0224   0.0410  -0.0039  -0.0054   0.0121   0.00    1.8
2018/03/15 14:11:21.000   78.251302819   16.154726489   563.6810   2   8   0.0181   0.0223   0.0407  -0.0039  -0.0053   0.0120   0.00    1.7
2018/03/15 14:11:22.000   78.251302850   16.154726914   563.6405   2   8   0.0180   0.0223   0.0404  -0.0039  -0.0053   0.0119   0.00    1.7
2018/03/15 14:11:23.000   78.251302885   16.154727239   563.5988   2   8   0.0180   0.0222   0.0402  -0.0039  -0.0052   0.0118   0.00    1.7
2018/03/15 14:11:24.000   78.251302954   16.154727569   563.5597   2   8   0.0179   0.0221   0.0399  -0.0039  -0.0051   0.0117   0.00    1.6
2018/03/15 14:11:25.000   78.251303032   16.154727923   563.5214   2   8   0.0178   0.0220   0.0396  -0.0039  -0.0051   0.0116   0.00    1.6
2018/03/15 14:11:26.000   78.251303128   16.154728092   563.4829   2   8   0.0177   0.0219   0.0394  -0.0039  -0.0050   0.0115   0.00    1.6
2018/03/15 14:11:27.000   78.251303207   16.154728359   563.4503   2   8   0.0176   0.0218   0.0391  -0.0039  -0.0049   0.0114   0.00    1.5
2018/03/15 14:11:28.000   78.251303277   16.154728604   563.4216   2   8   0.0175   0.0217   0.0389  -0.0040  -0.0049   0.0113   0.00    1.5
2018/03/15 14:11:29.000   78.251303349   16.154728873   563.3931   2   8   0.0174   0.0217   0.0386  -0.0040  -0.0048   0.0112   0.00    1.5
2018/03/15 14:11:30.000   78.251303430   16.154729091   563.3739   2   8   0.0174   0.0216   0.0384  -0.0040  -0.0048   0.0111   0.00    1.5
2018/03/15 14:11:31.000   78.251303508   16.154729407   563.3488   2   8   0.0173   0.0215   0.0381  -0.0040  -0.0047   0.0110   0.00    1.5
2018/03/15 14:11:32.000   78.251303575   16.154729705   563.3268   2   8   0.0172   0.0214   0.0379  -0.0040  -0.0046   0.0109   0.00    1.4
2018/03/15 14:11:33.000   78.251303659   16.154730123   563.3043   2   8   0.0171   0.0213   0.0376  -0.0040  -0.0046   0.0108   0.00    1.4
2018/03/15 14:11:34.000   78.251303749   16.154730609   563.2829   2   8   0.0170   0.0213   0.0374  -0.0040  -0.0045   0.0107   0.00    1.4
2018/03/15 14:11:35.000   78.251303853   16.154731045   563.2671   2   8   0.0170   0.0212   0.0371  -0.0040  -0.0045   0.0106   0.00    1.4
2018/03/15 14:11:36.000   78.251303961   16.154731558   563.2507   2   8   0.0169   0.0211   0.0369  -0.0040  -0.0044   0.0106   0.00    1.5
2018/03/15 14:11:37.000   78.251304069   16.154731955   563.2396   2   8   0.0168   0.0210   0.0367  -0.0040  -0.0044   0.0105   0.00    1.5
2018/03/15 14:11:38.000   78.251304186   16.154732369   563.2328   2   8   0.0167   0.0209   0.0365  -0.0040  -0.0043   0.0104   0.00    1.5
2018/03/15 14:11:39.000   78.251304300   16.154732796   563.2274   2   8   0.0166   0.0209   0.0362  -0.0040  -0.0043   0.0103   0.00    1.5
2018/03/15 14:11:40.000   78.251304402   16.154733130   563.2270   2   8   0.0166   0.0208   0.0360  -0.0040  -0.0042   0.0102   0.00    1.5
2018/03/15 14:11:41.000   78.251304507   16.154733468   563.2285   2   8   0.0165   0.0207   0.0358  -0.0040  -0.0041   0.0101   0.00    1.5
2018/03/15 14:11:42.000   78.251304604   16.154733774   563.2273   2   8   0.0164   0.0206   0.0356  -0.0040  -0.0041   0.0101   0.00    1.6
2018/03/15 14:11:43.000   78.251304686   16.154734201   563.2263   2   8   0.0163   0.0206   0.0353  -0.0040  -0.0040   0.0100   0.00    1.6
2018/03/15 14:11:44.000   78.251304765   16.154734626   563.2232   2   8   0.0163   0.0205   0.0351  -0.0040  -0.0040   0.0099   0.00    1.6
2018/03/15 14:11:45.000   78.251304842   16.154735111   563.2213   2   8   0.0162   0.0204   0.0349  -0.0040  -0.0039   0.0098   0.00    1.6
2018/03/15 14:11:46.000   78.251304926   16.154735626   563.2199   2   8   0.0161   0.0203   0.0347  -0.0040  -0.0039   0.0098   0.00    1.6
2018/03/15 14:11:47.000   78.251305003   16.154736070   563.2162   2   8   0.0160   0.0203   0.0345  -0.0040  -0.0038   0.0097   0.00    1.6
2018/03/15 14:11:48.000   78.251305081   16.154736439   563.2168   2   8   0.0160   0.0202   0.0343  -0.0040  -0.0038   0.0096   0.00    1.7
2018/03/15 14:11:49.000   78.251305165   16.154736810   563.2143   2   8   0.0159   0.0201   0.0341  -0.0040  -0.0037   0.0095   0.00    1.7
2018/03/15 14:11:50.000   78.251305236   16.154737220   563.2076   2   8   0.0158   0.0200   0.0339  -0.0040  -0.0037   0.0095   0.00    1.7
2018/03/15 14:11:51.000   78.251305313   16.154737611   563.2008   2   8   0.0158   0.0200   0.0337  -0.0041  -0.0037   0.0094   0.00    1.7
2018/03/15 14:11:52.000   78.251305370   16.154738052   563.1916   2   8   0.0157   0.0199   0.0335  -0.0041  -0.0036   0.0093   0.00    1.7
2018/03/15 14:11:53.000   78.251305419   16.154738436   563.1811   2   8   0.0156   0.0198   0.0333  -0.0041  -0.0036   0.0092   0.00    1.7
2018/03/15 14:11:54.000   78.251305465   16.154738778   563.1716   2   8   0.0156   0.0197   0.0331  -0.0041  -0.0035   0.0092   0.00    1.7
2018/03/15 14:11:55.000   78.251305521   16.154739132   563.1610   2   8   0.0155   0.0197   0.0329  -0.0041  -0.0035   0.0091   0.00    1.7
2018/03/15 14:11:56.000   78.251305566   16.154739458   563.1450   2   8   0.0154   0.0196   0.0327  -0.0041  -0.0034   0.0090   0.00    1.7
2018/03/15 14:11:57.000   78.251305613   16.154739793   563.1282   2   8   0.0154   0.0195   0.0325  -0.0041  -0.0034   0.0090   0.00    1.7
2018/03/15 14:11:58.000   78.251305651   16.154740006   563.1122   2   8   0.0153   0.0195   0.0323  -0.0041  -0.0033   0.0089   0.00    1.7
2018/03/15 14:11:59.000   78.251305687   16.154740168   563.0964   2   8   0.0152   0.0194   0.0321  -0.0041  -0.0033   0.0088   0.00    1.6
2018/03/15 14:12:00.000   78.251305722   16.154740483   563.0779   2   8   0.0152   0.0193   0.0320  -0.0041  -0.0033   0.0088   0.00    1.6
2018/03/15 14:12:01.000   78.251305772   16.154740952   563.0620   2   8   0.0151   0.0193   0.0318  -0.0041  -0.0032   0.0087   0.00    1.6
2018/03/15 14:12:02.000   78.251305833   16.154741542   563.0445   2   8   0.0150   0.0192   0.0316  -0.0041  -0.0032   0.0087   0.00    1.6
2018/03/15 14:12:03.000   78.251305900   16.154742192   563.0251   2   8   0.0150   0.0191   0.0314  -0.0041  -0.0031   0.0086   0.00    1.6
2018/03/15 14:12:04.000   78.251305963   16.154742815   563.0094   2   8   0.0149   0.0191   0.0312  -0.0041  -0.0031   0.0085   0.00    1.5
2018/03/15 14:12:05.000   78.251306012   16.154743432   562.9904   2   8   0.0148   0.0190   0.0311  -0.0041  -0.0031   0.0085   0.00    1.5
2018/03/15 14:12:06.000   78.251306037   16.154744038   562.9701   2   8   0.0148   0.0189   0.0309  -0.0041  -0.0030   0.0084   0.00    1.5
2018/03/15 14:12:07.000   78.251306074   16.154744617   562.9538   2   8   0.0147   0.0189   0.0307  -0.0041  -0.0030   0.0084   0.00    1.5
2018/03/15 14:12:08.000   78.251306108   16.154745149   562.9323   2   8   0.0146   0.0188   0.0306  -0.0041  -0.0029   0.0083   0.00    1.4
2018/03/15 14:12:09.000   78.251306128   16.154745649   562.9105   2   9   0.0146   0.0187   0.0304  -0.0041  -0.0029   0.0082   0.00    1.0
2018/03/15 14:12:10.000   78.251306148   16.154746084   562.8866   2   9   0.0145   0.0187   0.0302  -0.0041  -0.0029   0.0082   0.00    1.0
2018/03/15 14:12:11.000   78.251306173   16.154746512   562.8661   2   9   0.0145   0.0186   0.0301  -0.0041  -0.0029   0.0081   0.00    1.0
2018/03/15 14:12:12.000   78.251306204   16.154746849   562.8500   2   9   0.0144   0.0185   0.0299  -0.0041  -0.0029   0.0081   0.00    1.0
2018/03/15 14:12:13.000   78.251306216   16.154747250   562.8372   2   9   0.0143   0.0185   0.0297  -0.0041  -0.0028   0.0080   0.00    1.0
2018/03/15 14:12:14.000   78.251306213   16.154747570   562.8295   2   9   0.0143   0.0184   0.0296  -0.0041  -0.0028   0.0079   0.00    1.0
2018/03/15 14:12:15.000   78.251306207   16.154747867   562.8281   2   9   0.0142   0.0183   0.0294  -0.0041  -0.0028   0.0079   0.00    1.0
2018/03/15 14:12:16.000   78.251306186   16.154748148   562.8261   2   9   0.0142   0.0183   0.0292  -0.0041  -0.0028   0.0078   0.00    1.1
2018/03/15 14:12:17.000   78.251306153   16.154748377   562.8250   2   9   0.0141   0.0182   0.0291  -0.0041  -0.0027   0.0078   0.00    1.1
2018/03/15 14:12:18.000   78.251306109   16.154748520   562.8259   2   9   0.0140   0.0181   0.0289  -0.0041  -0.0027   0.0077   0.00    1.1
2018/03/15 14:12:19.000   78.251306053   16.154748474   562.8252   2   9   0.0140   0.0181   0.0288  -0.0041  -0.0027   0.0077   0.00    1.1
2018/03/15 14:12:20.000   78.251305996   16.154748496   562.8288   2   9   0.0139   0.0180   0.0286  -0.0041  -0.0027   0.0076   0.00    1.1
2018/03/15 14:12:21.000   78.251305945   16.154748491   562.8299   2   9   0.0139   0.0179   0.0285  -0.0041  -0.0027   0.0076   0.00    1.1
2018/03/15 14:12:22.000   78.251305874   16.154748385   562.8336   2   9   0.0138   0.0179   0.0283  -0.0041  -0.0026   0.0075   0.00    1.1
2018/03/15 14:12:23.000   78.251305812   16.154748302   562.8435   2   9   0.0138   0.0178   0.0282  -0.0041  -0.0026   0.0075   0.00    1.1
2018/03/15 14:12:24.000   78.251305750   16.154748137   562.8611   2   9   0.0137   0.0178   0.0280  -0.0041  -0.0026   0.0074   0.00    1.1
2018/03/15 14:12:25.000   78.251305673   16.154747933   562.8805   2   9   0.0136   0.0177   0.0279  -0.0041  -0.0026   0.0074   0.00    1.1
2018/03/15 14:12:26.000   78.251305611   16.154747709   562.8975   2   9   0.0136   0.0176   0.0277  -0.0041  -0.0026   0.0073   0.00    1.1
2018/03/15 14:12:27.000   78.251305540   16.154747382   562.9159   2   9   0.0135   0.0176   0.0276  -0.0041  -0.0025   0.0073   0.00    1.1
2018/03/15 14:12:28.000   78.251305461   16.154747043   562.9345   2   9   0.0135   0.0175   0.0274  -0.0041  -0.0025   0.0072   0.00    1.2
2018/03/15 14:12:29.000   78.251305392   16.154746751   562.9532   2   9   0.0134   0.0175   0.0273  -0.0041  -0.0025   0.0072   0.00    1.2
2018/03/15 14:12:30.000   78.251305322   16.154746517   562.9698   2   9   0.0134   0.0174   0.0272  -0.0041  -0.0025   0.0071   0.00    1.2
2018/03/15 14:12:31.000   78.251305246   16.154746313   562.9864   2   9   0.0133   0.0173   0.0270  -0.0041  -0.0025   0.0071   0.00    1.2
2018/03/15 14:12:32.000   78.251305180   16.154746105   563.0039   2   9   0.0133   0.0173   0.0269  -0.0041  -0.0025   0.0070   0.00    1.2
2018/03/15 14:12:33.000   78.251305117   16.154745951   563.0199   2   9   0.0132   0.0172   0.0267  -0.0041  -0.0024   0.0070   0.00    1.2
2018/03/15 14:12:34.000   78.251305050   16.154745840   563.0334   2   9   0.0132   0.0172   0.0266  -0.0041  -0.0024   0.0069   0.00    1.2
2018/03/15 14:12:35.000   78.251304974   16.154745692   563.0458   2   9   0.0131   0.0171   0.0265  -0.0041  -0.0024   0.0069   0.00    1.2
2018/03/15 14:12:36.000   78.251304895   16.154745582   563.0576   2   9   0.0131   0.0170   0.0263  -0.0041  -0.0024   0.0068   0.00    1.2
2018/03/15 14:12:37.000   78.251304815   16.154745504   563.0684   2   9   0.0130   0.0170   0.0262  -0.0041  -0.0024   0.0068   0.00    1.2
2018/03/15 14:12:38.000   78.251304731   16.154745409   563.0806   2   9   0.0130   0.0169   0.0261  -0.0041  -0.0023   0.0068   0.00    1.2
2018/03/15 14:12:39.000   78.251304649   16.154745378   563.0925   2   9   0.0129   0.0169   0.0260  -0.0041  -0.0023   0.0067   0.00    1.2
2018/03/15 14:12:40.000   78.251304561   16.154745330   563.1054   2   9   0.0129   0.0168   0.0258  -0.0041  -0.0023   0.0067   0.00    1.2
2018/03/15 14:12:41.000   78.251304467   16.154745285   563.1207   2   9   0.0128   0.0168   0.0257  -0.0041  -0.0023   0.0066   0.00    1.3
2018/03/15 14:12:42.000   78.251304379   16.154745264   563.1344   2   9   0.0128   0.0167   0.0256  -0.0041  -0.0023   0.0066   0.00    1.3
2018/03/15 14:12:43.000   78.251304299   16.154745278   563.1470   2   9   0.0127   0.0166   0.0254  -0.0041  -0.0023   0.0065   0.00    1.3
2018/03/15 14:12:44.000   78.251304224   16.154745316   563.1585   2   9   0.0127   0.0166   0.0253  -0.0041  -0.0023   0.0065   0.00    1.3
2018/03/15 14:12:45.000   78.251304169   16.154745459   563.1688   2   9   0.0126   0.0165   0.0252  -0.0041  -0.0022   0.0065   0.00    1.3
2018/03/15 14:12:46.000   78.251304120   16.154745619   563.1783   2   9   0.0126   0.0165   0.0251  -0.0041  -0.0022   0.0064   0.00    1.3
2018/03/15 14:12:47.000   78.251304076   16.154745755   563.1894   2   9   0.0125   0.0164   0.0250  -0.0041  -0.0022   0.0064   0.00    1.3
2018/03/15 14:12:48.000   78.251304039   16.154745874   563.2001   2   9   0.0125   0.0164   0.0248  -0.0041  -0.0022   0.0063   0.00    1.3
2018/03/15 14:12:49.000   78.251304007   16.154746001   563.2091   2   9   0.0124   0.0163   0.0247  -0.0041  -0.0022   0.0063   0.00    1.3
2018/03/15 14:12:50.000   78.251303975   16.154746080   563.2173   2   9   0.0124   0.0163   0.0246  -0.0040  -0.0022   0.0063   0.00    1.3
2018/03/15 14:12:51.000   78.251303957   16.154746232   563.2235   2   9   0.0123   0.0162   0.0245  -0.0040  -0.0022   0.0062   0.00    1.3
2018/03/15 14:12:52.000   78.251303941   16.154746416   563.2281   2   9   0.0123   0.0162   0.0244  -0.0040  -0.0021   0.0062   0.00    1.3
2018/03/15 14:12:53.000   78.251303929   16.154746556   563.2316   2   9   0.0122   0.0161   0.0242  -0.0040  -0.0021   0.0062   0.00    1.3
2018/03/15 14:12:54.000   78.251303905   16.154746703   563.2349   2   9   0.0122   0.0161   0.0241  -0.0040  -0.0021   0.0061   0.00    1.3
2018/03/15 14:12:55.000   78.251303881   16.154746887   563.2370   2   9   0.0121   0.0160   0.0240  -0.0040  -0.0021   0.0061   0.00    1.3
2018/03/15 14:12:56.000   78.251303856   16.154747069   563.2384   2   9   0.0121   0.0160   0.0239  -0.0040  -0.0021   0.0060   0.00    1.3
2018/03/15 14:12:57.000   78.251303828   16.154747333   563.2419   2   9   0.0121   0.0159   0.0238  -0.0040  -0.0021   0.0060   0.00    1.4
2018/03/15 14:12:58.000   78.251303794   16.154747621   563.2436   2   9   0.0120   0.0158   0.0237  -0.0040  -0.0021   0.0060   0.00    1.4
2018/03/15 14:12:59.000   78.251303756   16.154747922   563.2455   2   9   0.0120   0.0158   0.0236  -0.0040  -0.0020   0.0059   0.00    1.4
2018/03/15 14:13:00.000   78.251303720   16.154748249   563.2468   2   9   0.0119   0.0157   0.0235  -0.0040  -0.0020   0.0059   0.00    1.4
2018/03/15 14:13:01.000   78.251303687   16.154748546   563.2481   2   9   0.0119   0.0157   0.0234  -0.0040  -0.0020   0.0059   0.00    1.4
2018/03/15 14:13:02.000   78.251303650   16.154748840   563.2493   2   9   0.0118   0.0156   0.0233  -0.0040  -0.0020   0.0058   0.00    1.4
2018/03/15 14:13:03.000   78.251303626   16.154749112   563.2517   2   9   0.0118   0.0156   0.0231  -0.0040  -0.0020   0.0058   0.00    1.4
2018/03/15 14:13:04.000   78.251303601   16.154749322   563.2544   2   9   0.0118   0.0155   0.0230  -0.0040  -0.0020   0.0058   0.00    1.4
2018/03/15 14:13:05.000   78.251303576   16.154749546   563.2557   2   9   0.0117   0.0155   0.0229  -0.0040  -0.0020   0.0057   0.00    1.4
2018/03/15 14:13:06.000   78.251303551   16.154749711   563.2574   2   9   0.0117   0.0154   0.0228  -0.0040  -0.0020   0.0057   0.00    1.4
2018/03/15 14:13:07.000   78.251303526   16.154749846   563.2574   2   9   0.0116   0.0154   0.0227  -0.0040  -0.0020   0.0057   0.00    1.4
2018/03/15 14:13:08.000   78.251303508   16.154749942   563.2589   2   9   0.0116   0.0153   0.0226  -0.0040  -0.0019   0.0056   0.00    1.4
2018/03/15 14:13:09.000   78.251303502   16.154749995   563.2595   2   9   0.0115   0.0153   0.0225  -0.0040  -0.0019   0.0056   0.00    1.4
2018/03/15 14:13:10.000   78.251303486   16.154750038   563.2617   2   9   0.0115   0.0153   0.0224  -0.0040  -0.0019   0.0056   0.00    1.4
2018/03/15 14:13:11.000   78.251303469   16.154750064   563.2644   2   9   0.0115   0.0152   0.0223  -0.0040  -0.0019   0.0055   0.00    1.4
2018/03/15 14:13:12.000   78.251303454   16.154750049   563.2684   2   9   0.0114   0.0152   0.0222  -0.0040  -0.0019   0.0055   0.00    1.4
2018/03/15 14:13:13.000   78.251303437   16.154750042   563.2717   2   9   0.0114   0.0151   0.0221  -0.0040  -0.0019   0.0055   0.00    1.4
2018/03/15 14:13:14.000   78.251303431   16.154750072   563.2776   2   9   0.0113   0.0151   0.0220  -0.0040  -0.0019   0.0055   0.00    1.4
2018/03/15 14:13:15.000   78.251303419   16.154750041   563.2854   2   9   0.0113   0.0150   0.0219  -0.0040  -0.0019   0.0054   0.00    1.4
2018/03/15 14:13:16.000   78.251303419   16.154749965   563.2941   2   9   0.0113   0.0150   0.0218  -0.0039  -0.0019   0.0054   0.00    1.4
2018/03/15 14:13:17.000   78.251303421   16.154749873   563.3051   2   9   0.0112   0.0149   0.0217  -0.0039  -0.0018   0.0054   0.00    1.4
2018/03/15 14:13:18.000   78.251303426   16.154749676   563.3183   2   9   0.0112   0.0149   0.0216  -0.0039  -0.0018   0.0053   0.00    1.4
2018/03/15 14:13:19.000   78.251303427   16.154749436   563.3326   2   9   0.0111   0.0148   0.0216  -0.0039  -0.0018   0.0053   0.00    1.4
2018/03/15 14:13:20.000   78.251303421   16.154749229   563.3465   2   9   0.0111   0.0148   0.0215  -0.0039  -0.0018   0.0053   0.00    1.4
2018/03/15 14:13:21.000   78.251303421   16.154749030   563.3606   2   9   0.0111   0.0147   0.0214  -0.0039  -0.0018   0.0052   0.00    1.4
2018/03/15 14:13:22.000   78.251303418   16.154748839   563.3755   2   9   0.0110   0.0147   0.0213  -0.0039  -0.0018   0.0052   0.00    1.4
2018/03/15 14:13:23.000   78.251303414   16.154748665   563.3922   2   9   0.0110   0.0146   0.0212  -0.0039  -0.0018   0.0052   0.00    1.4
2018/03/15 14:13:24.000   78.251303420   16.154748454   563.4088   2   9   0.0109   0.0146   0.0211  -0.0039  -0.0018   0.0052   0.00    1.4
2018/03/15 14:13:25.000   78.251303422   16.154748329   563.4231   2   9   0.0109   0.0146   0.0210  -0.0039  -0.0018   0.0051   0.00    1.4
2018/03/15 14:13:26.000   78.251303430   16.154748107   563.4393   2   9   0.0109   0.0145   0.0209  -0.0039  -0.0018   0.0051   0.00    1.4
2018/03/15 14:13:27.000   78.251303443   16.154747914   563.4552   2   9   0.0108   0.0145   0.0208  -0.0039  -0.0018   0.0051   0.00    1.4
2018/03/15 14:13:28.000   78.251303470   16.154747683   563.4720   2   9   0.0108   0.0144   0.0207  -0.0039  -0.0018   0.0051   0.00    1.4
2018/03/15 14:13:29.000   78.251303493   16.154747391   563.4876   2   9   0.0108   0.0144   0.0207  -0.0039  -0.0017   0.0050   0.00    1.4
2018/03/15 14:13:30.000   78.251303520   16.154747101   563.5022   2   9   0.0107   0.0143   0.0206  -0.0039  -0.0017   0.0050   0.00    1.4
2018/03/15 14:13:31.000   78.251303558   16.154746872   563.5154   2   9   0.0107   0.0143   0.0205  -0.0039  -0.0017   0.0050   0.00    1.4
2018/03/15 14:13:32.000   78.251303588   16.154746687   563.5295   2   9   0.0107   0.0142   0.0204  -0.0039  -0.0017   0.0050   0.00    1.4
2018/03/15 14:13:33.000   78.251303620   16.154746527   563.5432   2   9   0.0106   0.0142   0.0203  -0.0039  -0.0017   0.0049   0.00    1.4
2018/03/15 14:13:34.000   78.251303638   16.154746379   563.5559   2   9   0.0106   0.0142   0.0202  -0.0039  -0.0017   0.0049   0.00    1.3
2018/03/15 14:13:35.000   78.251303645   16.154746203   563.5678   2   9   0.0105   0.0141   0.0201  -0.0039  -0.0017   0.0049   0.00    1.3
2018/03/15 14:13:36.000   78.251303656   16.154746023   563.5798   2   9   0.0105   0.0141   0.0201  -0.0039  -0.0017   0.0049   0.00    1.3
2018/03/15 14:13:37.000   78.251303659   16.154745792   563.5921   2   9   0.0105   0.0140   0.0200  -0.0038  -0.0017   0.0048   0.00    1.3
2018/03/15 14:13:38.000   78.251303658   16.154745599   563.6021   2   9   0.0104   0.0140   0.0199  -0.0038  -0.0017   0.0048   0.00    1.3
2018/03/15 14:13:39.000   78.251303658   16.154745422   563.6103   2   9   0.0104   0.0140   0.0198  -0.0038  -0.0017   0.0048   0.00    1.3
2018/03/15 14:13:40.000   78.251303659   16.154745211   563.6170   2   9   0.0104   0.0139   0.0197  -0.0038  -0.0017   0.0048   0.00    1.3
2018/03/15 14:13:41.000   78.251303664   16.154745053   563.6208   2   9   0.0103   0.0139   0.0197  -0.0038  -0.0017   0.0047   0.00    1.3
2018/03/15 14:13:42.000   78.251303677   16.154744954   563.6247   2   9   0.0103   0.0138   0.0196  -0.0038  -0.0016   0.0047   0.00    1.3
2018/03/15 14:13:43.000   78.251303693   16.154744829   563.6284   2   9   0.0103   0.0138   0.0195  -0.0038  -0.0016   0.0047   0.00    1.3
2018/03/15 14:13:44.000   78.251303709   16.154744735   563.6320   2   9   0.0102   0.0137   0.0194  -0.0038  -0.0016   0.0047   0.00    1.3
2018/03/15 14:13:45.000   78.251303728   16.154744621   563.6352   2   9   0.0102   0.0137   0.0193  -0.0038  -0.0016   0.0046   0.00    1.3
2018/03/15 14:13:46.000   78.251303750   16.154744490   563.6403   2   9   0.0102   0.0137   0.0193  -0.0038  -0.0016   0.0046   0.00    1.3
2018/03/15 14:13:47.000   78.251303766   16.154744385   563.6443   2   9   0.0101   0.0136   0.0192  -0.0038  -0.0016   0.0046   0.00    1.3
2018/03/15 14:13:48.000   78.251303791   16.154744280   563.6499   2   9   0.0101   0.0136   0.0191  -0.0038  -0.0016   0.0046   0.00    1.3
2018/03/15 14:13:49.000   78.251303814   16.154744168   563.6538   2   9   0.0101   0.0135   0.0190  -0.0038  -0.0016   0.0046   0.00    1.3
2018/03/15 14:13:50.000   78.251303850   16.154744035   563.6558   2   9   0.0100   0.0135   0.0190  -0.0038  -0.0016   0.0045   0.00    1.3
2018/03/15 14:13:51.000   78.251303890   16.154743948   563.6570   2   9   0.0100   0.0135   0.0189  -0.0038  -0.0016   0.0045   0.00    1.3
2018/03/15 14:13:52.000   78.251303929   16.154743902   563.6584   2   9   0.0100   0.0134   0.0188  -0.0038  -0.0016   0.0045   0.00    1.3
2018/03/15 14:13:53.000   78.251303972   16.154743857   563.6601   2   9   0.0099   0.0134   0.0187  -0.0038  -0.0016   0.0045   0.00    1.3
2018/03/15 14:13:54.000   78.251304005   16.154743840   563.6606   2   9   0.0099   0.0134   0.0187  -0.0038  -0.0016   0.0044   0.00    1.4
2018/03/15 14:13:55.000   78.251304040   16.154743842   563.6636   2   9   0.0099   0.0133   0.0186  -0.0038  -0.0016   0.0044   0.00    1.4
2018/03/15 14:13:56.000   78.251304074   16.154743911   563.6662   2   9   0.0098   0.0133   0.0185  -0.0037  -0.0016   0.0044   0.00    1.4
2018/03/15 14:13:57.000   78.251304109   16.154743988   563.6666   2   9   0.0098   0.0132   0.0184  -0.0037  -0.0016   0.0044   0.00    1.4
2018/03/15 14:13:58.000   78.251304142   16.154744091   563.6675   2   9   0.0098   0.0132   0.0184  -0.0037  -0.0016   0.0044   0.00    1.4
2018/03/15 14:13:59.000   78.251304172   16.154744231   563.6683   2   9   0.0098   0.0132   0.0183  -0.0037  -0.0016   0.0043   0.00    1.4
2018/03/15 14:14:00.000   78.251304207   16.154744348   563.6670   2   9   0.0097   0.0131   0.0182  -0.0037  -0.0016   0.0043   0.00    1.4
2018/03/15 14:14:01.000   78.251304233   16.154744511   563.6663   2   9   0.0097   0.0131   0.0182  -0.0037  -0.0015   0.0043   0.00    1.5
2018/03/15 14:14:02.000   78.251304257   16.154744716   563.6667   2   9   0.0097   0.0130   0.0181  -0.0037  -0.0015   0.0043   0.00    1.5
2018/03/15 14:14:03.000   78.251304276   16.154744945   563.6674   2   9   0.0096   0.0130   0.0180  -0.0037  -0.0015   0.0043   0.00    1.5
2018/03/15 14:14:04.000   78.251304292   16.154745205   563.6677   2   9   0.0096   0.0130   0.0180  -0.0037  -0.0015   0.0042   0.00    1.5
2018/03/15 14:14:05.000   78.251304305   16.154745464   563.6675   2   9   0.0096   0.0129   0.0179  -0.0037  -0.0015   0.0042   0.00    1.5
2018/03/15 14:14:06.000   78.251304317   16.154745734   563.6674   2   9   0.0095   0.0129   0.0178  -0.0037  -0.0015   0.0042   0.00    1.5
2018/03/15 14:14:07.000   78.251304325   16.154746019   563.6690   2   9   0.0095   0.0129   0.0178  -0.0037  -0.0015   0.0042   0.00    1.5
2018/03/15 14:14:08.000   78.251304329   16.154746306   563.6700   2   9   0.0095   0.0128   0.0177  -0.0037  -0.0015   0.0042   0.00    1.6
2018/03/15 14:14:09.000   78.251304334   16.154746568   563.6705   2   9   0.0095   0.0128   0.0176  -0.0037  -0.0015   0.0041   0.00    1.6
2018/03/15 14:14:10.000   78.251304341   16.154746863   563.6707   2   9   0.0094   0.0128   0.0176  -0.0037  -0.0015   0.0041   0.00    1.6
2018/03/15 14:14:11.000   78.251304351   16.154747162   563.6690   2   9   0.0094   0.0127   0.0175  -0.0037  -0.0015   0.0041   0.00    1.6
2018/03/15 14:14:12.000   78.251304372   16.154747422   563.6660   2   9   0.0094   0.0127   0.0174  -0.0037  -0.0015   0.0041   0.00    1.6
2018/03/15 14:14:13.000   78.251304384   16.154747665   563.6645   2   9   0.0093   0.0126   0.0174  -0.0037  -0.0015   0.0041   0.00    1.6
2018/03/15 14:14:14.000   78.251304396   16.154747919   563.6622   2   9   0.0093   0.0126   0.0173  -0.0036  -0.0015   0.0041   0.00    1.6
2018/03/15 14:14:15.000   78.251304408   16.154748141   563.6605   2   9   0.0093   0.0126   0.0172  -0.0036  -0.0015   0.0040   0.00    1.6
2018/03/15 14:14:16.000   78.251304420   16.154748362   563.6588   2   9   0.0093   0.0125   0.0172  -0.0036  -0.0015   0.0040   0.00    1.6
2018/03/15 14:14:17.000   78.251304437   16.154748572   563.6552   2   9   0.0092   0.0125   0.0171  -0.0036  -0.0015   0.0040   0.00    1.6
2018/03/15 14:14:18.000   78.251304440   16.154748733   563.6530   2   9   0.0092   0.0125   0.0170  -0.0036  -0.0015   0.0040   0.00    1.6
2018/03/15 14:14:19.000   78.251304444   16.154748901   563.6507   2   9   0.0092   0.0124   0.0170  -0.0036  -0.0015   0.0040   0.00    1.6
2018/03/15 14:14:20.000   78.251304448   16.154749088   563.6496   2   9   0.0091   0.0124   0.0169  -0.0036  -0.0015   0.0040   0.00    1.6
2018/03/15 14:14:21.000   78.251304453   16.154749306   563.6486   2   9   0.0091   0.0124   0.0169  -0.0036  -0.0015   0.0039   0.00    1.6
2018/03/15 14:14:22.000   78.251304469   16.154749543   563.6463   2   9   0.0091   0.0123   0.0168  -0.0036  -0.0015   0.0039   0.00    1.6
2018/03/15 14:14:23.000   78.251304482   16.154749823   563.6433   2   9   0.0091   0.0123   0.0167  -0.0036  -0.0015   0.0039   0.00    1.6
2018/03/15 14:14:24.000   78.251304502   16.154750110   563.6402   2   9   0.0090   0.0123   0.0167  -0.0036  -0.0015   0.0039   0.00    1.6
2018/03/15 14:14:25.000   78.251304518   16.154750388   563.6380   2   9   0.0090   0.0122   0.0166  -0.0036  -0.0015   0.0039   0.00    1.6
2018/03/15 14:14:26.000   78.251304535   16.154750735   563.6351   2   9   0.0090   0.0122   0.0166  -0.0036  -0.0015   0.0039   0.00    1.6
2018/03/15 14:14:27.000   78.251304558   16.154751039   563.6319   2   9   0.0090   0.0122   0.0165  -0.0036  -0.0014   0.0038   0.00    1.7
2018/03/15 14:14:28.000   78.251304580   16.154751374   563.6288   2   9   0.0089   0.0121   0.0164  -0.0036  -0.0014   0.0038   0.00    1.7
2018/03/15 14:14:29.000   78.251304593   16.154751675   563.6272   2   9   0.0089   0.0121   0.0164  -0.0036  -0.0014   0.0038   0.00    1.7
2018/03/15 14:14:30.000   78.251304617   16.154751955   563.6252   2   9   0.0089   0.0121   0.0163  -0.0036  -0.0014   0.0038   0.00    1.7
2018/03/15 14:14:31.000   78.251304633   16.154752236   563.6221   2   9   0.0088   0.0120   0.0163  -0.0035  -0.0014   0.0038   0.00    1.7
2018/03/15 14:14:32.000   78.251304645   16.154752534   563.6190   2   9   0.0088   0.0120   0.0162  -0.0035  -0.0014   0.0038   0.00    1.7
2018/03/15 14:14:33.000   78.251304658   16.154752830   563.6159   2   9   0.0088   0.0120   0.0162  -0.0035  -0.0014   0.0037   0.00    1.7
2018/03/15 14:14:34.000   78.251304680   16.154753111   563.6119   2   9   0.0088   0.0119   0.0161  -0.0035  -0.0014   0.0037   0.00    1.8
2018/03/15 14:14:35.000   78.251304696   16.154753389   563.6062   2   9   0.0087   0.0119   0.0160  -0.0035  -0.0014   0.0037   0.00    1.8
2018/03/15 14:14:36.000   78.251304711   16.154753697   563.6018   2   9   0.0087   0.0119   0.0160  -0.0035  -0.0014   0.0037   0.00    1.8
2018/03/15 14:14:37.000   78.251304719   16.154753989   563.5983   2   9   0.0087   0.0118   0.0159  -0.0035  -0.0014   0.0037   0.00    1.8
2018/03/15 14:14:38.000   78.251304728   16.154754250   563.5954   2   9   0.0087   0.0118   0.0159  -0.0035  -0.0014   0.0037   0.00    1.8
2018/03/15 14:14:39.000   78.251304731   16.154754517   563.5946   2   9   0.0086   0.0118   0.0158  -0.0035  -0.0014   0.0037   0.00    1.8
2018/03/15 14:14:40.000   78.251304735   16.154754778   563.5942   2   9   0.0086   0.0117   0.0158  -0.0035  -0.0014   0.0036   0.00    1.8
2018/03/15 14:14:41.000   78.251304747   16.154755050   563.5940   2   9   0.0086   0.0117   0.0157  -0.0035  -0.0014   0.0036   0.00    1.9
2018/03/15 14:14:42.000   78.251304763   16.154755293   563.5933   2   9   0.0086   0.0117   0.0157  -0.0035  -0.0014   0.0036   0.00    1.9
2018/03/15 14:14:43.000   78.251304773   16.154755542   563.5909   2   9   0.0085   0.0117   0.0156  -0.0035  -0.0014   0.0036   0.00    1.9
