% program   : RTKPOST ver.2.4.2
% inp file  : Z:\home\linda\Documents\Spring18\GitHub_Unis\data\processed_data\46250727.obs
% inp file  : Z:\home\linda\Documents\Spring18\GitHub_Unis\data\base_station_data\lyrs0720.18o
% inp file  : Z:\home\linda\Documents\Spring18\GitHub_Unis\data\processed_data\46250727.nav
% obs start : 2018/03/13 14:41:01.0 GPST (week1992 225661.0s)
% obs end   : 2018/03/13 14:56:01.0 GPST (week1992 226561.0s)
% pos mode  : static
% freqs     : L1+L2
% solution  : forward
% elev mask : 15.0 deg
% dynamics  : on
% tidecorr  : off
% ionos opt : iono-free
% tropo opt : saastamoinen
% ephemeris : broadcast
% navi sys  : gps glonass galileo qzss sbas
% amb res   : fix and hold
% amb glo   : on
% val thres : 3.0
% antenna1  :                       ( 0.0000  0.0000  0.0000)
% antenna2  :                       ( 0.0000  0.0000  0.0000)
% ref pos   : 78.228825638   15.397310064   495.6816
%
% (lat/lon/height=WGS84/ellipsoidal,Q=1:fix,2:float,3:sbas,4:dgps,5:single,6:ppp,ns=# of satellites)
%  GPST                  latitude(deg) longitude(deg)  height(m)   Q  ns   sdn(m)   sde(m)   sdu(m)  sdne(m)  sdeu(m)  sdun(m) age(s)  ratio
2018/03/13 14:41:01.000   78.256794475   16.230241246   399.9972   2  11   0.9371   0.8287   3.3857  -0.1957  -0.1857   1.1286   0.00    1.0
2018/03/13 14:41:02.000   78.256786399   16.230272254   398.7179   2  11   0.6636   0.5864   2.4030  -0.1387  -0.1323   0.8012   0.00    1.1
2018/03/13 14:41:03.000   78.256784285   16.230277863   396.8800   2  11   0.5421   0.4789   1.9638  -0.1134  -0.1082   0.6548   0.00    1.1
2018/03/13 14:41:04.000   78.256782869   16.230285814   396.6806   2  11   0.4695   0.4148   1.7007  -0.0982  -0.0936   0.5670   0.00    1.1
2018/03/13 14:41:05.000   78.256780502   16.230291158   396.5622   2  11   0.4199   0.3710   1.5204  -0.0879  -0.0837   0.5069   0.00    1.1
2018/03/13 14:41:06.000   78.256780175   16.230304995   396.2639   2  11   0.3832   0.3387   1.3868  -0.0803  -0.0763   0.4623   0.00    1.0
2018/03/13 14:41:07.000   78.256781779   16.230310941   396.9030   2  11   0.3547   0.3135   1.2826  -0.0744  -0.0705   0.4275   0.00    1.1
2018/03/13 14:41:08.000   78.256783742   16.230314330   397.6748   2  11   0.3317   0.2933   1.1982  -0.0696  -0.0658   0.3993   0.00    1.1
2018/03/13 14:41:09.000   78.256783578   16.230315102   397.8916   2  11   0.3126   0.2765   1.1280  -0.0657  -0.0620   0.3759   0.00    1.1
2018/03/13 14:41:10.000   78.256782975   16.230315177   397.8111   2  11   0.2964   0.2622   1.0683  -0.0623  -0.0587   0.3559   0.00    1.1
2018/03/13 14:41:11.000   78.256782547   16.230308816   397.8555   2  11   0.2825   0.2500   1.0166  -0.0595  -0.0559   0.3386   0.00    1.1
2018/03/13 14:41:12.000   78.256782394   16.230304411   397.6704   2  11   0.2703   0.2393   0.9713  -0.0570  -0.0534   0.3235   0.00    1.1
2018/03/13 14:41:13.000   78.256782073   16.230303321   397.5508   2  11   0.2595   0.2299   0.9311  -0.0548  -0.0512   0.3100   0.00    1.1
2018/03/13 14:41:14.000   78.256781654   16.230308755   397.3271   2  11   0.2499   0.2215   0.8950  -0.0528  -0.0493   0.2979   0.00    1.1
2018/03/13 14:41:15.000   78.256781757   16.230310331   397.2830   2  11   0.2413   0.2139   0.8624  -0.0511  -0.0475   0.2870   0.00    1.1
2018/03/13 14:41:16.000   78.256781646   16.230310577   397.2490   2  11   0.2334   0.2071   0.8327  -0.0495  -0.0460   0.2770   0.00    1.1
2018/03/13 14:41:17.000   78.256781620   16.230311813   397.2223   2  11   0.2263   0.2009   0.8054  -0.0481  -0.0445   0.2679   0.00    1.1
2018/03/13 14:41:18.000   78.256781691   16.230314097   397.1737   2  11   0.2197   0.1952   0.7803  -0.0468  -0.0432   0.2595   0.00    1.1
2018/03/13 14:41:19.000   78.256782180   16.230318082   397.3056   2  11   0.2136   0.1899   0.7570  -0.0456  -0.0420   0.2516   0.00    1.1
2018/03/13 14:41:20.000   78.256782038   16.230319588   397.3597   2  11   0.2080   0.1850   0.7353  -0.0445  -0.0409   0.2443   0.00    1.1
2018/03/13 14:41:21.000   78.256782555   16.230321549   397.5450   2  11   0.2029   0.1805   0.7154  -0.0435  -0.0399   0.2377   0.00    1.1
2018/03/13 14:41:22.000   78.256782880   16.230323359   397.6167   2  11   0.1980   0.1763   0.6968  -0.0425  -0.0391   0.2315   0.00    1.1
2018/03/13 14:41:23.000   78.256782866   16.230323310   397.6169   2  11   0.1935   0.1724   0.6792  -0.0417  -0.0383   0.2256   0.00    1.1
2018/03/13 14:41:24.000   78.256782775   16.230323571   397.6329   2  11   0.1893   0.1687   0.6626  -0.0409  -0.0376   0.2201   0.00    1.1
2018/03/13 14:41:25.000   78.256782437   16.230325650   397.3723   2  11   0.1853   0.1653   0.6469  -0.0401  -0.0369   0.2148   0.00    1.1
2018/03/13 14:41:26.000   78.256782175   16.230325802   397.1980   2  11   0.1815   0.1620   0.6320  -0.0394  -0.0363   0.2099   0.00    1.1
2018/03/13 14:41:27.000   78.256781979   16.230324162   397.0084   2  11   0.1779   0.1589   0.6179  -0.0387  -0.0357   0.2051   0.00    1.1
2018/03/13 14:41:28.000   78.256782135   16.230322483   396.8833   2  11   0.1745   0.1560   0.6044  -0.0381  -0.0351   0.2006   0.00    1.1
2018/03/13 14:41:29.000   78.256782056   16.230322392   396.8468   2  11   0.1713   0.1532   0.5914  -0.0375  -0.0346   0.1963   0.00    1.1
2018/03/13 14:41:30.000   78.256782014   16.230323162   396.8109   2  11   0.1682   0.1506   0.5791  -0.0370  -0.0341   0.1921   0.00    1.1
2018/03/13 14:41:31.000   78.256781974   16.230325831   396.8725   2  11   0.1653   0.1481   0.5672  -0.0365  -0.0337   0.1881   0.00    1.0
2018/03/13 14:41:32.000   78.256782562   16.230328078   397.0638   2  11   0.1625   0.1457   0.5558  -0.0360  -0.0332   0.1843   0.00    1.0
2018/03/13 14:41:33.000   78.256783121   16.230328758   397.2175   2  11   0.1598   0.1434   0.5448  -0.0355  -0.0328   0.1806   0.00    1.1
2018/03/13 14:41:34.000   78.256783794   16.230328521   397.3378   2  11   0.1572   0.1412   0.5343  -0.0350  -0.0324   0.1771   0.00    1.1
2018/03/13 14:41:35.000   78.256784278   16.230328197   397.3604   2  11   0.1548   0.1391   0.5241  -0.0346  -0.0320   0.1737   0.00    1.1
2018/03/13 14:41:36.000   78.256784459   16.230328265   397.3648   2  11   0.1524   0.1371   0.5142  -0.0342  -0.0317   0.1704   0.00    1.2
2018/03/13 14:41:37.000   78.256784250   16.230328092   397.2812   2  11   0.1501   0.1352   0.5047  -0.0338  -0.0313   0.1672   0.00    1.2
2018/03/13 14:41:38.000   78.256783881   16.230328233   397.1433   2  11   0.1480   0.1333   0.4955  -0.0334  -0.0310   0.1641   0.00    1.2
2018/03/13 14:41:39.000   78.256783618   16.230329746   396.9869   2  11   0.1458   0.1315   0.4866  -0.0331  -0.0306   0.1611   0.00    1.2
2018/03/13 14:41:40.000   78.256783271   16.230328281   396.8329   2  11   0.1438   0.1298   0.4780  -0.0328  -0.0303   0.1582   0.00    1.2
2018/03/13 14:41:41.000   78.256783176   16.230326942   396.9268   2  11   0.1418   0.1282   0.4696  -0.0324  -0.0300   0.1554   0.00    1.2
2018/03/13 14:41:42.000   78.256783452   16.230326980   397.1510   2  11   0.1399   0.1266   0.4615  -0.0321  -0.0297   0.1526   0.00    1.2
2018/03/13 14:41:43.000   78.256783641   16.230327306   397.3311   2  11   0.1381   0.1250   0.4536  -0.0318  -0.0294   0.1500   0.00    1.2
2018/03/13 14:41:44.000   78.256784038   16.230327313   397.5044   2  11   0.1363   0.1235   0.4459  -0.0315  -0.0291   0.1474   0.00    1.2
2018/03/13 14:41:45.000   78.256784194   16.230327152   397.6279   2  11   0.1346   0.1221   0.4384  -0.0313  -0.0289   0.1449   0.00    1.2
2018/03/13 14:41:46.000   78.256784017   16.230326784   397.6768   2  11   0.1329   0.1207   0.4312  -0.0310  -0.0286   0.1424   0.00    1.2
2018/03/13 14:41:47.000   78.256783863   16.230327685   397.7103   2  11   0.1313   0.1193   0.4241  -0.0307  -0.0284   0.1400   0.00    1.2
2018/03/13 14:41:48.000   78.256783499   16.230327852   397.7284   2  11   0.1297   0.1180   0.4172  -0.0305  -0.0281   0.1377   0.00    1.2
2018/03/13 14:41:49.000   78.256783151   16.230328571   397.6176   2  11   0.1282   0.1167   0.4105  -0.0302  -0.0279   0.1354   0.00    1.2
2018/03/13 14:41:50.000   78.256782864   16.230327843   397.5347   2  11   0.1267   0.1155   0.4040  -0.0300  -0.0276   0.1332   0.00    1.2
2018/03/13 14:41:51.000   78.256782756   16.230326805   397.4868   2  11   0.1252   0.1143   0.3976  -0.0298  -0.0274   0.1310   0.00    1.2
2018/03/13 14:41:52.000   78.256782505   16.230325275   397.4851   2  11   0.1238   0.1131   0.3914  -0.0296  -0.0272   0.1289   0.00    1.2
2018/03/13 14:41:53.000   78.256782273   16.230325688   397.5413   2  11   0.1224   0.1119   0.3853  -0.0294  -0.0269   0.1269   0.00    1.2
2018/03/13 14:41:54.000   78.256782171   16.230325974   397.6533   2  11   0.1211   0.1108   0.3794  -0.0292  -0.0267   0.1249   0.00    1.2
2018/03/13 14:41:55.000   78.256782147   16.230326455   397.7878   2  11   0.1198   0.1097   0.3736  -0.0290  -0.0265   0.1229   0.00    1.3
2018/03/13 14:41:56.000   78.256782408   16.230325193   397.9505   2  11   0.1185   0.1087   0.3679  -0.0288  -0.0263   0.1210   0.00    1.3
2018/03/13 14:41:57.000   78.256782591   16.230324625   398.0712   2  11   0.1173   0.1076   0.3624  -0.0286  -0.0261   0.1191   0.00    1.3
2018/03/13 14:41:58.000   78.256782746   16.230323820   398.1564   2  11   0.1161   0.1066   0.3570  -0.0284  -0.0259   0.1173   0.00    1.3
2018/03/13 14:41:59.000   78.256782600   16.230323747   398.1309   2  11   0.1149   0.1057   0.3518  -0.0283  -0.0257   0.1155   0.00    1.3
2018/03/13 14:42:00.000   78.256782344   16.230323980   398.0233   2  11   0.1137   0.1047   0.3466  -0.0281  -0.0255   0.1138   0.00    1.3
2018/03/13 14:42:01.000   78.256782044   16.230324379   397.8850   2  11   0.1126   0.1038   0.3416  -0.0279  -0.0253   0.1120   0.00    1.3
2018/03/13 14:42:02.000   78.256781569   16.230324212   397.7268   2  11   0.1115   0.1028   0.3366  -0.0278  -0.0251   0.1104   0.00    1.3
2018/03/13 14:42:03.000   78.256781276   16.230323705   397.6741   2  11   0.1104   0.1019   0.3318  -0.0276  -0.0249   0.1087   0.00    1.3
2018/03/13 14:42:04.000   78.256781091   16.230323524   397.6703   2  11   0.1093   0.1011   0.3271  -0.0275  -0.0247   0.1071   0.00    1.3
2018/03/13 14:42:05.000   78.256781205   16.230323339   397.7440   2  11   0.1083   0.1002   0.3225  -0.0273  -0.0245   0.1055   0.00    1.3
2018/03/13 14:42:06.000   78.256781363   16.230323140   397.8105   2  11   0.1073   0.0994   0.3179  -0.0272  -0.0244   0.1040   0.00    1.3
2018/03/13 14:42:07.000   78.256781493   16.230324039   397.8688   2  11   0.1063   0.0986   0.3135  -0.0270  -0.0242   0.1025   0.00    1.3
2018/03/13 14:42:08.000   78.256781699   16.230323797   397.8940   2  11   0.1053   0.0977   0.3092  -0.0269  -0.0240   0.1010   0.00    1.3
2018/03/13 14:42:09.000   78.256781764   16.230323834   397.8626   2  11   0.1044   0.0970   0.3049  -0.0268  -0.0238   0.0996   0.00    1.3
2018/03/13 14:42:10.000   78.256781708   16.230324158   397.8364   2  11   0.1034   0.0962   0.3008  -0.0266  -0.0237   0.0982   0.00    1.3
2018/03/13 14:42:11.000   78.256781590   16.230324695   397.7891   2  11   0.1025   0.0954   0.2967  -0.0265  -0.0235   0.0968   0.00    1.3
2018/03/13 14:42:12.000   78.256781538   16.230325035   397.7575   2  11   0.1016   0.0947   0.2927  -0.0264  -0.0233   0.0954   0.00    1.3
2018/03/13 14:42:13.000   78.256781442   16.230325045   397.6943   2  11   0.1007   0.0940   0.2888  -0.0263  -0.0232   0.0941   0.00    1.3
2018/03/13 14:42:14.000   78.256781341   16.230325101   397.6259   2  11   0.0999   0.0932   0.2850  -0.0262  -0.0230   0.0928   0.00    1.3
2018/03/13 14:42:15.000   78.256781381   16.230325458   397.5873   2  11   0.0990   0.0925   0.2812  -0.0260  -0.0229   0.0915   0.00    1.3
2018/03/13 14:42:16.000   78.256781339   16.230325592   397.5263   2  11   0.0982   0.0918   0.2775  -0.0259  -0.0227   0.0902   0.00    1.2
2018/03/13 14:42:17.000   78.256781399   16.230325386   397.5672   2  11   0.0974   0.0912   0.2739  -0.0258  -0.0225   0.0890   0.00    1.2
2018/03/13 14:42:18.000   78.256781534   16.230325698   397.6080   2  11   0.0966   0.0905   0.2704  -0.0257  -0.0224   0.0878   0.00    1.2
2018/03/13 14:42:19.000   78.256781784   16.230325406   397.6780   2  11   0.0958   0.0898   0.2669  -0.0256  -0.0222   0.0866   0.00    1.2
2018/03/13 14:42:20.000   78.256782056   16.230325196   397.7398   2  11   0.0950   0.0892   0.2635  -0.0255  -0.0221   0.0854   0.00    1.2
2018/03/13 14:42:21.000   78.256782365   16.230325267   397.7801   2  11   0.0942   0.0886   0.2602  -0.0254  -0.0219   0.0843   0.00    1.2
2018/03/13 14:42:22.000   78.256782520   16.230325381   397.7429   2  11   0.0935   0.0879   0.2569  -0.0253  -0.0218   0.0832   0.00    1.2
2018/03/13 14:42:23.000   78.256782554   16.230325478   397.6996   2  11   0.0927   0.0873   0.2537  -0.0252  -0.0216   0.0821   0.00    1.2
2018/03/13 14:42:24.000   78.256782523   16.230325631   397.6365   2  11   0.0920   0.0867   0.2505  -0.0251  -0.0215   0.0810   0.00    1.2
2018/03/13 14:42:25.000   78.256782608   16.230325761   397.5622   2  11   0.0913   0.0861   0.2475  -0.0250  -0.0213   0.0800   0.00    1.2
2018/03/13 14:42:26.000   78.256782589   16.230325838   397.5203   2  11   0.0906   0.0856   0.2444  -0.0249  -0.0212   0.0789   0.00    1.2
2018/03/13 14:42:27.000   78.256782579   16.230325454   397.4925   2  11   0.0899   0.0850   0.2415  -0.0248  -0.0211   0.0779   0.00    1.2
2018/03/13 14:42:28.000   78.256782570   16.230325009   397.4847   2  11   0.0892   0.0844   0.2385  -0.0247  -0.0209   0.0769   0.00    1.2
2018/03/13 14:42:29.000   78.256782614   16.230324991   397.5265   2  11   0.0886   0.0839   0.2357  -0.0246  -0.0208   0.0759   0.00    1.2
2018/03/13 14:42:30.000   78.256782779   16.230324968   397.5680   2  11   0.0879   0.0833   0.2329  -0.0246  -0.0206   0.0750   0.00    1.2
2018/03/13 14:42:31.000   78.256783035   16.230325419   397.6002   2  11   0.0873   0.0828   0.2301  -0.0245  -0.0205   0.0740   0.00    1.2
2018/03/13 14:42:32.000   78.256783308   16.230325343   397.6252   2  11   0.0866   0.0822   0.2274  -0.0244  -0.0204   0.0731   0.00    1.2
2018/03/13 14:42:33.000   78.256783610   16.230325393   397.6426   2  11   0.0860   0.0817   0.2247  -0.0243  -0.0202   0.0722   0.00    1.2
2018/03/13 14:42:34.000   78.256783775   16.230325326   397.6273   2  11   0.0854   0.0812   0.2221  -0.0242  -0.0201   0.0713   0.00    1.2
2018/03/13 14:42:35.000   78.256783804   16.230325410   397.5966   2  11   0.0848   0.0807   0.2195  -0.0241  -0.0200   0.0704   0.00    1.2
2018/03/13 14:42:36.000   78.256783788   16.230325615   397.5582   2  11   0.0842   0.0802   0.2170  -0.0241  -0.0198   0.0695   0.00    1.2
2018/03/13 14:42:37.000   78.256783844   16.230325406   397.5108   2  11   0.0836   0.0797   0.2145  -0.0240  -0.0197   0.0687   0.00    1.1
2018/03/13 14:42:38.000   78.256783912   16.230325250   397.4712   2  11   0.0830   0.0792   0.2121  -0.0239  -0.0196   0.0679   0.00    1.1
2018/03/13 14:42:39.000   78.256783980   16.230324749   397.4649   2  11   0.0824   0.0787   0.2097  -0.0238  -0.0194   0.0670   0.00    1.1
2018/03/13 14:42:40.000   78.256784106   16.230324551   397.4771   2  11   0.0818   0.0782   0.2074  -0.0238  -0.0193   0.0662   0.00    1.1
2018/03/13 14:42:41.000   78.256784221   16.230324564   397.4827   2  11   0.0813   0.0778   0.2051  -0.0237  -0.0192   0.0654   0.00    1.1
2018/03/13 14:42:42.000   78.256784379   16.230324495   397.4952   2  11   0.0807   0.0773   0.2028  -0.0236  -0.0191   0.0647   0.00    1.1
2018/03/13 14:42:43.000   78.256784550   16.230324278   397.4957   2  11   0.0802   0.0769   0.2006  -0.0235  -0.0189   0.0639   0.00    1.1
2018/03/13 14:42:44.000   78.256784680   16.230324228   397.4878   2  11   0.0796   0.0764   0.1984  -0.0235  -0.0188   0.0632   0.00    1.1
2018/03/13 14:42:45.000   78.256784824   16.230324286   397.4785   2  11   0.0791   0.0760   0.1962  -0.0234  -0.0187   0.0624   0.00    1.1
2018/03/13 14:42:46.000   78.256784860   16.230324444   397.4734   2  11   0.0786   0.0755   0.1941  -0.0233  -0.0186   0.0617   0.00    1.1
2018/03/13 14:42:47.000   78.256784977   16.230324456   397.4774   2  11   0.0781   0.0751   0.1921  -0.0232  -0.0185   0.0610   0.00    1.1
2018/03/13 14:42:48.000   78.256785002   16.230324075   397.4761   2  11   0.0776   0.0747   0.1900  -0.0232  -0.0183   0.0603   0.00    1.1
2018/03/13 14:42:49.000   78.256785031   16.230323671   397.4806   2  11   0.0771   0.0742   0.1880  -0.0231  -0.0182   0.0596   0.00    1.1
2018/03/13 14:42:50.000   78.256784995   16.230323549   397.4721   2  11   0.0766   0.0738   0.1860  -0.0230  -0.0181   0.0589   0.00    1.1
2018/03/13 14:42:51.000   78.256785070   16.230323587   397.4734   2  11   0.0761   0.0734   0.1841  -0.0230  -0.0180   0.0583   0.00    1.1
2018/03/13 14:42:52.000   78.256785082   16.230323894   397.4807   2  11   0.0756   0.0730   0.1822  -0.0229  -0.0179   0.0576   0.00    1.1
2018/03/13 14:42:53.000   78.256785261   16.230324068   397.5022   2  11   0.0751   0.0726   0.1803  -0.0228  -0.0178   0.0570   0.00    1.1
2018/03/13 14:42:54.000   78.256785395   16.230324266   397.5208   2  11   0.0746   0.0722   0.1784  -0.0228  -0.0177   0.0563   0.00    1.1
2018/03/13 14:42:55.000   78.256785586   16.230324345   397.5498   2  11   0.0742   0.0718   0.1766  -0.0227  -0.0175   0.0557   0.00    1.1
2018/03/13 14:42:56.000   78.256785705   16.230324235   397.5593   2  11   0.0737   0.0714   0.1748  -0.0226  -0.0174   0.0551   0.00    1.1
2018/03/13 14:42:57.000   78.256785846   16.230324086   397.5666   2  11   0.0733   0.0710   0.1731  -0.0226  -0.0173   0.0545   0.00    1.0
2018/03/13 14:42:58.000   78.256785893   16.230324227   397.5343   2  11   0.0728   0.0706   0.1714  -0.0225  -0.0172   0.0539   0.00    1.0
2018/03/13 14:42:59.000   78.256785867   16.230324368   397.4962   2  11   0.0724   0.0703   0.1696  -0.0225  -0.0171   0.0533   0.00    1.0
2018/03/13 14:43:00.000   78.256785900   16.230324546   397.4876   2  11   0.0719   0.0699   0.1680  -0.0224  -0.0170   0.0527   0.00    1.0
2018/03/13 14:43:01.000   78.256785905   16.230324366   397.4682   2  11   0.0715   0.0695   0.1663  -0.0223  -0.0169   0.0522   0.00    1.0
2018/03/13 14:43:02.000   78.256786049   16.230324385   397.4667   2  11   0.0711   0.0691   0.1647  -0.0223  -0.0168   0.0516   0.00    1.0
2018/03/13 14:43:03.000   78.256786092   16.230324591   397.4582   2  11   0.0706   0.0688   0.1631  -0.0222  -0.0167   0.0511   0.00    1.0
2018/03/13 14:43:04.000   78.256786132   16.230324767   397.4647   2  11   0.0702   0.0684   0.1615  -0.0221  -0.0166   0.0505   0.00    1.0
2018/03/13 14:43:05.000   78.256786248   16.230325298   397.4714   2  10   0.0698   0.0681   0.1601  -0.0221  -0.0163   0.0500   0.00    1.0
2018/03/13 14:43:06.000   78.256786288   16.230325270   397.4823   2  10   0.0694   0.0677   0.1587  -0.0220  -0.0161   0.0495   0.00    1.0
2018/03/13 14:43:07.000   78.256786460   16.230325164   397.5127   2  11   0.0690   0.0674   0.1573  -0.0220  -0.0158   0.0490   0.00    1.0
2018/03/13 14:43:08.000   78.256786593   16.230324778   397.5473   2  11   0.0686   0.0671   0.1559  -0.0219  -0.0156   0.0485   0.00    1.0
2018/03/13 14:43:09.000   78.256786776   16.230324708   397.5707   2  11   0.0682   0.0667   0.1545  -0.0218  -0.0154   0.0480   0.00    1.0
2018/03/13 14:43:10.000   78.256786863   16.230324393   397.5733   2  11   0.0678   0.0664   0.1532  -0.0218  -0.0152   0.0475   0.00    1.0
2018/03/13 14:43:11.000   78.256786880   16.230324337   397.5641   2  11   0.0675   0.0661   0.1519  -0.0217  -0.0150   0.0470   0.00    1.0
2018/03/13 14:43:12.000   78.256786881   16.230324008   397.5453   2  11   0.0671   0.0657   0.1505  -0.0217  -0.0148   0.0466   0.00    1.0
2018/03/13 14:43:13.000   78.256786917   16.230323840   397.5210   2  11   0.0667   0.0654   0.1493  -0.0216  -0.0146   0.0461   0.00    1.0
2018/03/13 14:43:14.000   78.256786872   16.230323788   397.5052   2  11   0.0663   0.0651   0.1480  -0.0215  -0.0144   0.0457   0.00    1.0
2018/03/13 14:43:15.000   78.256786831   16.230323652   397.5124   2  11   0.0659   0.0648   0.1467  -0.0215  -0.0142   0.0452   0.00    1.0
2018/03/13 14:43:16.000   78.256786834   16.230323405   397.5280   2  11   0.0656   0.0645   0.1455  -0.0214  -0.0140   0.0448   0.00    1.0
2018/03/13 14:43:17.000   78.256786888   16.230323300   397.5608   2  11   0.0652   0.0642   0.1442  -0.0214  -0.0138   0.0443   0.00    1.0
2018/03/13 14:43:18.000   78.256786987   16.230323319   397.6040   2  11   0.0649   0.0639   0.1430  -0.0213  -0.0136   0.0439   0.00    1.0
2018/03/13 14:43:19.000   78.256787107   16.230323363   397.6405   2  11   0.0645   0.0635   0.1418  -0.0213  -0.0134   0.0435   0.00    1.0
2018/03/13 14:43:20.000   78.256787217   16.230323369   397.6630   2  11   0.0642   0.0632   0.1407  -0.0212  -0.0132   0.0431   0.00    1.0
2018/03/13 14:43:21.000   78.256787341   16.230323297   397.6766   2  11   0.0638   0.0630   0.1395  -0.0211  -0.0130   0.0427   0.00    1.0
2018/03/13 14:43:22.000   78.256787423   16.230322854   397.6901   2  11   0.0635   0.0627   0.1384  -0.0211  -0.0128   0.0423   0.00    1.0
2018/03/13 14:43:23.000   78.256787520   16.230322417   397.7017   2  11   0.0631   0.0624   0.1372  -0.0210  -0.0127   0.0419   0.00    1.0
2018/03/13 14:43:24.000   78.256787555   16.230321938   397.6986   2  11   0.0628   0.0621   0.1361  -0.0210  -0.0125   0.0415   0.00    1.0
2018/03/13 14:43:25.000   78.256787469   16.230321830   397.6895   2  11   0.0625   0.0618   0.1350  -0.0209  -0.0123   0.0411   0.00    1.0
2018/03/13 14:43:26.000   78.256787336   16.230321781   397.6880   2  11   0.0621   0.0615   0.1339  -0.0209  -0.0121   0.0407   0.00    1.0
2018/03/13 14:43:27.000   78.256787255   16.230321936   397.6940   2  11   0.0618   0.0612   0.1328  -0.0208  -0.0120   0.0403   0.00    1.0
2018/03/13 14:43:28.000   78.256787239   16.230321872   397.7116   2  11   0.0615   0.0609   0.1318  -0.0208  -0.0118   0.0400   0.00    1.0
2018/03/13 14:43:29.000   78.256787296   16.230321888   397.7290   2  11   0.0612   0.0607   0.1307  -0.0207  -0.0116   0.0396   0.00    1.0
2018/03/13 14:43:30.000   78.256787363   16.230321811   397.7490   2  11   0.0608   0.0604   0.1297  -0.0207  -0.0115   0.0392   0.00    1.0
2018/03/13 14:43:31.000   78.256787467   16.230321731   397.7668   2  11   0.0605   0.0601   0.1287  -0.0206  -0.0113   0.0389   0.00    1.0
2018/03/13 14:43:32.000   78.256787522   16.230321451   397.7791   2  11   0.0602   0.0599   0.1277  -0.0205  -0.0111   0.0385   0.00    1.0
2018/03/13 14:43:33.000   78.256787559   16.230321496   397.7732   2  11   0.0599   0.0596   0.1267  -0.0205  -0.0110   0.0382   0.00    1.0
2018/03/13 14:43:34.000   78.256787572   16.230321679   397.7744   2  11   0.0596   0.0593   0.1257  -0.0204  -0.0108   0.0378   0.00    1.0
2018/03/13 14:43:35.000   78.256787598   16.230321715   397.7701   2  11   0.0593   0.0591   0.1247  -0.0204  -0.0107   0.0375   0.00    1.0
2018/03/13 14:43:36.000   78.256787594   16.230321511   397.7612   2  11   0.0590   0.0588   0.1238  -0.0203  -0.0105   0.0371   0.00    1.0
2018/03/13 14:43:37.000   78.256787631   16.230321319   397.7545   2  11   0.0587   0.0585   0.1228  -0.0203  -0.0104   0.0368   0.00    1.0
2018/03/13 14:43:38.000   78.256787625   16.230321193   397.7473   2  11   0.0584   0.0583   0.1219  -0.0202  -0.0102   0.0365   0.00    1.0
2018/03/13 14:43:39.000   78.256787665   16.230321241   397.7420   2  11   0.0581   0.0580   0.1210  -0.0202  -0.0101   0.0362   0.00    1.0
2018/03/13 14:43:40.000   78.256787679   16.230321331   397.7362   2  11   0.0578   0.0578   0.1201  -0.0201  -0.0099   0.0358   0.00    1.0
2018/03/13 14:43:41.000   78.256787638   16.230321426   397.7373   2  11   0.0576   0.0575   0.1192  -0.0201  -0.0098   0.0355   0.00    1.0
2018/03/13 14:43:42.000   78.256787623   16.230321563   397.7394   2  11   0.0573   0.0573   0.1183  -0.0200  -0.0096   0.0352   0.00    1.0
2018/03/13 14:43:43.000   78.256787669   16.230321850   397.7473   2  11   0.0570   0.0570   0.1174  -0.0200  -0.0095   0.0349   0.00    1.0
2018/03/13 14:43:44.000   78.256787787   16.230321896   397.7595   2  11   0.0567   0.0568   0.1166  -0.0199  -0.0094   0.0346   0.00    1.0
2018/03/13 14:43:45.000   78.256787905   16.230321951   397.7628   2  11   0.0565   0.0566   0.1157  -0.0199  -0.0092   0.0343   0.00    1.0
2018/03/13 14:43:46.000   78.256787978   16.230322138   397.7581   2  11   0.0562   0.0563   0.1149  -0.0198  -0.0091   0.0340   0.00    1.0
2018/03/13 14:43:47.000   78.256788010   16.230322253   397.7459   2  11   0.0559   0.0561   0.1140  -0.0198  -0.0090   0.0337   0.00    1.1
2018/03/13 14:43:48.000   78.256788042   16.230322296   397.7298   2  11   0.0556   0.0559   0.1132  -0.0198  -0.0088   0.0334   0.00    1.1
2018/03/13 14:43:49.000   78.256788058   16.230322360   397.7141   2  11   0.0554   0.0556   0.1124  -0.0197  -0.0087   0.0332   0.00    1.1
2018/03/13 14:43:50.000   78.256788079   16.230322826   397.7056   2  11   0.0551   0.0554   0.1116  -0.0197  -0.0086   0.0329   0.00    1.1
2018/03/13 14:43:51.000   78.256788162   16.230322923   397.7069   2  11   0.0549   0.0552   0.1108  -0.0196  -0.0084   0.0326   0.00    1.1
2018/03/13 14:43:52.000   78.256788256   16.230322987   397.7218   2  11   0.0546   0.0549   0.1100  -0.0196  -0.0083   0.0323   0.00    1.1
2018/03/13 14:43:53.000   78.256788341   16.230322806   397.7391   2  11   0.0544   0.0547   0.1092  -0.0195  -0.0082   0.0321   0.00    1.1
2018/03/13 14:43:54.000   78.256788448   16.230322925   397.7493   2  11   0.0541   0.0545   0.1085  -0.0195  -0.0081   0.0318   0.00    1.1
2018/03/13 14:43:55.000   78.256788495   16.230322972   397.7472   2  11   0.0538   0.0543   0.1077  -0.0194  -0.0079   0.0315   0.00    1.1
2018/03/13 14:43:56.000   78.256788577   16.230322981   397.7422   2  11   0.0536   0.0540   0.1070  -0.0194  -0.0078   0.0313   0.00    1.1
2018/03/13 14:43:57.000   78.256788629   16.230323050   397.7349   2  11   0.0534   0.0538   0.1062  -0.0193  -0.0077   0.0310   0.00    1.1
2018/03/13 14:43:58.000   78.256788671   16.230323153   397.7290   2  11   0.0531   0.0536   0.1055  -0.0193  -0.0076   0.0308   0.00    1.1
2018/03/13 14:43:59.000   78.256788712   16.230323178   397.7336   2  11   0.0529   0.0534   0.1048  -0.0192  -0.0074   0.0305   0.00    1.1
2018/03/13 14:44:00.000   78.256788778   16.230323107   397.7434   2  11   0.0526   0.0532   0.1040  -0.0192  -0.0073   0.0303   0.00    1.1
2018/03/13 14:44:01.000   78.256788832   16.230323041   397.7560   2  11   0.0524   0.0530   0.1033  -0.0191  -0.0072   0.0300   0.00    1.2
2018/03/13 14:44:02.000   78.256788905   16.230323055   397.7651   2  11   0.0522   0.0528   0.1026  -0.0191  -0.0071   0.0298   0.00    1.2
2018/03/13 14:44:03.000   78.256788953   16.230323056   397.7705   2  11   0.0519   0.0526   0.1020  -0.0191  -0.0070   0.0295   0.00    1.2
2018/03/13 14:44:04.000   78.256789035   16.230323130   397.7641   2  11   0.0517   0.0523   0.1013  -0.0190  -0.0069   0.0293   0.00    1.2
2018/03/13 14:44:05.000   78.256789064   16.230323347   397.7532   2  11   0.0515   0.0521   0.1006  -0.0190  -0.0067   0.0291   0.00    1.2
2018/03/13 14:44:06.000   78.256789094   16.230323345   397.7475   2  11   0.0512   0.0519   0.0999  -0.0189  -0.0066   0.0288   0.00    1.2
2018/03/13 14:44:07.000   78.256789133   16.230323187   397.7444   2  11   0.0510   0.0517   0.0993  -0.0189  -0.0065   0.0286   0.00    1.2
2018/03/13 14:44:08.000   78.256789209   16.230322910   397.7448   2  11   0.0508   0.0515   0.0986  -0.0188  -0.0064   0.0284   0.00    1.2
2018/03/13 14:44:09.000   78.256789279   16.230322846   397.7583   2  11   0.0506   0.0513   0.0980  -0.0188  -0.0063   0.0282   0.00    1.2
2018/03/13 14:44:10.000   78.256789359   16.230322742   397.7789   2  11   0.0504   0.0511   0.0973  -0.0187  -0.0062   0.0279   0.00    1.2
2018/03/13 14:44:11.000   78.256789434   16.230322459   397.7957   2  11   0.0501   0.0509   0.0967  -0.0187  -0.0061   0.0277   0.00    1.2
2018/03/13 14:44:12.000   78.256789513   16.230322398   397.8106   2  11   0.0499   0.0507   0.0961  -0.0187  -0.0060   0.0275   0.00    1.2
2018/03/13 14:44:13.000   78.256789609   16.230322411   397.8211   2  11   0.0497   0.0506   0.0955  -0.0186  -0.0058   0.0273   0.00    1.2
2018/03/13 14:44:14.000   78.256789639   16.230322516   397.8200   2  11   0.0495   0.0504   0.0949  -0.0186  -0.0057   0.0271   0.00    1.2
2018/03/13 14:44:15.000   78.256789658   16.230322549   397.8150   2  11   0.0493   0.0502   0.0943  -0.0185  -0.0056   0.0269   0.00    1.2
2018/03/13 14:44:16.000   78.256789674   16.230322565   397.8119   2  11   0.0491   0.0500   0.0937  -0.0185  -0.0055   0.0267   0.00    1.2
2018/03/13 14:44:17.000   78.256789681   16.230322366   397.8120   2  11   0.0489   0.0498   0.0931  -0.0184  -0.0054   0.0265   0.00    1.2
2018/03/13 14:44:18.000   78.256789697   16.230322087   397.8255   2  11   0.0487   0.0496   0.0925  -0.0184  -0.0053   0.0263   0.00    1.2
2018/03/13 14:44:19.000   78.256789713   16.230322037   397.8387   2  11   0.0485   0.0494   0.0919  -0.0184  -0.0052   0.0261   0.00    1.2
2018/03/13 14:44:20.000   78.256789766   16.230321877   397.8469   2  11   0.0483   0.0492   0.0914  -0.0183  -0.0051   0.0259   0.00    1.2
2018/03/13 14:44:21.000   78.256789777   16.230321640   397.8564   2  11   0.0481   0.0491   0.0908  -0.0183  -0.0050   0.0257   0.00    1.2
2018/03/13 14:44:22.000   78.256789776   16.230321347   397.8637   2  11   0.0479   0.0489   0.0902  -0.0182  -0.0049   0.0255   0.00    1.2
2018/03/13 14:44:23.000   78.256789815   16.230321172   397.8702   2  11   0.0477   0.0487   0.0897  -0.0182  -0.0048   0.0253   0.00    1.2
2018/03/13 14:44:24.000   78.256789855   16.230321021   397.8783   2  11   0.0475   0.0485   0.0891  -0.0181  -0.0047   0.0251   0.00    1.2
2018/03/13 14:44:25.000   78.256789910   16.230320761   397.8878   2  11   0.0473   0.0483   0.0886  -0.0181  -0.0046   0.0249   0.00    1.2
2018/03/13 14:44:26.000   78.256789965   16.230320498   397.8939   2  11   0.0471   0.0482   0.0881  -0.0181  -0.0045   0.0247   0.00    1.2
2018/03/13 14:44:27.000   78.256789992   16.230320389   397.8974   2  11   0.0469   0.0480   0.0875  -0.0180  -0.0044   0.0246   0.00    1.2
2018/03/13 14:44:28.000   78.256789997   16.230320326   397.8975   2  11   0.0467   0.0478   0.0870  -0.0180  -0.0043   0.0244   0.00    1.2
2018/03/13 14:44:29.000   78.256789999   16.230320190   397.8947   2  11   0.0465   0.0477   0.0865  -0.0179  -0.0041   0.0242   0.00    1.2
2018/03/13 14:44:30.000   78.256789987   16.230320279   397.8926   2  11   0.0463   0.0475   0.0860  -0.0179  -0.0040   0.0240   0.00    1.2
2018/03/13 14:44:31.000   78.256789962   16.230320297   397.8934   2  11   0.0461   0.0473   0.0855  -0.0179  -0.0039   0.0238   0.00    1.2
2018/03/13 14:44:32.000   78.256789933   16.230320400   397.8970   2  11   0.0460   0.0471   0.0850  -0.0178  -0.0038   0.0237   0.00    1.2
2018/03/13 14:44:33.000   78.256789925   16.230320205   397.9037   2  11   0.0458   0.0470   0.0845  -0.0178  -0.0037   0.0235   0.00    1.2
2018/03/13 14:44:34.000   78.256789966   16.230320020   397.9078   2  11   0.0456   0.0468   0.0840  -0.0177  -0.0036   0.0233   0.00    1.2
2018/03/13 14:44:35.000   78.256789977   16.230319773   397.9079   2  11   0.0454   0.0466   0.0835  -0.0177  -0.0035   0.0232   0.00    1.2
2018/03/13 14:44:36.000   78.256789996   16.230319645   397.9130   2  11   0.0452   0.0465   0.0830  -0.0176  -0.0034   0.0230   0.00    1.2
2018/03/13 14:44:37.000   78.256789994   16.230319482   397.9174   2  11   0.0451   0.0463   0.0826  -0.0176  -0.0033   0.0228   0.00    1.2
2018/03/13 14:44:38.000   78.256789960   16.230319642   397.9266   2  11   0.0449   0.0462   0.0821  -0.0176  -0.0032   0.0227   0.00    1.2
2018/03/13 14:44:39.000   78.256789965   16.230319665   397.9299   2  11   0.0447   0.0460   0.0816  -0.0175  -0.0031   0.0225   0.00    1.2
2018/03/13 14:44:40.000   78.256789961   16.230319913   397.9292   2  11   0.0445   0.0458   0.0812  -0.0175  -0.0030   0.0224   0.00    1.2
2018/03/13 14:44:41.000   78.256789934   16.230319793   397.9222   2  11   0.0444   0.0457   0.0807  -0.0174  -0.0028   0.0222   0.00    1.2
2018/03/13 14:44:42.000   78.256789874   16.230319836   397.9124   2  11   0.0442   0.0455   0.0803  -0.0174  -0.0027   0.0221   0.00    1.2
2018/03/13 14:44:43.000   78.256789814   16.230319725   397.9055   2  11   0.0440   0.0454   0.0798  -0.0174  -0.0026   0.0219   0.00    1.2
2018/03/13 14:44:44.000   78.256789779   16.230319688   397.8999   2  11   0.0439   0.0452   0.0794  -0.0173  -0.0025   0.0218   0.00    1.2
2018/03/13 14:44:45.000   78.256789785   16.230319543   397.8976   2  11   0.0437   0.0451   0.0789  -0.0173  -0.0023   0.0216   0.00    1.2
2018/03/13 14:44:46.000   78.256789829   16.230319479   397.8998   2  11   0.0435   0.0449   0.0785  -0.0173  -0.0022   0.0215   0.00    1.3
2018/03/13 14:44:47.000   78.256789840   16.230319372   397.9011   2  11   0.0434   0.0448   0.0781  -0.0172  -0.0021   0.0213   0.00    1.3
2018/03/13 14:44:48.000   78.256789819   16.230319459   397.9040   2  11   0.0432   0.0446   0.0776  -0.0172  -0.0019   0.0212   0.00    1.3
2018/03/13 14:44:49.000   78.256789768   16.230319591   397.9056   2  11   0.0431   0.0444   0.0772  -0.0171  -0.0018   0.0210   0.00    1.3
2018/03/13 14:44:50.000   78.256789755   16.230319763   397.9055   2  11   0.0429   0.0443   0.0768  -0.0171  -0.0016   0.0209   0.00    1.3
2018/03/13 14:44:51.000   78.256789756   16.230319886   397.9041   2  11   0.0427   0.0442   0.0764  -0.0171  -0.0015   0.0207   0.00    1.3
2018/03/13 14:44:52.000   78.256789782   16.230319809   397.9000   2  11   0.0426   0.0440   0.0760  -0.0170  -0.0013   0.0206   0.00    1.3
2018/03/13 14:44:53.000   78.256789781   16.230319637   397.8977   2  11   0.0424   0.0439   0.0756  -0.0170  -0.0010   0.0205   0.00    1.3
2018/03/13 14:44:54.000   78.256789798   16.230319358   397.8939   2  11   0.0423   0.0437   0.0752  -0.0169  -0.0008   0.0203   0.00    1.3
2018/03/13 14:44:55.000   78.256789772   16.230319116   397.8924   2  11   0.0421   0.0436   0.0748  -0.0169  -0.0003   0.0202   0.00    1.3
2018/03/13 14:44:56.000   78.256789745   16.230319155   397.8896   2  11   0.0420   0.0434   0.0744  -0.0169   0.0006   0.0201   0.00    1.3
2018/03/13 14:44:57.000   78.256789714   16.230319187   397.8916   2  11   0.0418   0.0433   0.0740  -0.0168   0.0009   0.0199   0.00    1.3
2018/03/13 14:44:58.000   78.256789704   16.230319276   397.8918   2  11   0.0417   0.0431   0.0736  -0.0168   0.0011   0.0198   0.00    1.3
2018/03/13 14:44:59.000   78.256789717   16.230319344   397.8947   2  11   0.0415   0.0430   0.0732  -0.0168   0.0013   0.0197   0.00    1.3
2018/03/13 14:45:00.000   78.256789722   16.230319357   397.8974   2  11   0.0414   0.0429   0.0729  -0.0167   0.0015   0.0195   0.00    1.3
2018/03/13 14:45:01.000   78.256789735   16.230319359   397.9007   2  11   0.0412   0.0427   0.0725  -0.0167   0.0016   0.0194   0.00    1.3
2018/03/13 14:45:02.000   78.256789745   16.230319351   397.9023   2  11   0.0411   0.0426   0.0721  -0.0166   0.0017   0.0193   0.00    1.3
2018/03/13 14:45:03.000   78.256789747   16.230319185   397.9002   2  11   0.0409   0.0424   0.0717  -0.0166   0.0018   0.0192   0.00    1.3
2018/03/13 14:45:04.000   78.256789747   16.230319028   397.8953   2  11   0.0408   0.0423   0.0714  -0.0166   0.0019   0.0190   0.00    1.3
2018/03/13 14:45:05.000   78.256789747   16.230318693   397.8903   2  11   0.0406   0.0422   0.0710  -0.0165   0.0020   0.0189   0.00    1.3
2018/03/13 14:45:06.000   78.256789743   16.230318476   397.8851   2  11   0.0405   0.0420   0.0707  -0.0165   0.0021   0.0188   0.00    1.3
2018/03/13 14:45:07.000   78.256789741   16.230318358   397.8851   2  11   0.0404   0.0419   0.0703  -0.0165   0.0022   0.0187   0.00    1.3
2018/03/13 14:45:08.000   78.256789727   16.230318381   397.8899   2  11   0.0402   0.0418   0.0700  -0.0164   0.0023   0.0186   0.00    1.3
2018/03/13 14:45:09.000   78.256789747   16.230318326   397.8989   2  11   0.0401   0.0416   0.0696  -0.0164   0.0024   0.0184   0.00    1.3
2018/03/13 14:45:10.000   78.256789772   16.230318249   397.9094   2  11   0.0399   0.0415   0.0693  -0.0163   0.0024   0.0183   0.00    1.3
2018/03/13 14:45:11.000   78.256789817   16.230318064   397.9139   2  11   0.0398   0.0414   0.0689  -0.0163   0.0025   0.0182   0.00    1.4
2018/03/13 14:45:12.000   78.256789858   16.230317942   397.9132   2  11   0.0397   0.0413   0.0686  -0.0163   0.0026   0.0181   0.00    1.4
2018/03/13 14:45:13.000   78.256789876   16.230317842   397.9086   2  11   0.0395   0.0411   0.0683  -0.0162   0.0026   0.0180   0.00    1.4
2018/03/13 14:45:14.000   78.256789870   16.230317691   397.9032   2  11   0.0394   0.0410   0.0679  -0.0162   0.0027   0.0179   0.00    1.4
2018/03/13 14:45:15.000   78.256789845   16.230317499   397.8963   2  11   0.0393   0.0409   0.0676  -0.0162   0.0028   0.0178   0.00    1.4
2018/03/13 14:45:16.000   78.256789809   16.230317422   397.8912   2  11   0.0391   0.0407   0.0673  -0.0161   0.0028   0.0176   0.00    1.4
2018/03/13 14:45:17.000   78.256789765   16.230317401   397.8881   2  11   0.0390   0.0406   0.0669  -0.0161   0.0029   0.0175   0.00    1.4
2018/03/13 14:45:18.000   78.256789769   16.230317442   397.8853   2  11   0.0389   0.0405   0.0666  -0.0161   0.0029   0.0174   0.00    1.4
2018/03/13 14:45:19.000   78.256789794   16.230317357   397.8839   2  11   0.0387   0.0404   0.0663  -0.0160   0.0030   0.0173   0.00    1.4
2018/03/13 14:45:20.000   78.256789827   16.230317222   397.8839   2  11   0.0386   0.0403   0.0660  -0.0160   0.0030   0.0172   0.00    1.4
2018/03/13 14:45:21.000   78.256789852   16.230317076   397.8840   2  11   0.0385   0.0401   0.0657  -0.0160   0.0030   0.0171   0.00    1.4
2018/03/13 14:45:22.000   78.256789878   16.230316866   397.8868   2  11   0.0384   0.0400   0.0654  -0.0159   0.0031   0.0170   0.00    1.4
2018/03/13 14:45:23.000   78.256789874   16.230316669   397.8930   2  11   0.0382   0.0399   0.0651  -0.0159   0.0031   0.0169   0.00    1.4
2018/03/13 14:45:24.000   78.256789858   16.230316533   397.8929   2  11   0.0381   0.0398   0.0648  -0.0159   0.0032   0.0168   0.00    1.4
2018/03/13 14:45:25.000   78.256789846   16.230316458   397.8934   2  11   0.0380   0.0396   0.0645  -0.0158   0.0032   0.0167   0.00    1.4
2018/03/13 14:45:26.000   78.256789837   16.230316359   397.8896   2  11   0.0379   0.0395   0.0642  -0.0158   0.0032   0.0166   0.00    1.4
2018/03/13 14:45:27.000   78.256789854   16.230316251   397.8820   2  11   0.0377   0.0394   0.0639  -0.0158   0.0033   0.0165   0.00    1.4
2018/03/13 14:45:28.000   78.256789863   16.230316238   397.8733   2  11   0.0376   0.0393   0.0636  -0.0157   0.0033   0.0164   0.00    1.4
2018/03/13 14:45:29.000   78.256789864   16.230316157   397.8662   2  11   0.0375   0.0392   0.0633  -0.0157   0.0033   0.0163   0.00    1.4
2018/03/13 14:45:30.000   78.256789859   16.230316042   397.8598   2  11   0.0374   0.0391   0.0630  -0.0156   0.0034   0.0162   0.00    1.4
2018/03/13 14:45:31.000   78.256789829   16.230316008   397.8555   2  11   0.0373   0.0389   0.0627  -0.0156   0.0034   0.0161   0.00    1.4
2018/03/13 14:45:32.000   78.256789814   16.230316000   397.8546   2  11   0.0371   0.0388   0.0624  -0.0156   0.0034   0.0160   0.00    1.4
2018/03/13 14:45:33.000   78.256789806   16.230315941   397.8549   2  11   0.0370   0.0387   0.0622  -0.0155   0.0035   0.0159   0.00    1.4
2018/03/13 14:45:34.000   78.256789810   16.230315834   397.8576   2  11   0.0369   0.0386   0.0619  -0.0155   0.0035   0.0158   0.00    1.4
2018/03/13 14:45:35.000   78.256789816   16.230315708   397.8580   2  11   0.0368   0.0385   0.0616  -0.0155   0.0035   0.0157   0.00    1.4
2018/03/13 14:45:36.000   78.256789806   16.230315719   397.8588   2  11   0.0367   0.0384   0.0613  -0.0154   0.0035   0.0156   0.00    1.5
2018/03/13 14:45:37.000   78.256789806   16.230315644   397.8583   2  11   0.0366   0.0383   0.0611  -0.0154   0.0036   0.0156   0.00    1.5
2018/03/13 14:45:38.000   78.256789824   16.230315646   397.8517   2  11   0.0365   0.0382   0.0608  -0.0154   0.0036   0.0155   0.00    1.5
2018/03/13 14:45:39.000   78.256789825   16.230315577   397.8427   2  11   0.0363   0.0380   0.0605  -0.0153   0.0036   0.0154   0.00    1.5
2018/03/13 14:45:40.000   78.256789827   16.230315578   397.8342   2  11   0.0362   0.0379   0.0603  -0.0153   0.0036   0.0153   0.00    1.5
2018/03/13 14:45:41.000   78.256789816   16.230315554   397.8258   2  11   0.0361   0.0378   0.0600  -0.0153   0.0037   0.0152   0.00    1.5
2018/03/13 14:45:42.000   78.256789786   16.230315592   397.8194   2  11   0.0360   0.0377   0.0597  -0.0153   0.0037   0.0151   0.00    1.5
2018/03/13 14:45:43.000   78.256789771   16.230315687   397.8176   2  11   0.0359   0.0376   0.0595  -0.0152   0.0037   0.0150   0.00    1.5
2018/03/13 14:45:44.000   78.256789741   16.230315785   397.8176   2  11   0.0358   0.0375   0.0592  -0.0152   0.0037   0.0149   0.00    1.5
2018/03/13 14:45:45.000   78.256789736   16.230315860   397.8185   2  11   0.0357   0.0374   0.0590  -0.0152   0.0037   0.0149   0.00    1.5
2018/03/13 14:45:46.000   78.256789755   16.230315823   397.8215   2  11   0.0356   0.0373   0.0587  -0.0151   0.0038   0.0148   0.00    1.5
2018/03/13 14:45:47.000   78.256789783   16.230315768   397.8217   2  11   0.0355   0.0372   0.0585  -0.0151   0.0038   0.0147   0.00    1.5
2018/03/13 14:45:48.000   78.256789814   16.230315670   397.8226   2  11   0.0354   0.0371   0.0582  -0.0151   0.0038   0.0146   0.00    1.5
2018/03/13 14:45:49.000   78.256789818   16.230315587   397.8196   2  11   0.0353   0.0370   0.0580  -0.0150   0.0038   0.0145   0.00    1.5
2018/03/13 14:45:50.000   78.256789810   16.230315524   397.8163   2  11   0.0351   0.0369   0.0577  -0.0150   0.0038   0.0144   0.00    1.5
2018/03/13 14:45:51.000   78.256789781   16.230315559   397.8098   2  11   0.0350   0.0368   0.0575  -0.0150   0.0039   0.0144   0.00    1.5
2018/03/13 14:45:52.000   78.256789763   16.230315565   397.8070   2  11   0.0349   0.0367   0.0573  -0.0149   0.0039   0.0143   0.00    1.5
2018/03/13 14:45:53.000   78.256789722   16.230315608   397.8063   2  11   0.0348   0.0366   0.0570  -0.0149   0.0039   0.0142   0.00    1.5
2018/03/13 14:45:54.000   78.256789699   16.230315676   397.8057   2  11   0.0347   0.0365   0.0568  -0.0149   0.0039   0.0141   0.00    1.5
2018/03/13 14:45:55.000   78.256789671   16.230315691   397.8065   2  11   0.0346   0.0364   0.0566  -0.0148   0.0039   0.0141   0.00    1.5
2018/03/13 14:45:56.000   78.256789657   16.230315588   397.8090   2  11   0.0345   0.0363   0.0563  -0.0148   0.0039   0.0140   0.00    1.5
2018/03/13 14:45:57.000   78.256789651   16.230315490   397.8115   2  11   0.0344   0.0362   0.0561  -0.0148   0.0039   0.0139   0.00    1.5
2018/03/13 14:45:58.000   78.256789645   16.230315308   397.8094   2  11   0.0343   0.0361   0.0559  -0.0147   0.0039   0.0138   0.00    1.5
2018/03/13 14:45:59.000   78.256789633   16.230315048   397.8070   2  11   0.0342   0.0360   0.0556  -0.0147   0.0040   0.0137   0.00    1.5
2018/03/13 14:46:00.000   78.256789621   16.230314791   397.8072   2  11   0.0341   0.0359   0.0554  -0.0147   0.0040   0.0137   0.00    1.5
2018/03/13 14:46:01.000   78.256789622   16.230314712   397.8084   2  11   0.0340   0.0358   0.0552  -0.0147   0.0040   0.0136   0.00    1.5
2018/03/13 14:46:02.000   78.256789622   16.230314513   397.8144   2  11   0.0339   0.0357   0.0550  -0.0146   0.0040   0.0135   0.00    1.5
2018/03/13 14:46:03.000   78.256789612   16.230314389   397.8189   2  11   0.0338   0.0356   0.0548  -0.0146   0.0040   0.0135   0.00    1.5
2018/03/13 14:46:04.000   78.256789602   16.230314269   397.8206   2  11   0.0337   0.0355   0.0545  -0.0146   0.0040   0.0134   0.00    1.5
2018/03/13 14:46:05.000   78.256789602   16.230314227   397.8220   2  11   0.0337   0.0354   0.0543  -0.0145   0.0040   0.0133   0.00    1.5
2018/03/13 14:46:06.000   78.256789584   16.230314118   397.8197   2  11   0.0336   0.0353   0.0541  -0.0145   0.0040   0.0132   0.00    1.5
2018/03/13 14:46:07.000   78.256789561   16.230314115   397.8172   2  11   0.0335   0.0352   0.0539  -0.0145   0.0040   0.0132   0.00    1.5
2018/03/13 14:46:08.000   78.256789532   16.230314133   397.8162   2  11   0.0334   0.0351   0.0537  -0.0144   0.0041   0.0131   0.00    1.6
2018/03/13 14:46:09.000   78.256789515   16.230314145   397.8160   2  11   0.0333   0.0350   0.0535  -0.0144   0.0041   0.0130   0.00    1.6
2018/03/13 14:46:10.000   78.256789509   16.230314154   397.8138   2  11   0.0332   0.0349   0.0533  -0.0144   0.0041   0.0130   0.00    1.6
2018/03/13 14:46:11.000   78.256789507   16.230314129   397.8131   2  11   0.0331   0.0349   0.0531  -0.0144   0.0041   0.0129   0.00    1.6
2018/03/13 14:46:12.000   78.256789498   16.230314184   397.8134   2  11   0.0330   0.0348   0.0529  -0.0143   0.0041   0.0128   0.00    1.6
2018/03/13 14:46:13.000   78.256789498   16.230314187   397.8130   2  11   0.0329   0.0347   0.0527  -0.0143   0.0041   0.0128   0.00    1.6
2018/03/13 14:46:14.000   78.256789492   16.230314166   397.8125   2  11   0.0328   0.0346   0.0525  -0.0143   0.0041   0.0127   0.00    1.6
2018/03/13 14:46:15.000   78.256789478   16.230314106   397.8092   2  11   0.0327   0.0345   0.0523  -0.0142   0.0041   0.0126   0.00    1.6
2018/03/13 14:46:16.000   78.256789456   16.230314163   397.8039   2  11   0.0326   0.0344   0.0521  -0.0142   0.0041   0.0126   0.00    1.6
2018/03/13 14:46:17.000   78.256789430   16.230314319   397.7972   2  11   0.0326   0.0343   0.0519  -0.0142   0.0041   0.0125   0.00    1.6
2018/03/13 14:46:18.000   78.256789404   16.230314448   397.7922   2  11   0.0325   0.0342   0.0517  -0.0142   0.0041   0.0124   0.00    1.6
2018/03/13 14:46:19.000   78.256789409   16.230314498   397.7907   2  11   0.0324   0.0341   0.0515  -0.0141   0.0041   0.0124   0.00    1.6
2018/03/13 14:46:20.000   78.256789416   16.230314475   397.7907   2  11   0.0323   0.0341   0.0513  -0.0141   0.0041   0.0123   0.00    1.6
2018/03/13 14:46:21.000   78.256789428   16.230314478   397.7903   2  11   0.0322   0.0340   0.0511  -0.0141   0.0042   0.0122   0.00    1.6
2018/03/13 14:46:22.000   78.256789444   16.230314427   397.7877   2  10   0.0321   0.0339   0.0509  -0.0140   0.0042   0.0122   0.00    1.6
2018/03/13 14:46:23.000   78.256789438   16.230314491   397.7843   2  10   0.0320   0.0338   0.0507  -0.0140   0.0042   0.0121   0.00    1.5
2018/03/13 14:46:24.000   78.256789411   16.230314481   397.7773   2  10   0.0319   0.0337   0.0505  -0.0140   0.0043   0.0120   0.00    1.5
2018/03/13 14:46:25.000   78.256789378   16.230314628   397.7699   2  10   0.0319   0.0336   0.0504  -0.0140   0.0043   0.0120   0.00    1.5
2018/03/13 14:46:26.000   78.256789349   16.230314685   397.7623   2  10   0.0318   0.0335   0.0502  -0.0139   0.0043   0.0119   0.00    1.5
2018/03/13 14:46:27.000   78.256789331   16.230314830   397.7577   2  10   0.0317   0.0335   0.0500  -0.0139   0.0044   0.0118   0.00    1.5
2018/03/13 14:46:28.000   78.256789319   16.230314971   397.7516   2  10   0.0316   0.0334   0.0498  -0.0139   0.0044   0.0118   0.00    1.5
2018/03/13 14:46:29.000   78.256789316   16.230315078   397.7472   2  10   0.0315   0.0333   0.0497  -0.0139   0.0044   0.0117   0.00    1.5
2018/03/13 14:46:30.000   78.256789314   16.230315174   397.7437   2  10   0.0315   0.0332   0.0495  -0.0138   0.0045   0.0116   0.00    1.5
2018/03/13 14:46:31.000   78.256789313   16.230315231   397.7381   2  10   0.0314   0.0331   0.0493  -0.0138   0.0045   0.0116   0.00    1.5
2018/03/13 14:46:32.000   78.256789299   16.230315197   397.7317   2  10   0.0313   0.0331   0.0492  -0.0138   0.0045   0.0115   0.00    1.5
2018/03/13 14:46:33.000   78.256789276   16.230315237   397.7270   2  10   0.0312   0.0330   0.0490  -0.0138   0.0045   0.0115   0.00    1.5
2018/03/13 14:46:34.000   78.256789245   16.230315306   397.7229   2  10   0.0311   0.0329   0.0488  -0.0137   0.0046   0.0114   0.00    1.5
2018/03/13 14:46:35.000   78.256789234   16.230315423   397.7202   2  10   0.0311   0.0328   0.0487  -0.0137   0.0046   0.0113   0.00    1.5
2018/03/13 14:46:36.000   78.256789235   16.230315525   397.7184   2  10   0.0310   0.0327   0.0485  -0.0137   0.0046   0.0113   0.00    1.5
2018/03/13 14:46:37.000   78.256789246   16.230315629   397.7153   2  10   0.0309   0.0327   0.0483  -0.0137   0.0046   0.0112   0.00    1.5
2018/03/13 14:46:38.000   78.256789264   16.230315647   397.7114   2  10   0.0308   0.0326   0.0482  -0.0136   0.0047   0.0111   0.00    1.5
2018/03/13 14:46:39.000   78.256789269   16.230315669   397.7081   2  10   0.0308   0.0325   0.0480  -0.0136   0.0047   0.0111   0.00    1.5
2018/03/13 14:46:40.000   78.256789261   16.230315740   397.7047   2  10   0.0307   0.0324   0.0479  -0.0136   0.0047   0.0110   0.00    1.5
2018/03/13 14:46:41.000   78.256789243   16.230315951   397.7009   2  10   0.0306   0.0324   0.0477  -0.0136   0.0047   0.0110   0.00    1.5
2018/03/13 14:46:42.000   78.256789234   16.230316022   397.6954   2  10   0.0305   0.0323   0.0475  -0.0135   0.0048   0.0109   0.00    1.5
2018/03/13 14:46:43.000   78.256789206   16.230316093   397.6880   2  10   0.0305   0.0322   0.0474  -0.0135   0.0048   0.0109   0.00    1.5
2018/03/13 14:46:44.000   78.256789186   16.230316097   397.6782   2  10   0.0304   0.0321   0.0472  -0.0135   0.0048   0.0108   0.00    1.5
2018/03/13 14:46:45.000   78.256789188   16.230316120   397.6710   2  10   0.0303   0.0321   0.0471  -0.0135   0.0048   0.0107   0.00    1.5
2018/03/13 14:46:46.000   78.256789182   16.230316186   397.6665   2  10   0.0302   0.0320   0.0469  -0.0134   0.0048   0.0107   0.00    1.5
2018/03/13 14:46:47.000   78.256789181   16.230316268   397.6640   2  10   0.0302   0.0319   0.0468  -0.0134   0.0049   0.0106   0.00    1.5
2018/03/13 14:46:48.000   78.256789188   16.230316335   397.6623   2  10   0.0301   0.0318   0.0466  -0.0134   0.0049   0.0106   0.00    1.5
2018/03/13 14:46:49.000   78.256789194   16.230316381   397.6615   2  10   0.0300   0.0318   0.0465  -0.0134   0.0049   0.0105   0.00    1.5
2018/03/13 14:46:50.000   78.256789195   16.230316373   397.6611   2  10   0.0299   0.0317   0.0463  -0.0133   0.0049   0.0105   0.00    1.5
2018/03/13 14:46:51.000   78.256789213   16.230316385   397.6596   2  10   0.0299   0.0316   0.0462  -0.0133   0.0049   0.0104   0.00    1.5
2018/03/13 14:46:52.000   78.256789223   16.230316338   397.6587   2  10   0.0298   0.0315   0.0460  -0.0133   0.0050   0.0103   0.00    1.5
2018/03/13 14:46:53.000   78.256789227   16.230316325   397.6574   2  10   0.0297   0.0315   0.0459  -0.0133   0.0050   0.0103   0.00    1.5
2018/03/13 14:46:54.000   78.256789232   16.230316307   397.6555   2  10   0.0297   0.0314   0.0457  -0.0132   0.0050   0.0102   0.00    1.5
2018/03/13 14:46:55.000   78.256789239   16.230316273   397.6547   2  10   0.0296   0.0313   0.0456  -0.0132   0.0050   0.0102   0.00    1.5
2018/03/13 14:46:56.000   78.256789236   16.230316277   397.6561   2  10   0.0295   0.0313   0.0455  -0.0132   0.0050   0.0101   0.00    1.4
2018/03/13 14:46:57.000   78.256789246   16.230316292   397.6544   2  10   0.0294   0.0312   0.0453  -0.0132   0.0050   0.0101   0.00    1.4
2018/03/13 14:46:58.000   78.256789244   16.230316336   397.6533   2  10   0.0294   0.0311   0.0452  -0.0131   0.0050   0.0100   0.00    1.4
2018/03/13 14:46:59.000   78.256789235   16.230316385   397.6520   2  10   0.0293   0.0310   0.0450  -0.0131   0.0051   0.0100   0.00    1.4
2018/03/13 14:47:00.000   78.256789242   16.230316385   397.6518   2  10   0.0292   0.0310   0.0449  -0.0131   0.0051   0.0099   0.00    1.4
2018/03/13 14:47:01.000   78.256789269   16.230316285   397.6536   2  10   0.0292   0.0309   0.0448  -0.0131   0.0051   0.0099   0.00    1.4
2018/03/13 14:47:02.000   78.256789293   16.230316059   397.6582   2  10   0.0291   0.0308   0.0446  -0.0131   0.0051   0.0098   0.00    1.4
2018/03/13 14:47:03.000   78.256789316   16.230315919   397.6621   2  10   0.0290   0.0308   0.0445  -0.0130   0.0051   0.0098   0.00    1.4
2018/03/13 14:47:04.000   78.256789316   16.230315755   397.6646   2  10   0.0290   0.0307   0.0443  -0.0130   0.0051   0.0097   0.00    1.4
2018/03/13 14:47:05.000   78.256789315   16.230315668   397.6643   2  10   0.0289   0.0306   0.0442  -0.0130   0.0051   0.0097   0.00    1.4
2018/03/13 14:47:06.000   78.256789299   16.230315605   397.6633   2  10   0.0288   0.0306   0.0441  -0.0130   0.0052   0.0096   0.00    1.4
2018/03/13 14:47:07.000   78.256789297   16.230315518   397.6600   2  10   0.0288   0.0305   0.0439  -0.0129   0.0052   0.0096   0.00    1.4
2018/03/13 14:47:08.000   78.256789288   16.230315471   397.6584   2  10   0.0287   0.0304   0.0438  -0.0129   0.0052   0.0095   0.00    1.4
2018/03/13 14:47:09.000   78.256789287   16.230315436   397.6586   2  10   0.0286   0.0304   0.0437  -0.0129   0.0052   0.0095   0.00    1.4
2018/03/13 14:47:10.000   78.256789293   16.230315433   397.6592   2  10   0.0286   0.0303   0.0436  -0.0129   0.0052   0.0094   0.00    1.4
2018/03/13 14:47:11.000   78.256789315   16.230315416   397.6592   2  10   0.0285   0.0302   0.0434  -0.0128   0.0052   0.0094   0.00    1.4
2018/03/13 14:47:12.000   78.256789326   16.230315304   397.6598   2  10   0.0285   0.0302   0.0433  -0.0128   0.0052   0.0093   0.00    1.4
2018/03/13 14:47:13.000   78.256789337   16.230315144   397.6593   2  10   0.0284   0.0301   0.0432  -0.0128   0.0052   0.0093   0.00    1.4
2018/03/13 14:47:14.000   78.256789348   16.230315035   397.6588   2  10   0.0283   0.0300   0.0430  -0.0128   0.0052   0.0092   0.00    1.4
2018/03/13 14:47:15.000   78.256789340   16.230314953   397.6590   2  10   0.0283   0.0300   0.0429  -0.0128   0.0052   0.0092   0.00    1.4
2018/03/13 14:47:16.000   78.256789333   16.230314961   397.6591   2  10   0.0282   0.0299   0.0428  -0.0127   0.0053   0.0091   0.00    1.4
2018/03/13 14:47:17.000   78.256789323   16.230315003   397.6571   2  10   0.0281   0.0298   0.0427  -0.0127   0.0053   0.0091   0.00    1.4
2018/03/13 14:47:18.000   78.256789327   16.230315044   397.6547   2  10   0.0281   0.0298   0.0425  -0.0127   0.0053   0.0090   0.00    1.4
2018/03/13 14:47:19.000   78.256789322   16.230315060   397.6528   2  10   0.0280   0.0297   0.0424  -0.0127   0.0053   0.0090   0.00    1.4
2018/03/13 14:47:20.000   78.256789318   16.230315070   397.6517   2  10   0.0280   0.0296   0.0423  -0.0127   0.0053   0.0090   0.00    1.4
2018/03/13 14:47:21.000   78.256789319   16.230315026   397.6490   2  10   0.0279   0.0296   0.0422  -0.0126   0.0053   0.0089   0.00    1.4
2018/03/13 14:47:22.000   78.256789316   16.230315057   397.6476   2  10   0.0278   0.0295   0.0420  -0.0126   0.0053   0.0089   0.00    1.4
2018/03/13 14:47:23.000   78.256789317   16.230315016   397.6469   2  10   0.0278   0.0295   0.0419  -0.0126   0.0053   0.0088   0.00    1.4
2018/03/13 14:47:24.000   78.256789310   16.230315030   397.6465   2  10   0.0277   0.0294   0.0418  -0.0126   0.0053   0.0088   0.00    1.4
2018/03/13 14:47:25.000   78.256789302   16.230315047   397.6468   2  10   0.0277   0.0293   0.0417  -0.0125   0.0053   0.0087   0.00    1.4
2018/03/13 14:47:26.000   78.256789295   16.230315090   397.6457   2  10   0.0276   0.0293   0.0416  -0.0125   0.0053   0.0087   0.00    1.4
2018/03/13 14:47:27.000   78.256789298   16.230315059   397.6437   2  10   0.0275   0.0292   0.0415  -0.0125   0.0053   0.0086   0.00    1.4
2018/03/13 14:47:28.000   78.256789288   16.230315194   397.6406   2  10   0.0275   0.0292   0.0413  -0.0125   0.0054   0.0086   0.00    1.4
2018/03/13 14:47:29.000   78.256789281   16.230315287   397.6380   2  10   0.0274   0.0291   0.0412  -0.0125   0.0054   0.0086   0.00    1.4
2018/03/13 14:47:30.000   78.256789273   16.230315246   397.6351   2  10   0.0274   0.0290   0.0411  -0.0124   0.0054   0.0085   0.00    1.4
2018/03/13 14:47:31.000   78.256789269   16.230315293   397.6321   2  10   0.0273   0.0290   0.0410  -0.0124   0.0054   0.0085   0.00    1.4
2018/03/13 14:47:32.000   78.256789264   16.230315337   397.6304   2  10   0.0272   0.0289   0.0409  -0.0124   0.0054   0.0084   0.00    1.4
2018/03/13 14:47:33.000   78.256789257   16.230315361   397.6284   2  10   0.0272   0.0289   0.0408  -0.0124   0.0054   0.0084   0.00    1.3
2018/03/13 14:47:34.000   78.256789246   16.230315444   397.6260   2  10   0.0271   0.0288   0.0407  -0.0124   0.0054   0.0083   0.00    1.3
2018/03/13 14:47:35.000   78.256789230   16.230315642   397.6246   2  10   0.0271   0.0287   0.0405  -0.0123   0.0054   0.0083   0.00    1.3
2018/03/13 14:47:36.000   78.256789228   16.230315710   397.6240   2  10   0.0270   0.0287   0.0404  -0.0123   0.0054   0.0083   0.00    1.3
2018/03/13 14:47:37.000   78.256789240   16.230315712   397.6236   2  10   0.0270   0.0286   0.0403  -0.0123   0.0054   0.0082   0.00    1.3
2018/03/13 14:47:38.000   78.256789253   16.230315731   397.6227   2  10   0.0269   0.0286   0.0402  -0.0123   0.0054   0.0082   0.00    1.3
2018/03/13 14:47:39.000   78.256789258   16.230315797   397.6209   2  10   0.0268   0.0285   0.0401  -0.0123   0.0054   0.0081   0.00    1.3
2018/03/13 14:47:40.000   78.256789265   16.230315764   397.6173   2  10   0.0268   0.0284   0.0400  -0.0122   0.0054   0.0081   0.00    1.3
2018/03/13 14:47:41.000   78.256789264   16.230315754   397.6150   2  10   0.0267   0.0284   0.0399  -0.0122   0.0054   0.0081   0.00    1.3
2018/03/13 14:47:42.000   78.256789265   16.230315788   397.6125   2  10   0.0267   0.0283   0.0398  -0.0122   0.0054   0.0080   0.00    1.3
2018/03/13 14:47:43.000   78.256789256   16.230315949   397.6113   2  10   0.0266   0.0283   0.0397  -0.0122   0.0054   0.0080   0.00    1.3
2018/03/13 14:47:44.000   78.256789248   16.230316080   397.6096   2  10   0.0266   0.0282   0.0396  -0.0122   0.0054   0.0079   0.00    1.3
2018/03/13 14:47:45.000   78.256789246   16.230316203   397.6088   2  10   0.0265   0.0282   0.0395  -0.0121   0.0054   0.0079   0.00    1.3
2018/03/13 14:47:46.000   78.256789240   16.230316326   397.6082   2  10   0.0265   0.0281   0.0394  -0.0121   0.0054   0.0079   0.00    1.3
2018/03/13 14:47:47.000   78.256789250   16.230316388   397.6094   2  10   0.0264   0.0281   0.0393  -0.0121   0.0054   0.0078   0.00    1.3
2018/03/13 14:47:48.000   78.256789259   16.230316385   397.6096   2  10   0.0264   0.0280   0.0391  -0.0121   0.0055   0.0078   0.00    1.3
2018/03/13 14:47:49.000   78.256789271   16.230316367   397.6081   2  10   0.0263   0.0279   0.0390  -0.0121   0.0055   0.0077   0.00    1.3
2018/03/13 14:47:50.000   78.256789280   16.230316316   397.6066   2  10   0.0263   0.0279   0.0389  -0.0120   0.0055   0.0077   0.00    1.3
2018/03/13 14:47:51.000   78.256789277   16.230316328   397.6056   2  10   0.0262   0.0278   0.0388  -0.0120   0.0055   0.0077   0.00    1.3
2018/03/13 14:47:52.000   78.256789286   16.230316343   397.6047   2  10   0.0262   0.0278   0.0387  -0.0120   0.0055   0.0076   0.00    1.3
2018/03/13 14:47:53.000   78.256789294   16.230316390   397.6054   2  10   0.0261   0.0277   0.0386  -0.0120   0.0055   0.0076   0.00    1.3
2018/03/13 14:47:54.000   78.256789310   16.230316465   397.6073   2  10   0.0260   0.0277   0.0385  -0.0120   0.0055   0.0076   0.00    1.3
