% program   : RTKPOST ver.2.4.2
% inp file  : Z:\home\linda\Documents\Spring18\GitHub_Unis\data\processed_data\46250753.obs
% inp file  : Z:\home\linda\Documents\Spring18\GitHub_Unis\data\base_station_data\lyrs0750.18o
% inp file  : Z:\home\linda\Documents\Spring18\GitHub_Unis\data\processed_data\46250753.nav
% obs start : 2018/03/16 10:02:44.0 GPST (week1992 468164.0s)
% obs end   : 2018/03/16 10:17:44.0 GPST (week1992 469064.0s)
% pos mode  : static
% freqs     : L1+L2
% solution  : forward
% elev mask : 15.0 deg
% dynamics  : on
% tidecorr  : off
% ionos opt : iono-free
% tropo opt : saastamoinen
% ephemeris : broadcast
% navi sys  : gps glonass galileo qzss sbas
% amb res   : fix and hold
% amb glo   : on
% val thres : 3.0
% antenna1  :                       ( 0.0000  0.0000  0.0000)
% antenna2  :                       ( 0.0000  0.0000  0.0000)
% ref pos   : 78.228825638   15.397310064   495.6816
%
% (lat/lon/height=WGS84/ellipsoidal,Q=1:fix,2:float,3:sbas,4:dgps,5:single,6:ppp,ns=# of satellites)
%  GPST                  latitude(deg) longitude(deg)  height(m)   Q  ns   sdn(m)   sde(m)   sdu(m)  sdne(m)  sdeu(m)  sdun(m) age(s)  ratio
2018/03/16 10:02:44.000   78.246712820   16.083844412   630.7832   2   9   1.4301   0.7890   4.8159   0.4569   0.9525   2.0906   0.00    1.1
2018/03/16 10:02:45.000   78.246719832   16.083875480   632.6620   2   9   1.0149   0.5585   3.4284   0.3251   0.6783   1.4889   0.00    1.0
2018/03/16 10:02:46.000   78.246717346   16.083882195   633.5316   2   9   0.8294   0.4562   2.8036   0.2658   0.5547   1.2177   0.00    1.1
2018/03/16 10:02:47.000   78.246716609   16.083873223   633.4520   2   9   0.7183   0.3951   2.4279   0.2302   0.4803   1.0545   0.00    1.2
2018/03/16 10:02:48.000   78.246715680   16.083865922   633.2585   2   9   0.6422   0.3534   2.1696   0.2057   0.4292   0.9423   0.00    1.2
2018/03/16 10:02:49.000   78.246716119   16.083863033   633.4722   2   9   0.5858   0.3226   1.9776   0.1875   0.3912   0.8588   0.00    1.2
2018/03/16 10:02:50.000   78.246717479   16.083860624   633.5701   2   9   0.5418   0.2986   1.8272   0.1733   0.3614   0.7934   0.00    1.2
2018/03/16 10:02:51.000   78.246716113   16.083860000   633.6413   2   9   0.5062   0.2792   1.7049   0.1617   0.3372   0.7402   0.00    1.3
2018/03/16 10:02:52.000   78.246715519   16.083856631   633.3711   2   9   0.4766   0.2632   1.6028   0.1521   0.3169   0.6958   0.00    1.2
2018/03/16 10:02:53.000   78.246714981   16.083856334   632.9219   2   9   0.4514   0.2496   1.5156   0.1438   0.2996   0.6578   0.00    1.1
2018/03/16 10:02:54.000   78.246713917   16.083856455   632.4465   2   9   0.4296   0.2379   1.4398   0.1367   0.2846   0.6247   0.00    1.0
2018/03/16 10:02:55.000   78.246713513   16.083854382   631.9441   2   9   0.4105   0.2277   1.3731   0.1304   0.2713   0.5956   0.00    1.0
2018/03/16 10:02:56.000   78.246711775   16.083853518   631.1818   2   9   0.3936   0.2187   1.3135   0.1248   0.2595   0.5696   0.00    1.1
2018/03/16 10:02:57.000   78.246710473   16.083850559   630.3982   2   9   0.3784   0.2107   1.2599   0.1198   0.2488   0.5462   0.00    1.2
2018/03/16 10:02:58.000   78.246710047   16.083848176   630.0676   2   9   0.3647   0.2034   1.2112   0.1152   0.2391   0.5249   0.00    1.2
2018/03/16 10:02:59.000   78.246710229   16.083846033   630.0671   2   9   0.3522   0.1969   1.1666   0.1110   0.2302   0.5053   0.00    1.2
2018/03/16 10:03:00.000   78.246709547   16.083843130   629.7903   2   9   0.3408   0.1909   1.1255   0.1072   0.2221   0.4874   0.00    1.2
2018/03/16 10:03:01.000   78.246709556   16.083840067   629.6777   2   9   0.3302   0.1854   1.0874   0.1036   0.2145   0.4707   0.00    1.2
2018/03/16 10:03:02.000   78.246709254   16.083838674   629.5510   2   9   0.3205   0.1804   1.0520   0.1003   0.2074   0.4551   0.00    1.2
2018/03/16 10:03:03.000   78.246708987   16.083837675   629.4243   2   9   0.3114   0.1757   1.0189   0.0972   0.2008   0.4406   0.00    1.2
2018/03/16 10:03:04.000   78.246708889   16.083836164   629.4630   2   9   0.3029   0.1714   0.9878   0.0943   0.1946   0.4269   0.00    1.2
2018/03/16 10:03:05.000   78.246708855   16.083835799   629.4551   2   9   0.2950   0.1674   0.9586   0.0916   0.1888   0.4141   0.00    1.2
2018/03/16 10:03:06.000   78.246708952   16.083834805   629.4853   2   9   0.2876   0.1636   0.9310   0.0890   0.1832   0.4019   0.00    1.1
2018/03/16 10:03:07.000   78.246708859   16.083835541   629.6547   2   9   0.2805   0.1600   0.9048   0.0866   0.1780   0.3904   0.00    1.1
2018/03/16 10:03:08.000   78.246709004   16.083835519   629.7956   2   9   0.2739   0.1567   0.8799   0.0843   0.1730   0.3794   0.00    1.1
2018/03/16 10:03:09.000   78.246709747   16.083836436   630.0261   2   9   0.2676   0.1535   0.8563   0.0821   0.1683   0.3690   0.00    1.1
2018/03/16 10:03:10.000   78.246710204   16.083836674   630.2506   2   9   0.2617   0.1506   0.8338   0.0801   0.1638   0.3590   0.00    1.0
2018/03/16 10:03:11.000   78.246710994   16.083837492   630.4991   2   9   0.2560   0.1478   0.8123   0.0781   0.1594   0.3495   0.00    1.0
2018/03/16 10:03:12.000   78.246710888   16.083837523   630.5074   2   9   0.2506   0.1451   0.7917   0.0762   0.1553   0.3404   0.00    1.0
2018/03/16 10:03:13.000   78.246711246   16.083837548   630.6051   2   9   0.2455   0.1425   0.7720   0.0744   0.1514   0.3317   0.00    1.0
2018/03/16 10:03:14.000   78.246710794   16.083837742   630.3806   2   9   0.2405   0.1401   0.7531   0.0726   0.1476   0.3233   0.00    1.0
2018/03/16 10:03:15.000   78.246710596   16.083838790   630.2302   2   9   0.2358   0.1378   0.7349   0.0710   0.1439   0.3152   0.00    1.1
2018/03/16 10:03:16.000   78.246710082   16.083839491   630.0356   2   9   0.2313   0.1356   0.7175   0.0694   0.1404   0.3075   0.00    1.1
2018/03/16 10:03:17.000   78.246709721   16.083839902   629.8695   2   9   0.2270   0.1335   0.7007   0.0679   0.1370   0.3001   0.00    1.1
2018/03/16 10:03:18.000   78.246709485   16.083838851   629.8222   2   9   0.2228   0.1315   0.6846   0.0664   0.1338   0.2929   0.00    1.1
2018/03/16 10:03:19.000   78.246709277   16.083837730   629.7961   2   9   0.2188   0.1295   0.6690   0.0650   0.1306   0.2859   0.00    1.2
2018/03/16 10:03:20.000   78.246709369   16.083837071   629.8834   2   9   0.2150   0.1277   0.6540   0.0636   0.1276   0.2793   0.00    1.2
2018/03/16 10:03:21.000   78.246709165   16.083836756   629.9550   2   9   0.2113   0.1259   0.6395   0.0623   0.1247   0.2728   0.00    1.2
2018/03/16 10:03:22.000   78.246709276   16.083836029   629.9647   2   9   0.2077   0.1242   0.6255   0.0611   0.1218   0.2666   0.00    1.2
2018/03/16 10:03:23.000   78.246709147   16.083836277   629.9722   2   9   0.2043   0.1225   0.6119   0.0598   0.1191   0.2605   0.00    1.3
2018/03/16 10:03:24.000   78.246708931   16.083835986   630.0001   2   9   0.2010   0.1209   0.5989   0.0587   0.1164   0.2547   0.00    1.3
2018/03/16 10:03:25.000   78.246708747   16.083836521   629.9037   2   9   0.1978   0.1193   0.5862   0.0575   0.1139   0.2490   0.00    1.3
2018/03/16 10:03:26.000   78.246708544   16.083837526   629.8503   2   9   0.1947   0.1179   0.5740   0.0564   0.1114   0.2436   0.00    1.3
2018/03/16 10:03:27.000   78.246708693   16.083838366   629.8869   2   9   0.1917   0.1164   0.5621   0.0554   0.1090   0.2383   0.00    1.3
2018/03/16 10:03:28.000   78.246708792   16.083839076   629.9341   2   9   0.1888   0.1150   0.5506   0.0544   0.1067   0.2331   0.00    1.3
2018/03/16 10:03:29.000   78.246708961   16.083839992   630.0296   2   9   0.1860   0.1137   0.5395   0.0534   0.1044   0.2282   0.00    1.3
2018/03/16 10:03:30.000   78.246709364   16.083840712   630.1447   2   9   0.1832   0.1124   0.5287   0.0524   0.1022   0.2233   0.00    1.3
2018/03/16 10:03:31.000   78.246709782   16.083840344   630.2388   2   9   0.1806   0.1111   0.5182   0.0515   0.1001   0.2186   0.00    1.3
2018/03/16 10:03:32.000   78.246709856   16.083840510   630.2315   2   9   0.1780   0.1098   0.5081   0.0506   0.0980   0.2141   0.00    1.3
2018/03/16 10:03:33.000   78.246709992   16.083840792   630.2250   2   9   0.1756   0.1087   0.4983   0.0497   0.0960   0.2097   0.00    1.3
2018/03/16 10:03:34.000   78.246709882   16.083839216   630.1230   2   9   0.1731   0.1075   0.4887   0.0489   0.0941   0.2054   0.00    1.2
2018/03/16 10:03:35.000   78.246709731   16.083839018   630.0450   2   9   0.1708   0.1064   0.4794   0.0481   0.0922   0.2012   0.00    1.2
2018/03/16 10:03:36.000   78.246709448   16.083838695   629.9035   2   9   0.1685   0.1053   0.4704   0.0473   0.0904   0.1972   0.00    1.2
2018/03/16 10:03:37.000   78.246709477   16.083838089   629.8231   2   9   0.1663   0.1042   0.4616   0.0465   0.0886   0.1932   0.00    1.2
2018/03/16 10:03:38.000   78.246709357   16.083836990   629.6872   2   9   0.1642   0.1031   0.4531   0.0458   0.0868   0.1894   0.00    1.2
2018/03/16 10:03:39.000   78.246709257   16.083836108   629.6255   2   9   0.1621   0.1021   0.4449   0.0451   0.0852   0.1857   0.00    1.2
2018/03/16 10:03:40.000   78.246709097   16.083835497   629.6057   2   9   0.1600   0.1011   0.4368   0.0444   0.0835   0.1821   0.00    1.2
2018/03/16 10:03:41.000   78.246709012   16.083834804   629.5722   2   9   0.1580   0.1002   0.4290   0.0437   0.0819   0.1786   0.00    1.2
2018/03/16 10:03:42.000   78.246709102   16.083835143   629.6101   2   9   0.1561   0.0992   0.4214   0.0431   0.0804   0.1751   0.00    1.2
2018/03/16 10:03:43.000   78.246709224   16.083835755   629.6969   2   9   0.1542   0.0983   0.4140   0.0424   0.0788   0.1718   0.00    1.2
2018/03/16 10:03:44.000   78.246709242   16.083835777   629.7624   2   9   0.1524   0.0974   0.4068   0.0418   0.0774   0.1686   0.00    1.2
2018/03/16 10:03:45.000   78.246709218   16.083836352   629.8485   2   9   0.1506   0.0966   0.3998   0.0412   0.0759   0.1654   0.00    1.2
2018/03/16 10:03:46.000   78.246709182   16.083836996   629.9459   2   9   0.1489   0.0957   0.3930   0.0407   0.0745   0.1623   0.00    1.2
2018/03/16 10:03:47.000   78.246709083   16.083837909   630.0200   2   9   0.1472   0.0949   0.3863   0.0401   0.0732   0.1593   0.00    1.2
2018/03/16 10:03:48.000   78.246709194   16.083837810   630.1545   2   9   0.1455   0.0940   0.3798   0.0396   0.0718   0.1564   0.00    1.2
2018/03/16 10:03:49.000   78.246709144   16.083838193   630.2617   2   9   0.1439   0.0932   0.3735   0.0390   0.0705   0.1536   0.00    1.2
2018/03/16 10:03:50.000   78.246709061   16.083838566   630.3199   2   9   0.1423   0.0925   0.3674   0.0385   0.0693   0.1508   0.00    1.2
2018/03/16 10:03:51.000   78.246708990   16.083838742   630.3659   2   9   0.1407   0.0917   0.3614   0.0380   0.0680   0.1481   0.00    1.2
2018/03/16 10:03:52.000   78.246709009   16.083839117   630.3708   2   9   0.1392   0.0909   0.3556   0.0375   0.0668   0.1454   0.00    1.2
2018/03/16 10:03:53.000   78.246708782   16.083839267   630.2891   2   9   0.1377   0.0902   0.3499   0.0371   0.0657   0.1429   0.00    1.2
2018/03/16 10:03:54.000   78.246708612   16.083839328   630.1880   2   9   0.1363   0.0895   0.3443   0.0366   0.0645   0.1404   0.00    1.2
2018/03/16 10:03:55.000   78.246708504   16.083839342   630.1275   2   9   0.1349   0.0888   0.3389   0.0362   0.0634   0.1379   0.00    1.2
2018/03/16 10:03:56.000   78.246708593   16.083839743   630.1957   2   9   0.1335   0.0881   0.3337   0.0357   0.0623   0.1355   0.00    1.2
2018/03/16 10:03:57.000   78.246708763   16.083839251   630.2862   2   9   0.1321   0.0874   0.3285   0.0353   0.0613   0.1332   0.00    1.2
2018/03/16 10:03:58.000   78.246708978   16.083839082   630.3931   2   9   0.1308   0.0867   0.3235   0.0349   0.0602   0.1309   0.00    1.2
2018/03/16 10:03:59.000   78.246709113   16.083838550   630.4802   2   9   0.1295   0.0861   0.3186   0.0345   0.0592   0.1287   0.00    1.2
2018/03/16 10:04:00.000   78.246709129   16.083838467   630.5039   2   9   0.1282   0.0854   0.3138   0.0341   0.0582   0.1265   0.00    1.2
2018/03/16 10:04:01.000   78.246708964   16.083838211   630.4721   2   9   0.1270   0.0848   0.3091   0.0338   0.0572   0.1244   0.00    1.2
2018/03/16 10:04:02.000   78.246708976   16.083837986   630.4421   2   9   0.1258   0.0842   0.3046   0.0334   0.0563   0.1224   0.00    1.2
2018/03/16 10:04:03.000   78.246708902   16.083838001   630.4046   2   9   0.1246   0.0836   0.3001   0.0331   0.0554   0.1203   0.00    1.2
2018/03/16 10:04:04.000   78.246708860   16.083838116   630.3750   2   9   0.1234   0.0830   0.2958   0.0327   0.0545   0.1184   0.00    1.2
2018/03/16 10:04:05.000   78.246708845   16.083838176   630.3714   2   9   0.1222   0.0824   0.2915   0.0324   0.0536   0.1164   0.00    1.2
2018/03/16 10:04:06.000   78.246708907   16.083838345   630.4201   2   9   0.1211   0.0818   0.2874   0.0321   0.0527   0.1146   0.00    1.2
2018/03/16 10:04:07.000   78.246708877   16.083837739   630.4632   2   9   0.1200   0.0813   0.2833   0.0317   0.0519   0.1127   0.00    1.2
2018/03/16 10:04:08.000   78.246708933   16.083837344   630.4949   2   9   0.1189   0.0807   0.2793   0.0314   0.0510   0.1109   0.00    1.2
2018/03/16 10:04:09.000   78.246708913   16.083837111   630.5257   2   9   0.1178   0.0802   0.2754   0.0311   0.0502   0.1092   0.00    1.2
2018/03/16 10:04:10.000   78.246708861   16.083836831   630.5337   2   9   0.1168   0.0796   0.2717   0.0308   0.0494   0.1074   0.00    1.2
2018/03/16 10:04:11.000   78.246708776   16.083836602   630.5152   2   9   0.1158   0.0791   0.2679   0.0306   0.0487   0.1058   0.00    1.2
2018/03/16 10:04:12.000   78.246708671   16.083836113   630.4785   2   9   0.1148   0.0786   0.2643   0.0303   0.0479   0.1041   0.00    1.2
2018/03/16 10:04:13.000   78.246708628   16.083835683   630.4616   2   9   0.1138   0.0780   0.2608   0.0300   0.0472   0.1025   0.00    1.2
2018/03/16 10:04:14.000   78.246708490   16.083835887   630.4277   2   9   0.1128   0.0775   0.2573   0.0297   0.0464   0.1009   0.00    1.2
2018/03/16 10:04:15.000   78.246708441   16.083835862   630.4038   2   9   0.1118   0.0770   0.2539   0.0295   0.0457   0.0994   0.00    1.2
2018/03/16 10:04:16.000   78.246708409   16.083835590   630.3809   2   9   0.1109   0.0765   0.2506   0.0292   0.0450   0.0979   0.00    1.2
2018/03/16 10:04:17.000   78.246708344   16.083835210   630.3718   2   9   0.1100   0.0761   0.2473   0.0290   0.0443   0.0964   0.00    1.2
2018/03/16 10:04:18.000   78.246708460   16.083835249   630.3875   2   9   0.1091   0.0756   0.2442   0.0288   0.0437   0.0950   0.00    1.2
2018/03/16 10:04:19.000   78.246708572   16.083835208   630.4134   2   9   0.1082   0.0751   0.2410   0.0285   0.0430   0.0936   0.00    1.2
2018/03/16 10:04:20.000   78.246708672   16.083834910   630.4129   2   9   0.1073   0.0746   0.2380   0.0283   0.0424   0.0922   0.00    1.2
2018/03/16 10:04:21.000   78.246708765   16.083834938   630.3979   2   9   0.1064   0.0742   0.2350   0.0281   0.0417   0.0908   0.00    1.2
2018/03/16 10:04:22.000   78.246708806   16.083834959   630.3763   2   9   0.1056   0.0737   0.2321   0.0279   0.0411   0.0895   0.00    1.2
2018/03/16 10:04:23.000   78.246708822   16.083834621   630.3337   2   9   0.1047   0.0733   0.2292   0.0277   0.0405   0.0882   0.00    1.2
2018/03/16 10:04:24.000   78.246708769   16.083834241   630.3214   2   9   0.1039   0.0729   0.2264   0.0275   0.0399   0.0869   0.00    1.2
2018/03/16 10:04:25.000   78.246708797   16.083834180   630.3292   2   9   0.1031   0.0724   0.2236   0.0273   0.0393   0.0857   0.00    1.2
2018/03/16 10:04:26.000   78.246708711   16.083833985   630.3511   2   9   0.1023   0.0720   0.2209   0.0271   0.0387   0.0844   0.00    1.2
2018/03/16 10:04:27.000   78.246708771   16.083834088   630.3915   2   9   0.1015   0.0716   0.2183   0.0269   0.0382   0.0832   0.00    1.2
2018/03/16 10:04:28.000   78.246708799   16.083834004   630.4416   2   9   0.1007   0.0712   0.2157   0.0267   0.0376   0.0821   0.00    1.2
2018/03/16 10:04:29.000   78.246708780   16.083833960   630.4598   2   9   0.1000   0.0707   0.2132   0.0265   0.0371   0.0809   0.00    1.2
2018/03/16 10:04:30.000   78.246708773   16.083834066   630.4509   2   9   0.0992   0.0703   0.2107   0.0263   0.0366   0.0798   0.00    1.2
2018/03/16 10:04:31.000   78.246708746   16.083834172   630.4334   2   9   0.0985   0.0699   0.2082   0.0261   0.0360   0.0787   0.00    1.2
2018/03/16 10:04:32.000   78.246708707   16.083834078   630.4061   2   9   0.0978   0.0695   0.2058   0.0260   0.0355   0.0776   0.00    1.2
2018/03/16 10:04:33.000   78.246708681   16.083834108   630.3896   2   9   0.0970   0.0692   0.2035   0.0258   0.0350   0.0765   0.00    1.2
2018/03/16 10:04:34.000   78.246708643   16.083834105   630.3824   2   9   0.0963   0.0688   0.2012   0.0256   0.0345   0.0755   0.00    1.2
2018/03/16 10:04:35.000   78.246708649   16.083834033   630.3808   2   9   0.0956   0.0684   0.1989   0.0255   0.0340   0.0745   0.00    1.2
2018/03/16 10:04:36.000   78.246708664   16.083833971   630.3922   2   9   0.0949   0.0680   0.1967   0.0253   0.0336   0.0735   0.00    1.2
2018/03/16 10:04:37.000   78.246708705   16.083834001   630.4019   2   9   0.0943   0.0676   0.1945   0.0252   0.0331   0.0725   0.00    1.2
2018/03/16 10:04:38.000   78.246708718   16.083833983   630.4243   2   9   0.0936   0.0673   0.1924   0.0250   0.0326   0.0715   0.00    1.2
2018/03/16 10:04:39.000   78.246708787   16.083833874   630.4251   2   9   0.0929   0.0669   0.1903   0.0249   0.0322   0.0706   0.00    1.2
2018/03/16 10:04:40.000   78.246708832   16.083833532   630.4241   2   9   0.0923   0.0666   0.1882   0.0247   0.0317   0.0696   0.00    1.2
2018/03/16 10:04:41.000   78.246708833   16.083833332   630.4038   2   9   0.0916   0.0662   0.1862   0.0246   0.0313   0.0687   0.00    1.2
2018/03/16 10:04:42.000   78.246708828   16.083833035   630.3704   2   9   0.0910   0.0659   0.1842   0.0245   0.0309   0.0678   0.00    1.2
2018/03/16 10:04:43.000   78.246708842   16.083833006   630.3330   2   9   0.0904   0.0655   0.1823   0.0243   0.0304   0.0669   0.00    1.2
2018/03/16 10:04:44.000   78.246708790   16.083832923   630.3138   2   9   0.0898   0.0652   0.1804   0.0242   0.0300   0.0661   0.00    1.2
2018/03/16 10:04:45.000   78.246708667   16.083832801   630.2985   2   9   0.0892   0.0648   0.1785   0.0241   0.0296   0.0652   0.00    1.2
2018/03/16 10:04:46.000   78.246708580   16.083832806   630.2945   2   9   0.0886   0.0645   0.1767   0.0239   0.0292   0.0644   0.00    1.2
2018/03/16 10:04:47.000   78.246708502   16.083832681   630.2807   2   9   0.0880   0.0642   0.1748   0.0238   0.0288   0.0636   0.00    1.2
2018/03/16 10:04:48.000   78.246708485   16.083832711   630.2821   2   9   0.0874   0.0638   0.1731   0.0237   0.0284   0.0627   0.00    1.2
2018/03/16 10:04:49.000   78.246708493   16.083832569   630.2933   2   9   0.0868   0.0635   0.1713   0.0236   0.0281   0.0620   0.00    1.2
2018/03/16 10:04:50.000   78.246708481   16.083832161   630.3064   2   9   0.0862   0.0632   0.1696   0.0234   0.0277   0.0612   0.00    1.2
2018/03/16 10:04:51.000   78.246708511   16.083832008   630.2992   2   9   0.0857   0.0629   0.1679   0.0233   0.0273   0.0604   0.00    1.2
2018/03/16 10:04:52.000   78.246708550   16.083831928   630.2980   2   9   0.0851   0.0626   0.1662   0.0232   0.0269   0.0597   0.00    1.2
2018/03/16 10:04:53.000   78.246708535   16.083831892   630.2974   2   9   0.0846   0.0623   0.1646   0.0231   0.0266   0.0589   0.00    1.2
2018/03/16 10:04:54.000   78.246708533   16.083831989   630.2895   2   9   0.0840   0.0620   0.1630   0.0230   0.0262   0.0582   0.00    1.2
2018/03/16 10:04:55.000   78.246708581   16.083831856   630.2895   2   9   0.0835   0.0616   0.1614   0.0229   0.0259   0.0575   0.00    1.2
2018/03/16 10:04:56.000   78.246708600   16.083831701   630.2757   2   9   0.0830   0.0613   0.1599   0.0228   0.0255   0.0568   0.00    1.2
2018/03/16 10:04:57.000   78.246708545   16.083831838   630.2614   2   9   0.0824   0.0611   0.1583   0.0227   0.0252   0.0561   0.00    1.2
2018/03/16 10:04:58.000   78.246708576   16.083831559   630.2439   2   9   0.0819   0.0608   0.1568   0.0226   0.0249   0.0554   0.00    1.2
2018/03/16 10:04:59.000   78.246708562   16.083831371   630.2387   2   9   0.0814   0.0605   0.1554   0.0225   0.0245   0.0548   0.00    1.2
2018/03/16 10:05:00.000   78.246708552   16.083831270   630.2395   2   9   0.0809   0.0602   0.1539   0.0224   0.0242   0.0541   0.00    1.2
2018/03/16 10:05:01.000   78.246708587   16.083830955   630.2456   2   9   0.0804   0.0599   0.1525   0.0223   0.0239   0.0535   0.00    1.2
2018/03/16 10:05:02.000   78.246708624   16.083831024   630.2538   2   9   0.0799   0.0596   0.1511   0.0222   0.0236   0.0528   0.00    1.2
2018/03/16 10:05:03.000   78.246708638   16.083830937   630.2454   2   9   0.0794   0.0593   0.1497   0.0221   0.0233   0.0522   0.00    1.2
2018/03/16 10:05:04.000   78.246708649   16.083831051   630.2410   2   9   0.0790   0.0591   0.1483   0.0220   0.0230   0.0516   0.00    1.2
2018/03/16 10:05:05.000   78.246708665   16.083831185   630.2361   2   9   0.0785   0.0588   0.1470   0.0219   0.0227   0.0510   0.00    1.2
2018/03/16 10:05:06.000   78.246708663   16.083831198   630.2394   2   9   0.0780   0.0585   0.1457   0.0218   0.0224   0.0504   0.00    1.2
2018/03/16 10:05:07.000   78.246708568   16.083831360   630.2496   2   9   0.0776   0.0582   0.1444   0.0217   0.0221   0.0498   0.00    1.2
2018/03/16 10:05:08.000   78.246708485   16.083831470   630.2634   2   9   0.0771   0.0580   0.1431   0.0216   0.0218   0.0492   0.00    1.2
2018/03/16 10:05:09.000   78.246708509   16.083831681   630.2786   2   9   0.0766   0.0577   0.1418   0.0215   0.0215   0.0487   0.00    1.2
2018/03/16 10:05:10.000   78.246708590   16.083831862   630.2920   2   9   0.0762   0.0574   0.1406   0.0215   0.0212   0.0481   0.00    1.2
2018/03/16 10:05:11.000   78.246708572   16.083832107   630.2996   2   9   0.0757   0.0572   0.1394   0.0214   0.0209   0.0476   0.00    1.2
2018/03/16 10:05:12.000   78.246708580   16.083832151   630.2992   2   9   0.0753   0.0569   0.1382   0.0213   0.0207   0.0470   0.00    1.1
2018/03/16 10:05:13.000   78.246708525   16.083832270   630.3042   2   9   0.0749   0.0567   0.1370   0.0212   0.0204   0.0465   0.00    1.1
2018/03/16 10:05:14.000   78.246708486   16.083832205   630.3076   2   9   0.0744   0.0564   0.1358   0.0211   0.0201   0.0460   0.00    1.1
2018/03/16 10:05:15.000   78.246708477   16.083832352   630.3159   2   9   0.0740   0.0562   0.1347   0.0210   0.0199   0.0455   0.00    1.1
2018/03/16 10:05:16.000   78.246708501   16.083832444   630.3285   2   9   0.0736   0.0559   0.1335   0.0210   0.0196   0.0450   0.00    1.1
2018/03/16 10:05:17.000   78.246708576   16.083832486   630.3458   2   9   0.0732   0.0557   0.1324   0.0209   0.0194   0.0445   0.00    1.1
2018/03/16 10:05:18.000   78.246708644   16.083832425   630.3638   2   9   0.0728   0.0554   0.1313   0.0208   0.0191   0.0440   0.00    1.1
2018/03/16 10:05:19.000   78.246708668   16.083832427   630.3703   2   9   0.0724   0.0552   0.1302   0.0207   0.0188   0.0435   0.00    1.1
2018/03/16 10:05:20.000   78.246708677   16.083832588   630.3716   2   9   0.0720   0.0550   0.1292   0.0207   0.0186   0.0430   0.00    1.1
2018/03/16 10:05:21.000   78.246708667   16.083832627   630.3692   2   9   0.0716   0.0547   0.1281   0.0206   0.0184   0.0425   0.00    1.1
2018/03/16 10:05:22.000   78.246708658   16.083832469   630.3620   2   9   0.0712   0.0545   0.1271   0.0205   0.0181   0.0421   0.00    1.1
2018/03/16 10:05:23.000   78.246708630   16.083832367   630.3609   2   9   0.0708   0.0543   0.1261   0.0204   0.0179   0.0416   0.00    1.1
2018/03/16 10:05:24.000   78.246708579   16.083832470   630.3686   2   9   0.0704   0.0540   0.1251   0.0204   0.0176   0.0412   0.00    1.1
2018/03/16 10:05:25.000   78.246708596   16.083832497   630.3783   2   9   0.0700   0.0538   0.1241   0.0203   0.0174   0.0407   0.00    1.1
2018/03/16 10:05:26.000   78.246708622   16.083832513   630.3934   2   9   0.0696   0.0536   0.1231   0.0202   0.0172   0.0403   0.00    1.1
2018/03/16 10:05:27.000   78.246708627   16.083832350   630.4026   2   9   0.0693   0.0534   0.1221   0.0202   0.0170   0.0399   0.00    1.1
2018/03/16 10:05:28.000   78.246708661   16.083832407   630.4077   2   9   0.0689   0.0531   0.1212   0.0201   0.0167   0.0394   0.00    1.1
2018/03/16 10:05:29.000   78.246708670   16.083832245   630.4155   2   9   0.0685   0.0529   0.1203   0.0200   0.0165   0.0390   0.00    1.1
2018/03/16 10:05:30.000   78.246708692   16.083832217   630.4080   2   9   0.0682   0.0527   0.1193   0.0200   0.0163   0.0386   0.00    1.1
2018/03/16 10:05:31.000   78.246708720   16.083832311   630.4042   2   9   0.0678   0.0525   0.1184   0.0199   0.0161   0.0382   0.00    1.1
2018/03/16 10:05:32.000   78.246708758   16.083832562   630.3989   2   9   0.0675   0.0523   0.1175   0.0198   0.0159   0.0378   0.00    1.1
2018/03/16 10:05:33.000   78.246708790   16.083832678   630.3965   2   9   0.0671   0.0520   0.1166   0.0198   0.0157   0.0374   0.00    1.1
2018/03/16 10:05:34.000   78.246708758   16.083832691   630.3955   2   9   0.0668   0.0518   0.1158   0.0197   0.0154   0.0370   0.00    1.1
2018/03/16 10:05:35.000   78.246708748   16.083832728   630.3999   2   9   0.0664   0.0516   0.1149   0.0196   0.0152   0.0367   0.00    1.1
2018/03/16 10:05:36.000   78.246708756   16.083832894   630.4084   2   9   0.0661   0.0514   0.1141   0.0196   0.0150   0.0363   0.00    1.1
2018/03/16 10:05:37.000   78.246708741   16.083832671   630.4224   2   9   0.0657   0.0512   0.1132   0.0195   0.0148   0.0359   0.00    1.1
2018/03/16 10:05:38.000   78.246708686   16.083832560   630.4320   2   9   0.0654   0.0510   0.1124   0.0195   0.0146   0.0355   0.00    1.1
2018/03/16 10:05:39.000   78.246708708   16.083832761   630.4389   2   9   0.0651   0.0508   0.1116   0.0194   0.0144   0.0352   0.00    1.1
2018/03/16 10:05:40.000   78.246708729   16.083832815   630.4360   2   9   0.0647   0.0506   0.1108   0.0193   0.0142   0.0348   0.00    1.1
2018/03/16 10:05:41.000   78.246708712   16.083832876   630.4311   2   9   0.0644   0.0504   0.1100   0.0193   0.0140   0.0345   0.00    1.1
2018/03/16 10:05:42.000   78.246708710   16.083832983   630.4209   2   9   0.0641   0.0502   0.1092   0.0192   0.0138   0.0341   0.00    1.1
2018/03/16 10:05:43.000   78.246708721   16.083833095   630.4228   2   9   0.0638   0.0500   0.1084   0.0192   0.0137   0.0338   0.00    1.1
2018/03/16 10:05:44.000   78.246708698   16.083833189   630.4345   2   9   0.0635   0.0498   0.1077   0.0191   0.0135   0.0334   0.00    1.1
2018/03/16 10:05:45.000   78.246708633   16.083833046   630.4426   2   9   0.0631   0.0496   0.1069   0.0191   0.0133   0.0331   0.00    1.1
2018/03/16 10:05:46.000   78.246708561   16.083832929   630.4564   2   9   0.0628   0.0494   0.1062   0.0190   0.0131   0.0328   0.00    1.1
2018/03/16 10:05:47.000   78.246708474   16.083832791   630.4631   2   9   0.0625   0.0492   0.1054   0.0189   0.0129   0.0325   0.00    1.1
2018/03/16 10:05:48.000   78.246708417   16.083832582   630.4670   2   9   0.0622   0.0491   0.1047   0.0189   0.0127   0.0321   0.00    1.1
2018/03/16 10:05:49.000   78.246708366   16.083832469   630.4666   2   9   0.0619   0.0489   0.1040   0.0188   0.0125   0.0318   0.00    1.1
2018/03/16 10:05:50.000   78.246708308   16.083832330   630.4606   2   9   0.0616   0.0487   0.1033   0.0188   0.0124   0.0315   0.00    1.1
2018/03/16 10:05:51.000   78.246708296   16.083832144   630.4552   2   9   0.0613   0.0485   0.1026   0.0187   0.0122   0.0312   0.00    1.1
2018/03/16 10:05:52.000   78.246708343   16.083832306   630.4511   2   9   0.0610   0.0483   0.1019   0.0187   0.0120   0.0309   0.00    1.1
2018/03/16 10:05:53.000   78.246708353   16.083832432   630.4413   2   9   0.0607   0.0481   0.1012   0.0186   0.0118   0.0306   0.00    1.1
2018/03/16 10:05:54.000   78.246708368   16.083832434   630.4232   2   9   0.0605   0.0480   0.1005   0.0186   0.0117   0.0303   0.00    1.1
2018/03/16 10:05:55.000   78.246708382   16.083832471   630.4209   2   9   0.0602   0.0478   0.0999   0.0185   0.0115   0.0300   0.00    1.1
2018/03/16 10:05:56.000   78.246708366   16.083832389   630.4253   2   9   0.0599   0.0476   0.0992   0.0185   0.0113   0.0297   0.00    1.1
2018/03/16 10:05:57.000   78.246708344   16.083832178   630.4402   2   9   0.0596   0.0474   0.0986   0.0184   0.0112   0.0294   0.00    1.1
2018/03/16 10:05:58.000   78.246708323   16.083832065   630.4513   2   9   0.0593   0.0472   0.0979   0.0184   0.0110   0.0292   0.00    1.1
2018/03/16 10:05:59.000   78.246708281   16.083831980   630.4579   2   9   0.0591   0.0471   0.0973   0.0183   0.0108   0.0289   0.00    1.1
2018/03/16 10:06:00.000   78.246708285   16.083831833   630.4541   2   9   0.0588   0.0469   0.0967   0.0183   0.0107   0.0286   0.00    1.1
2018/03/16 10:06:01.000   78.246708299   16.083831704   630.4534   2   9   0.0585   0.0467   0.0960   0.0182   0.0105   0.0283   0.00    1.1
2018/03/16 10:06:02.000   78.246708294   16.083831723   630.4464   2   9   0.0582   0.0466   0.0954   0.0182   0.0103   0.0281   0.00    1.1
2018/03/16 10:06:03.000   78.246708290   16.083831871   630.4398   2   9   0.0580   0.0464   0.0948   0.0181   0.0102   0.0278   0.00    1.1
2018/03/16 10:06:04.000   78.246708259   16.083832011   630.4359   2   9   0.0577   0.0462   0.0942   0.0181   0.0100   0.0276   0.00    1.0
2018/03/16 10:06:05.000   78.246708260   16.083832128   630.4401   2   9   0.0575   0.0461   0.0936   0.0180   0.0098   0.0273   0.00    1.0
2018/03/16 10:06:06.000   78.246708242   16.083832209   630.4417   2   9   0.0572   0.0459   0.0931   0.0180   0.0097   0.0270   0.00    1.0
2018/03/16 10:06:07.000   78.246708214   16.083832217   630.4475   2   9   0.0569   0.0457   0.0925   0.0179   0.0095   0.0268   0.00    1.0
2018/03/16 10:06:08.000   78.246708188   16.083832201   630.4580   2   9   0.0567   0.0456   0.0919   0.0179   0.0094   0.0265   0.00    1.0
2018/03/16 10:06:09.000   78.246708190   16.083832128   630.4676   2   9   0.0564   0.0454   0.0914   0.0178   0.0092   0.0263   0.00    1.0
2018/03/16 10:06:10.000   78.246708166   16.083832031   630.4765   2   9   0.0562   0.0452   0.0908   0.0178   0.0091   0.0261   0.00    1.0
2018/03/16 10:06:11.000   78.246708107   16.083831907   630.4826   2   9   0.0559   0.0451   0.0903   0.0177   0.0089   0.0258   0.00    1.0
2018/03/16 10:06:12.000   78.246708032   16.083831618   630.4843   2   9   0.0557   0.0449   0.0897   0.0177   0.0087   0.0256   0.00    1.0
2018/03/16 10:06:13.000   78.246707995   16.083831536   630.4836   2   9   0.0554   0.0448   0.0892   0.0176   0.0086   0.0254   0.00    1.0
2018/03/16 10:06:14.000   78.246707928   16.083831492   630.4795   2   9   0.0552   0.0446   0.0886   0.0176   0.0084   0.0251   0.00    1.0
2018/03/16 10:06:15.000   78.246707916   16.083831452   630.4710   2   9   0.0550   0.0445   0.0881   0.0175   0.0083   0.0249   0.00    1.0
2018/03/16 10:06:16.000   78.246707891   16.083831469   630.4588   2   9   0.0547   0.0443   0.0876   0.0175   0.0081   0.0247   0.00    1.1
2018/03/16 10:06:17.000   78.246707880   16.083831521   630.4474   2   9   0.0545   0.0442   0.0871   0.0174   0.0080   0.0244   0.00    1.1
2018/03/16 10:06:18.000   78.246707868   16.083831404   630.4435   2   9   0.0543   0.0440   0.0866   0.0174   0.0078   0.0242   0.00    1.1
2018/03/16 10:06:19.000   78.246707857   16.083831284   630.4438   2   9   0.0540   0.0439   0.0861   0.0174   0.0077   0.0240   0.00    1.1
2018/03/16 10:06:20.000   78.246707875   16.083831113   630.4455   2   9   0.0538   0.0437   0.0856   0.0173   0.0075   0.0238   0.00    1.1
2018/03/16 10:06:21.000   78.246707888   16.083830816   630.4486   2   9   0.0536   0.0436   0.0851   0.0173   0.0074   0.0236   0.00    1.1
2018/03/16 10:06:22.000   78.246707883   16.083830598   630.4512   2   9   0.0533   0.0434   0.0846   0.0172   0.0072   0.0234   0.00    1.1
2018/03/16 10:06:23.000   78.246707885   16.083830472   630.4544   2   9   0.0531   0.0433   0.0841   0.0172   0.0071   0.0232   0.00    1.1
2018/03/16 10:06:24.000   78.246707847   16.083830324   630.4509   2   9   0.0529   0.0431   0.0837   0.0171   0.0069   0.0230   0.00    1.1
2018/03/16 10:06:25.000   78.246707801   16.083830182   630.4511   2   9   0.0527   0.0430   0.0832   0.0171   0.0068   0.0228   0.00    1.1
2018/03/16 10:06:26.000   78.246707724   16.083830168   630.4543   2   9   0.0525   0.0428   0.0827   0.0171   0.0066   0.0226   0.00    1.1
2018/03/16 10:06:27.000   78.246707697   16.083830159   630.4556   2   9   0.0522   0.0427   0.0823   0.0170   0.0065   0.0224   0.00    1.2
2018/03/16 10:06:28.000   78.246707666   16.083830287   630.4585   2   9   0.0520   0.0426   0.0818   0.0170   0.0063   0.0222   0.00    1.2
2018/03/16 10:06:29.000   78.246707657   16.083830309   630.4584   2   9   0.0518   0.0424   0.0814   0.0169   0.0062   0.0220   0.00    1.2
2018/03/16 10:06:30.000   78.246707660   16.083830359   630.4606   2   9   0.0516   0.0423   0.0809   0.0169   0.0060   0.0218   0.00    1.2
2018/03/16 10:06:31.000   78.246707655   16.083830426   630.4625   2   9   0.0514   0.0421   0.0805   0.0168   0.0059   0.0216   0.00    1.2
2018/03/16 10:06:32.000   78.246707648   16.083830412   630.4686   2   9   0.0512   0.0420   0.0800   0.0168   0.0057   0.0214   0.00    1.2
2018/03/16 10:06:33.000   78.246707636   16.083830382   630.4726   2   9   0.0510   0.0419   0.0796   0.0168   0.0056   0.0212   0.00    1.2
2018/03/16 10:06:34.000   78.246707595   16.083830356   630.4751   2   9   0.0508   0.0417   0.0792   0.0167   0.0054   0.0210   0.00    1.2
2018/03/16 10:06:35.000   78.246707535   16.083830249   630.4740   2   9   0.0506   0.0416   0.0788   0.0167   0.0053   0.0209   0.00    1.2
2018/03/16 10:06:36.000   78.246707470   16.083830152   630.4767   2   9   0.0504   0.0415   0.0784   0.0166   0.0051   0.0207   0.00    1.2
2018/03/16 10:06:37.000   78.246707435   16.083830021   630.4771   2   9   0.0502   0.0413   0.0779   0.0166   0.0049   0.0205   0.00    1.2
2018/03/16 10:06:38.000   78.246707381   16.083830027   630.4773   2   9   0.0500   0.0412   0.0775   0.0166   0.0048   0.0203   0.00    1.3
2018/03/16 10:06:39.000   78.246707357   16.083829913   630.4772   2   9   0.0498   0.0411   0.0771   0.0165   0.0046   0.0202   0.00    1.3
2018/03/16 10:06:40.000   78.246707351   16.083829831   630.4774   2   9   0.0496   0.0409   0.0767   0.0165   0.0044   0.0200   0.00    1.3
2018/03/16 10:06:41.000   78.246707346   16.083829657   630.4710   2   9   0.0494   0.0408   0.0763   0.0164   0.0043   0.0198   0.00    1.3
2018/03/16 10:06:42.000   78.246707349   16.083829525   630.4647   2   9   0.0492   0.0407   0.0759   0.0164   0.0041   0.0196   0.00    1.3
2018/03/16 10:06:43.000   78.246707344   16.083829368   630.4634   2   9   0.0490   0.0405   0.0756   0.0164   0.0039   0.0195   0.00    1.3
2018/03/16 10:06:44.000   78.246707331   16.083829154   630.4625   2   9   0.0488   0.0404   0.0752   0.0163   0.0037   0.0193   0.00    1.3
2018/03/16 10:06:45.000   78.246707329   16.083829027   630.4561   2   9   0.0486   0.0403   0.0748   0.0163   0.0036   0.0192   0.00    1.3
2018/03/16 10:06:46.000   78.246707327   16.083828934   630.4487   2   9   0.0485   0.0402   0.0744   0.0162   0.0034   0.0190   0.00    1.3
2018/03/16 10:06:47.000   78.246707327   16.083828618   630.4441   2   9   0.0483   0.0400   0.0740   0.0162   0.0032   0.0188   0.00    1.3
2018/03/16 10:06:48.000   78.246707291   16.083828361   630.4423   2   9   0.0481   0.0399   0.0737   0.0162   0.0030   0.0187   0.00    1.3
2018/03/16 10:06:49.000   78.246707259   16.083828236   630.4393   2   9   0.0479   0.0398   0.0733   0.0161   0.0027   0.0185   0.00    1.4
2018/03/16 10:06:50.000   78.246707221   16.083828139   630.4367   2   9   0.0477   0.0397   0.0729   0.0161   0.0025   0.0184   0.00    1.4
2018/03/16 10:06:51.000   78.246707201   16.083828014   630.4345   2   9   0.0475   0.0396   0.0726   0.0161   0.0023   0.0182   0.00    1.4
2018/03/16 10:06:52.000   78.246707194   16.083827814   630.4347   2   9   0.0474   0.0394   0.0722   0.0160   0.0020   0.0181   0.00    1.4
2018/03/16 10:06:53.000   78.246707220   16.083827719   630.4339   2   9   0.0472   0.0393   0.0719   0.0160   0.0017   0.0179   0.00    1.4
2018/03/16 10:06:54.000   78.246707248   16.083827736   630.4292   2   9   0.0470   0.0392   0.0715   0.0160   0.0013   0.0178   0.00    1.4
2018/03/16 10:06:55.000   78.246707258   16.083827757   630.4303   2   9   0.0468   0.0391   0.0712   0.0159   0.0007   0.0176   0.00    1.4
2018/03/16 10:06:56.000   78.246707278   16.083827795   630.4283   2   9   0.0467   0.0390   0.0708   0.0159  -0.0007   0.0175   0.00    1.4
2018/03/16 10:06:57.000   78.246707303   16.083827891   630.4248   2   9   0.0465   0.0389   0.0705   0.0158  -0.0013   0.0173   0.00    1.4
2018/03/16 10:06:58.000   78.246707306   16.083827945   630.4223   2   9   0.0463   0.0387   0.0702   0.0158  -0.0016   0.0172   0.00    1.4
2018/03/16 10:06:59.000   78.246707289   16.083827820   630.4200   2   9   0.0462   0.0386   0.0698   0.0158  -0.0019   0.0170   0.00    1.4
2018/03/16 10:07:00.000   78.246707281   16.083827822   630.4222   2   9   0.0460   0.0385   0.0695   0.0157  -0.0022   0.0169   0.00    1.4
2018/03/16 10:07:01.000   78.246707285   16.083827740   630.4269   2   9   0.0458   0.0384   0.0692   0.0157  -0.0024   0.0168   0.00    1.4
2018/03/16 10:07:02.000   78.246707282   16.083827810   630.4354   2   9   0.0457   0.0383   0.0689   0.0157  -0.0026   0.0166   0.00    1.4
2018/03/16 10:07:03.000   78.246707277   16.083827837   630.4424   2   9   0.0455   0.0382   0.0685   0.0156  -0.0027   0.0165   0.00    1.4
2018/03/16 10:07:04.000   78.246707294   16.083827931   630.4474   2   9   0.0453   0.0381   0.0682   0.0156  -0.0029   0.0164   0.00    1.4
2018/03/16 10:07:05.000   78.246707296   16.083827903   630.4495   2   9   0.0452   0.0379   0.0679   0.0156  -0.0031   0.0162   0.00    1.4
2018/03/16 10:07:06.000   78.246707294   16.083827885   630.4476   2   9   0.0450   0.0378   0.0676   0.0155  -0.0032   0.0161   0.00    1.4
2018/03/16 10:07:07.000   78.246707287   16.083827808   630.4482   2   9   0.0449   0.0377   0.0673   0.0155  -0.0033   0.0160   0.00    1.4
2018/03/16 10:07:08.000   78.246707283   16.083827724   630.4509   2   9   0.0447   0.0376   0.0670   0.0155  -0.0035   0.0158   0.00    1.4
2018/03/16 10:07:09.000   78.246707290   16.083827661   630.4557   2   9   0.0445   0.0375   0.0667   0.0154  -0.0036   0.0157   0.00    1.4
2018/03/16 10:07:10.000   78.246707288   16.083827675   630.4584   2   9   0.0444   0.0374   0.0664   0.0154  -0.0037   0.0156   0.00    1.4
2018/03/16 10:07:11.000   78.246707274   16.083827497   630.4641   2   9   0.0442   0.0373   0.0661   0.0154  -0.0038   0.0155   0.00    1.4
2018/03/16 10:07:12.000   78.246707252   16.083827266   630.4657   2   9   0.0441   0.0372   0.0658   0.0153  -0.0039   0.0153   0.00    1.4
2018/03/16 10:07:13.000   78.246707224   16.083827201   630.4672   2   9   0.0439   0.0371   0.0655   0.0153  -0.0040   0.0152   0.00    1.4
2018/03/16 10:07:14.000   78.246707206   16.083827151   630.4637   2   9   0.0438   0.0370   0.0652   0.0153  -0.0041   0.0151   0.00    1.4
2018/03/16 10:07:15.000   78.246707196   16.083827050   630.4591   2   9   0.0436   0.0369   0.0649   0.0152  -0.0042   0.0150   0.00    1.4
2018/03/16 10:07:16.000   78.246707193   16.083826986   630.4537   2   9   0.0435   0.0368   0.0646   0.0152  -0.0043   0.0148   0.00    1.4
2018/03/16 10:07:17.000   78.246707182   16.083826890   630.4514   2   9   0.0433   0.0367   0.0644   0.0152  -0.0043   0.0147   0.00    1.4
2018/03/16 10:07:18.000   78.246707204   16.083826832   630.4531   2   9   0.0432   0.0366   0.0641   0.0151  -0.0044   0.0146   0.00    1.4
2018/03/16 10:07:19.000   78.246707213   16.083826768   630.4536   2   9   0.0430   0.0365   0.0638   0.0151  -0.0045   0.0145   0.00    1.4
2018/03/16 10:07:20.000   78.246707210   16.083826621   630.4552   2   9   0.0429   0.0364   0.0635   0.0151  -0.0046   0.0144   0.00    1.4
2018/03/16 10:07:21.000   78.246707219   16.083826364   630.4590   2   9   0.0428   0.0363   0.0633   0.0150  -0.0046   0.0143   0.00    1.4
2018/03/16 10:07:22.000   78.246707213   16.083826137   630.4619   2   9   0.0426   0.0362   0.0630   0.0150  -0.0047   0.0141   0.00    1.4
2018/03/16 10:07:23.000   78.246707199   16.083825940   630.4640   2   9   0.0425   0.0361   0.0627   0.0150  -0.0048   0.0140   0.00    1.4
2018/03/16 10:07:24.000   78.246707192   16.083825709   630.4652   2   9   0.0423   0.0360   0.0625   0.0149  -0.0048   0.0139   0.00    1.4
2018/03/16 10:07:25.000   78.246707209   16.083825681   630.4633   2   9   0.0422   0.0359   0.0622   0.0149  -0.0049   0.0138   0.00    1.4
2018/03/16 10:07:26.000   78.246707217   16.083825717   630.4567   2   9   0.0421   0.0358   0.0620   0.0149  -0.0050   0.0137   0.00    1.4
2018/03/16 10:07:27.000   78.246707224   16.083825710   630.4517   2   9   0.0419   0.0357   0.0617   0.0148  -0.0050   0.0136   0.00    1.4
2018/03/16 10:07:28.000   78.246707233   16.083825828   630.4513   2   9   0.0418   0.0356   0.0614   0.0148  -0.0051   0.0135   0.00    1.4
2018/03/16 10:07:29.000   78.246707250   16.083825885   630.4532   2   9   0.0416   0.0355   0.0612   0.0148  -0.0051   0.0134   0.00    1.4
2018/03/16 10:07:30.000   78.246707283   16.083825983   630.4572   2   9   0.0415   0.0354   0.0609   0.0147  -0.0052   0.0133   0.00    1.4
2018/03/16 10:07:31.000   78.246707307   16.083826009   630.4596   2   9   0.0414   0.0353   0.0607   0.0147  -0.0052   0.0132   0.00    1.4
2018/03/16 10:07:32.000   78.246707328   16.083826054   630.4644   2   9   0.0412   0.0352   0.0604   0.0147  -0.0053   0.0131   0.00    1.4
2018/03/16 10:07:33.000   78.246707339   16.083826095   630.4699   2   9   0.0411   0.0351   0.0602   0.0147  -0.0053   0.0130   0.00    1.4
2018/03/16 10:07:34.000   78.246707319   16.083826013   630.4770   2   9   0.0410   0.0350   0.0600   0.0146  -0.0054   0.0129   0.00    1.4
2018/03/16 10:07:35.000   78.246707308   16.083826013   630.4867   2   9   0.0409   0.0349   0.0597   0.0146  -0.0054   0.0128   0.00    1.4
2018/03/16 10:07:36.000   78.246707291   16.083826000   630.4944   2   9   0.0407   0.0348   0.0595   0.0146  -0.0055   0.0127   0.00    1.4
2018/03/16 10:07:37.000   78.246707266   16.083825954   630.4988   2   9   0.0406   0.0347   0.0592   0.0145  -0.0055   0.0126   0.00    1.4
2018/03/16 10:07:38.000   78.246707272   16.083825991   630.5017   2   9   0.0405   0.0346   0.0590   0.0145  -0.0056   0.0125   0.00    1.3
2018/03/16 10:07:39.000   78.246707274   16.083826021   630.5039   2   9   0.0403   0.0346   0.0588   0.0145  -0.0056   0.0124   0.00    1.3
2018/03/16 10:07:40.000   78.246707270   16.083826039   630.5030   2   9   0.0402   0.0345   0.0585   0.0144  -0.0056   0.0123   0.00    1.3
2018/03/16 10:07:41.000   78.246707289   16.083826035   630.5005   2   9   0.0401   0.0344   0.0583   0.0144  -0.0057   0.0122   0.00    1.3
2018/03/16 10:07:42.000   78.246707286   16.083826105   630.4983   2   9   0.0400   0.0343   0.0581   0.0144  -0.0057   0.0121   0.00    1.3
2018/03/16 10:07:43.000   78.246707290   16.083826084   630.4970   2   9   0.0398   0.0342   0.0579   0.0144  -0.0057   0.0120   0.00    1.3
2018/03/16 10:07:44.000   78.246707288   16.083826064   630.4974   2   9   0.0397   0.0341   0.0576   0.0143  -0.0058   0.0119   0.00    1.3
2018/03/16 10:07:45.000   78.246707290   16.083826048   630.4994   2   9   0.0396   0.0340   0.0574   0.0143  -0.0058   0.0118   0.00    1.3
2018/03/16 10:07:46.000   78.246707289   16.083826041   630.5013   2   9   0.0395   0.0339   0.0572   0.0143  -0.0059   0.0117   0.00    1.3
2018/03/16 10:07:47.000   78.246707281   16.083826007   630.5014   2   9   0.0394   0.0339   0.0570   0.0142  -0.0059   0.0116   0.00    1.3
2018/03/16 10:07:48.000   78.246707272   16.083825906   630.5022   2   9   0.0392   0.0338   0.0568   0.0142  -0.0059   0.0115   0.00    1.3
2018/03/16 10:07:49.000   78.246707265   16.083825899   630.5006   2   9   0.0391   0.0337   0.0566   0.0142  -0.0059   0.0114   0.00    1.3
2018/03/16 10:07:50.000   78.246707254   16.083825859   630.4973   2   9   0.0390   0.0336   0.0563   0.0142  -0.0060   0.0113   0.00    1.3
2018/03/16 10:07:51.000   78.246707257   16.083825841   630.4951   2   9   0.0389   0.0335   0.0561   0.0141  -0.0060   0.0113   0.00    1.3
2018/03/16 10:07:52.000   78.246707263   16.083825745   630.4941   2   9   0.0388   0.0334   0.0559   0.0141  -0.0060   0.0112   0.00    1.3
2018/03/16 10:07:53.000   78.246707260   16.083825686   630.4904   2   9   0.0387   0.0333   0.0557   0.0141  -0.0061   0.0111   0.00    1.3
2018/03/16 10:07:54.000   78.246707276   16.083825707   630.4870   2   9   0.0385   0.0333   0.0555   0.0140  -0.0061   0.0110   0.00    1.3
2018/03/16 10:07:55.000   78.246707299   16.083825669   630.4826   2   9   0.0384   0.0332   0.0553   0.0140  -0.0061   0.0109   0.00    1.3
2018/03/16 10:07:56.000   78.246707278   16.083825552   630.4807   2   9   0.0383   0.0331   0.0551   0.0140  -0.0061   0.0108   0.00    1.3
2018/03/16 10:07:57.000   78.246707274   16.083825536   630.4816   2   9   0.0382   0.0330   0.0549   0.0140  -0.0062   0.0107   0.00    1.3
2018/03/16 10:07:58.000   78.246707256   16.083825541   630.4832   2   9   0.0381   0.0329   0.0547   0.0139  -0.0062   0.0107   0.00    1.3
2018/03/16 10:07:59.000   78.246707240   16.083825612   630.4868   2   9   0.0380   0.0329   0.0545   0.0139  -0.0062   0.0106   0.00    1.3
2018/03/16 10:08:00.000   78.246707243   16.083825802   630.4903   2   9   0.0379   0.0328   0.0543   0.0139  -0.0062   0.0105   0.00    1.3
2018/03/16 10:08:01.000   78.246707252   16.083825953   630.4927   2   9   0.0378   0.0327   0.0541   0.0139  -0.0063   0.0104   0.00    1.3
2018/03/16 10:08:02.000   78.246707255   16.083826061   630.4998   2   9   0.0376   0.0326   0.0539   0.0138  -0.0063   0.0103   0.00    1.2
2018/03/16 10:08:03.000   78.246707252   16.083826166   630.5062   2   9   0.0375   0.0325   0.0537   0.0138  -0.0063   0.0102   0.00    1.2
2018/03/16 10:08:04.000   78.246707265   16.083826255   630.5105   2   9   0.0374   0.0325   0.0535   0.0138  -0.0063   0.0102   0.00    1.2
2018/03/16 10:08:05.000   78.246707269   16.083826268   630.5129   2   9   0.0373   0.0324   0.0534   0.0137  -0.0063   0.0101   0.00    1.2
2018/03/16 10:08:06.000   78.246707279   16.083826294   630.5186   2   9   0.0372   0.0323   0.0532   0.0137  -0.0064   0.0100   0.00    1.2
2018/03/16 10:08:07.000   78.246707283   16.083826292   630.5235   2   9   0.0371   0.0322   0.0530   0.0137  -0.0064   0.0099   0.00    1.2
2018/03/16 10:08:08.000   78.246707279   16.083826242   630.5282   2   9   0.0370   0.0321   0.0528   0.0137  -0.0064   0.0098   0.00    1.2
2018/03/16 10:08:09.000   78.246707263   16.083826168   630.5283   2   9   0.0369   0.0321   0.0526   0.0136  -0.0064   0.0098   0.00    1.2
2018/03/16 10:08:10.000   78.246707259   16.083826107   630.5292   2   9   0.0368   0.0320   0.0524   0.0136  -0.0064   0.0097   0.00    1.2
2018/03/16 10:08:11.000   78.246707266   16.083826099   630.5271   2   9   0.0367   0.0319   0.0523   0.0136  -0.0065   0.0096   0.00    1.2
2018/03/16 10:08:12.000   78.246707253   16.083825979   630.5246   2   9   0.0366   0.0318   0.0521   0.0136  -0.0065   0.0095   0.00    1.2
2018/03/16 10:08:13.000   78.246707223   16.083825905   630.5238   2   9   0.0365   0.0318   0.0519   0.0135  -0.0065   0.0095   0.00    1.2
2018/03/16 10:08:14.000   78.246707217   16.083825909   630.5186   2   9   0.0364   0.0317   0.0517   0.0135  -0.0065   0.0094   0.00    1.2
2018/03/16 10:08:15.000   78.246707211   16.083825930   630.5131   2   9   0.0363   0.0316   0.0515   0.0135  -0.0065   0.0093   0.00    1.2
2018/03/16 10:08:16.000   78.246707208   16.083825845   630.5084   2   9   0.0362   0.0316   0.0514   0.0135  -0.0065   0.0092   0.00    1.2
2018/03/16 10:08:17.000   78.246707202   16.083825758   630.5052   2   9   0.0361   0.0315   0.0512   0.0134  -0.0066   0.0092   0.00    1.2
2018/03/16 10:08:18.000   78.246707199   16.083825651   630.5040   2   9   0.0360   0.0314   0.0510   0.0134  -0.0066   0.0091   0.00    1.2
2018/03/16 10:08:19.000   78.246707183   16.083825501   630.5074   2   9   0.0359   0.0313   0.0509   0.0134  -0.0066   0.0090   0.00    1.2
2018/03/16 10:08:20.000   78.246707168   16.083825335   630.5115   2   9   0.0358   0.0313   0.0507   0.0134  -0.0066   0.0089   0.00    1.2
2018/03/16 10:08:21.000   78.246707160   16.083825173   630.5169   2   9   0.0357   0.0312   0.0505   0.0133  -0.0066   0.0089   0.00    1.1
2018/03/16 10:08:22.000   78.246707151   16.083825108   630.5204   2   9   0.0356   0.0311   0.0504   0.0133  -0.0066   0.0088   0.00    1.1
2018/03/16 10:08:23.000   78.246707153   16.083825064   630.5179   2   9   0.0355   0.0310   0.0502   0.0133  -0.0066   0.0087   0.00    1.1
2018/03/16 10:08:24.000   78.246707155   16.083825095   630.5125   2   9   0.0354   0.0310   0.0500   0.0133  -0.0067   0.0087   0.00    1.1
2018/03/16 10:08:25.000   78.246707162   16.083825157   630.5060   2   9   0.0353   0.0309   0.0499   0.0132  -0.0067   0.0086   0.00    1.1
2018/03/16 10:08:26.000   78.246707163   16.083825235   630.5026   2   9   0.0352   0.0308   0.0497   0.0132  -0.0067   0.0085   0.00    1.1
2018/03/16 10:08:27.000   78.246707174   16.083825293   630.5014   2   9   0.0351   0.0308   0.0495   0.0132  -0.0067   0.0085   0.00    1.1
2018/03/16 10:08:28.000   78.246707176   16.083825364   630.5032   2   9   0.0350   0.0307   0.0494   0.0132  -0.0067   0.0084   0.00    1.1
2018/03/16 10:08:29.000   78.246707165   16.083825347   630.5045   2   9   0.0350   0.0306   0.0492   0.0131  -0.0067   0.0083   0.00    1.1
2018/03/16 10:08:30.000   78.246707159   16.083825251   630.5041   2   9   0.0349   0.0306   0.0491   0.0131  -0.0067   0.0083   0.00    1.1
2018/03/16 10:08:31.000   78.246707150   16.083825212   630.5054   2   9   0.0348   0.0305   0.0489   0.0131  -0.0067   0.0082   0.00    1.1
2018/03/16 10:08:32.000   78.246707155   16.083825137   630.5068   2   9   0.0347   0.0304   0.0488   0.0131  -0.0068   0.0081   0.00    1.1
2018/03/16 10:08:33.000   78.246707156   16.083825059   630.5067   2   9   0.0346   0.0304   0.0486   0.0130  -0.0068   0.0081   0.00    1.1
2018/03/16 10:08:34.000   78.246707149   16.083824974   630.5062   2   9   0.0345   0.0303   0.0485   0.0130  -0.0068   0.0080   0.00    1.1
2018/03/16 10:08:35.000   78.246707133   16.083824943   630.5031   2   9   0.0344   0.0302   0.0483   0.0130  -0.0068   0.0079   0.00    1.1
2018/03/16 10:08:36.000   78.246707115   16.083824995   630.4981   2   9   0.0343   0.0302   0.0482   0.0130  -0.0068   0.0079   0.00    1.1
2018/03/16 10:08:37.000   78.246707085   16.083824988   630.4933   2   9   0.0342   0.0301   0.0480   0.0130  -0.0068   0.0078   0.00    1.1
2018/03/16 10:08:38.000   78.246707071   16.083824995   630.4887   2   9   0.0341   0.0300   0.0479   0.0129  -0.0068   0.0077   0.00    1.1
2018/03/16 10:08:39.000   78.246707055   16.083824946   630.4865   2   9   0.0341   0.0300   0.0477   0.0129  -0.0068   0.0077   0.00    1.1
2018/03/16 10:08:40.000   78.246707060   16.083824875   630.4871   2   9   0.0340   0.0299   0.0476   0.0129  -0.0068   0.0076   0.00    1.1
2018/03/16 10:08:41.000   78.246707054   16.083824747   630.4873   2   9   0.0339   0.0298   0.0474   0.0129  -0.0068   0.0075   0.00    1.1
2018/03/16 10:08:42.000   78.246707046   16.083824605   630.4891   2   9   0.0338   0.0298   0.0473   0.0128  -0.0068   0.0075   0.00    1.0
2018/03/16 10:08:43.000   78.246707038   16.083824468   630.4893   2   9   0.0337   0.0297   0.0471   0.0128  -0.0068   0.0074   0.00    1.0
2018/03/16 10:08:44.000   78.246707038   16.083824387   630.4880   2   9   0.0336   0.0296   0.0470   0.0128  -0.0069   0.0073   0.00    1.0
2018/03/16 10:08:45.000   78.246707035   16.083824314   630.4892   2   9   0.0336   0.0296   0.0468   0.0128  -0.0069   0.0073   0.00    1.0
2018/03/16 10:08:46.000   78.246707039   16.083824345   630.4893   2   9   0.0335   0.0295   0.0467   0.0128  -0.0069   0.0072   0.00    1.0
2018/03/16 10:08:47.000   78.246707045   16.083824390   630.4878   2   9   0.0334   0.0295   0.0466   0.0127  -0.0069   0.0072   0.00    1.0
2018/03/16 10:08:48.000   78.246707050   16.083824445   630.4844   2   9   0.0333   0.0294   0.0464   0.0127  -0.0069   0.0071   0.00    1.0
2018/03/16 10:08:49.000   78.246707059   16.083824463   630.4799   2   9   0.0332   0.0293   0.0463   0.0127  -0.0069   0.0070   0.00    1.0
2018/03/16 10:08:50.000   78.246707062   16.083824458   630.4777   2   9   0.0331   0.0293   0.0462   0.0127  -0.0069   0.0070   0.00    1.0
2018/03/16 10:08:51.000   78.246707065   16.083824474   630.4760   2   9   0.0331   0.0292   0.0460   0.0126  -0.0069   0.0069   0.00    1.0
2018/03/16 10:08:52.000   78.246707081   16.083824470   630.4783   2   9   0.0330   0.0291   0.0459   0.0126  -0.0069   0.0069   0.00    1.0
2018/03/16 10:08:53.000   78.246707072   16.083824461   630.4805   2   9   0.0329   0.0291   0.0458   0.0126  -0.0069   0.0068   0.00    1.0
2018/03/16 10:08:54.000   78.246707051   16.083824365   630.4852   2   9   0.0328   0.0290   0.0456   0.0126  -0.0069   0.0067   0.00    1.0
2018/03/16 10:08:55.000   78.246707039   16.083824333   630.4888   2   9   0.0327   0.0290   0.0455   0.0126  -0.0069   0.0067   0.00    1.0
2018/03/16 10:08:56.000   78.246707037   16.083824286   630.4916   2   9   0.0327   0.0289   0.0454   0.0125  -0.0069   0.0066   0.00    1.0
2018/03/16 10:08:57.000   78.246707026   16.083824322   630.4898   2   9   0.0326   0.0288   0.0452   0.0125  -0.0069   0.0066   0.00    1.0
2018/03/16 10:08:58.000   78.246707019   16.083824317   630.4858   2   9   0.0325   0.0288   0.0451   0.0125  -0.0069   0.0065   0.00    1.0
2018/03/16 10:08:59.000   78.246707017   16.083824362   630.4810   2   9   0.0324   0.0287   0.0450   0.0125  -0.0069   0.0065   0.00    1.0
2018/03/16 10:09:00.000   78.246707006   16.083824398   630.4774   2   9   0.0324   0.0287   0.0448   0.0124  -0.0070   0.0064   0.00    1.0
2018/03/16 10:09:01.000   78.246707003   16.083824438   630.4745   2   9   0.0323   0.0286   0.0447   0.0124  -0.0070   0.0063   0.00    1.1
2018/03/16 10:09:02.000   78.246707003   16.083824425   630.4739   2   9   0.0322   0.0286   0.0446   0.0124  -0.0070   0.0063   0.00    1.1
2018/03/16 10:09:03.000   78.246706999   16.083824368   630.4736   2   9   0.0321   0.0285   0.0445   0.0124  -0.0070   0.0062   0.00    1.1
2018/03/16 10:09:04.000   78.246706995   16.083824270   630.4749   2   9   0.0320   0.0284   0.0443   0.0124  -0.0070   0.0062   0.00    1.1
2018/03/16 10:09:05.000   78.246707001   16.083824179   630.4773   2   9   0.0320   0.0284   0.0442   0.0123  -0.0070   0.0061   0.00    1.1
2018/03/16 10:09:06.000   78.246707005   16.083824110   630.4780   2   9   0.0319   0.0283   0.0441   0.0123  -0.0070   0.0061   0.00    1.1
2018/03/16 10:09:07.000   78.246707000   16.083824023   630.4783   2   9   0.0318   0.0283   0.0440   0.0123  -0.0070   0.0060   0.00    1.1
2018/03/16 10:09:08.000   78.246706994   16.083823991   630.4760   2   9   0.0318   0.0282   0.0438   0.0123  -0.0070   0.0059   0.00    1.1
2018/03/16 10:09:09.000   78.246706988   16.083823859   630.4743   2   9   0.0317   0.0282   0.0437   0.0123  -0.0070   0.0059   0.00    1.1
2018/03/16 10:09:10.000   78.246706987   16.083823839   630.4703   2   9   0.0316   0.0281   0.0436   0.0122  -0.0070   0.0058   0.00    1.0
2018/03/16 10:09:11.000   78.246706964   16.083823775   630.4678   2   9   0.0315   0.0280   0.0435   0.0122  -0.0070   0.0058   0.00    1.1
2018/03/16 10:09:12.000   78.246706947   16.083823744   630.4641   2   9   0.0315   0.0280   0.0434   0.0122  -0.0070   0.0057   0.00    1.1
2018/03/16 10:09:13.000   78.246706939   16.083823717   630.4613   2   9   0.0314   0.0279   0.0433   0.0122  -0.0070   0.0057   0.00    1.1
2018/03/16 10:09:14.000   78.246706929   16.083823685   630.4617   2   9   0.0313   0.0279   0.0431   0.0122  -0.0070   0.0056   0.00    1.1
2018/03/16 10:09:15.000   78.246706925   16.083823600   630.4651   2   9   0.0312   0.0278   0.0430   0.0121  -0.0070   0.0056   0.00    1.1
2018/03/16 10:09:16.000   78.246706926   16.083823593   630.4689   2   9   0.0312   0.0278   0.0429   0.0121  -0.0070   0.0055   0.00    1.1
2018/03/16 10:09:17.000   78.246706923   16.083823541   630.4745   2   9   0.0311   0.0277   0.0428   0.0121  -0.0070   0.0055   0.00    1.1
2018/03/16 10:09:18.000   78.246706923   16.083823521   630.4771   2   9   0.0310   0.0277   0.0427   0.0121  -0.0070   0.0054   0.00    1.1
2018/03/16 10:09:19.000   78.246706923   16.083823542   630.4788   2   9   0.0310   0.0276   0.0426   0.0121  -0.0070   0.0054   0.00    1.1
2018/03/16 10:09:20.000   78.246706923   16.083823593   630.4791   2   9   0.0309   0.0276   0.0424   0.0120  -0.0070   0.0053   0.00    1.1
2018/03/16 10:09:21.000   78.246706931   16.083823664   630.4783   2   9   0.0308   0.0275   0.0423   0.0120  -0.0070   0.0052   0.00    1.1
2018/03/16 10:09:22.000   78.246706934   16.083823735   630.4799   2   9   0.0308   0.0274   0.0422   0.0120  -0.0070   0.0052   0.00    1.0
2018/03/16 10:09:23.000   78.246706933   16.083823857   630.4794   2   9   0.0307   0.0274   0.0421   0.0120  -0.0070   0.0051   0.00    1.0
2018/03/16 10:09:24.000   78.246706932   16.083823908   630.4783   2   9   0.0306   0.0273   0.0420   0.0120  -0.0070   0.0051   0.00    1.0
2018/03/16 10:09:25.000   78.246706934   16.083823943   630.4776   2   9   0.0306   0.0273   0.0419   0.0119  -0.0070   0.0050   0.00    1.0
2018/03/16 10:09:26.000   78.246706932   16.083823912   630.4774   2   9   0.0305   0.0272   0.0418   0.0119  -0.0070   0.0050   0.00    1.0
2018/03/16 10:09:27.000   78.246706929   16.083823901   630.4778   2   9   0.0304   0.0272   0.0417   0.0119  -0.0070   0.0049   0.00    1.0
2018/03/16 10:09:28.000   78.246706946   16.083823851   630.4783   2   9   0.0304   0.0271   0.0416   0.0119  -0.0070   0.0049   0.00    1.0
2018/03/16 10:09:29.000   78.246706954   16.083823771   630.4799   2   9   0.0303   0.0271   0.0415   0.0119  -0.0070   0.0048   0.00    1.0
2018/03/16 10:09:30.000   78.246706946   16.083823720   630.4798   2   9   0.0302   0.0270   0.0414   0.0119  -0.0070   0.0048   0.00    1.0
2018/03/16 10:09:31.000   78.246706940   16.083823663   630.4801   2   9   0.0302   0.0270   0.0413   0.0118  -0.0070   0.0047   0.00    1.0
2018/03/16 10:09:32.000   78.246706938   16.083823669   630.4794   2   9   0.0301   0.0269   0.0412   0.0118  -0.0070   0.0047   0.00    1.0
2018/03/16 10:09:33.000   78.246706929   16.083823663   630.4782   2   9   0.0300   0.0269   0.0410   0.0118  -0.0070   0.0046   0.00    1.0
2018/03/16 10:09:34.000   78.246706938   16.083823661   630.4771   2   9   0.0300   0.0268   0.0409   0.0118  -0.0070   0.0046   0.00    1.0
2018/03/16 10:09:35.000   78.246706931   16.083823650   630.4768   2   9   0.0299   0.0268   0.0408   0.0118  -0.0070   0.0045   0.00    1.0
2018/03/16 10:09:36.000   78.246706929   16.083823653   630.4769   2   9   0.0298   0.0267   0.0407   0.0117  -0.0070   0.0045   0.00    1.0
2018/03/16 10:09:37.000   78.246706934   16.083823668   630.4776   2   9   0.0298   0.0267   0.0406   0.0117  -0.0070   0.0044   0.00    1.0
