% program   : RTKPOST ver.2.4.2
% inp file  : Z:\home\linda\Documents\Spring18\GitHub_Unis\data\processed_data\46250722.obs
% inp file  : Z:\home\linda\Documents\Spring18\GitHub_Unis\data\base_station_data\lyrs0720.18o
% inp file  : Z:\home\linda\Documents\Spring18\GitHub_Unis\data\processed_data\46250722.nav
% obs start : 2018/03/13 12:37:03.0 GPST (week1992 218223.0s)
% obs end   : 2018/03/13 12:52:04.0 GPST (week1992 219124.0s)
% pos mode  : static
% freqs     : L1+L2
% solution  : forward
% elev mask : 15.0 deg
% dynamics  : on
% tidecorr  : off
% ionos opt : iono-free
% tropo opt : saastamoinen
% ephemeris : broadcast
% navi sys  : gps glonass galileo qzss sbas
% amb res   : fix and hold
% amb glo   : on
% val thres : 3.0
% antenna1  :                       ( 0.0000  0.0000  0.0000)
% antenna2  :                       ( 0.0000  0.0000  0.0000)
% ref pos   : 78.228825638   15.397310064   495.6816
%
% (lat/lon/height=WGS84/ellipsoidal,Q=1:fix,2:float,3:sbas,4:dgps,5:single,6:ppp,ns=# of satellites)
%  GPST                  latitude(deg) longitude(deg)  height(m)   Q  ns   sdn(m)   sde(m)   sdu(m)  sdne(m)  sdeu(m)  sdun(m) age(s)  ratio
2018/03/13 12:37:03.000   78.254775821   16.249324940   345.8650   2   8   1.0989   1.0695   5.5463  -0.5259   1.7240  -0.8231   0.00    1.1
2018/03/13 12:37:04.000   78.254781191   16.249320370   344.6813   2   8   0.7780   0.7585   3.9564  -0.3730   1.2300  -0.5862   0.00    1.2
2018/03/13 12:37:05.000   78.254781032   16.249339210   344.9237   2   8   0.6354   0.6198   3.2369  -0.3047   1.0063  -0.4793   0.00    1.2
2018/03/13 12:37:06.000   78.254782249   16.249346833   344.7402   2   8   0.5504   0.5368   2.8031  -0.2639   0.8715  -0.4151   0.00    1.2
2018/03/13 12:37:07.000   78.254782865   16.249353481   344.6441   2   8   0.4923   0.4800   2.5043  -0.2360   0.7786  -0.3709   0.00    1.3
2018/03/13 12:37:08.000   78.254783286   16.249353791   344.0206   2   8   0.4494   0.4379   2.2818  -0.2153   0.7094  -0.3380   0.00    1.3
2018/03/13 12:37:09.000   78.254783322   16.249351315   344.0417   2   8   0.4160   0.4052   2.1072  -0.1992   0.6551  -0.3123   0.00    1.3
2018/03/13 12:37:10.000   78.254783159   16.249355416   344.6381   2   8   0.3891   0.3787   1.9651  -0.1862   0.6109  -0.2914   0.00    1.2
2018/03/13 12:37:11.000   78.254782990   16.249354350   344.7965   2   8   0.3668   0.3567   1.8462  -0.1754   0.5739  -0.2740   0.00    1.2
2018/03/13 12:37:12.000   78.254783446   16.249354799   345.1141   2   8   0.3479   0.3380   1.7445  -0.1662   0.5422  -0.2591   0.00    1.2
2018/03/13 12:37:13.000   78.254783783   16.249352393   344.8329   2   8   0.3316   0.3218   1.6559  -0.1583   0.5146  -0.2462   0.00    1.2
2018/03/13 12:37:14.000   78.254783774   16.249348161   344.5441   2   8   0.3174   0.3077   1.5778  -0.1513   0.4903  -0.2348   0.00    1.2
2018/03/13 12:37:15.000   78.254784347   16.249349340   344.6269   2   8   0.3049   0.2952   1.5080  -0.1452   0.4685  -0.2247   0.00    1.1
2018/03/13 12:37:16.000   78.254784755   16.249349266   344.0960   2   8   0.2937   0.2840   1.4450  -0.1397   0.4489  -0.2156   0.00    1.2
2018/03/13 12:37:17.000   78.254784381   16.249347067   343.6691   2   8   0.2837   0.2739   1.3877  -0.1348   0.4310  -0.2074   0.00    1.2
2018/03/13 12:37:18.000   78.254783424   16.249345572   343.7045   2   8   0.2746   0.2648   1.3351  -0.1303   0.4146  -0.1999   0.00    1.2
2018/03/13 12:37:19.000   78.254782711   16.249344185   343.5826   2   8   0.2663   0.2564   1.2867  -0.1262   0.3995  -0.1929   0.00    1.2
2018/03/13 12:37:20.000   78.254782903   16.249343993   343.4071   2   8   0.2587   0.2487   1.2418  -0.1224   0.3855  -0.1865   0.00    1.2
2018/03/13 12:37:21.000   78.254782930   16.249345589   343.4361   2   8   0.2517   0.2416   1.1999  -0.1189   0.3724  -0.1806   0.00    1.2
2018/03/13 12:37:22.000   78.254782827   16.249347783   343.4746   2   8   0.2452   0.2350   1.1608  -0.1157   0.3602  -0.1751   0.00    1.2
2018/03/13 12:37:23.000   78.254783251   16.249347900   343.5803   2   8   0.2392   0.2289   1.1240  -0.1127   0.3487  -0.1699   0.00    1.2
2018/03/13 12:37:24.000   78.254783565   16.249347998   343.7206   2   8   0.2336   0.2231   1.0894  -0.1098   0.3379  -0.1650   0.00    1.2
2018/03/13 12:37:25.000   78.254783840   16.249348987   343.7911   2   8   0.2284   0.2178   1.0566  -0.1072   0.3277  -0.1605   0.00    1.2
2018/03/13 12:37:26.000   78.254784407   16.249347738   343.7956   2   8   0.2235   0.2127   1.0256  -0.1047   0.3180  -0.1562   0.00    1.2
2018/03/13 12:37:27.000   78.254784620   16.249348783   343.8892   2   8   0.2189   0.2079   0.9962  -0.1024   0.3088  -0.1521   0.00    1.2
2018/03/13 12:37:28.000   78.254784624   16.249349221   343.9888   2   8   0.2145   0.2034   0.9682  -0.1002   0.3000  -0.1482   0.00    1.2
2018/03/13 12:37:29.000   78.254784687   16.249349887   344.0539   2   8   0.2104   0.1992   0.9415  -0.0981   0.2916  -0.1445   0.00    1.2
2018/03/13 12:37:30.000   78.254785050   16.249351119   343.9064   2   8   0.2065   0.1951   0.9160  -0.0961   0.2837  -0.1410   0.00    1.2
2018/03/13 12:37:31.000   78.254785046   16.249350337   343.8662   2   8   0.2028   0.1913   0.8917  -0.0942   0.2760  -0.1377   0.00    1.2
2018/03/13 12:37:32.000   78.254785189   16.249350218   343.9203   2   8   0.1993   0.1876   0.8684  -0.0924   0.2687  -0.1345   0.00    1.3
2018/03/13 12:37:33.000   78.254785090   16.249349647   343.8341   2   8   0.1959   0.1841   0.8460  -0.0907   0.2617  -0.1314   0.00    1.3
2018/03/13 12:37:34.000   78.254784762   16.249349218   343.7274   2   8   0.1927   0.1808   0.8246  -0.0890   0.2550  -0.1285   0.00    1.3
2018/03/13 12:37:35.000   78.254784881   16.249348831   343.7416   2   8   0.1897   0.1776   0.8040  -0.0874   0.2485  -0.1257   0.00    1.3
2018/03/13 12:37:36.000   78.254784892   16.249349021   343.8089   2   8   0.1868   0.1746   0.7842  -0.0859   0.2423  -0.1231   0.00    1.4
2018/03/13 12:37:37.000   78.254785048   16.249349045   343.7537   2   8   0.1840   0.1716   0.7652  -0.0845   0.2363  -0.1205   0.00    1.4
2018/03/13 12:37:38.000   78.254784921   16.249349075   343.6667   2   8   0.1813   0.1688   0.7468  -0.0831   0.2306  -0.1180   0.00    1.4
2018/03/13 12:37:39.000   78.254785001   16.249348845   343.5912   2   8   0.1787   0.1661   0.7292  -0.0817   0.2250  -0.1157   0.00    1.5
2018/03/13 12:37:40.000   78.254785081   16.249348651   343.6330   2   8   0.1762   0.1636   0.7122  -0.0804   0.2197  -0.1134   0.00    1.5
2018/03/13 12:37:41.000   78.254785079   16.249348422   343.6091   2   8   0.1738   0.1611   0.6957  -0.0792   0.2145  -0.1112   0.00    1.5
2018/03/13 12:37:42.000   78.254784889   16.249347831   343.6682   2   8   0.1715   0.1587   0.6799  -0.0780   0.2096  -0.1091   0.00    1.5
2018/03/13 12:37:43.000   78.254785054   16.249347491   343.7219   2   8   0.1693   0.1563   0.6646  -0.0768   0.2047  -0.1071   0.00    1.5
2018/03/13 12:37:44.000   78.254784970   16.249348837   343.7922   2   8   0.1671   0.1541   0.6498  -0.0757   0.2001  -0.1051   0.00    1.6
2018/03/13 12:37:45.000   78.254784878   16.249349755   343.7698   2   8   0.1651   0.1520   0.6355  -0.0746   0.1956  -0.1032   0.00    1.6
2018/03/13 12:37:46.000   78.254784910   16.249350221   343.8392   2   8   0.1631   0.1499   0.6217  -0.0735   0.1913  -0.1014   0.00    1.7
2018/03/13 12:37:47.000   78.254784602   16.249350271   343.8644   2   8   0.1611   0.1479   0.6084  -0.0725   0.1870  -0.0996   0.00    1.7
2018/03/13 12:37:48.000   78.254784535   16.249349091   343.6855   2   8   0.1592   0.1459   0.5954  -0.0715   0.1830  -0.0979   0.00    1.8
2018/03/13 12:37:49.000   78.254784312   16.249348037   343.6068   2   8   0.1574   0.1440   0.5829  -0.0706   0.1790  -0.0963   0.00    1.8
2018/03/13 12:37:50.000   78.254784167   16.249347722   343.5944   2   8   0.1556   0.1422   0.5708  -0.0696   0.1752  -0.0947   0.00    1.8
2018/03/13 12:37:51.000   78.254784046   16.249347547   343.6298   2   8   0.1539   0.1404   0.5591  -0.0687   0.1715  -0.0931   0.00    1.8
2018/03/13 12:37:52.000   78.254784153   16.249347256   343.6628   2   8   0.1522   0.1387   0.5477  -0.0678   0.1679  -0.0917   0.00    1.8
2018/03/13 12:37:53.000   78.254784192   16.249347140   343.6359   2   8   0.1506   0.1370   0.5367  -0.0670   0.1645  -0.0902   0.00    1.8
2018/03/13 12:37:54.000   78.254784204   16.249346263   343.6437   2   8   0.1490   0.1354   0.5260  -0.0661   0.1611  -0.0888   0.00    1.8
2018/03/13 12:37:55.000   78.254784165   16.249345796   343.6516   2   8   0.1475   0.1339   0.5156  -0.0653   0.1578  -0.0875   0.00    1.8
2018/03/13 12:37:56.000   78.254784064   16.249346040   343.7012   2   8   0.1460   0.1323   0.5056  -0.0645   0.1546  -0.0862   0.00    1.8
2018/03/13 12:37:57.000   78.254784193   16.249346299   343.7215   2   8   0.1445   0.1308   0.4958  -0.0637   0.1516  -0.0849   0.00    1.7
2018/03/13 12:37:58.000   78.254784238   16.249346369   343.7304   2   8   0.1431   0.1294   0.4863  -0.0630   0.1486  -0.0837   0.00    1.7
2018/03/13 12:37:59.000   78.254784251   16.249346676   343.7116   2   8   0.1417   0.1280   0.4771  -0.0622   0.1457  -0.0825   0.00    1.7
2018/03/13 12:38:00.000   78.254784234   16.249347681   343.7197   2   8   0.1404   0.1266   0.4682  -0.0615   0.1428  -0.0813   0.00    1.7
2018/03/13 12:38:01.000   78.254784134   16.249347848   343.7139   2   8   0.1390   0.1253   0.4595  -0.0608   0.1401  -0.0802   0.00    1.7
2018/03/13 12:38:02.000   78.254784011   16.249347597   343.6880   2   8   0.1377   0.1240   0.4511  -0.0601   0.1374  -0.0791   0.00    1.7
2018/03/13 12:38:03.000   78.254783989   16.249347017   343.6721   2   8   0.1365   0.1227   0.4429  -0.0594   0.1348  -0.0780   0.00    1.7
2018/03/13 12:38:04.000   78.254783749   16.249346547   343.6287   2   8   0.1352   0.1215   0.4350  -0.0588   0.1323  -0.0770   0.00    1.7
2018/03/13 12:38:05.000   78.254783557   16.249345780   343.6387   2   8   0.1340   0.1203   0.4272  -0.0581   0.1299  -0.0760   0.00    1.7
2018/03/13 12:38:06.000   78.254783578   16.249344490   343.6121   2   8   0.1329   0.1191   0.4197  -0.0575   0.1275  -0.0750   0.00    1.7
2018/03/13 12:38:07.000   78.254783453   16.249344683   343.6191   2   8   0.1317   0.1179   0.4124  -0.0569   0.1252  -0.0741   0.00    1.7
2018/03/13 12:38:08.000   78.254783329   16.249344482   343.6285   2   8   0.1306   0.1168   0.4052  -0.0563   0.1229  -0.0731   0.00    1.7
2018/03/13 12:38:09.000   78.254783460   16.249344116   343.6517   2   8   0.1295   0.1157   0.3983  -0.0557   0.1207  -0.0722   0.00    1.7
2018/03/13 12:38:10.000   78.254783556   16.249344453   343.6794   2   8   0.1284   0.1146   0.3915  -0.0551   0.1186  -0.0714   0.00    1.7
2018/03/13 12:38:11.000   78.254783634   16.249344374   343.7093   2   8   0.1273   0.1136   0.3850  -0.0545   0.1165  -0.0705   0.00    1.6
2018/03/13 12:38:12.000   78.254783711   16.249344242   343.7272   2   8   0.1263   0.1126   0.3786  -0.0540   0.1145  -0.0697   0.00    1.6
2018/03/13 12:38:13.000   78.254783688   16.249344463   343.7116   2   8   0.1252   0.1116   0.3723  -0.0534   0.1125  -0.0689   0.00    1.6
2018/03/13 12:38:14.000   78.254783674   16.249344229   343.6577   2   8   0.1242   0.1106   0.3662  -0.0529   0.1106  -0.0681   0.00    1.6
2018/03/13 12:38:15.000   78.254783601   16.249344220   343.6349   2   8   0.1232   0.1096   0.3603  -0.0523   0.1087  -0.0673   0.00    1.6
2018/03/13 12:38:16.000   78.254783617   16.249343420   343.5985   2   8   0.1223   0.1087   0.3546  -0.0518   0.1069  -0.0666   0.00    1.6
2018/03/13 12:38:17.000   78.254783646   16.249342735   343.5841   2   8   0.1213   0.1077   0.3489  -0.0513   0.1051  -0.0659   0.00    1.6
2018/03/13 12:38:18.000   78.254783584   16.249342483   343.5816   2   8   0.1204   0.1068   0.3435  -0.0508   0.1033  -0.0652   0.00    1.6
2018/03/13 12:38:19.000   78.254783616   16.249342147   343.5564   2   8   0.1195   0.1059   0.3381  -0.0503   0.1016  -0.0645   0.00    1.6
2018/03/13 12:38:20.000   78.254783666   16.249342165   343.5325   2   8   0.1186   0.1051   0.3329  -0.0498   0.1000  -0.0638   0.00    1.5
2018/03/13 12:38:21.000   78.254783494   16.249342298   343.4961   2   8   0.1177   0.1042   0.3278  -0.0493   0.0984  -0.0631   0.00    1.6
2018/03/13 12:38:22.000   78.254783393   16.249342565   343.4632   2   8   0.1168   0.1034   0.3228  -0.0488   0.0968  -0.0625   0.00    1.5
2018/03/13 12:38:23.000   78.254783329   16.249342212   343.4316   2   8   0.1160   0.1026   0.3180  -0.0484   0.0953  -0.0618   0.00    1.5
2018/03/13 12:38:24.000   78.254783392   16.249341530   343.4137   2   8   0.1151   0.1017   0.3133  -0.0479   0.0938  -0.0612   0.00    1.5
2018/03/13 12:38:25.000   78.254783298   16.249341047   343.3937   2   8   0.1143   0.1010   0.3087  -0.0474   0.0923  -0.0606   0.00    1.5
2018/03/13 12:38:26.000   78.254783418   16.249341242   343.3778   2   8   0.1135   0.1002   0.3041  -0.0470   0.0909  -0.0600   0.00    1.5
2018/03/13 12:38:27.000   78.254783430   16.249340555   343.3403   2   8   0.1127   0.0994   0.2997  -0.0466   0.0895  -0.0595   0.00    1.5
2018/03/13 12:38:28.000   78.254783438   16.249340324   343.2838   2   8   0.1119   0.0987   0.2954  -0.0461   0.0881  -0.0589   0.00    1.5
2018/03/13 12:38:29.000   78.254783394   16.249340313   343.2619   2   8   0.1111   0.0979   0.2912  -0.0457   0.0867  -0.0584   0.00    1.5
2018/03/13 12:38:30.000   78.254783447   16.249340375   343.2403   2   8   0.1103   0.0972   0.2871  -0.0453   0.0854  -0.0578   0.00    1.5
2018/03/13 12:38:31.000   78.254783457   16.249340073   343.2185   2   8   0.1096   0.0965   0.2831  -0.0448   0.0842  -0.0573   0.00    1.5
2018/03/13 12:38:32.000   78.254783406   16.249340413   343.1751   2   8   0.1088   0.0958   0.2792  -0.0444   0.0829  -0.0568   0.00    1.5
2018/03/13 12:38:33.000   78.254783300   16.249340475   343.1437   2   8   0.1081   0.0951   0.2754  -0.0440   0.0817  -0.0563   0.00    1.5
2018/03/13 12:38:34.000   78.254783260   16.249340163   343.1191   2   8   0.1074   0.0944   0.2716  -0.0436   0.0805  -0.0558   0.00    1.5
2018/03/13 12:38:35.000   78.254783256   16.249339692   343.0880   2   8   0.1067   0.0937   0.2680  -0.0432   0.0793  -0.0553   0.00    1.5
2018/03/13 12:38:36.000   78.254783179   16.249339394   343.0669   2   8   0.1060   0.0931   0.2644  -0.0429   0.0782  -0.0548   0.00    1.5
2018/03/13 12:38:37.000   78.254783211   16.249339403   343.0638   2   8   0.1053   0.0924   0.2609  -0.0425   0.0771  -0.0544   0.00    1.4
2018/03/13 12:38:38.000   78.254783204   16.249339082   343.0758   2   8   0.1046   0.0918   0.2575  -0.0421   0.0760  -0.0539   0.00    1.4
2018/03/13 12:38:39.000   78.254783137   16.249339099   343.1023   2   8   0.1039   0.0912   0.2541  -0.0417   0.0749  -0.0535   0.00    1.4
2018/03/13 12:38:40.000   78.254783207   16.249338743   343.1248   2   8   0.1032   0.0906   0.2508  -0.0413   0.0739  -0.0530   0.00    1.4
2018/03/13 12:38:41.000   78.254783246   16.249338779   343.1274   2   8   0.1026   0.0900   0.2476  -0.0410   0.0728  -0.0526   0.00    1.4
2018/03/13 12:38:42.000   78.254783186   16.249339154   343.1149   2   8   0.1019   0.0894   0.2444  -0.0406   0.0718  -0.0522   0.00    1.4
2018/03/13 12:38:43.000   78.254783256   16.249339407   343.0964   2   8   0.1013   0.0888   0.2414  -0.0403   0.0709  -0.0518   0.00    1.4
2018/03/13 12:38:44.000   78.254783378   16.249339278   343.0501   2   8   0.1007   0.0882   0.2384  -0.0399   0.0699  -0.0514   0.00    1.4
2018/03/13 12:38:45.000   78.254783435   16.249339261   342.9992   2   8   0.1001   0.0876   0.2354  -0.0396   0.0689  -0.0510   0.00    1.4
2018/03/13 12:38:46.000   78.254783363   16.249338857   342.9523   2   8   0.0994   0.0871   0.2325  -0.0392   0.0680  -0.0506   0.00    1.4
2018/03/13 12:38:47.000   78.254783339   16.249338947   342.9369   2   8   0.0988   0.0865   0.2297  -0.0389   0.0671  -0.0502   0.00    1.4
2018/03/13 12:38:48.000   78.254783361   16.249338873   342.9271   2   8   0.0982   0.0859   0.2269  -0.0385   0.0662  -0.0499   0.00    1.4
2018/03/13 12:38:49.000   78.254783401   16.249339319   342.9083   2   8   0.0977   0.0854   0.2242  -0.0382   0.0654  -0.0495   0.00    1.4
2018/03/13 12:38:50.000   78.254783364   16.249339883   342.8967   2   8   0.0971   0.0849   0.2215  -0.0379   0.0645  -0.0491   0.00    1.4
2018/03/13 12:38:51.000   78.254783359   16.249340153   342.8733   2   8   0.0965   0.0843   0.2189  -0.0376   0.0637  -0.0488   0.00    1.4
2018/03/13 12:38:52.000   78.254783295   16.249340656   342.8592   2   8   0.0959   0.0838   0.2163  -0.0372   0.0629  -0.0484   0.00    1.4
2018/03/13 12:38:53.000   78.254783356   16.249340924   342.8410   2   8   0.0954   0.0833   0.2138  -0.0369   0.0621  -0.0481   0.00    1.4
2018/03/13 12:38:54.000   78.254783313   16.249341149   342.8427   2   8   0.0948   0.0828   0.2113  -0.0366   0.0613  -0.0478   0.00    1.4
2018/03/13 12:38:55.000   78.254783387   16.249341099   342.8452   2   8   0.0943   0.0823   0.2089  -0.0363   0.0605  -0.0474   0.00    1.4
2018/03/13 12:38:56.000   78.254783488   16.249341036   342.8439   2   8   0.0937   0.0818   0.2065  -0.0360   0.0597  -0.0471   0.00    1.3
2018/03/13 12:38:57.000   78.254783537   16.249341034   342.8405   2   8   0.0932   0.0813   0.2042  -0.0357   0.0590  -0.0468   0.00    1.3
2018/03/13 12:38:58.000   78.254783534   16.249340751   342.8500   2   8   0.0927   0.0808   0.2019  -0.0354   0.0583  -0.0465   0.00    1.3
2018/03/13 12:38:59.000   78.254783509   16.249340963   342.8553   2   8   0.0921   0.0804   0.1997  -0.0351   0.0575  -0.0462   0.00    1.3
2018/03/13 12:39:00.000   78.254783462   16.249341346   342.8543   2   8   0.0916   0.0799   0.1975  -0.0348   0.0568  -0.0459   0.00    1.3
2018/03/13 12:39:01.000   78.254783330   16.249341701   342.8386   2   8   0.0911   0.0794   0.1953  -0.0345   0.0562  -0.0456   0.00    1.3
2018/03/13 12:39:02.000   78.254783272   16.249342061   342.8193   2   8   0.0906   0.0790   0.1932  -0.0342   0.0555  -0.0453   0.00    1.3
2018/03/13 12:39:03.000   78.254783184   16.249342259   342.7846   2   8   0.0901   0.0785   0.1911  -0.0339   0.0548  -0.0450   0.00    1.3
2018/03/13 12:39:04.000   78.254783150   16.249342510   342.7322   2   8   0.0896   0.0781   0.1891  -0.0336   0.0542  -0.0447   0.00    1.3
2018/03/13 12:39:05.000   78.254783198   16.249342551   342.6889   2   8   0.0891   0.0776   0.1871  -0.0334   0.0535  -0.0444   0.00    1.3
2018/03/13 12:39:06.000   78.254783243   16.249342642   342.6437   2   8   0.0886   0.0772   0.1851  -0.0331   0.0529  -0.0441   0.00    1.3
2018/03/13 12:39:07.000   78.254783211   16.249342612   342.6124   2   8   0.0881   0.0768   0.1832  -0.0328   0.0523  -0.0439   0.00    1.3
2018/03/13 12:39:08.000   78.254783207   16.249342848   342.6040   2   8   0.0877   0.0764   0.1813  -0.0325   0.0517  -0.0436   0.00    1.3
2018/03/13 12:39:09.000   78.254783244   16.249343284   342.6099   2   8   0.0872   0.0759   0.1794  -0.0323   0.0511  -0.0433   0.00    1.3
2018/03/13 12:39:10.000   78.254783272   16.249343666   342.6000   2   8   0.0867   0.0755   0.1776  -0.0320   0.0505  -0.0431   0.00    1.3
2018/03/13 12:39:11.000   78.254783252   16.249344008   342.5975   2   8   0.0863   0.0751   0.1758  -0.0317   0.0499  -0.0428   0.00    1.3
2018/03/13 12:39:12.000   78.254783197   16.249344390   342.5940   2   8   0.0858   0.0747   0.1740  -0.0315   0.0493  -0.0426   0.00    1.3
2018/03/13 12:39:13.000   78.254783206   16.249344889   342.5874   2   8   0.0854   0.0743   0.1723  -0.0312   0.0488  -0.0423   0.00    1.3
2018/03/13 12:39:14.000   78.254783213   16.249344945   342.5813   2   8   0.0849   0.0739   0.1706  -0.0310   0.0482  -0.0421   0.00    1.3
2018/03/13 12:39:15.000   78.254783251   16.249344953   342.5740   2   8   0.0845   0.0735   0.1689  -0.0307   0.0477  -0.0418   0.00    1.3
2018/03/13 12:39:16.000   78.254783327   16.249344989   342.5630   2   8   0.0840   0.0731   0.1673  -0.0305   0.0472  -0.0416   0.00    1.3
2018/03/13 12:39:17.000   78.254783336   16.249344618   342.5566   2   8   0.0836   0.0727   0.1656  -0.0302   0.0466  -0.0414   0.00    1.3
2018/03/13 12:39:18.000   78.254783365   16.249344422   342.5514   2   8   0.0832   0.0724   0.1640  -0.0300   0.0461  -0.0411   0.00    1.2
2018/03/13 12:39:19.000   78.254783418   16.249344570   342.5426   2   8   0.0828   0.0720   0.1625  -0.0297   0.0456  -0.0409   0.00    1.2
2018/03/13 12:39:20.000   78.254783427   16.249344712   342.5366   2   8   0.0823   0.0716   0.1609  -0.0295   0.0451  -0.0407   0.00    1.2
2018/03/13 12:39:21.000   78.254783372   16.249344912   342.5321   2   8   0.0819   0.0712   0.1594  -0.0292   0.0447  -0.0405   0.00    1.2
2018/03/13 12:39:22.000   78.254783339   16.249344863   342.5258   2   8   0.0815   0.0709   0.1579  -0.0290   0.0442  -0.0402   0.00    1.2
2018/03/13 12:39:23.000   78.254783358   16.249344766   342.5051   2   8   0.0811   0.0705   0.1564  -0.0288   0.0437  -0.0400   0.00    1.2
2018/03/13 12:39:24.000   78.254783336   16.249345134   342.4925   2   8   0.0807   0.0702   0.1550  -0.0285   0.0432  -0.0398   0.00    1.2
2018/03/13 12:39:25.000   78.254783294   16.249345513   342.4800   2   8   0.0803   0.0698   0.1536  -0.0283   0.0428  -0.0396   0.00    1.2
2018/03/13 12:39:26.000   78.254783311   16.249345734   342.4659   2   8   0.0799   0.0695   0.1522  -0.0281   0.0423  -0.0394   0.00    1.2
2018/03/13 12:39:27.000   78.254783260   16.249346095   342.4521   2   8   0.0795   0.0691   0.1508  -0.0278   0.0419  -0.0392   0.00    1.2
2018/03/13 12:39:28.000   78.254783252   16.249346307   342.4465   2   8   0.0791   0.0688   0.1494  -0.0276   0.0415  -0.0390   0.00    1.2
2018/03/13 12:39:29.000   78.254783217   16.249346407   342.4502   2   8   0.0788   0.0684   0.1481  -0.0274   0.0410  -0.0388   0.00    1.2
2018/03/13 12:39:30.000   78.254783171   16.249346426   342.4601   2   8   0.0784   0.0681   0.1468  -0.0272   0.0406  -0.0386   0.00    1.2
2018/03/13 12:39:31.000   78.254783096   16.249347040   342.4633   2   8   0.0780   0.0678   0.1455  -0.0270   0.0402  -0.0384   0.00    1.1
2018/03/13 12:39:32.000   78.254783085   16.249347375   342.4656   2   8   0.0776   0.0674   0.1442  -0.0267   0.0398  -0.0382   0.00    1.1
2018/03/13 12:39:33.000   78.254783108   16.249347675   342.4740   2   8   0.0773   0.0671   0.1430  -0.0265   0.0394  -0.0380   0.00    1.1
2018/03/13 12:39:34.000   78.254783113   16.249347973   342.4771   2   8   0.0769   0.0668   0.1417  -0.0263   0.0390  -0.0378   0.00    1.1
2018/03/13 12:39:35.000   78.254783087   16.249348140   342.4784   2   8   0.0765   0.0665   0.1405  -0.0261   0.0386  -0.0376   0.00    1.1
2018/03/13 12:39:36.000   78.254783102   16.249348193   342.4758   2   8   0.0762   0.0662   0.1393  -0.0259   0.0382  -0.0375   0.00    1.1
2018/03/13 12:39:37.000   78.254783127   16.249348027   342.4799   2   8   0.0758   0.0658   0.1381  -0.0257   0.0378  -0.0373   0.00    1.1
2018/03/13 12:39:38.000   78.254783147   16.249348094   342.4925   2   8   0.0755   0.0655   0.1370  -0.0255   0.0375  -0.0371   0.00    1.1
2018/03/13 12:39:39.000   78.254783102   16.249348455   342.5087   2   8   0.0751   0.0652   0.1358  -0.0253   0.0371  -0.0369   0.00    1.1
2018/03/13 12:39:40.000   78.254783087   16.249348906   342.5190   2   8   0.0748   0.0649   0.1347  -0.0251   0.0367  -0.0368   0.00    1.1
2018/03/13 12:39:41.000   78.254783092   16.249349429   342.5254   2   8   0.0744   0.0646   0.1336  -0.0249   0.0364  -0.0366   0.00    1.1
2018/03/13 12:39:42.000   78.254783092   16.249349992   342.5332   2   8   0.0741   0.0643   0.1325  -0.0247   0.0360  -0.0364   0.00    1.1
2018/03/13 12:39:43.000   78.254783121   16.249350270   342.5379   2   8   0.0737   0.0640   0.1314  -0.0245   0.0357  -0.0362   0.00    1.1
2018/03/13 12:39:44.000   78.254783090   16.249350404   342.5362   2   8   0.0734   0.0637   0.1304  -0.0243   0.0354  -0.0361   0.00    1.0
2018/03/13 12:39:45.000   78.254783063   16.249350336   342.5240   2   8   0.0731   0.0634   0.1293  -0.0241   0.0350  -0.0359   0.00    1.0
2018/03/13 12:39:46.000   78.254783040   16.249350358   342.5212   2   8   0.0727   0.0632   0.1283  -0.0239   0.0347  -0.0358   0.00    1.0
2018/03/13 12:39:47.000   78.254783031   16.249350582   342.5232   2   8   0.0724   0.0629   0.1273  -0.0237   0.0344  -0.0356   0.00    1.0
2018/03/13 12:39:48.000   78.254783012   16.249350729   342.5281   2   8   0.0721   0.0626   0.1263  -0.0235   0.0340  -0.0354   0.00    1.0
2018/03/13 12:39:49.000   78.254782986   16.249351017   342.5290   2   8   0.0718   0.0623   0.1253  -0.0233   0.0337  -0.0353   0.00    1.0
2018/03/13 12:39:50.000   78.254782954   16.249351095   342.5301   2   8   0.0714   0.0620   0.1243  -0.0231   0.0334  -0.0351   0.00    1.0
2018/03/13 12:39:51.000   78.254782930   16.249351422   342.5339   2   8   0.0711   0.0618   0.1233  -0.0229   0.0331  -0.0350   0.00    1.0
2018/03/13 12:39:52.000   78.254782871   16.249351404   342.5407   2   8   0.0708   0.0615   0.1224  -0.0227   0.0328  -0.0348   0.00    1.0
2018/03/13 12:39:53.000   78.254782860   16.249351689   342.5525   2   8   0.0705   0.0612   0.1214  -0.0226   0.0325  -0.0347   0.00    1.0
2018/03/13 12:39:54.000   78.254782903   16.249351998   342.5538   2   8   0.0702   0.0610   0.1205  -0.0224   0.0322  -0.0345   0.00    1.0
2018/03/13 12:39:55.000   78.254782923   16.249352012   342.5592   2   8   0.0699   0.0607   0.1196  -0.0222   0.0319  -0.0344   0.00    1.0
2018/03/13 12:39:56.000   78.254782988   16.249352129   342.5696   2   8   0.0696   0.0604   0.1187  -0.0220   0.0316  -0.0342   0.00    1.0
2018/03/13 12:39:57.000   78.254783030   16.249352095   342.5773   2   8   0.0693   0.0602   0.1178  -0.0218   0.0313  -0.0341   0.00    1.0
2018/03/13 12:39:58.000   78.254783046   16.249351890   342.5764   2   8   0.0690   0.0599   0.1170  -0.0217   0.0311  -0.0339   0.00    1.1
2018/03/13 12:39:59.000   78.254783027   16.249351834   342.5839   2   8   0.0687   0.0596   0.1161  -0.0215   0.0308  -0.0338   0.00    1.1
2018/03/13 12:40:00.000   78.254782950   16.249351923   342.5982   2   8   0.0684   0.0594   0.1152  -0.0213   0.0305  -0.0337   0.00    1.1
2018/03/13 12:40:01.000   78.254782966   16.249351986   342.6092   2   8   0.0681   0.0591   0.1144  -0.0212   0.0303  -0.0335   0.00    1.1
2018/03/13 12:40:02.000   78.254783009   16.249352119   342.6091   2   8   0.0678   0.0589   0.1136  -0.0210   0.0300  -0.0334   0.00    1.1
2018/03/13 12:40:03.000   78.254783016   16.249352280   342.5946   2   8   0.0675   0.0586   0.1128  -0.0208   0.0297  -0.0332   0.00    1.1
2018/03/13 12:40:04.000   78.254783043   16.249352192   342.5668   2   8   0.0673   0.0584   0.1120  -0.0206   0.0295  -0.0331   0.00    1.1
2018/03/13 12:40:05.000   78.254783110   16.249352230   342.5372   2   8   0.0670   0.0582   0.1112  -0.0205   0.0292  -0.0330   0.00    1.1
2018/03/13 12:40:06.000   78.254783153   16.249352153   342.5056   2   8   0.0667   0.0579   0.1104  -0.0203   0.0290  -0.0328   0.00    1.1
2018/03/13 12:40:07.000   78.254783181   16.249351858   342.4762   2   8   0.0664   0.0577   0.1096  -0.0202   0.0287  -0.0327   0.00    1.1
2018/03/13 12:40:08.000   78.254783237   16.249351642   342.4462   2   8   0.0662   0.0574   0.1088  -0.0200   0.0285  -0.0326   0.00    1.1
2018/03/13 12:40:09.000   78.254783276   16.249351455   342.4194   2   8   0.0659   0.0572   0.1081  -0.0198   0.0282  -0.0325   0.00    1.2
2018/03/13 12:40:10.000   78.254783288   16.249351375   342.4006   2   8   0.0656   0.0570   0.1073  -0.0197   0.0280  -0.0323   0.00    1.2
2018/03/13 12:40:11.000   78.254783341   16.249351516   342.3870   2   8   0.0653   0.0567   0.1066  -0.0195   0.0278  -0.0322   0.00    1.2
2018/03/13 12:40:12.000   78.254783420   16.249351509   342.3750   2   8   0.0651   0.0565   0.1059  -0.0194   0.0275  -0.0321   0.00    1.2
2018/03/13 12:40:13.000   78.254783464   16.249351573   342.3621   2   8   0.0648   0.0563   0.1051  -0.0192   0.0273  -0.0320   0.00    1.2
2018/03/13 12:40:14.000   78.254783476   16.249351479   342.3663   2   8   0.0646   0.0561   0.1044  -0.0190   0.0271  -0.0318   0.00    1.2
2018/03/13 12:40:15.000   78.254783532   16.249351527   342.3718   2   8   0.0643   0.0558   0.1037  -0.0189   0.0269  -0.0317   0.00    1.2
2018/03/13 12:40:16.000   78.254783569   16.249351483   342.3844   2   8   0.0640   0.0556   0.1030  -0.0187   0.0266  -0.0316   0.00    1.2
2018/03/13 12:40:17.000   78.254783625   16.249351267   342.3911   2   8   0.0638   0.0554   0.1024  -0.0186   0.0264  -0.0315   0.00    1.2
2018/03/13 12:40:18.000   78.254783618   16.249351378   342.3915   2   8   0.0635   0.0552   0.1017  -0.0184   0.0262  -0.0314   0.00    1.2
2018/03/13 12:40:19.000   78.254783623   16.249351421   342.3885   2   8   0.0633   0.0550   0.1010  -0.0183   0.0260  -0.0312   0.00    1.3
2018/03/13 12:40:20.000   78.254783610   16.249351589   342.3860   2   8   0.0630   0.0547   0.1004  -0.0181   0.0258  -0.0311   0.00    1.3
2018/03/13 12:40:21.000   78.254783601   16.249351574   342.3852   2   8   0.0628   0.0545   0.0997  -0.0180   0.0256  -0.0310   0.00    1.3
2018/03/13 12:40:22.000   78.254783554   16.249351582   342.3837   2   8   0.0625   0.0543   0.0991  -0.0178   0.0254  -0.0309   0.00    1.3
2018/03/13 12:40:23.000   78.254783503   16.249351555   342.3832   2   8   0.0623   0.0541   0.0984  -0.0177   0.0252  -0.0308   0.00    1.3
2018/03/13 12:40:24.000   78.254783462   16.249351448   342.3813   2   8   0.0621   0.0539   0.0978  -0.0175   0.0250  -0.0307   0.00    1.3
2018/03/13 12:40:25.000   78.254783468   16.249351464   342.3825   2   8   0.0618   0.0537   0.0972  -0.0174   0.0248  -0.0306   0.00    1.3
2018/03/13 12:40:26.000   78.254783482   16.249351352   342.3810   2   8   0.0616   0.0535   0.0966  -0.0173   0.0246  -0.0305   0.00    1.3
2018/03/13 12:40:27.000   78.254783507   16.249351199   342.3789   2   8   0.0613   0.0533   0.0960  -0.0171   0.0244  -0.0303   0.00    1.3
2018/03/13 12:40:28.000   78.254783509   16.249351022   342.3726   2   8   0.0611   0.0531   0.0954  -0.0170   0.0242  -0.0302   0.00    1.3
2018/03/13 12:40:29.000   78.254783534   16.249350931   342.3705   2   8   0.0609   0.0529   0.0948  -0.0168   0.0240  -0.0301   0.00    1.3
2018/03/13 12:40:30.000   78.254783555   16.249350846   342.3646   2   8   0.0606   0.0527   0.0942  -0.0167   0.0238  -0.0300   0.00    1.3
2018/03/13 12:40:31.000   78.254783539   16.249350712   342.3644   2   8   0.0604   0.0525   0.0936  -0.0166   0.0237  -0.0299   0.00    1.3
2018/03/13 12:40:32.000   78.254783557   16.249350624   342.3620   2   8   0.0602   0.0523   0.0930  -0.0164   0.0235  -0.0298   0.00    1.3
2018/03/13 12:40:33.000   78.254783531   16.249350657   342.3611   2   8   0.0600   0.0521   0.0925  -0.0163   0.0233  -0.0297   0.00    1.3
2018/03/13 12:40:34.000   78.254783515   16.249350561   342.3580   2   8   0.0597   0.0519   0.0919  -0.0162   0.0231  -0.0296   0.00    1.3
2018/03/13 12:40:35.000   78.254783561   16.249350509   342.3526   2   8   0.0595   0.0517   0.0914  -0.0160   0.0229  -0.0295   0.00    1.3
2018/03/13 12:40:36.000   78.254783559   16.249350344   342.3526   2   8   0.0593   0.0515   0.0908  -0.0159   0.0228  -0.0294   0.00    1.3
2018/03/13 12:40:37.000   78.254783568   16.249350058   342.3521   2   8   0.0591   0.0513   0.0903  -0.0158   0.0226  -0.0293   0.00    1.3
2018/03/13 12:40:38.000   78.254783608   16.249349621   342.3499   2   8   0.0589   0.0511   0.0897  -0.0156   0.0224  -0.0292   0.00    1.3
2018/03/13 12:40:39.000   78.254783598   16.249349373   342.3499   2   8   0.0586   0.0509   0.0892  -0.0155   0.0223  -0.0291   0.00    1.3
2018/03/13 12:40:40.000   78.254783556   16.249349149   342.3514   2   8   0.0584   0.0508   0.0887  -0.0154   0.0221  -0.0290   0.00    1.3
2018/03/13 12:40:41.000   78.254783474   16.249348934   342.3482   2   8   0.0582   0.0506   0.0882  -0.0152   0.0219  -0.0289   0.00    1.4
2018/03/13 12:40:42.000   78.254783461   16.249348899   342.3484   2   8   0.0580   0.0504   0.0877  -0.0151   0.0218  -0.0288   0.00    1.4
2018/03/13 12:40:43.000   78.254783484   16.249348920   342.3577   2   8   0.0578   0.0502   0.0872  -0.0150   0.0216  -0.0287   0.00    1.4
2018/03/13 12:40:44.000   78.254783499   16.249348851   342.3717   2   7   0.0576   0.0501   0.0867  -0.0148   0.0215  -0.0286   0.00    1.4
2018/03/13 12:40:45.000   78.254783544   16.249348789   342.3814   2   7   0.0575   0.0499   0.0862  -0.0147   0.0214  -0.0284   0.00    1.4
2018/03/13 12:40:46.000   78.254783555   16.249348798   342.3879   2   7   0.0573   0.0498   0.0857  -0.0145   0.0214  -0.0283   0.00    1.4
2018/03/13 12:40:47.000   78.254783559   16.249348834   342.3836   2   7   0.0571   0.0497   0.0853  -0.0144   0.0213  -0.0282   0.00    1.4
2018/03/13 12:40:48.000   78.254783535   16.249348934   342.3778   2   7   0.0570   0.0495   0.0848  -0.0142   0.0212  -0.0280   0.00    1.4
2018/03/13 12:40:49.000   78.254783543   16.249348872   342.3678   2   7   0.0568   0.0494   0.0843  -0.0141   0.0211  -0.0279   0.00    1.0
2018/03/13 12:40:50.000   78.254783508   16.249348818   342.3605   2   7   0.0567   0.0493   0.0839  -0.0139   0.0210  -0.0277   0.00    1.0
2018/03/13 12:40:51.000   78.254783470   16.249348731   342.3539   2   7   0.0565   0.0491   0.0834  -0.0138   0.0210  -0.0276   0.00    1.0
2018/03/13 12:40:52.000   78.254783451   16.249348669   342.3494   2   7   0.0564   0.0490   0.0830  -0.0136   0.0209  -0.0275   0.00    1.0
2018/03/13 12:40:53.000   78.254783439   16.249348569   342.3500   2   7   0.0562   0.0489   0.0826  -0.0135   0.0208  -0.0273   0.00    1.0
2018/03/13 12:40:54.000   78.254783443   16.249348623   342.3495   2   7   0.0561   0.0487   0.0821  -0.0133   0.0207  -0.0272   0.00    1.0
2018/03/13 12:40:55.000   78.254783453   16.249348710   342.3516   2   8   0.0559   0.0486   0.0817  -0.0131   0.0206  -0.0271   0.00    1.0
2018/03/13 12:40:56.000   78.254783459   16.249348553   342.3521   2   8   0.0557   0.0484   0.0813  -0.0129   0.0205  -0.0269   0.00    1.0
2018/03/13 12:40:57.000   78.254783457   16.249348467   342.3542   2   8   0.0556   0.0483   0.0808  -0.0127   0.0204  -0.0268   0.00    1.1
2018/03/13 12:40:58.000   78.254783457   16.249348261   342.3576   2   8   0.0554   0.0481   0.0804  -0.0124   0.0203  -0.0267   0.00    1.1
2018/03/13 12:40:59.000   78.254783480   16.249348179   342.3598   2   8   0.0553   0.0480   0.0800  -0.0122   0.0202  -0.0265   0.00    1.1
2018/03/13 12:41:00.000   78.254783490   16.249348114   342.3639   2   8   0.0551   0.0478   0.0796  -0.0120   0.0201  -0.0264   0.00    1.1
2018/03/13 12:41:01.000   78.254783508   16.249348182   342.3672   2   8   0.0550   0.0477   0.0792  -0.0118   0.0200  -0.0263   0.00    1.1
2018/03/13 12:41:02.000   78.254783545   16.249348226   342.3720   2   8   0.0548   0.0475   0.0788  -0.0116   0.0199  -0.0262   0.00    1.2
2018/03/13 12:41:03.000   78.254783582   16.249348244   342.3755   2   8   0.0546   0.0474   0.0784  -0.0114   0.0199  -0.0260   0.00    1.2
2018/03/13 12:41:04.000   78.254783589   16.249348357   342.3798   2   8   0.0545   0.0472   0.0780  -0.0112   0.0198  -0.0259   0.00    1.2
2018/03/13 12:41:05.000   78.254783577   16.249348467   342.3809   2   8   0.0543   0.0471   0.0776  -0.0109   0.0197  -0.0258   0.00    1.2
2018/03/13 12:41:06.000   78.254783591   16.249348514   342.3822   2   8   0.0542   0.0470   0.0772  -0.0107   0.0196  -0.0257   0.00    1.3
2018/03/13 12:41:07.000   78.254783609   16.249348506   342.3801   2   8   0.0540   0.0468   0.0768  -0.0105   0.0195  -0.0256   0.00    1.3
2018/03/13 12:41:08.000   78.254783613   16.249348373   342.3762   2   8   0.0539   0.0467   0.0765  -0.0103   0.0194  -0.0254   0.00    1.3
2018/03/13 12:41:09.000   78.254783595   16.249348392   342.3716   2   8   0.0538   0.0465   0.0761  -0.0101   0.0193  -0.0253   0.00    1.3
2018/03/13 12:41:10.000   78.254783594   16.249348513   342.3666   2   8   0.0536   0.0464   0.0757  -0.0098   0.0192  -0.0252   0.00    1.3
2018/03/13 12:41:11.000   78.254783611   16.249348474   342.3629   2   8   0.0535   0.0463   0.0753  -0.0096   0.0191  -0.0251   0.00    1.2
2018/03/13 12:41:12.000   78.254783656   16.249348351   342.3608   2   8   0.0533   0.0461   0.0750  -0.0094   0.0191  -0.0250   0.00    1.2
2018/03/13 12:41:13.000   78.254783686   16.249348301   342.3561   2   8   0.0532   0.0460   0.0746  -0.0091   0.0190  -0.0249   0.00    1.2
2018/03/13 12:41:14.000   78.254783690   16.249348215   342.3504   2   8   0.0530   0.0458   0.0742  -0.0089   0.0189  -0.0248   0.00    1.2
2018/03/13 12:41:15.000   78.254783681   16.249348096   342.3501   2   8   0.0529   0.0457   0.0739  -0.0087   0.0188  -0.0247   0.00    1.1
2018/03/13 12:41:16.000   78.254783675   16.249348007   342.3485   2   8   0.0527   0.0456   0.0735  -0.0084   0.0187  -0.0245   0.00    1.1
2018/03/13 12:41:17.000   78.254783664   16.249347984   342.3478   2   8   0.0526   0.0454   0.0732  -0.0082   0.0186  -0.0244   0.00    1.0
2018/03/13 12:41:18.000   78.254783676   16.249347887   342.3466   2   8   0.0525   0.0453   0.0728  -0.0080   0.0186  -0.0243   0.00    1.0
2018/03/13 12:41:19.000   78.254783688   16.249347678   342.3508   2   8   0.0523   0.0452   0.0725  -0.0077   0.0185  -0.0242   0.00    1.0
2018/03/13 12:41:20.000   78.254783708   16.249347501   342.3568   2   8   0.0522   0.0450   0.0722  -0.0075   0.0184  -0.0241   0.00    1.1
2018/03/13 12:41:21.000   78.254783738   16.249347318   342.3602   2   8   0.0521   0.0449   0.0718  -0.0072   0.0183  -0.0240   0.00    1.1
2018/03/13 12:41:22.000   78.254783776   16.249347177   342.3633   2   8   0.0519   0.0448   0.0715  -0.0069   0.0182  -0.0239   0.00    1.1
2018/03/13 12:41:23.000   78.254783805   16.249347224   342.3691   2   8   0.0518   0.0447   0.0711  -0.0067   0.0182  -0.0238   0.00    1.1
2018/03/13 12:41:24.000   78.254783838   16.249347240   342.3725   2   8   0.0517   0.0445   0.0708  -0.0064   0.0181  -0.0237   0.00    1.1
2018/03/13 12:41:25.000   78.254783842   16.249347279   342.3780   2   7   0.0515   0.0444   0.0705  -0.0062   0.0180  -0.0236   0.00    1.1
2018/03/13 12:41:26.000   78.254783851   16.249347342   342.3831   2   7   0.0514   0.0443   0.0702  -0.0060   0.0180  -0.0236   0.00    1.2
2018/03/13 12:41:27.000   78.254783866   16.249347374   342.3865   2   7   0.0513   0.0442   0.0699  -0.0058   0.0179  -0.0235   0.00    1.2
2018/03/13 12:41:28.000   78.254783883   16.249347414   342.3882   2   7   0.0511   0.0441   0.0695  -0.0055   0.0178  -0.0234   0.00    1.2
2018/03/13 12:41:29.000   78.254783876   16.249347483   342.3907   2   7   0.0510   0.0440   0.0692  -0.0053   0.0178  -0.0233   0.00    1.2
2018/03/13 12:41:30.000   78.254783898   16.249347408   342.3915   2   7   0.0509   0.0439   0.0689  -0.0051   0.0177  -0.0232   0.00    1.2
2018/03/13 12:41:31.000   78.254783894   16.249347372   342.3913   2   7   0.0508   0.0438   0.0686  -0.0048   0.0176  -0.0231   0.00    1.2
2018/03/13 12:41:32.000   78.254783877   16.249347534   342.3767   2   6   0.0507   0.0437   0.0683  -0.0047   0.0176  -0.0231   0.00    1.9
2018/03/13 12:41:33.000   78.254783862   16.249347552   342.3744   2   4   0.0506   0.0437   0.0682  -0.0045   0.0176  -0.0232   0.00    1.9
2018/03/13 12:41:34.000   78.254782844   16.249361919   342.6429   1   4   0.0116   0.0027   0.0184  -0.0049   0.0065  -0.0143   0.00   24.1
2018/03/13 12:41:35.000   78.254782850   16.249361906   342.6417   1   4   0.0116   0.0027   0.0184  -0.0049   0.0065  -0.0143   0.00   24.5
2018/03/13 12:41:36.000   78.254782855   16.249361898   342.6407   1   4   0.0116   0.0027   0.0184  -0.0049   0.0065  -0.0143   0.00   24.8
2018/03/13 12:41:37.000   78.254783799   16.249347708   342.3772   2   6   0.0505   0.0435   0.0675  -0.0039   0.0175  -0.0235   0.00    1.0
2018/03/13 12:41:38.000   78.254783815   16.249347677   342.3801   2   7   0.0504   0.0435   0.0674  -0.0038   0.0174  -0.0236   0.00    1.1
2018/03/13 12:41:39.000   78.254783809   16.249347694   342.3794   2   7   0.0503   0.0434   0.0672  -0.0036   0.0174  -0.0236   0.00    1.1
2018/03/13 12:41:40.000   78.254783810   16.249347846   342.3774   2   7   0.0502   0.0433   0.0671  -0.0035   0.0173  -0.0237   0.00    1.2
2018/03/13 12:41:41.000   78.254783800   16.249347911   342.3745   2   6   0.0501   0.0433   0.0669  -0.0032   0.0173  -0.0237   0.00    1.1
2018/03/13 12:41:42.000   78.254783817   16.249348052   342.3752   2   6   0.0501   0.0432   0.0667  -0.0030   0.0173  -0.0238   0.00    1.1
2018/03/13 12:41:43.000   78.254783829   16.249348095   342.3756   2   6   0.0500   0.0432   0.0666  -0.0027   0.0172  -0.0239   0.00    1.1
2018/03/13 12:41:44.000   78.254783847   16.249348019   342.3785   2   5   0.0499   0.0432   0.0664  -0.0022   0.0172  -0.0239   0.00    1.1
2018/03/13 12:41:45.000   78.254782588   16.249362212   342.6913   1   7   0.0049   0.0017   0.0085  -0.0018   0.0031  -0.0057   0.00    5.3
2018/03/13 12:41:46.000   78.254782607   16.249362200   342.6883   1   6   0.0046   0.0017   0.0082  -0.0016   0.0030  -0.0054   0.00    6.3
2018/03/13 12:41:47.000   78.254782634   16.249362300   342.6900   1   7   0.0045   0.0016   0.0080  -0.0015   0.0029  -0.0052   0.00    3.8
2018/03/13 12:41:48.000   78.254783852   16.249347820   342.3933   2   7   0.0496   0.0429   0.0658   0.0005   0.0170  -0.0241   0.00    2.8
2018/03/13 12:41:49.000   78.254783870   16.249347932   342.3968   2   7   0.0496   0.0429   0.0657   0.0011   0.0170  -0.0242   0.00    2.3
2018/03/13 12:41:50.000   78.254783871   16.249348054   342.4011   2   8   0.0495   0.0428   0.0655   0.0013   0.0169  -0.0242   0.00    2.1
2018/03/13 12:41:51.000   78.254783866   16.249348196   342.4033   2   8   0.0494   0.0427   0.0654   0.0015   0.0169  -0.0243   0.00    1.9
2018/03/13 12:41:52.000   78.254783850   16.249348222   342.4076   2   8   0.0493   0.0427   0.0652   0.0016   0.0168  -0.0243   0.00    1.7
2018/03/13 12:41:53.000   78.254783855   16.249348324   342.4085   2   8   0.0492   0.0426   0.0651   0.0017   0.0168  -0.0243   0.00    1.6
2018/03/13 12:41:54.000   78.254783864   16.249348467   342.4093   2   8   0.0491   0.0426   0.0649   0.0019   0.0168  -0.0244   0.00    1.5
2018/03/13 12:41:55.000   78.254783846   16.249348504   342.4114   2   8   0.0490   0.0425   0.0647   0.0020   0.0167  -0.0244   0.00    1.4
2018/03/13 12:41:56.000   78.254783846   16.249348582   342.4133   2   8   0.0490   0.0424   0.0646   0.0021   0.0167  -0.0244   0.00    1.3
2018/03/13 12:41:57.000   78.254783853   16.249348572   342.4128   2   8   0.0489   0.0424   0.0644   0.0022   0.0167  -0.0245   0.00    1.2
2018/03/13 12:41:58.000   78.254783834   16.249348676   342.4129   2   8   0.0488   0.0423   0.0643   0.0023   0.0166  -0.0245   0.00    1.1
2018/03/13 12:41:59.000   78.254783811   16.249348649   342.4112   2   8   0.0487   0.0423   0.0641   0.0024   0.0166  -0.0245   0.00    1.1
2018/03/13 12:42:00.000   78.254783799   16.249348639   342.4101   2   8   0.0486   0.0422   0.0640   0.0025   0.0165  -0.0246   0.00    1.0
2018/03/13 12:42:01.000   78.254783776   16.249348675   342.4086   2   8   0.0485   0.0421   0.0638   0.0026   0.0165  -0.0246   0.00    1.0
2018/03/13 12:42:02.000   78.254783772   16.249348671   342.4084   2   8   0.0484   0.0421   0.0637   0.0026   0.0165  -0.0246   0.00    1.1
2018/03/13 12:42:03.000   78.254783769   16.249348688   342.4069   2   8   0.0484   0.0420   0.0636   0.0027   0.0164  -0.0247   0.00    1.1
2018/03/13 12:42:04.000   78.254783785   16.249348696   342.4031   2   8   0.0483   0.0420   0.0634   0.0028   0.0164  -0.0247   0.00    1.2
2018/03/13 12:42:05.000   78.254783778   16.249348710   342.3985   2   8   0.0482   0.0419   0.0633   0.0029   0.0163  -0.0247   0.00    1.2
2018/03/13 12:42:06.000   78.254783785   16.249348721   342.3969   2   8   0.0481   0.0418   0.0631   0.0030   0.0163  -0.0247   0.00    1.2
2018/03/13 12:42:07.000   78.254783782   16.249348672   342.3975   2   8   0.0480   0.0418   0.0630   0.0030   0.0163  -0.0248   0.00    1.2
2018/03/13 12:42:08.000   78.254783785   16.249348784   342.3987   2   8   0.0480   0.0417   0.0628   0.0031   0.0162  -0.0248   0.00    1.2
2018/03/13 12:42:09.000   78.254783781   16.249348829   342.4008   2   8   0.0479   0.0417   0.0627   0.0032   0.0162  -0.0248   0.00    1.2
2018/03/13 12:42:10.000   78.254783786   16.249348934   342.4009   2   8   0.0478   0.0416   0.0625   0.0033   0.0162  -0.0248   0.00    1.2
2018/03/13 12:42:11.000   78.254783772   16.249349013   342.4017   2   8   0.0477   0.0415   0.0624   0.0033   0.0161  -0.0249   0.00    1.2
2018/03/13 12:42:12.000   78.254783734   16.249349001   342.4020   2   8   0.0476   0.0415   0.0622   0.0034   0.0161  -0.0249   0.00    1.2
2018/03/13 12:42:13.000   78.254783725   16.249348970   342.3999   2   8   0.0475   0.0414   0.0621   0.0035   0.0160  -0.0249   0.00    1.2
2018/03/13 12:42:14.000   78.254783711   16.249348945   342.3991   2   8   0.0475   0.0414   0.0620   0.0035   0.0160  -0.0249   0.00    1.2
2018/03/13 12:42:15.000   78.254783705   16.249349030   342.3998   2   8   0.0474   0.0413   0.0618   0.0036   0.0160  -0.0249   0.00    1.2
2018/03/13 12:42:16.000   78.254783700   16.249349117   342.3994   2   8   0.0473   0.0412   0.0617   0.0036   0.0159  -0.0250   0.00    1.2
2018/03/13 12:42:17.000   78.254783685   16.249349209   342.4004   2   8   0.0472   0.0412   0.0615   0.0037   0.0159  -0.0250   0.00    1.2
2018/03/13 12:42:18.000   78.254783662   16.249349344   342.4031   2   8   0.0471   0.0411   0.0614   0.0038   0.0158  -0.0250   0.00    1.2
2018/03/13 12:42:19.000   78.254783659   16.249349552   342.4053   2   8   0.0471   0.0411   0.0612   0.0038   0.0158  -0.0250   0.00    1.2
2018/03/13 12:42:20.000   78.254783651   16.249349675   342.4072   2   8   0.0470   0.0410   0.0611   0.0039   0.0158  -0.0250   0.00    1.2
2018/03/13 12:42:21.000   78.254783648   16.249349752   342.4051   2   8   0.0469   0.0410   0.0610   0.0039   0.0157  -0.0251   0.00    1.2
2018/03/13 12:42:22.000   78.254783632   16.249349948   342.4052   2   8   0.0468   0.0409   0.0608   0.0040   0.0157  -0.0251   0.00    1.2
2018/03/13 12:42:23.000   78.254783627   16.249350091   342.4029   2   8   0.0468   0.0408   0.0607   0.0041   0.0156  -0.0251   0.00    1.2
2018/03/13 12:42:24.000   78.254783623   16.249350170   342.4017   2   8   0.0467   0.0408   0.0605   0.0041   0.0156  -0.0251   0.00    1.2
2018/03/13 12:42:25.000   78.254783606   16.249350211   342.3979   2   8   0.0466   0.0407   0.0604   0.0042   0.0156  -0.0251   0.00    1.2
2018/03/13 12:42:26.000   78.254783571   16.249350291   342.3953   2   8   0.0465   0.0407   0.0603   0.0042   0.0155  -0.0251   0.00    1.2
2018/03/13 12:42:27.000   78.254783562   16.249350284   342.3917   2   8   0.0464   0.0406   0.0601   0.0043   0.0155  -0.0251   0.00    1.2
2018/03/13 12:42:28.000   78.254783542   16.249350308   342.3888   2   8   0.0464   0.0405   0.0600   0.0043   0.0154  -0.0252   0.00    1.2
2018/03/13 12:42:29.000   78.254783511   16.249350343   342.3849   2   8   0.0463   0.0405   0.0599   0.0044   0.0154  -0.0252   0.00    1.2
2018/03/13 12:42:30.000   78.254783480   16.249350335   342.3818   2   8   0.0462   0.0404   0.0597   0.0044   0.0154  -0.0252   0.00    1.2
2018/03/13 12:42:31.000   78.254783451   16.249350254   342.3825   2   8   0.0461   0.0404   0.0596   0.0045   0.0153  -0.0252   0.00    1.2
2018/03/13 12:42:32.000   78.254783429   16.249350245   342.3827   2   8   0.0461   0.0403   0.0594   0.0045   0.0153  -0.0252   0.00    1.2
2018/03/13 12:42:33.000   78.254783433   16.249350376   342.3851   2   8   0.0460   0.0403   0.0593   0.0046   0.0152  -0.0252   0.00    1.2
2018/03/13 12:42:34.000   78.254783427   16.249350471   342.3876   2   8   0.0459   0.0402   0.0592   0.0046   0.0152  -0.0252   0.00    1.2
2018/03/13 12:42:35.000   78.254783421   16.249350508   342.3909   2   8   0.0458   0.0401   0.0590   0.0047   0.0152  -0.0252   0.00    1.2
2018/03/13 12:42:36.000   78.254783428   16.249350562   342.3952   2   8   0.0458   0.0401   0.0589   0.0047   0.0151  -0.0252   0.00    1.2
2018/03/13 12:42:37.000   78.254783424   16.249350547   342.3996   2   8   0.0457   0.0400   0.0588   0.0048   0.0151  -0.0252   0.00    1.1
2018/03/13 12:42:38.000   78.254783431   16.249350574   342.4025   2   8   0.0456   0.0400   0.0586   0.0048   0.0150  -0.0252   0.00    1.1
2018/03/13 12:42:39.000   78.254783439   16.249350625   342.4030   2   8   0.0455   0.0399   0.0585   0.0049   0.0150  -0.0252   0.00    1.1
2018/03/13 12:42:40.000   78.254783458   16.249350682   342.4029   2   8   0.0455   0.0399   0.0584   0.0049   0.0149  -0.0253   0.00    1.1
2018/03/13 12:42:41.000   78.254783460   16.249350762   342.4004   2   8   0.0454   0.0398   0.0582   0.0049   0.0149  -0.0253   0.00    1.1
2018/03/13 12:42:42.000   78.254783420   16.249350832   342.3962   2   8   0.0453   0.0398   0.0581   0.0050   0.0149  -0.0253   0.00    1.1
2018/03/13 12:42:43.000   78.254783392   16.249350936   342.3915   2   8   0.0452   0.0397   0.0580   0.0050   0.0148  -0.0253   0.00    1.1
2018/03/13 12:42:44.000   78.254783360   16.249350970   342.3886   2   8   0.0452   0.0396   0.0578   0.0051   0.0148  -0.0253   0.00    1.1
2018/03/13 12:42:45.000   78.254783333   16.249350973   342.3839   2   8   0.0451   0.0396   0.0577   0.0051   0.0147  -0.0253   0.00    1.1
2018/03/13 12:42:46.000   78.254783271   16.249350972   342.3790   2   8   0.0450   0.0395   0.0576   0.0052   0.0147  -0.0253   0.00    1.1
2018/03/13 12:42:47.000   78.254783239   16.249350991   342.3755   2   8   0.0450   0.0395   0.0574   0.0052   0.0147  -0.0253   0.00    1.1
2018/03/13 12:42:48.000   78.254783200   16.249350962   342.3746   2   8   0.0449   0.0394   0.0573   0.0052   0.0146  -0.0253   0.00    1.1
2018/03/13 12:42:49.000   78.254783158   16.249350996   342.3751   2   8   0.0448   0.0394   0.0572   0.0053   0.0146  -0.0253   0.00    1.1
2018/03/13 12:42:50.000   78.254783142   16.249351058   342.3757   2   8   0.0447   0.0393   0.0570   0.0053   0.0145  -0.0253   0.00    1.1
2018/03/13 12:42:51.000   78.254783129   16.249351133   342.3760   2   8   0.0447   0.0392   0.0569   0.0054   0.0145  -0.0253   0.00    1.1
2018/03/13 12:42:52.000   78.254783094   16.249351208   342.3783   2   8   0.0446   0.0392   0.0568   0.0054   0.0144  -0.0253   0.00    1.1
2018/03/13 12:42:53.000   78.254783066   16.249351344   342.3815   2   8   0.0445   0.0391   0.0567   0.0054   0.0144  -0.0253   0.00    1.1
2018/03/13 12:42:54.000   78.254783039   16.249351415   342.3847   2   8   0.0445   0.0391   0.0565   0.0055   0.0144  -0.0253   0.00    1.1
2018/03/13 12:42:55.000   78.254783014   16.249351538   342.3858   2   8   0.0444   0.0390   0.0564   0.0055   0.0143  -0.0253   0.00    1.1
2018/03/13 12:42:56.000   78.254783008   16.249351619   342.3872   2   8   0.0443   0.0390   0.0563   0.0056   0.0143  -0.0253   0.00    1.1
2018/03/13 12:42:57.000   78.254783003   16.249351717   342.3879   2   8   0.0442   0.0389   0.0561   0.0056   0.0142  -0.0253   0.00    1.1
2018/03/13 12:42:58.000   78.254782987   16.249351717   342.3883   2   8   0.0442   0.0389   0.0560   0.0056   0.0142  -0.0253   0.00    1.1
2018/03/13 12:42:59.000   78.254782967   16.249351678   342.3876   2   8   0.0441   0.0388   0.0559   0.0057   0.0141  -0.0253   0.00    1.1
2018/03/13 12:43:00.000   78.254782917   16.249351709   342.3871   2   8   0.0440   0.0387   0.0558   0.0057   0.0141  -0.0253   0.00    1.1
2018/03/13 12:43:01.000   78.254782891   16.249351783   342.3851   2   8   0.0440   0.0387   0.0556   0.0057   0.0141  -0.0253   0.00    1.1
2018/03/13 12:43:02.000   78.254782844   16.249351745   342.3818   2   8   0.0439   0.0386   0.0555   0.0058   0.0140  -0.0252   0.00    1.1
2018/03/13 12:43:03.000   78.254782820   16.249351788   342.3777   2   8   0.0438   0.0386   0.0554   0.0058   0.0140  -0.0252   0.00    1.1
2018/03/13 12:43:04.000   78.254782781   16.249351870   342.3742   2   8   0.0437   0.0385   0.0552   0.0058   0.0139  -0.0252   0.00    1.1
2018/03/13 12:43:05.000   78.254782765   16.249351932   342.3713   2   8   0.0437   0.0385   0.0551   0.0059   0.0139  -0.0252   0.00    1.1
2018/03/13 12:43:06.000   78.254782766   16.249351943   342.3676   2   8   0.0436   0.0384   0.0550   0.0059   0.0138  -0.0252   0.00    1.1
2018/03/13 12:43:07.000   78.254782744   16.249351952   342.3669   2   8   0.0435   0.0384   0.0549   0.0059   0.0138  -0.0252   0.00    1.1
2018/03/13 12:43:08.000   78.254782731   16.249352014   342.3687   2   8   0.0435   0.0383   0.0547   0.0060   0.0138  -0.0252   0.00    1.1
2018/03/13 12:43:09.000   78.254782696   16.249351969   342.3712   2   8   0.0434   0.0383   0.0546   0.0060   0.0137  -0.0252   0.00    1.1
2018/03/13 12:43:10.000   78.254782689   16.249352012   342.3727   2   8   0.0433   0.0382   0.0545   0.0060   0.0137  -0.0252   0.00    1.1
2018/03/13 12:43:11.000   78.254782683   16.249352026   342.3733   2   8   0.0433   0.0381   0.0544   0.0061   0.0136  -0.0252   0.00    1.1
2018/03/13 12:43:12.000   78.254782674   16.249352042   342.3728   2   8   0.0432   0.0381   0.0543   0.0061   0.0136  -0.0252   0.00    1.1
2018/03/13 12:43:13.000   78.254782643   16.249352030   342.3728   2   8   0.0431   0.0380   0.0541   0.0061   0.0136  -0.0252   0.00    1.1
2018/03/13 12:43:14.000   78.254782607   16.249352115   342.3737   2   8   0.0431   0.0380   0.0540   0.0062   0.0135  -0.0252   0.00    1.1
2018/03/13 12:43:15.000   78.254782585   16.249352145   342.3716   2   8   0.0430   0.0379   0.0539   0.0062   0.0135  -0.0251   0.00    1.1
2018/03/13 12:43:16.000   78.254782556   16.249352275   342.3708   2   8   0.0429   0.0379   0.0538   0.0062   0.0134  -0.0251   0.00    1.1
2018/03/13 12:43:17.000   78.254782533   16.249352336   342.3697   2   8   0.0428   0.0378   0.0536   0.0063   0.0134  -0.0251   0.00    1.1
2018/03/13 12:43:18.000   78.254782522   16.249352312   342.3686   2   8   0.0428   0.0378   0.0535   0.0063   0.0133  -0.0251   0.00    1.1
2018/03/13 12:43:19.000   78.254782497   16.249352252   342.3675   2   8   0.0427   0.0377   0.0534   0.0063   0.0133  -0.0251   0.00    1.1
2018/03/13 12:43:20.000   78.254782456   16.249352263   342.3670   2   8   0.0426   0.0377   0.0533   0.0064   0.0133  -0.0251   0.00    1.1
2018/03/13 12:43:21.000   78.254782417   16.249352314   342.3681   2   8   0.0426   0.0376   0.0532   0.0064   0.0132  -0.0251   0.00    1.1
2018/03/13 12:43:22.000   78.254782398   16.249352340   342.3679   2   8   0.0425   0.0375   0.0530   0.0064   0.0132  -0.0251   0.00    1.1
2018/03/13 12:43:23.000   78.254782382   16.249352440   342.3687   2   8   0.0424   0.0375   0.0529   0.0064   0.0131  -0.0250   0.00    1.1
2018/03/13 12:43:24.000   78.254782381   16.249352466   342.3678   2   8   0.0424   0.0374   0.0528   0.0065   0.0131  -0.0250   0.00    1.1
2018/03/13 12:43:25.000   78.254782377   16.249352452   342.3657   2   8   0.0423   0.0374   0.0527   0.0065   0.0130  -0.0250   0.00    1.1
2018/03/13 12:43:26.000   78.254782368   16.249352360   342.3628   2   8   0.0422   0.0373   0.0526   0.0065   0.0130  -0.0250   0.00    1.1
2018/03/13 12:43:27.000   78.254782384   16.249352281   342.3603   2   8   0.0422   0.0373   0.0524   0.0066   0.0130  -0.0250   0.00    1.1
2018/03/13 12:43:28.000   78.254782364   16.249352204   342.3570   2   8   0.0421   0.0372   0.0523   0.0066   0.0129  -0.0250   0.00    1.1
2018/03/13 12:43:29.000   78.254782348   16.249352147   342.3535   2   8   0.0420   0.0372   0.0522   0.0066   0.0129  -0.0250   0.00    1.1
2018/03/13 12:43:30.000   78.254782337   16.249352059   342.3513   2   8   0.0420   0.0371   0.0521   0.0066   0.0128  -0.0249   0.00    1.1
2018/03/13 12:43:31.000   78.254782334   16.249351982   342.3494   2   8   0.0419   0.0371   0.0520   0.0067   0.0128  -0.0249   0.00    1.1
2018/03/13 12:43:32.000   78.254782326   16.249351933   342.3476   2   8   0.0418   0.0370   0.0519   0.0067   0.0127  -0.0249   0.00    1.1
2018/03/13 12:43:33.000   78.254782314   16.249351872   342.3457   2   8   0.0418   0.0369   0.0517   0.0067   0.0127  -0.0249   0.00    1.1
2018/03/13 12:43:34.000   78.254782308   16.249351866   342.3438   2   8   0.0417   0.0369   0.0516   0.0067   0.0127  -0.0249   0.00    1.1
2018/03/13 12:43:35.000   78.254782300   16.249351808   342.3421   2   8   0.0416   0.0368   0.0515   0.0068   0.0126  -0.0249   0.00    1.1
2018/03/13 12:43:36.000   78.254782297   16.249351724   342.3410   2   8   0.0416   0.0368   0.0514   0.0068   0.0126  -0.0249   0.00    1.1
2018/03/13 12:43:37.000   78.254782268   16.249351589   342.3396   2   8   0.0415   0.0367   0.0513   0.0068   0.0125  -0.0248   0.00    1.0
2018/03/13 12:43:38.000   78.254782245   16.249351503   342.3397   2   8   0.0414   0.0367   0.0512   0.0068   0.0125  -0.0248   0.00    1.0
2018/03/13 12:43:39.000   78.254782234   16.249351384   342.3397   2   8   0.0414   0.0366   0.0510   0.0069   0.0124  -0.0248   0.00    1.0
2018/03/13 12:43:40.000   78.254782226   16.249351329   342.3391   2   8   0.0413   0.0366   0.0509   0.0069   0.0124  -0.0248   0.00    1.0
2018/03/13 12:43:41.000   78.254782206   16.249351298   342.3390   2   8   0.0413   0.0365   0.0508   0.0069   0.0124  -0.0248   0.00    1.0
2018/03/13 12:43:42.000   78.254782197   16.249351298   342.3379   2   8   0.0412   0.0365   0.0507   0.0069   0.0123  -0.0247   0.00    1.0
2018/03/13 12:43:43.000   78.254782199   16.249351343   342.3370   2   8   0.0411   0.0364   0.0506   0.0070   0.0123  -0.0247   0.00    1.0
2018/03/13 12:43:44.000   78.254782196   16.249351307   342.3366   2   8   0.0411   0.0364   0.0505   0.0070   0.0122  -0.0247   0.00    1.0
2018/03/13 12:43:45.000   78.254782181   16.249351219   342.3342   2   8   0.0410   0.0363   0.0504   0.0070   0.0122  -0.0247   0.00    1.0
2018/03/13 12:43:46.000   78.254782168   16.249351192   342.3318   2   8   0.0409   0.0363   0.0502   0.0070   0.0121  -0.0247   0.00    1.0
2018/03/13 12:43:47.000   78.254782159   16.249351186   342.3292   2   8   0.0409   0.0362   0.0501   0.0070   0.0121  -0.0246   0.00    1.0
2018/03/13 12:43:48.000   78.254782143   16.249351124   342.3272   2   8   0.0408   0.0361   0.0500   0.0071   0.0121  -0.0246   0.00    1.0
2018/03/13 12:43:49.000   78.254782140   16.249350978   342.3243   2   8   0.0407   0.0361   0.0499   0.0071   0.0120  -0.0246   0.00    1.0
2018/03/13 12:43:50.000   78.254782120   16.249350958   342.3231   2   8   0.0407   0.0360   0.0498   0.0071   0.0120  -0.0246   0.00    1.0
2018/03/13 12:43:51.000   78.254782116   16.249350949   342.3221   2   8   0.0406   0.0360   0.0497   0.0071   0.0119  -0.0246   0.00    1.0
2018/03/13 12:43:52.000   78.254782104   16.249350917   342.3211   2   8   0.0405   0.0359   0.0496   0.0072   0.0119  -0.0245   0.00    1.0
2018/03/13 12:43:53.000   78.254782092   16.249350900   342.3212   2   8   0.0405   0.0359   0.0495   0.0072   0.0119  -0.0245   0.00    1.0
2018/03/13 12:43:54.000   78.254782076   16.249350895   342.3214   2   8   0.0404   0.0358   0.0494   0.0072   0.0118  -0.0245   0.00    1.0
2018/03/13 12:43:55.000   78.254782062   16.249350909   342.3208   2   8   0.0403   0.0358   0.0492   0.0072   0.0118  -0.0245   0.00    1.0
2018/03/13 12:43:56.000   78.254782057   16.249350853   342.3200   2   8   0.0403   0.0357   0.0491   0.0072   0.0117  -0.0245   0.00    1.0
