     2.11           OBSERVATION DATA    M (MIXED)           RINEX VERSION / TYPE
teqc  2018Mar15                         20180319 14:17:33UTCPGM / RUN BY / DATE
Linux 2.6.32-573.12.1.x86_64|x86_64|gcc -static|Linux 64|=+ COMMENT
END OF STATIC MODE OBSERVATION                              COMMENT
BIT 2 OF LLI FLAGS DATA COLLECTED UNDER A/S CONDITION       COMMENT
-Unknown-                                                   MARKER NAME
4625                                                        MARKER NUMBER
-Unknown-           -Unknown-                               OBSERVER / AGENCY
5127468778          TRIMBLE             4.63                REC # / TYPE / VERS
47477114                            NONE                    ANT # / TYPE
  6378137.0000        0.0000        0.0000                  APPROX POSITION XYZ
        0.0000        0.0000        0.0000                  ANTENNA: DELTA H/E/N
     1     1                                                WAVELENGTH FACT L1/2
     7    L1    L2    C1    P1    P2    S1    S2            # / TYPES OF OBSERV
    18                                                      LEAP SECONDS
 SNR is mapped to RINEX snr flag value [0-9]                COMMENT
  L1 & L2: min(max(int(snr_dBHz/6), 0), 9)                  COMMENT
  2018     3    15    10     9   16.0000000     GPS         TIME OF FIRST OBS
                                                            END OF HEADER
 18  3 15 10  9 16.0000000  0 16R09R07R15R16R23R24G30R17G21G07G08G27
                                G15G20G13G28
                  89621589.255 6  21578461.305                    21578462.711
                        40.200
                  83567581.168 7  20071450.008                    20071451.418
                        42.000
                  95689629.657 4  23023294.938                    23023298.625
                        28.900
                  81444454.128 6  19602736.109                    19602737.340
                        40.000
                  97136885.784 5  23346916.836                    23346921.219
                        30.800
                  87547825.506 5  21049564.781                    21049565.316
                        32.600
 113577102.991 8  88501632.71946  21612995.727                    21613000.852
        49.900          37.000
                  89775487.734 6  21570036.508                    21570037.629
                        41.100
 126890355.215 7  98875610.15044  24146432.320                    24146434.934
        44.100          27.100
 121108827.104 7  94370587.84144  23046260.602                    23046263.402
        46.800          28.900
 118355049.964 7  92224797.17245  22522232.656                    22522237.828
        45.300          33.400
 120543917.017 6  93930285.17244  22938744.836                    22938750.152
        41.600          29.100
 115330592.672 8  89868044.52545  21946689.344                    21946692.418
        49.400          35.700
 115539731.078 7  90031013.02945  21986489.109                    21986491.371
        44.200          31.900
 110486153.284 8  86093112.25545  21024813.969                    21024816.832
        48.800          35.800
 118117445.005 7  92039596.05444  22477006.852                    22477009.344
        45.200          29.800
 18  3 15 10  9 17.0000000  0 16R09R07R15R16R23R24G30R17G21G07G08G27
                                G15G20G13G28
                  89618865.828 6  21577804.867                    21577806.398
                        40.200
                  83568882.286 7  20071761.969                    20071763.664
                        42.600
                  95693218.094 4  23024158.023                    23024162.484
                        28.400
                  81445012.396 6  19602870.500                    19602871.328
                        40.400
                  97140384.022 5  23347757.672                    23347761.816
                        31.200
                  87549084.563 5  21049867.977                    21049868.238
                        32.700
 113579149.216 8  88503227.17946  21613384.891                    21613390.488
        49.800          37.500
                  89773542.408 6  21569569.156                    21569569.719
                        41.400
 126892493.302 7  98877276.20244  24146838.898                    24146841.953
        43.800          26.100
 121112117.373 7  94373151.68844  23046887.328                    23046889.598
        47.300          29.300
 118354571.998 7  92224424.71145  22522142.242                    22522147.141
        45.800          32.800
 120546182.671 7  93932050.61744  22939175.508                    22939181.242
        42.300          28.300
 115328922.529 8  89866743.12245  21946371.695                    21946374.660
        49.500          35.900
 115541148.948 7  90032117.85845  21986758.828                    21986761.496
        44.100          32.600
 110486162.632 8  86093119.53945  21024815.898                    21024818.453
        48.400          35.800
 118115461.505 7  92038050.47845  22476629.523                    22476631.895
        45.800          30.100
 18  3 15 10  9 18.0000000  0 16R09R07R15R16R23R24G30R17G21G07G08G27
                                G15G20G13G28
                  89616142.841 6  21577148.891                    21577150.266
                        38.900
                  83570184.113 7  20072074.898                    20072076.410
                        42.100
                  95696806.760 4  23025022.648                    23025026.258
                        27.600
                  81445571.377 6  19603005.539                    19603006.391
                        40.600
                  97143882.592 5  23348598.352                    23348602.367
                        30.900
                  87550344.396 5  21050170.500                    21050171.246
                        32.500
 113581196.064 8  88504822.12846  21613773.852                    21613779.746
        49.800          37.200
                  89771597.693 6  21569102.570                    21569102.586
                        41.500
 126894631.926 7  98878942.66144  24147246.055                    24147248.867
        43.700          26.900
 121115408.066 7  94375715.86844  23047513.078                    23047515.836
        47.000          28.500
 118354094.787 7  92224052.84245  22522051.195                    22522055.668
        45.800          32.600
 120548449.011 7  93933816.60244  22939607.492                    22939612.230
        42.200          28.500
 115327253.082 8  89865442.26346  21946054.102                    21946057.230
        49.800          36.900
 115542567.558 7  90033223.26845  21987028.625                    21987031.355
        43.600          32.500
 110486172.726 8  86093127.40445  21024817.484                    21024820.246
        48.400          35.800
 118113478.521 7  92036505.29845  22476252.492                    22476254.598
        46.600          30.200
 18  3 15 10  9 19.0000000  0 16R09R07R15R16R23R24G30R17G21G07G08G27
                                G15G20G13G28
                  89613420.219 6  21576494.602                    21576494.207
                        39.300
                  83571486.670 7  20072388.109                    20072389.551
                        42.100
                  95700395.618 4  23025885.797                    23025889.242
                        28.100
                  81446131.040 6  19603140.234                    19603140.926
                        40.100
                  97147381.463 5  23349439.422                    23349443.633
                        31.700
                  87551604.960 5  21050473.773                    21050473.801
                        32.900
 113583243.504 8  88506417.53446  21614163.789                    21614169.391
        49.800          37.000
                  89769653.560 6  21568636.016                    21568636.188
                        41.700
 126896770.992 7  98880609.45744  24147652.539                    24147656.066
        43.000          27.500
 121118699.132 7  94378280.33544  23048139.219                    23048142.246
        47.200          29.600
 118353618.307 7  92223681.54845  22521960.469                    22521965.340
        46.600          33.200
 120550715.970 7  93935583.06744  22940038.258                    22940043.926
        42.400          28.800
 115325584.230 8  89864141.86546  21945736.844                    21945739.691
        50.000          37.000
 115543986.875 7  90034329.22945  21987298.703                    21987301.801
        43.900          33.000
 110486183.548 8  86093135.83645  21024819.438                    21024822.848
        48.000          35.900
 118111496.048 7  92034960.50545  22475875.281                    22475877.379
        46.800          30.400
 18  3 15 10  9 20.0000000  0 16R09R07R15R16R23R24G30R17G21G07G08G27
                                G15G20G13G28
                  89610697.984 6  21575839.641                    21575838.387
                        40.100
                  83572789.965 7  20072701.078                    20072702.961
                        42.000
                  95703984.743 4  23026749.820                    23026752.996
                        27.400
                  81446691.445 6  19603275.266                    19603276.023
                        40.000
                  97150880.658 5  23350279.984                    23350285.000
                        31.400
                  87552866.237 5  21050777.023                    21050777.746
                        32.800
 113585291.574 8  88508013.42946  21614553.742                    21614559.273
        49.600          36.900
                  89767710.028 6  21568168.984                    21568169.656
                        41.700
 126898910.558 7  98882276.65344  24148059.719                    24148063.133
        43.400          26.200
 121121990.604 7  94380845.12244  23048765.609                    23048768.734
        46.900          29.400
 118353142.565 7  92223310.83345  22521870.508                    22521874.949
        47.000          33.900
 120552983.586 7  93937350.03544  22940470.336                    22940475.207
        42.400          28.800
 115323916.026 8  89862841.96546  21945418.570                    21945421.926
        49.800          36.300
 115545406.904 7  90035435.74545  21987568.922                    21987571.652
        43.800          32.300
 110486195.116 8  86093144.83545  21024821.859                    21024824.863
        48.200          35.400
 118109514.095 7  92033416.10845  22475497.789                    22475500.188
        47.200          30.900
 18  3 15 10  9 21.0000000  0 16R09R07R15R16R23R24G30R17G21G07G08G27
                                G15G20G13G28
                  89607976.173 6  21575185.750                    21575183.879
                        40.000
                  83574093.952 7  20073014.148                    20073015.992
                        42.300
                  95707574.103 4  23027612.953                    23027616.145
                        26.600
                  81447252.611 6  19603410.023                    19603411.656
                        40.000
                  97154380.219 5  23351121.133                    23351126.285
                        31.900
                  87554128.320 5  21051081.539                    21051080.832
                        34.100
 113587340.294 8  88509609.83246  21614943.680                    21614948.973
        49.800          36.600
                  89765767.131 6  21567701.039                    21567703.164
                        41.300
 126901050.631 7  98883944.24044  24148467.023                    24148470.719
        42.900          27.600
 121125282.505 7  94383410.24444  23049392.625                    23049394.980
        46.400          29.000
 118352667.575 7  92222940.71245  22521779.633                    22521784.430
        47.300          34.700
 120555251.855 7  93939117.51844  22940901.516                    22940906.875
        42.100          28.900
 115322248.492 8  89861542.58846  21945101.352                    21945104.762
        49.900          37.100
 115546827.666 7  90036542.81645  21987838.719                    21987842.238
        44.500          32.700
 110486207.467 8  86093154.45146  21024824.289                    21024827.059
        48.900          36.600
 118107532.646 7  92031872.10745  22475120.438                    22475123.246
        46.000          31.200
 18  3 15 10  9 22.0000000  0 16R09R07R15R16R23R24G30R17G21G07G08G27
                                G15G20G13G28
                  89605254.779 6  21574530.922                    21574529.590
                        40.400
                  83575398.661 7  20073328.273                    20073329.746
                        42.300
                  95711163.676 4  23028476.844                    23028479.918
                        26.600
                  81447814.527 6  19603545.719                    19603546.762
                        39.800
                  97157880.122 5  23351961.695                    23351967.316
                        32.600
                  87555391.186 5  21051385.047                    21051384.418
                        33.100
 113589389.654 8  88511206.73446  21615333.570                    21615338.801
        49.500          36.600
                  89763824.874 6  21567235.031                    21567237.066
                        41.400
 126903191.220 7  98885612.23944  24148873.930                    24148877.848
        43.200          26.000
 121128574.859 7  94385975.71044  23050018.727                    23050021.324
        46.900          27.900
 118352193.339 7  92222571.18845  22521689.016                    22521694.117
        46.600          34.300
 120557520.853 7  93940885.56744  22941333.484                    22941338.859
        42.000          28.300
 115320581.636 8  89860243.73246  21944783.906                    21944787.539
        49.600          36.800
 115548249.172 7  90037650.47745  21988109.977                    21988112.879
        45.800          33.000
 110486220.569 8  86093164.64846  21024826.531                    21024829.711
        48.800          36.100
 118105551.769 7  92030328.56545  22474742.695                    22474746.602
        44.000          30.300
 18  3 15 10  9 23.0000000  0 16R09R07R15R16R23R24G30R17G21G07G08G27
                                G15G20G13G28
                  89602533.769 6  21573874.609                    21573875.410
                        41.000
                  83576704.034 6  20073640.555                    20073642.125
                        41.900
                  95714753.464 4  23029338.859                    23029343.484
                        26.800
                  81448377.131 6  19603680.563                    19603682.344
                        40.000
                  97161380.309 5  23352803.563                    23352808.879
                        32.900
                  87556654.766 5  21051689.031                    21051689.113
                        32.600
 113591439.581 8  88512804.08346  21615723.781                    21615729.406
        49.900          36.500
                  89761883.179 6  21566767.273                    21566770.398
                        41.500
 126905332.299 7  98887280.61744  24149281.867                    24149285.305
        43.100          25.800
 121131867.560 7  94388541.45044  23050645.375                    23050648.266
        46.400          28.400
 118351719.808 7  92222202.20345  22521598.656                    22521604.160
        47.100          33.700
 120559790.420 7  93942654.04644  22941765.648                    22941770.641
        42.300          28.200
 115318915.338 8  89858945.32145  21944467.453                    21944470.168
        49.100          35.700
 115549671.349 7  90038758.66345  21988379.734                    21988383.602
        44.100          31.100
 110486234.388 8  86093175.40546  21024829.242                    21024832.301
        49.700          36.600
 118103571.334 7  92028785.35345  22474365.438                    22474369.699
        43.200          30.100
 18  3 15 10  9 24.0000000  0 16R09R07R15R16R23R24G30R17G21G07G08G27
                                G15G20G13G28
                  89599813.099 6  21573219.086                    21573219.738
                        40.400
                  83578010.131 6  20073954.914                    20073956.309
                        40.900
                  95718343.415 4  23030202.070                    23030206.898
                        25.800
                  81448940.448 6  19603816.336                    19603817.484
                        39.000
                  97164880.837 5  23353645.070                    23353650.441
                        31.900
                  87557919.106 5  21051992.773                    21051992.773
                        32.200
 113593490.134 8  88514401.91846  21616114.211                    21616119.441
        49.500          36.100
                  89759942.174 6  21566300.813                    21566304.270
                        41.100
 126907473.857 7  98888949.34844  24149689.930                    24149692.570
        43.000          25.300
 121135160.667 7  94391107.50844  23051272.273                    23051274.961
        46.800          28.700
 118351247.003 7  92221833.78345  22521509.000                    22521514.098
        47.100          33.600
 120562060.695 7  93944423.09544  22942197.469                    22942202.387
        42.600          28.700
 115317249.742 8  89857647.45846  21944150.594                    21944153.387
        49.700          36.300
 115551094.233 7  90039867.43445  21988651.477                    21988653.914
        45.000          31.100
 110486248.951 8  86093186.75045  21024832.133                    21024835.262
        50.100          35.800
 118101591.402 7  92027242.56445  22473988.133                    22473992.777
        42.600          30.300
 18  3 15 10  9 25.0000000  0 16R09R07R15R16R23R24G30R17G21G07G08G27
                                G15G20G13G28
                  89597092.867 6  21572562.672                    21572564.957
                        40.400
                  83579316.963 6  20074268.141                    20074270.609
                        41.300
                  95721933.608 4  23031067.258                    23031070.887
                        26.800
                  81449504.499 6  19603952.094                    19603953.438
                        39.400
                  97168381.638 5  23354485.727                    23354492.086
                        32.000
                  87559184.221 5  21052297.398                    21052297.207
                        32.700
 113595541.290 8  88516000.22746  21616504.422                    21616509.527
        49.000          36.500
                  89758001.757 6  21565834.680                    21565837.781
                        41.200
 126909615.874 7  98890618.44344  24150097.414                    24150100.387
        42.700          25.600
 121138454.151 7  94393673.85544  23051899.102                    23051901.480
        46.800          28.000
 118350774.955 7  92221465.94145  22521419.195                    22521424.309
        47.300          34.100
 120564331.610 7  93946192.63344  22942629.719                    22942634.742
        42.000          29.400
 115315584.732 8  89856350.04645  21943833.406                    21943836.984
        49.500          35.800
 115552517.833 7  90040976.74645  21988922.461                    21988925.078
        45.300          31.500
 110486264.237 8  86093198.66245  21024834.992                    21024838.098
        50.200          35.900
 118099611.941 7  92025700.15444  22473613.016                    22473616.055
        43.400          29.100
 18  3 15 10  9 26.0000000  0 16R09R07R15R16R23R24G30R17G21G07G08G27
                                G15G20G13G28
                  89594373.011 6  21571907.320                    21571910.070
                        38.900
                  83580624.481 6  20074582.273                    20074583.625
                        40.900
                  95725523.979 4  23031931.641                    23031934.652
                        24.900
                  81450069.218 6  19604087.281                    19604089.293
                        39.100
                  97171882.737 5  23355326.688                    23355332.766
                        30.600
                  87560450.066 5  21052603.602                    21052601.105
                        32.000
 113597593.057 8  88517598.99946  21616894.633                    21616900.059
        49.600          36.800
                  89756061.981 6  21565369.102                    21565371.504
                        40.800
 126911758.360 7  98892287.91444  24150505.359                    24150507.953
        42.800          26.700
 121141748.007 7  94396240.49744  23052525.797                    23052528.059
        46.600          28.900
 118350303.617 8  92221098.65945  22521329.625                    22521334.770
        48.000          33.800
 120566603.169 7  93947962.68344  22943062.195                    22943066.637
        42.000          29.400
 115313920.360 8  89855053.13845  21943516.398                    21943520.031
        49.400          35.800
 115553942.141 7  90042086.60945  21989193.094                    21989196.094
        45.000          32.300
 110486280.253 8  86093211.14046  21024838.500                    21024841.305
        50.700          36.500
 118097633.021 7  92024158.17345  22473237.836                    22473239.488
        46.200          30.100
 18  3 15 10  9 27.0000000  0 16R09R07R15R16R23R24G30R17G21G07G08G27
                                G15G20G13G28
                  89591653.532 6  21571252.266                    21571254.055
                        38.700
                  83581932.664 6  20074897.469                    20074898.641
                        41.200
                  95729114.582 4  23032795.430                    23032798.809
                        26.000
                  81450634.660 6  19604224.438                    19604225.730
                        39.600
                  97175384.148 4  23356168.414                    23356174.238
                        29.600
                  87561716.687 5  21052906.797                    21052905.957
                        31.500
 113599645.429 8  88519198.25046  21617285.570                    21617290.754
        49.600          36.900
                  89754122.765 6  21564903.781                    21564905.086
                        40.100
 126913901.328 7  98893957.75644  24150912.383                    24150915.801
        43.000          24.900
 121145042.303 7  94398807.48644  23053152.000                    23053155.004
        46.200          28.300
 118349833.061 8  92220732.00145  22521240.172                    22521244.820
        48.000          33.500
 120568875.369 7  93949733.23444  22943494.406                    22943499.246
        42.000          28.600
 115312256.648 8  89853756.75545  21943199.867                    21943203.297
        49.600          35.700
 115555367.165 7  90043197.02745  21989463.992                    21989467.156
        44.400          31.700
 110486297.029 8  86093224.21346  21024841.438                    21024844.410
        50.700          36.200
 118095654.634 7  92022616.57945  22472861.867                    22472862.746
        47.600          30.900
 18  3 15 10  9 28.0000000  0 16R09R07R15R16R23R24G30R17G21G07G08G27
                                G15G20G13G28
                  89588934.485 6  21570598.727                    21570598.535
                        38.000
                  83583241.613 7  20075211.125                    20075213.348
                        42.400
                  95732705.498 4  23033659.352                    23033662.867
                        25.600
                  81451200.877 6  19604359.727                    19604361.422
                        40.000
                  97178885.910 4  23357010.055                    23357016.727
                        29.900
                  87562984.104 5  21053212.250                    21053210.691
                        31.700
 113601698.483 8  88520798.03546  21617676.039                    21617681.199
        49.500          36.500
                  89752184.198 6  21564438.695                    21564439.164
                        40.200
 126916044.898 7  98895628.07744  24151320.477                    24151323.410
        43.100          25.100
 121148337.054 7  94401374.82944  23053779.508                    23053782.270
        46.200          29.500
 118349363.274 8  92220365.94245  22521150.797                    22521155.910
        48.600          33.700
 120571148.284 7  93951504.34544  22943926.773                    22943932.250
        42.300          29.000
 115310593.614 8  89852460.89346  21942883.430                    21942886.949
        50.000          36.100
 115556792.970 7  90044308.03845  21989735.430                    21989738.707
        44.500          31.200
 110486314.617 8  86093237.92746  21024844.133                    21024847.383
        49.900          36.500
 118093676.828 8  92021075.41644  22472485.375                    22472486.719
        48.100          29.800
 18  3 15 10  9 29.0000000  0 16R09R07R15R16R23R24G30R17G21G07G08G27
                                G15G20G13G28
                  89586215.871 6  21569944.555                    21569944.066
                        38.500
                  83584551.285 6  20075525.969                    20075527.059
                        41.900
                  95736296.626 4  23034522.594                    23034526.547
                        25.500
                  81451767.839 6  19604497.484                    19604498.031
                        39.900
                  97182387.989 4  23357852.188                    23357858.043
                        29.000
                  87564252.273 5  21053516.984                    21053514.977
                        31.400
 113603752.157 8  88522398.31246  21618066.727                    21618072.289
        49.600          36.600
                  89750246.240 6  21563972.289                    21563973.625
                        40.700
 126918188.916 7  98897298.74844  24151728.633                    24151731.512
        44.100          26.900
 121151632.201 7  94403942.47744  23054406.273                    23054409.055
        46.000          27.900
 118348894.231 8  92220000.46545  22521061.578                    22521066.590
        48.400          33.700
 120573421.855 6  93953275.97244  22944359.211                    22944364.602
        41.900          28.900
 115308931.245 8  89851165.54845  21942567.289                    21942570.363
        50.100          35.900
 115558219.490 7  90045419.59545  21990006.445                    21990010.121
        43.700          32.100
 110486332.929 8  86093252.19346  21024847.805                    21024850.770
        50.400          36.400
 118091699.515 7  92019534.61744  22472107.773                    22472110.320
        47.400          29.900
 18  3 15 10  9 30.0000000  0 16R09R07R15R16R23R24G30R17G21G07G08G27
                                G15G20G13G28
                  89583497.446 6  21569289.789                    21569288.813
                        38.100
                  83585861.627 6  20075840.836                    20075841.875
                        41.900
                  95739887.917 4  23035386.781                    23035390.500
                        24.500
                  81452335.457 6  19604633.891                    19604634.688
                        39.600
                  97185890.354 4  23358694.602                    23358699.934
                        29.700
                  87565521.152 5  21053821.227                    21053820.297
                        32.600
 113605806.412 8  88523999.02946  21618457.563                    21618462.926
        49.600          37.000
                  89748308.862 6  21563506.609                    21563508.078
                        40.900
 126920333.361 7  98898969.74344  24152136.422                    24152139.699
        43.800          26.500
 121154927.678 7  94406510.37844  23055033.438                    23055036.172
        46.000          29.700
 118348425.899 8  92219635.54745  22520972.109                    22520977.660
        48.400          33.700
 120575696.028 7  93955048.05844  22944792.328                    22944797.688
        42.700          29.200
 115307269.439 8  89849870.63346  21942251.141                    21942253.953
        50.800          36.900
 115559646.644 7  90046531.64245  21990278.844                    21990281.719
        44.800          31.700
 110486351.962 8  86093267.01146  21024851.859                    21024855.090
        49.900          36.200
 118089722.663 7  92017994.16845  22471730.578                    22471734.301
        45.400          31.000
 18  3 15 10  9 31.0000000  0 16R09R07R15R16R23R24G30R17G21G07G08G27
                                G15G20G13G28
                  89580779.547 6  21568635.797                    21568635.125
                        41.800
                  83587172.647 6  20076155.109                    20076156.930
                        41.600
                  95743479.401 3  23036250.078                    23036255.063
                        22.800
                  81452903.818 6  19604769.891                    19604771.387
                        39.800
                  97189392.992 4  23359536.477                    23359541.715
                        29.800
                  87566790.796 5  21054124.789                    21054125.797
                        31.600
 113607861.278 8  88525600.22246  21618848.109                    21618854.059
        49.500          36.200
                  89746372.084 6  21563040.109                    21563043.398
                        41.000
 126922478.340 7  98900641.15244  24152545.008                    24152547.582
        43.500          26.500
 121158223.605 7  94409078.64144  23055660.359                    23055662.914
        46.400          28.700
 118347958.302 8  92219271.19545  22520882.867                    22520888.313
        48.400          33.200
 120577970.813 6  93956820.61344  22945224.922                    22945230.363
        41.800          28.400
 115305608.312 7  89848576.23145  21941934.953                    21941937.977
        47.800          31.900
 115561074.587 6  90047644.31344  21990550.203                    21990553.586
        41.500          26.900
 110486371.711 8  86093282.38645  21024855.203                    21024858.535
        50.000          35.600
 118087746.299 7  92016454.14344  22471353.992                    22471358.207
        43.900          29.800
 18  3 15 10  9 32.0000000  0 16R09R07R15R16R23R24G30R17G21G07G08G27
                                G15G20G13G28
                  89578062.026 6  21567981.039                    21567982.266
                        40.500
                  83588484.391 6  20076470.133                    20076472.332
                        40.900
                  95747071.159 4  23037114.008                    23037118.977
                        24.400
                  81453472.927 6  19604907.570                    19604908.254
                        37.900
                  97192896.069 4  23360379.531                    23360384.156
                        27.500
                  87568061.253 5  21054429.516                    21054430.988
                        31.000
 113609916.778 8  88527201.90845  21619239.586                    21619245.105
        48.800          35.200
                  89744435.974 6  21562575.102                    21562578.258
                        38.800
 126924623.773 7  98902312.89644  24152953.164                    24152955.828
        43.100          26.000
 121161519.938 7  94411647.21644  23056288.086                    23056290.473
        45.900          27.800
 118347491.468 8  92218907.43545  22520793.539                    22520799.477
        48.300          33.200
 120580246.338 7  93958593.75444  22945657.680                    22945663.246
        42.100          28.100
 115303947.829 7  89847282.34045  21941619.016                    21941622.336
        46.800          32.200
 115562503.254 6  90048757.54744  21990822.375                    21990825.273
        41.000          25.300
 110486392.257 8  86093298.38145  21024859.008                    21024862.477
        49.500          35.200
 118085770.468 7  92014914.55944  22470978.383                    22470981.852
        44.600          28.800
 18  3 15 10  9 33.0000000  0 16R09R07R15R16R23R24G30R17G21G07G08G27
                                G15G20G13G28
                  89575344.970 6  21567326.992                    21567329.523
                        40.400
                  83589796.909 6  20076785.633                    20076788.168
                        41.000
                  95750663.291 3  23037979.352                    23037983.293
                        21.900
                  81454042.803 6  19605044.211                    19605045.574
                        38.100
                  97196399.447 4  23361221.617                    23361225.676
                        28.000
                  87569332.516 4  21054734.313                    21054736.156
                        29.100
 113611972.979 8  88528804.13246  21619630.672                    21619636.242
        49.300          36.000
                  89742500.519 6  21562109.805                    21562113.004
                        39.000
 126926769.828 7  98903985.14444  24153361.234                    24153363.902
        43.000          24.700
 121164816.738 7  94414216.14644  23056915.492                    23056917.641
        46.500          28.200
 118347025.422 7  92218544.28945  22520705.016                    22520711.063
        47.900          33.700
 120582522.619 7  93960367.47444  22946091.148                    22946096.402
        42.300          28.500
 115302288.094 8  89845989.03346  21941303.273                    21941306.297
        49.400          36.300
 115563932.665 7  90049871.38245  21991093.953                    21991097.027
        43.900          31.400
 110486413.629 8  86093315.03746  21024863.484                    21024866.785
        49.600          36.100
 118083795.216 7  92013375.43645  22470603.328                    22470606.035
        44.800          30.300
 18  3 15 10  9 34.0000000  0 16R09R07R15R16R23R24G30R17G21G07G08G27
                                G15G20G13G28
                  89572628.397 6  21566672.156                    21566676.078
                        40.700
                  83591110.181 6  20077101.266                    20077103.203
                        40.900
                  95754255.605 3  23038843.977                    23038847.816
                        22.100
                  81454613.452 6  19605182.008                    19605182.930
                        38.800
                  97199903.233 4  23362062.313                    23362068.004
                        28.200
                  87570604.574 5  21055040.867                    21055042.055
                        31.400
 113614029.842 8  88530406.87546  21620022.344                    21620027.895
        49.800          36.600
                  89740565.766 6  21561645.297                    21561648.266
                        40.200
 126928916.416 7  98905657.81544  24153770.109                    24153772.738
        43.700          26.700
 121168114.021 7  94416785.46344  23057542.883                    23057545.113
        47.000          28.900
 118346560.166 8  92218181.75545  22520616.023                    22520622.457
        48.200          33.900
 120584799.529 7  93962141.67944  22946524.430                    22946529.969
        42.000          28.600
 115300629.047 8  89844696.27845  21940987.766                    21940991.203
        49.700          35.900
 115565362.844 7  90050985.80545  21991366.867                    21991369.246
        44.500          32.100
 110486435.755 8  86093332.28345  21024867.930                    21024870.844
        50.000          34.900
 118081820.592 7  92011836.79044  22470227.633                    22470230.629
        45.300          29.400
 18  3 15 10  9 35.0000000  0 16R09R07R15R16R23R24G30R17G21G07G08G27
                                G15G20G13G28
                  89569912.223 6  21566018.695                    21566020.926
                        41.600
                  83592424.158 6  20077417.227                    20077418.797
                        41.800
                  95757848.179 3  23039708.109                    23039712.422
                        22.500
                  81455184.751 6  19605319.883                    19605320.434
                        39.100
                  97203407.316 4  23362904.984                    23362910.324
                        28.400
                  87571877.394 5  21055346.836                    21055348.141
                        32.000
 113616087.315 8  88532010.10346  21620414.266                    21620419.039
        49.900          36.600
                  89738631.600 6  21561181.313                    21561183.219
                        40.300
 126931063.471 7  98907330.84744  24154178.680                    24154181.156
        44.100          26.100
 121171411.682 7  94419355.06244  23058170.336                    23058172.914
        46.900          29.400
 118346095.659 7  92217819.80045  22520527.852                    22520534.055
        47.900          34.500
 120587077.120 6  93963916.41844  22946957.578                    22946963.297
        41.100          28.700
 115298970.640 8  89843404.02445  21940671.594                    21940675.160
        50.200          35.800
 115566793.758 7  90052100.81045  21991638.555                    21991641.402
        44.600          31.500
 110486458.641 8  86093350.12545  21024872.336                    21024875.188
        49.500          35.700
 118079846.421 7  92010298.46545  22469852.023                    22469854.887
        44.800          31.000
 18  3 15 10  9 36.0000000  0 16R09R07R15R16R23R24G30R17G21G07G08G27
                                G15G20G13G28
                  89567196.409 6  21565365.305                    21565365.977
                        40.900
                  83593738.882 7  20077731.891                    20077734.430
                        42.000
                  95761440.959 3  23040571.609                    23040576.980
                        22.700
                  81455756.817 6  19605456.352                    19605458.230
                        39.400
                  97206911.715 4  23363746.992                    23363752.297
                        28.800
                  87573150.957 5  21055653.797                    21055654.711
                        32.900
 113618145.400 8  88533613.80746  21620805.750                    21620810.949
        49.800          37.100
                  89736698.008 6  21560717.297                    21560718.758
                        40.500
 126933210.993 7  98909004.24444  24154587.234                    24154589.684
        44.500          27.500
 121174709.717 7  94421924.96644  23058797.750                    23058800.289
        46.500          28.300
 118345631.903 7  92217458.43145  22520439.328                    22520445.785
        47.900          34.800
 120589355.353 6  93965691.66244  22947390.836                    22947397.031
        41.300          28.400
 115297312.858 8  89842112.25545  21940356.313                    21940359.859
        49.600          35.800
 115568225.369 7  90053216.35945  21991911.461                    21991913.938
        45.100          32.300
 110486482.257 8  86093368.53346  21024877.055                    21024879.863
        50.000          36.100
 118077872.747 7  92008760.53045  22469475.563                    22469479.289
        43.800          30.400
 18  3 15 10  9 37.0000000  0 16R09R07R15R16R23R24G30R17G21G07G08G27
                                G15G20G13G28
                  89564481.015 6  21564711.859                    21564711.102
                        41.200
                  83595054.260 6  20078049.133                    20078050.207
                        41.900
                  95765034.028 4  23041435.375                    23041441.266
                        24.300
                  81456329.574 6  19605594.328                    19605595.918
                        39.100
                  97210416.446 4  23364589.563                    23364594.086
                        28.700
                  87574425.267 5  21055960.336                    21055961.539
                        32.500
 113620204.112 8  88535217.99546  21621197.758                    21621202.719
        50.200          36.900
                  89734765.044 6  21560252.477                    21560253.789
                        40.400
 126935359.034 7  98910678.04944  24154995.578                    24154998.859
        43.700          25.600
 121178008.211 7  94424495.22944  23059425.367                    23059427.922
        47.100          29.000
 118345168.905 7  92217097.66545  22520351.109                    22520357.387
        47.500          34.000
 120591634.268 6  93967467.43944  22947824.703                    22947830.500
        41.600          28.300
 115295655.726 8  89840820.99046  21940041.109                    21940044.363
        49.900          36.500
 115569657.672 7  90054332.43945  21992183.820                    21992186.707
        45.100          32.100
 110486506.632 8  86093387.52346  21024881.008                    21024883.898
        49.900          36.300
 118075899.609 7  92007223.02044  22469099.984                    22469104.000
        43.800          29.800
 18  3 15 10  9 38.0000000  0 16R09R07R15R16R23R24G30R17G21G07G08G27
                                G15G20G13G28
                  89561765.939 6  21564057.992                    21564057.813
                        41.600
                  83596370.311 6  20078364.141                    20078366.148
                        41.600
                  95768627.262 4  23042300.648                    23042305.910
                        24.300
                  81456903.072 6  19605733.352                    19605734.207
                        39.400
                  97213921.472 4  23365432.219                    23365436.625
                        29.100
                  87575700.329 5  21056267.094                    21056267.652
                        31.800
 113622263.426 8  88536822.65446  21621589.352                    21621594.887
        50.300          36.800
                  89732832.711 6  21559788.625                    21559789.305
                        41.100
 126937507.544 7  98912352.21444  24155404.828                    24155407.535
        43.500          27.000
 121181307.069 7  94427065.76745  23060053.211                    23060055.734
        47.300          30.100
 118344706.620 7  92216737.45345  22520263.250                    22520269.738
        47.000          34.200
 120593913.819 6  93969243.71544  22948259.016                    22948264.484
        40.900          29.400
 115293999.241 8  89839530.21945  21939726.016                    21939729.098
        49.500          35.500
 115571090.740 7  90055449.11145  21992456.594                    21992459.191
        45.200          31.600
 110486531.745 8  86093407.08646  21024886.055                    21024889.109
        49.800          36.000
 118073926.981 7  92005685.92744  22468725.859                    22468727.668
        45.400          29.500
 18  3 15 10  9 39.0000000  0 16R09R07R15R16R23R24G30R17G21G07G08G27
                                G15G20G13G28
                  89559051.290 6  21563403.125                    21563404.008
                        41.400
                  83597687.098 7  20078680.438                    20078681.855
                        42.000
                  95772220.731 3  23043166.719                    23043170.113
                        23.800
                  81457477.298 6  19605870.820                    19605872.191
                        39.800
                  97217426.808 4  23366274.305                    23366279.883
                        28.700
                  87576976.164 5  21056575.047                    21056574.367
                        32.700
 113624323.390 8  88538427.82646  21621981.383                    21621986.633
        50.600          36.400
                  89730901.004 6  21559324.664                    21559325.352
                        41.200
 126939656.583 7  98914026.77844  24155813.875                    24155816.680
        43.500          26.400
 121184606.354 7  94429636.64244  23060681.063                    23060683.867
        46.900          29.100
 118344245.103 7  92216377.84045  22520175.375                    22520181.746
        47.100          34.000
 120596194.042 6  93971020.51844  22948692.781                    22948698.141
        41.100          29.400
 115292343.421 8  89838239.97145  21939411.078                    21939413.984
        49.500          35.400
 115572524.518 7  90056566.33845  21992729.438                    21992732.250
        45.100          32.100
 110486557.641 8  86093427.26846  21024890.625                    21024894.086
        49.300          36.400
 118071954.903 7  92004149.25345  22468351.398                    22468352.453
        46.800          30.400
 18  3 15 10  9 40.0000000  0 16R09R07R15R16R23R24G30R17G21G07G08G27
                                G15G20G13G28
                  89556337.019 6  21562748.297                    21562750.629
                        41.400
                  83599004.615 7  20078997.469                    20078999.090
                        42.100
                  95775814.378 4  23044030.023                    23044034.602
                        24.200
                  81458052.252 6  19606009.703                    19606010.316
                        40.200
                  97220932.465 4  23367116.875                    23367121.715
                        28.300
                  87578252.746 5  21056882.563                    21056882.074
                        32.700
 113626383.970 8  88540033.47646  21622373.625                    21622378.863
        50.200          36.600
                  89728969.895 6  21558859.938                    21558861.367
                        41.400
 126941806.069 7  98915701.69244  24156222.633                    24156225.168
        43.200          25.600
 121187906.039 7  94432207.82544  23061309.250                    23061311.676
        46.700          29.400
 118343784.285 7  92216018.77545  22520088.125                    22520094.027
        47.100          34.600
 120598474.892 6  93972797.80844  22949127.281                    22949132.438
        41.100          29.100
 115290688.261 8  89836950.23846  21939095.891                    21939099.219
        49.100          36.200
 115573958.989 7  90057684.10845  21993002.383                    21993005.320
        45.400          31.900
 110486584.252 8  86093448.00045  21024895.172                    21024899.320
        49.200          35.800
 118069983.354 7  92002612.96845  22467976.109                    22467977.406
        47.500          30.000
 18  3 15 10  9 41.0000000  0 16R09R07R15R16R23R24G30R17G21G07G08G27
                                G15G20G13G28
                  89553623.144 6  21562096.531                    21562097.066
                        41.700
                  83600322.871 6  20079313.758                    20079316.086
                        41.500
                  95779408.271 3  23044895.352                    23044899.695
                        23.600
                  81458627.909 6  19606148.242                    19606149.133
                        39.700
                  97224438.441 4  23367958.516                    23367963.980
                        29.300
                  87579530.080 5  21057190.070                    21057189.148
                        32.100
 113628445.146 8  88541639.59446  21622765.695                    21622770.852
        50.700          36.900
                  89727039.380 6  21558396.273                    21558397.395
                        40.500
 126943956.066 7  98917376.99944  24156631.813                    24156634.418
        42.800          26.400
 121191206.136 7  94434779.32444  23061936.922                    23061939.492
        46.700          29.800
 118343324.219 7  92215660.28945  22520000.180                    22520006.629
        46.400          33.800
 120600756.434 6  93974575.61644  22949560.773                    22949566.441
        41.100          29.600
 115289033.715 8  89835660.98746  21938780.984                    21938783.879
        49.700          36.000
 115575394.195 7  90058802.44345  21993274.547                    21993278.176
        44.300          31.200
 110486611.608 8  86093469.30745  21024900.969                    21024904.098
        49.700          35.900
 118068012.314 7  92001077.05944  22467600.680                    22467603.305
        47.000          29.500
 18  3 15 10  9 42.0000000  0 16R09R07R15R16R23R24G30R17G21G07G08G27
                                G15G20G13G28
                  89550909.694 6  21561444.047                    21561444.844
                        40.600
                  83601641.804 6  20079630.688                    20079632.453
                        41.100
                  95783002.343 3  23045761.031                    23045764.672
                        22.100
                  81459204.247 6  19606286.813                    19606288.000
                        39.400
                  97227944.733 4  23368802.023                    23368807.082
                        28.600
                  87580808.167 5  21057497.930                    21057496.398
                        32.300
 113630506.926 8  88543246.17446  21623158.008                    21623163.738
        50.300          37.100
                  89725109.529 6  21557932.703                    21557934.090
                        40.800
 126946106.528 7  98919052.67744  24157041.125                    24157043.680
        43.200          25.900
 121194506.597 7  94437351.10444  23062565.203                    23062567.496
        46.400          28.700
 118342864.876 7  92215302.36045  22519912.789                    22519919.004
        46.500          34.700
 120603038.589 6  93976353.91944  22949994.844                    22950000.402
        41.400          28.800
 115287379.814 8  89834372.25045  21938466.102                    21938469.637
        49.300          35.100
 115576830.096 7  90059921.31545  21993548.844                    21993551.484
        45.000          32.100
 110486639.680 8  86093491.17346  21024906.734                    21024909.336
        49.900          36.100
 118066041.736 7  91999541.50544  22467224.172                    22467227.574
        44.900          29.300
 18  3 15 10  9 43.0000000  0 16R09R07R15R16R23R24G30R17G21G07G08G27
                                G15G20G13G28
                  89548196.631 6  21560790.859                    21560790.984
                        40.700
                  83602961.443 6  20079947.117                    20079949.074
                        40.700
                  95786596.684 3  23046625.734                    23046629.469
                        22.300
                  81459781.312 6  19606424.508                    19606426.883
                        38.800
                  97231451.315 4  23369645.383                    23369649.535
                        29.200
                  87582086.977 5  21057803.953                    21057804.086
                        31.700
 113632569.333 8  88544853.24746  21623550.734                    21623555.895
        50.200          36.800
                  89723180.317 6  21557468.219                    21557470.301
                        40.200
 126948257.486 7  98920728.75344  24157450.281                    24157453.223
        43.000          25.200
 121197807.472 7  94439923.21244  23063193.273                    23063195.973
        46.200          28.300
 118342406.270 7  92214945.00645  22519825.781                    22519831.934
        46.100          33.700
 120605321.348 6  93978132.68744  22950429.398                    22950435.012
        41.100          27.900
 115285726.558 8  89833084.01245  21938150.898                    21938154.723
        49.500          35.300
 115578266.720 7  90061040.76145  21993821.688                    21993824.688
        44.600          30.300
 110486668.525 8  86093513.64845  21024912.352                    21024914.914
        50.100          35.800
 118064071.620 6  91998006.33444  22466847.922                    22466853.086
        41.400          29.400
 18  3 15 10  9 44.0000000  0 16R09R07R15R16R23R24G30R17G21G07G08G27
                                G15G20G13G28
                  89545483.970 6  21560138.195                    21560137.789
                        40.300
                  83604281.755 6  20080265.766                    20080265.961
                        40.200
                  95790191.221 3  23047490.094                    23047493.813
                        22.300
                  81460359.113 6  19606563.945                    19606565.930
                        38.000
                  97234958.256 4  23370487.828                    23370492.297
                        27.600
                  87583366.545 5  21058112.625                    21058111.422
                        30.300
 113634632.335 8  88546460.78046  21623943.031                    21623948.586
        49.500          36.300
                  89721251.704 6  21557005.547                    21557007.164
                        38.900
 126950408.973 7  98922405.23244  24157859.805                    24157862.355
        42.800          27.100
 121201108.737 7  94442495.62944  23063821.555                    23063824.078
        46.500          27.900
 118341948.415 7  92214588.22945  22519738.492                    22519744.617
        46.200          34.000
 120607604.851 6  93979912.02644  22950863.977                    22950869.480
        40.700          28.800
 115284073.962 8  89831796.27845  21937836.523                    21937839.926
        49.400          35.400
 115579704.065 7  90062160.77945  21994096.063                    21994098.680
        44.100          31.700
 110486698.108 8  86093536.69845  21024917.922                    21024920.613
        50.300          35.400
 118062101.995 7  91996471.59344  22466474.344                    22466477.477
        42.700          29.800
 18  3 15 10  9 45.0000000  0 16R09R07R15R16R23R24G30R17G21G07G08G27
                                G15G20G13G28
                  89542771.698 6  21559486.906                    21559485.371
                        41.500
                  83605602.737 6  20080582.188                    20080583.926
                        41.100
                  95793786.021 3  23048354.383                    23048359.480
                        22.800
                  81460937.579 6  19606703.656                    19606704.859
                        39.100
                  97238465.494 4  23371330.430                    23371336.051
                        29.600
                  87584646.949 5  21058419.891                    21058419.828
                        32.000
 113636695.986 8  88548068.82146  21624335.516                    21624340.941
        49.200          37.500
                  89719323.693 6  21556541.648                    21556544.133
                        40.500
 126952560.881 7  98924082.03244  24158269.758                    24158272.246
        42.800          26.400
 121204410.415 7  94445068.36544  23064450.055                    23064451.957
        47.000          28.000
 118341491.303 7  92214232.03545  22519651.984                    22519657.480
        45.700          34.300
 120609888.971 6  93981691.85444  22951298.102                    22951304.086
        41.100          27.900
 115282421.962 8  89830509.00945  21937522.266                    21937525.684
        49.500          35.200
 115581142.106 7  90063281.33645  21994369.281                    21994372.238
        43.900          31.400
 110486728.400 8  86093560.30045  21024923.414                    21024926.246
        49.900          35.400
 118060133.002 6  91994937.37844  22466100.219                    22466103.246
        41.800          24.400
 18  3 15 10  9 46.0000000  0 16R09R07R15R16R23R24G30R17G21G07G08G27
                                G15G20G13G28
                  89540059.812 6  21558834.875                    21558831.965
                        39.000
                  83606924.501 6  20080899.711                    20080901.109
                        41.500
                  95797381.037 3  23049220.047                    23049223.891
                        22.500
                  81461516.827 6  19606842.438                    19606844.121
                        39.100
                  97241972.956 4  23372174.109                    23372178.738
                        28.100
                  87585928.075 5  21058726.508                    21058727.758
                        30.900
 113638760.204 8  88549677.29646  21624727.961                    21624733.926
        48.800          36.200
                  89717396.301 6  21556079.922                    21556081.461
                        40.500
 126954713.313 6  98925759.24444  24158679.000                    24158681.559
        41.800          26.800
 121207712.487 7  94447641.41144  23065078.156                    23065080.992
        46.300          28.300
 118341034.881 7  92213876.39445  22519564.922                    22519571.078
        45.200          33.700
 120612173.701 6  93983472.15944  22951733.117                    22951739.156
        41.400          27.900
 115280770.624 8  89829222.26546  21937208.375                    21937211.715
        48.500          36.100
 115582580.847 7  90064402.42445  21994642.609                    21994645.465
        44.200          31.900
 110486759.475 8  86093584.52745  21024929.281                    21024932.160
        49.600          35.500
 118058164.455 7  91993403.46944  22465727.367                    22465728.328
        46.300          26.800
 18  3 15 10  9 47.0000000  0 16R09R07R15R16R23R24G30R17G21G07G08G27
                                G15G20G13G28
                  89537348.273 6  21558179.891                    21558179.363
                        41.400
                  83608246.929 7  20081217.258                    20081219.059
                        42.000
                  95800976.263 3  23050084.313                    23050089.027
                        22.500
