     2.11           OBSERVATION DATA    M (MIXED)           RINEX VERSION / TYPE
teqc  2018Mar15                         20180319 14:17:34UTCPGM / RUN BY / DATE
Linux 2.6.32-573.12.1.x86_64|x86_64|gcc -static|Linux 64|=+ COMMENT
END OF STATIC MODE OBSERVATION                              COMMENT
BIT 2 OF LLI FLAGS DATA COLLECTED UNDER A/S CONDITION       COMMENT
-Unknown-                                                   MARKER NAME
4625                                                        MARKER NUMBER
-Unknown-           -Unknown-                               OBSERVER / AGENCY
5127468778          TRIMBLE             4.63                REC # / TYPE / VERS
47477114                            NONE                    ANT # / TYPE
  5387055.1119  3054441.0719  1521530.8858                  APPROX POSITION XYZ
        0.0000        0.0000        0.0000                  ANTENNA: DELTA H/E/N
     1     1                                                WAVELENGTH FACT L1/2
     7    L1    L2    C1    P1    P2    S1    S2            # / TYPES OF OBSERV
    18                                                      LEAP SECONDS
 SNR is mapped to RINEX snr flag value [0-9]                COMMENT
  L1 & L2: min(max(int(snr_dBHz/6), 0), 9)                  COMMENT
  2018     3    16    10    25   16.0000000     GPS         TIME OF FIRST OBS
                                                            END OF HEADER
 18  3 16 10 25 16.0000000  0 15R01G27G30G15R10R16R17R18G20G21R09G08
                                G28G07G13
                  84048336.725 6  20215297.008                    20215300.055
                        39.900
 123070607.407 6  95899216.41844  23419562.422                    23419568.035
        41.300          26.000
 115805351.641 8  90237884.24746  22037027.211                    22037032.734
        48.400          38.800
 113154177.356 8  88172030.99246  21532506.586                    21532509.949
        50.500          37.100
                  85797410.198 6  20694052.047                    20694056.852
                        38.500
                  96321600.236 5  23183491.180                    23183493.055
                        35.300
                  89427470.021 6  21486419.828                    21486420.324
                        40.200
                  86693111.374 6  20880690.586                    20880693.590
                        41.100
 117017404.643 7  91182408.39144  22267673.297                    22267676.141
        44.100          29.300
 129152516.750 7 100638330.17544  24576906.750                    24576909.180
        44.500          29.100
                  82063762.808 7  19758738.398                    19758737.961
                        43.800
 117661431.047 7  91684403.10846  22390261.523                    22390267.773
        47.000          36.900
 115460407.631 8  89969148.01146  21971383.945                    21971386.383
        48.000          37.300
 124687309.763 7  97158970.14244  23727207.633                    23727210.297
        45.800          26.000
 110387306.352 8  86016095.25545  21006006.398                    21006009.680
        48.100          34.900
 18  3 16 10 25 17.0000000  0 15R01G27G30G15R10R16R17R18G20G21R09G08
                                G28G07G13
                  84047374.966 6  20215065.898                    20215068.582
                        39.700
 123073509.987 6  95901478.17544  23420114.406                    23420120.438
        41.400          27.300
 115808002.172 7  90239949.55146  22037531.453                    22037537.133
        47.900          37.500
 113153234.108 8  88171296.00446  21532326.648                    21532330.008
        50.600          37.500
                  85795121.945 6  20693501.117                    20693504.938
                        38.800
                  96325207.570 5  23184359.828                    23184361.563
                        34.900
                  89429629.070 6  21486938.328                    21486939.363
                        40.900
                  86692083.163 6  20880443.813                    20880446.535
                        41.000
 117019520.269 7  91184056.93144  22268074.711                    22268078.398
        43.200          28.600
 129155106.382 7 100640348.07844  24577399.859                    24577402.469
        44.300          28.500
                  82064886.067 7  19759008.844                    19759008.766
                        43.900
 117661763.873 7  91684662.44246  22390324.992                    22390330.781
        46.800          36.800
 115458992.733 7  89968045.45646  21971114.320                    21971117.324
        47.200          36.800
 124690938.029 7  97161797.36744  23727898.414                    23727901.441
        45.700          27.000
 110388123.677 8  86016732.14345  21006161.914                    21006165.355
        48.200          34.900
 18  3 16 10 25 18.0000000  0 15R01G27G30G15R10R16R17R18G20G21R09G08
                                G28G07G13
                  84046413.880 6  20214834.156                    20214837.211
                        39.900
 123076413.105 7  95903740.35344  23420667.609                    23420672.809
        42.600          25.200
 115810653.271 8  90242015.30346  22038035.930                    22038041.980
        48.400          37.900
 113152291.532 8  88170561.52346  21532147.414                    21532150.898
        50.800          37.000
                  85792834.141 6  20692948.313                    20692952.918
                        38.500
                  96328815.123 5  23185228.492                    23185229.734
                        34.300
                  89431788.739 6  21487455.891                    21487458.219
                        41.100
                  86691055.653 6  20880196.625                    20880199.004
                        41.000
 117021636.488 7  91185705.91944  22268478.953                    22268481.227
        43.800          28.100
 129157696.402 7 100642366.27544  24577892.742                    24577895.074
        43.800          28.700
                  82066009.976 7  19759279.016                    19759279.031
                        43.700
 117662097.422 7  91684922.33746  22390389.063                    22390394.430
        46.600          36.700
 115457578.436 7  89966943.39246  21970844.820                    21970848.430
        47.300          37.000
 124694566.587 7  97164624.81344  23728588.539                    23728591.793
        45.600          26.300
 110388941.733 8  86017369.59845  21006317.438                    21006320.652
        48.200          35.100
 18  3 16 10 25 19.0000000  0 15R01G27G30G15R10R16R17R18G20G21R09G08
                                G28G07G13
                  84045453.434 6  20214603.242                    20214606.492
                        40.000
 123079316.692 7  95906002.89944  23421219.820                    23421225.430
        42.700          26.100
 115813304.802 7  90244081.40546  22038540.125                    22038546.445
        47.600          37.500
 113151349.582 8  88169827.52046  21531967.898                    21531971.137
        50.400          36.500
                  85790546.805 6  20692397.609                    20692401.203
                        38.300
                  96332422.813 5  23186096.859                    23186097.715
                        34.200
                  89433949.019 6  21487974.508                    21487977.430
                        41.200
                  86690028.784 6  20879949.523                    20879951.629
                        41.300
 117023753.265 7  91187355.34644  22268880.234                    22268883.766
        43.100          27.900
 129160286.759 7 100644384.73344  24578385.375                    24578388.176
        43.400          28.200
                  82067134.517 7  19759550.109                    19759550.414
                        43.600
 117662431.642 7  91685182.75946  22390452.734                    22390458.148
        46.400          36.900
 115456164.631 7  89965841.74446  21970576.430                    21970579.629
        47.500          37.500
 124698195.368 7  97167452.40644  23729278.844                    23729282.648
        45.000          27.500
 110389760.452 8  86018007.56645  21006472.992                    21006476.289
        48.500          35.000
 18  3 16 10 25 20.0000000  0 15R01G27G30G15R10R16R17R18G20G21R09G08
                                G28G07G13
                  84044493.688 6  20214372.320                    20214374.980
                        39.400
 123082220.812 7  95908265.85544  23421772.953                    23421777.641
        43.500          25.400
 115815956.933 7  90246147.98846  22039045.125                    22039051.324
        47.900          37.500
 113150408.398 8  88169094.11846  21531789.008                    21531792.242
        50.500          36.900
                  85788259.983 6  20691845.820                    20691850.000
                        38.200
                  96336030.717 5  23186965.250                    23186966.355
                        34.100
                  89436109.908 6  21488493.898                    21488497.098
                        41.500
                  86689002.660 6  20879702.914                    20879703.969
                        41.000
 117025870.688 7  91189005.26844  22269285.938                    22269286.750
        45.300          28.100
 129162877.514 7 100646403.50644  24578878.469                    24578881.363
        43.700          27.500
                  82068259.735 7  19759820.516                    19759820.930
                        43.900
 117662766.602 7  91685443.75946  22390516.805                    22390521.863
        46.400          36.900
 115454751.425 8  89964740.56246  21970308.070                    21970310.375
        48.000          36.900
 124701824.451 7  97170280.24344  23729969.734                    23729972.668
        44.900          26.600
 110390579.880 8  86018646.08745  21006629.453                    21006632.203
        48.600          35.000
 18  3 16 10 25 21.0000000  0 15R01G27G30G15R10R16R17R18G20G21R09G08
                                G28G07G13
                  84043534.695 6  20214141.750                    20214144.977
                        39.500
 123085125.497 7  95910529.26744  23422325.203                    23422330.363
        44.000          24.200
 115818609.601 8  90248214.99746  22039549.586                    22039555.961
        48.100          37.900
 113149467.914 8  88168361.26846  21531610.273                    21531613.113
        50.000          36.500
                  85785973.698 6  20691292.977                    20691298.152
                        38.300
                  96339638.857 5  23187833.953                    23187834.035
                        33.600
                  89438271.470 6  21489012.672                    21489015.863
                        41.300
                  86687977.355 6  20879456.867                    20879457.469
                        40.900
 117027988.778 7  91190655.71744  22269687.938                    22269690.309
        43.400          28.100
 129165468.734 7 100648422.63244  24579371.891                    24579374.176
        43.700          28.200
                  82069385.705 7  19760091.969                    19760092.445
                        44.100
 117663102.393 7  91685705.41046  22390581.086                    22390585.816
        46.700          36.900
 115453338.843 8  89963639.85346  21970038.875                    21970041.609
        48.300          37.000
 124705453.898 7  97173108.35244  23730660.391                    23730663.977
        44.500          27.100
 110391400.104 8  86019285.21845  21006785.406                    21006788.391
        48.800          35.800
 18  3 16 10 25 22.0000000  0 15R01G27G30G15R10R16R17R18G20G21R09G08
                                G28G07G13
                  84042576.374 6  20213911.328                    20213914.543
                        39.600
 123088030.724 7  95912793.09543  23422878.227                    23422882.508
        43.700          22.800
 115821262.792 7  90250282.40246  22040054.539                    22040060.930
        47.400          36.900
 113148528.178 8  88167628.99346  21531431.211                    21531434.344
        50.500          37.000
                  85783687.927 6  20690744.117                    20690746.637
                        38.600
                  96343247.189 5  23188700.906                    23188702.387
                        34.500
                  89440433.634 6  21489531.797                    21489536.043
                        41.400
                  86686952.766 6  20879209.984                    20879210.711
                        40.900
 117030107.604 6  91192306.74344  22270086.922                    22270093.121
        41.100          27.500
 129168060.301 7 100650442.03944  24579865.031                    24579867.215
        44.100          28.100
                  82070512.272 7  19760363.563                    19760363.676
                        43.700
 117663438.899 7  91685967.62246  22390645.008                    22390649.629
        47.500          37.300
 115451926.893 8  89962539.63746  21969769.906                    21969772.770
        48.300          37.400
 124709083.638 7  97175936.69844  23731351.836                    23731355.379
        44.700          26.700
 110392221.081 8  86019924.94546  21006941.453                    21006944.715
        48.400          36.300
 18  3 16 10 25 23.0000000  0 15R01G27G30G15R10R16R17R18G20G21R09G08
                                G28G07G13
                  84041618.737 6  20213681.039                    20213683.914
                        39.400
 123090936.481 7  95915057.33944  23423431.141                    23423435.121
        43.900          25.600
 115823916.542 8  90252350.23846  22040560.461                    22040566.152
        48.200          37.500
 113147589.138 8  88166897.27446  21531252.680                    21531255.891
        50.500          37.400
                  85781402.604 6  20690191.648                    20690196.156
                        38.600
                  96346855.617 5  23189568.875                    23189570.699
                        34.700
                  89442596.445 6  21490050.672                    21490056.223
                        40.900
                  86685928.906 6  20878963.047                    20878963.832
                        40.900
 117032226.987 7  91193958.17844  22270496.086                    22270496.074
        44.900          28.800
 129170652.286 7 100652461.76844  24580358.563                    24580360.418
        44.300          28.400
                  82071639.495 7  19760634.734                    19760634.066
                        43.700
 117663776.114 7  91686230.38446  22390709.719                    22390714.094
        47.900          37.200
 115450515.531 7  89961439.90646  21969501.281                    21969504.480
        47.300          37.700
 124712713.637 7  97178765.24744  23732042.531                    23732046.035
        45.300          27.400
 110393042.735 8  86020565.20145  21007097.820                    21007101.219
        48.800          35.400
 18  3 16 10 25 24.0000000  0 15R01G27G30G15R10R16R17R18G20G21R09G08
                                G28G07G13
                  84040661.821 6  20213450.773                    20213453.586
                        39.100
 123093842.796 7  95917322.02143  23423984.406                    23423988.316
        42.900          23.000
 115826570.830 7  90254418.52646  22041065.180                    22041071.355
        47.800          37.300
 113146650.816 8  88166166.13246  21531073.922                    21531077.641
        50.200          37.200
                  85779117.793 6  20689640.289                    20689643.930
                        38.400
                  96350464.262 5  23190439.398                    23190439.227
                        35.700
                  89444759.906 6  21490571.086                    21490575.469
                        41.000
                  86684905.777 6  20878716.906                    20878717.582
                        40.600
 117034346.962 7  91195610.11544  22270898.766                    22270900.680
        44.800          28.100
 129173244.635 7 100654481.77744  24580852.320                    24580853.805
        44.900          28.800
                  82072767.381 7  19760905.688                    19760905.961
                        43.800
 117664114.111 8  91686493.76446  22390773.625                    22390778.078
        49.100          37.400
 115449104.666 7  89960340.58546  21969232.570                    21969236.078
        47.600          37.100
 124716343.945 7  97181594.04844  23732733.469                    23732736.773
        45.400          26.500
 110393865.113 8  86021206.01645  21007254.695                    21007257.777
        48.000          34.700
 18  3 16 10 25 25.0000000  0 15R01G27G30G15R10R16R17R18G20G21R09G08
                                G28G07G13
                  84039705.556 6  20213220.734                    20213223.938
                        39.300
 123096749.549 7  95919587.06643  23424537.492                    23424540.938
        43.500          23.900
 115829225.537 7  90256487.14846  22041569.961                    22041576.266
        47.300          37.700
 113145713.067 8  88165435.43546  21530895.531                    21530899.004
        50.300          37.600
                  85776833.460 6  20689090.648                    20689093.852
                        38.600
                  96354073.024 5  23191308.461                    23191308.090
                        35.800
                  89446923.911 6  21491091.086                    21491095.121
                        40.800
                  86683883.289 6  20878470.719                    20878470.977
                        40.600
 117036467.591 7  91197262.58144  22271298.039                    22271303.602
        42.000          27.600
 129175837.336 7 100656502.06644  24581345.070                    24581347.242
        44.700          29.300
                  82073895.909 7  19761177.570                    19761178.121
                        43.900
 117664452.764 8  91686757.65946  22390838.781                    22390843.000
        49.500          37.300
 115447694.258 8  89959241.60146  21968964.570                    21968967.246
        48.100          37.300
 124719974.484 7  97184423.03944  23733424.492                    23733427.910
        46.100          26.800
 110394688.177 8  86021847.36745  21007411.406                    21007414.164
        48.400          35.500
 18  3 16 10 25 26.0000000  0 15R01G27G30G15R10R16R17R18G20G21R09G08
                                G28G07G13
                  84038749.982 6  20212991.078                    20212994.664
                        39.700
 123099656.868 7  95921852.55244  23425090.828                    23425094.250
        44.100          24.600
 115831880.790 7  90258556.18346  22042075.391                    22042081.723
        47.300          37.400
 113144775.990 8  88164705.24746  21530717.078                    21530720.781
        50.000          36.800
                  85774549.604 6  20688538.250                    20688542.238
                        38.500
                  96357681.956 6  23192176.242                    23192176.891
                        36.600
                  89449088.504 6  21491612.898                    21491615.309
                        40.800
                  86682861.523 6  20878224.484                    20878224.805
                        40.800
 117038588.862 7  91198915.50444  22271705.055                    22271706.840
        42.900          28.500
 129178430.396 7 100658522.64544  24581838.633                    24581840.785
        44.900          29.700
                  82075025.053 7  19761449.633                    19761449.551
                        43.600
 117664792.162 8  91687022.13546  22390902.688                    22390907.023
        49.500          37.300
 115446284.425 8  89958143.03746  21968696.742                    21968698.508
        48.700          37.500
 124723605.337 7  97187252.28844  23734114.992                    23734118.566
        45.300          25.300
 110395511.947 8  86022489.27045  21007568.195                    21007570.996
        48.300          35.000
 18  3 16 10 25 27.0000000  0 15R01G27G30G15R10R16R17R18G20G21R09G08
                                G28G07G13
                  84037795.110 6  20212761.656                    20212764.895
                        39.500
 123102564.688 7  95924118.41844  23425644.328                    23425647.590
        44.300          26.700
 115834536.524 7  90260625.58646  22042580.523                    22042586.781
        47.100          37.200
 113143839.634 8  88163975.60046  21530539.109                    21530542.230
        50.200          37.400
                  85772266.262 6  20687987.953                    20687991.777
                        38.700
                  96361291.095 6  23193045.648                    23193046.137
                        36.800
                  89451253.730 6  21492134.789                    21492135.500
                        40.500
                  86681840.488 6  20877978.297                    20877978.883
                        40.700
 117040710.680 7  91200568.86644  22272108.539                    22272111.109
        42.800          27.800
 129181023.888 7 100660543.55945  24582331.836                    24582334.340
        45.500          30.200
                  82076154.868 7  19761721.625                    19761721.918
                        43.900
 117665132.314 8  91687287.20246  22390966.945                    22390971.980
        48.900          37.500
 115444875.131 8  89957044.85546  21968428.117                    21968430.418
        48.700          37.300
 124727236.479 7  97190081.76444  23734806.242                    23734809.262
        45.300          24.900
 110396336.441 8  86023131.73145  21007724.922                    21007727.980
        48.500          35.300
 18  3 16 10 25 28.0000000  0 15R01G27G30G15R10R16R17R18G20G21R09G08
                                G28G07G13
                  84036840.952 6  20212531.859                    20212534.801
                        39.400
 123105473.109 7  95926384.74244  23426197.273                    23426200.813
        43.600          26.700
 115837192.830 7  90262695.40446  22043086.461                    22043092.137
        47.200          36.900
 113142903.994 8  88163246.49946  21530360.828                    21530364.160
        50.200          37.300
                  85769983.463 6  20687438.305                    20687441.590
                        38.300
                  96364900.452 6  23193913.219                    23193915.180
                        36.200
                  89453419.650 6  21492655.602                    21492656.230
                        40.500
                  86680820.257 6  20877732.234                    20877733.730
                        41.100
 117042833.220 7  91202222.80344  22272511.531                    22272514.895
        42.400          28.600
 129183617.791 7 100662564.78544  24582825.516                    24582827.648
        44.800          29.500
                  82077285.399 7  19761994.008                    19761994.668
                        43.900
 117665473.244 8  91687552.88246  22391031.836                    22391036.938
        49.600          38.100
 115443466.481 8  89955947.15846  21968160.000                    21968162.898
        48.200          36.600
 124730867.987 7  97192911.52644  23735497.227                    23735500.313
        44.800          25.100
 110397161.702 8  86023774.78945  21007881.789                    21007884.754
        48.100          35.100
 18  3 16 10 25 29.0000000  0 15R01G27G30G15R10R16R17R18G20G21R09G08
                                G28G07G13
                  84035887.480 6  20212302.664                    20212305.480
                        39.700
 123108382.034 7  95928651.44944  23426750.805                    23426754.602
        44.500          28.800
 115839849.658 7  90264765.62946  22043592.109                    22043597.391
        46.600          37.500
 113141969.055 8  88162517.94746  21530183.063                    21530186.445
        49.800          36.700
                  85767701.090 6  20686886.828                    20686890.863
                        38.100
                  96368509.922 6  23194782.734                    23194784.043
                        36.800
                  89455586.196 6  21493176.445                    21493177.203
                        40.500
                  86679800.720 6  20877486.031                    20877487.668
                        41.100
 117044956.391 7  91203877.22144  22272915.641                    22272919.262
        42.900          28.100
 129186212.073 7 100664586.31344  24583318.797                    24583321.348
        43.300          28.700
                  82078416.563 7  19762266.172                    19762266.324
                        43.700
 117665814.899 8  91687819.11746  22391096.805                    22391102.145
        49.600          37.200
 115442058.400 7  89954849.92546  21967891.898                    21967894.352
        47.600          37.000
 124734499.782 7  97195741.50544  23736187.922                    23736191.055
        44.700          24.700
 110397987.679 8  86024418.39845  21008038.883                    21008041.957
        48.200          35.600
 18  3 16 10 25 30.0000000  0 15R01G27G30G15R10R16R17R18G20G21R09G08
                                G28G07G13
                  84034934.709 6  20212073.383                    20212076.500
                        39.700
 123111291.508 7  95930918.56744  23427304.695                    23427308.191
        44.700          29.900
 115842506.980 7  90266836.24846  22044097.570                    22044103.473
        46.700          37.700
 113141034.873 8  88161789.99246  21530005.930                    21530009.000
        50.200          37.400
                  85765419.237 6  20686336.914                    20686340.344
                        38.100
                  96372119.667 6  23195650.992                    23195652.258
                        36.200
                  89457753.367 6  21493696.961                    21493696.934
                        40.500
                  86678781.926 6  20877239.805                    20877242.543
                        41.200
 117047080.203 7  91205532.12544  22273320.969                    22273322.895
        44.300          28.200
 129188806.776 7 100666608.16344  24583811.797                    24583815.301
        42.800          29.000
                  82079548.420 7  19762538.875                    19762538.891
                        43.800
 117666157.293 8  91688085.92546  22391161.203                    22391166.980
        49.800          36.800
 115440650.897 7  89953753.17146  21967624.555                    21967627.023
        47.600          37.400
 124738131.891 7  97198571.74844  23736878.945                    23736882.215
        44.700          25.300
 110398814.393 7  86025062.59645  21008196.461                    21008199.195
        47.900          34.900
 18  3 16 10 25 31.0000000  0 15R01G27G30G15R10R16R17R18G20G21R09G08
                                G28G07G13
                  84033982.653 6  20211844.336                    20211847.895
                        39.600
 123114201.517 7  95933186.11645  23427858.313                    23427862.172
        44.500          30.100
 115845164.836 7  90268907.28246  22044603.219                    22044609.375
        46.500          37.600
 113140101.365 8  88161062.58246  21529828.188                    21529831.086
        50.200          37.200
                  85763137.893 6  20685787.234                    20685790.422
                        38.100
                  96375729.596 6  23196519.352                    23196521.770
                        36.400
                  89459921.186 6  21494216.953                    21494217.695
                        40.200
                  86677763.871 6  20876994.320                    20876997.457
                        41.000
 117049204.602 7  91207187.49544  22273724.578                    22273727.320
        43.800          28.600
 129191401.879 7 100668630.31044  24584305.516                    24584308.945
        42.200          29.100
                  82080680.955 7  19762811.797                    19762811.734
                        43.700
 117666500.445 8  91688353.32046  22391226.719                    22391232.477
        50.200          37.500
 115439243.993 8  89952656.90646  21967357.086                    21967359.293
        48.300          37.700
 124741764.259 7  97201402.18844  23737569.922                    23737573.305
        44.100          25.600
 110399641.852 8  86025707.36645  21008353.500                    21008356.738
        48.100          34.800
 18  3 16 10 25 32.0000000  0 15R01G27G30G15R10R16R17R18G20G21R09G08
                                G28G07G13
                  84033031.274 6  20211615.422                    20211618.578
                        39.400
 123117112.051 7  95935454.06445  23428412.422                    23428416.383
        43.900          30.600
 115847823.250 7  90270978.76146  22045108.430                    22045115.125
        46.200          37.700
 113139168.549 8  88160335.71546  21529650.188                    21529653.832
        50.200          37.100
                  85760857.023 6  20685236.586                    20685240.227
                        38.200
                  96379339.681 6  23197389.250                    23197390.570
                        36.500
                  89462089.652 6  21494738.000                    21494738.566
                        40.100
                  86676746.509 6  20876749.633                    20876752.664
                        40.500
 117051329.660 7  91208843.37644  22274128.688                    22274131.785
        42.400          28.600
 129193997.349 7 100670652.74844  24584799.969                    24584803.109
        42.100          29.200
                  82081814.169 7  19763084.914                    19763084.457
                        43.800
 117666844.328 8  91688621.28446  22391292.406                    22391298.141
        50.800          37.300
 115437837.661 8  89951561.09846  21967089.016                    21967091.676
        48.600          37.900
 124745396.966 7  97204232.87844  23738261.078                    23738264.672
        44.200          27.000
 110400470.033 8  86026352.70445  21008511.047                    21008514.410
        48.500          35.200
 18  3 16 10 25 33.0000000  0 15R01G27G30G15R10R16R17R18G20G21R09G08
                                G28G07G13
                  84032080.597 6  20211386.844                    20211389.703
                        39.300
 123120023.122 7  95937722.43844  23428966.188                    23428970.742
        43.900          29.800
 115850482.182 7  90273050.64046  22045615.297                    22045620.902
        46.900          37.100
 113138236.439 8  88159609.39346  21529472.945                    21529476.336
        50.000          36.900
                  85758576.661 6  20684686.109                    20684689.742
                        38.200
                  96382949.970 6  23198257.281                    23198259.355
                        36.500
                  89464258.738 6  21495257.859                    21495259.539
                        40.200
                  86675729.898 6  20876504.711                    20876507.270
                        40.800
 117053455.372 7  91210499.75644  22274533.141                    22274536.289
        42.400          28.500
 129196593.212 7 100672675.49045  24585294.336                    24585296.828
        42.000          30.100
                  82082948.030 7  19763357.078                    19763357.453
                        43.900
 117667188.935 8  91688889.81946  22391357.016                    22391363.035
        50.300          37.300
 115436431.906 8  89950465.72946  21966821.586                    21966824.465
        48.700          37.800
 124749029.938 7  97207063.77344  23738952.688                    23738955.832
        44.300          26.900
 110401298.951 8  86026998.60645  21008668.703                    21008672.172
        48.300          34.800
 18  3 16 10 25 34.0000000  0 15R01G27G30G15R10R16R17R18G20G21R09G08
                                G28G07G13
                  84031130.581 6  20211157.688                    20211161.652
                        39.600
 123122934.685 7  95939991.18745  23429520.125                    23429524.641
        43.700          31.500
 115853141.585 7  90275122.88946  22046121.313                    22046127.188
        47.100          37.700
 113137305.001 8  88158883.60546  21529296.063                    21529298.969
        50.500          37.100
                  85756296.799 6  20684136.063                    20684140.816
                        38.000
                  96386560.427 6  23199126.328                    23199128.656
                        37.000
                  89466428.421 6  21495778.906                    21495780.156
                        40.100
                  86674714.004 6  20876260.594                    20876262.691
                        41.000
 117055581.675 7  91212156.60544  22274938.383                    22274941.066
        43.400          28.700
 129199189.454 6 100674698.52744  24585788.273                    24585790.684
        41.400          29.500
                  82084082.494 7  19763630.383                    19763630.457
                        44.000
 117667534.277 8  91689158.93146  22391422.891                    22391429.230
        50.300          37.600
 115435026.690 8  89949370.77746  21966553.898                    21966557.000
        48.000          37.300
 124752663.197 7  97209894.87744  23739644.875                    23739647.570
        44.700          27.900
 110402128.557 8  86027645.04845  21008826.813                    21008829.930
        48.500          35.000
 18  3 16 10 25 35.0000000  0 15R01G27G30G15R10R16R17R18G20G21R09G08
                                G28G07G13
                  84030181.207 6  20210930.016                    20210933.027
                        39.800
 123125846.709 7  95942260.29345  23430074.320                    23430079.203
        43.000          31.400
 115855801.477 7  90277195.52346  22046627.281                    22046633.488
        46.900          37.900
 113136374.213 8  88158158.31946  21529118.711                    21529121.891
        50.500          36.900
                  85754017.383 6  20683585.281                    20683590.477
                        37.900
                  96390171.035 5  23199995.945                    23199998.051
                        35.600
                  89468598.661 6  21496300.016                    21496301.398
                        40.000
                  86673698.795 6  20876016.766                    20876017.957
                        41.000
 117057708.521 7  91213813.87344  22275343.344                    22275345.688
        43.800          28.000
 129201786.032 6 100676721.83044  24586281.859                    24586285.027
        41.300          29.300
                  82085217.568 7  19763903.305                    19763903.832
                        43.700
 117667880.286 8  91689428.55746  22391488.672                    22391495.125
        50.300          37.700
 115433621.978 7  89948276.22546  21966286.023                    21966289.305
        47.500          37.100
 124756296.649 7  97212726.13344  23740336.258                    23740339.070
        45.500          26.900
 110402958.832 8  86028292.01745  21008984.664                    21008988.289
        48.000          35.300
 18  3 16 10 25 36.0000000  0 15R01G27G30G15R10R16R17R18G20G21R09G08
                                G28G07G13
                  84029232.563 6  20210702.141                    20210704.656
                        39.900
 123128759.322 7  95944529.85445  23430628.547                    23430633.555
        42.500          31.700
 115858461.896 7  90279268.55746  22047134.102                    22047139.480
        47.000          37.600
 113135444.160 8  88157433.59946  21528941.750                    21528944.867
        50.700          36.700
                  85751738.496 6  20683037.492                    20683040.984
                        38.100
                  96393781.820 5  23200864.070                    23200867.094
                        35.700
                  89470769.579 6  21496821.953                    21496822.867
                        40.200
                  86672684.346 6  20875772.852                    20875773.820
                        40.800
 117059836.059 7  91215471.69644  22275746.930                    22275750.992
        42.800          28.300
 129204383.022 6 100678745.45844  24586776.703                    24586779.223
        40.600          29.100
                  82086353.323 7  19764177.742                    19764177.730
                        43.700
 117668227.060 8  91689698.77546  22391554.867                    22391561.145
        50.000          37.300
 115432217.799 8  89947182.08146  21966019.336                    21966022.121
        48.000          37.500
 124759930.427 7  97215557.64644  23741027.742                    23741030.563
        46.100          28.000
 110403789.875 8  86028939.58245  21009142.891                    21009146.199
        48.200          35.200
 18  3 16 10 25 37.0000000  0 15R01G27G30G15R10R16R17R18G20G21R09G08
                                G28G07G13
                  84028284.612 6  20210473.961                    20210476.836
                        39.400
 123131672.464 7  95946799.81745  23431183.320                    23431188.250
        42.000          31.200
 115861122.858 7  90281342.01946  22047640.359                    22047646.523
        47.000          37.400
 113134514.823 8  88156709.44446  21528764.734                    21528767.906
        50.800          36.900
                  85749460.124 6  20682488.109                    20682491.633
                        37.900
                  96397392.834 5  23201733.164                    23201735.316
                        35.100
                  89472941.147 6  21497344.695                    21497345.184
                        40.200
                  86671670.612 6  20875528.992                    20875529.277
                        40.800
 117061964.251 7  91217130.01244  22276152.016                    22276155.523
        43.200          28.300
 129206980.420 6 100680769.39044  24587271.063                    24587273.492
        40.500          28.600
                  82087489.776 7  19764450.977                    19764451.000
                        44.000
 117668574.604 8  91689969.58446  22391621.078                    22391626.980
        49.800          37.100
 115430814.150 8  89946088.32646  21965752.477                    21965755.051
        48.200          37.800
 124763564.498 7  97218389.38044  23741719.367                    23741722.563
        46.400          27.600
 110404621.625 7  86029587.69845  21009301.320                    21009304.504
        47.700          34.600
 18  3 16 10 25 38.0000000  0 15R01G27G30G15R10R16R17R18G20G21R09G08
                                G28G07G13
                  84027337.360 6  20210246.016                    20210249.117
                        39.700
 123134586.161 7  95949070.22145  23431737.242                    23431742.559
        42.100          31.100
 115863784.344 7  90283415.89246  22048146.773                    22048152.633
        46.900          37.900
 113133586.148 8  88155985.80346  21528587.953                    21528591.195
        50.700          36.800
                  85747182.221 6  20681937.641                    20681941.625
                        38.000
                  96401004.058 5  23202602.648                    23202604.594
                        35.300
                  89475113.340 6  21497866.898                    21497866.867
                        40.100
                  86670657.594 6  20875285.531                    20875285.289
                        40.900
 117064093.042 7  91218788.78544  22276558.828                    22276560.488
        44.100          29.000
 129209578.246 6 100682793.65944  24587765.445                    24587767.957
        40.400          28.300
                  82088626.916 7  19764725.258                    19764724.801
                        43.600
 117668922.885 8  91690240.96846  22391687.219                    22391693.059
        50.000          37.300
 115429411.144 7  89944995.04146  21965485.836                    21965488.012
        47.800          37.700
 124767198.878 7  97221221.35544  23742410.734                    23742414.137
        46.400          27.700
 110405454.128 8  86030236.38945  21009459.930                    21009463.059
        48.000          34.300
 18  3 16 10 25 39.0000000  0 15R01G27G30G15R10R16R17R18G20G21R09G08
                                G28G07G13
                  84026390.796 6  20210018.313                    20210021.180
                        39.600
 123137500.396 6  95951341.06145  23432291.742                    23432297.199
        41.700          32.300
 115866446.381 7  90285490.19146  22048653.109                    22048659.008
        47.200          37.300
 113132658.220 8  88155262.73546  21528411.508                    21528414.652
        50.700          36.800
                  85744904.861 6  20681389.102                    20681392.719
                        38.100
                  96404615.414 5  23203472.055                    23203473.203
                        35.800
                  89477286.129 6  21498389.742                    21498389.016
                        40.200
                  86669645.335 6  20875040.906                    20875041.973
                        40.400
 117066222.444 7  91220448.05444  22276962.266                    22276965.820
        43.300          28.200
 129212176.409 6 100684818.19144  24588259.813                    24588262.000
        40.500          28.500
                  82089764.712 7  19764998.336                    19764998.777
                        43.800
 117669271.914 8  91690512.93646  22391753.367                    22391759.727
        49.700          37.600
 115428008.677 7  89943902.17046  21965218.516                    21965221.129
        47.800          37.400
 124770833.533 7  97224053.55444  23743102.039                    23743106.113
        46.800          25.600
 110406287.368 7  86030885.66745  21009618.352                    21009621.609
        47.800          35.000
 18  3 16 10 25 40.0000000  0 15R01G27G30G15R10R16R17R18G20G21R09G08
                                G28G07G13
                  84025444.952 6  20209790.258                    20209793.715
                        39.700
 123140415.177 6  95953612.31645  23432846.125                    23432852.176
        41.100          31.900
 115869108.990 7  90287564.95746  22049159.602                    22049165.664
        47.400          37.900
 113131730.998 8  88154540.22646  21528235.180                    21528238.332
        50.500          36.600
                  85742627.941 6  20680839.063                    20680843.527
                        38.400
                  96408226.970 5  23204342.023                    23204342.438
                        34.800
                  89479459.558 6  21498912.289                    21498911.164
                        40.600
                  86668633.828 6  20874797.930                    20874797.848
                        40.800
 117068352.513 7  91222107.82944  22277368.008                    22277371.313
        43.200          28.700
 129214775.021 6 100686843.07244  24588755.172                    24588756.934
        41.000          29.300
                  82090903.200 7  19765272.609                    19765272.684
                        43.600
 117669621.708 8  91690785.49146  22391820.539                    22391826.391
        49.800          37.800
 115426606.830 7  89942809.79046  21964951.367                    21964954.535
        47.600          37.300
 124774468.524 7  97226886.03244  23743793.234                    23743797.883
        46.500          27.100
 110407121.347 8  86031535.52045  21009776.805                    21009779.977
        48.400          35.200
 18  3 16 10 25 41.0000000  0 15R01G27G30G15R10R16R17R18G20G21R09G08
                                G28G07G13
                  84024499.854 6  20209563.375                    20209566.406
                        39.700
 123143330.527 6  95955884.01245  23433400.375                    23433406.844
        40.200          30.900
 115871772.151 7  90289640.15146  22049666.938                    22049672.676
        47.600          38.100
 113130804.522 8  88153818.29346  21528058.664                    21528061.957
        50.600          37.200
                  85740351.625 6  20680290.414                    20680293.547
                        38.400
                  96411838.783 5  23205210.594                    23205211.637
                        35.600
                  89481633.681 6  21499434.930                    21499433.719
                        40.900
                  86667623.098 6  20874553.109                    20874554.805
                        40.700
 117070483.326 7  91223768.16544  22277773.906                    22277776.621
        43.400          28.500
 129217374.103 6 100688868.31744  24589250.125                    24589251.293
        41.400          29.600
                  82092042.396 7  19765547.234                    19765547.664
                        43.800
 117669972.313 8  91691058.69346  22391887.500                    22391893.031
        49.800          37.800
 115425205.620 7  89941717.91546  21964684.625                    21964687.680
        47.500          37.500
 124778103.896 7  97229718.80944  23744485.078                    23744489.414
        46.100          26.300
 110407956.151 8  86032186.01345  21009935.398                    21009938.766
        48.300          35.100
 18  3 16 10 25 42.0000000  0 15R01G27G30G15R10R16R17R18G20G21R09G08
                                G28G07G13
                  84023555.420 6  20209336.875                    20209339.906
                        39.700
 123146246.423 6  95958156.12545  23433955.703                    23433961.336
        39.100          30.500
 115874435.802 7  90291715.72846  22050173.594                    22050180.105
        47.300          37.500
 113129878.694 8  88153096.85146  21527882.430                    21527885.602
        50.600          37.300
                  85738075.741 6  20679742.094                    20679745.398
                        38.400
                  96415450.704 6  23206080.281                    23206080.938
                        36.000
                  89483808.421 6  21499956.492                    21499956.480
                        40.900
                  86666613.073 6  20874310.797                    20874311.270
                        40.600
 117072614.658 7  91225428.90344  22278180.648                    22278182.203
        44.300          28.500
 129219973.528 7 100690893.84644  24589744.852                    24589746.316
        42.100          29.500
                  82093182.218 7  19765821.445                    19765821.777
                        43.900
 117670323.603 8  91691332.42946  22391954.016                    22391959.855
        49.300          37.800
 115423804.930 7  89940626.47646  21964418.445                    21964421.918
        47.600          37.500
 124781739.483 7  97232551.74944  23745177.070                    23745181.195
        45.800          25.800
 110408791.612 8  86032837.02145  21010094.930                    21010098.082
        48.200          34.800
 18  3 16 10 25 43.0000000  0 15R01G27G30G15R10R16R17R18G20G21R09G08
                                G28G07G13
                  84022611.649 6  20209109.297                    20209112.820
                        39.500
 123149162.783 6  95960428.60345  23434510.820                    23434516.480
        37.900          30.000
 115877099.949 7  90293791.69646  22050680.188                    22050686.480
        47.000          37.600
 113128953.552 8  88152375.95146  21527706.328                    21527709.492
        50.500          36.900
                  85735800.312 6  20679192.266                    20679196.340
                        38.300
                  96419062.775 6  23206949.055                    23206950.527
                        36.200
                  89485983.713 6  21500478.953                    21500479.508
                        40.900
                  86665603.751 6  20874067.055                    20874067.895
                        41.400
 117074746.541 7  91227090.08944  22278585.625                    22278588.801
        43.600          28.300
 129222573.245 7 100692919.60745  24590239.438                    24590240.828
        42.400          30.100
                  82094322.672 7  19766096.258                    19766096.527
                        43.900
 117670675.574 8  91691606.70246  22392020.617                    22392026.852
        48.900          37.300
 115422404.729 7  89939535.42346  21964151.883                    21964154.645
        47.300          37.600
 124785375.313 7  97235384.87544  23745868.695                    23745872.773
        45.800          24.100
 110409627.751 8  86033488.56345  21010253.898                    21010257.422
        48.000          35.200
 18  3 16 10 25 44.0000000  0 15R01G27G30G15R10R16R17R18G20G21R09G08
                                G28G07G13
                  84021668.586 6  20208882.133                    20208885.586
                        39.600
 123152079.703 6  95962701.50244  23435065.086                    23435071.484
        37.100          29.100
 115879764.651 7  90295868.09546  22051188.313                    22051193.555
        47.500          37.100
 113128029.154 8  88151655.64146  21527530.508                    21527533.746
        50.200          36.900
                  85733525.440 6  20678644.477                    20678647.809
                        38.100
                  96422675.075 6  23207817.492                    23207820.305
                        36.800
                  89488159.661 6  21501001.398                    21501002.133
                        40.800
                  86664595.173 6  20873824.820                    20873825.129
                        41.000
 117076879.237 7  91228751.90944  22278989.125                    22278994.125
        42.000          27.400
 129225173.447 7 100694945.74944  24590733.422                    24590736.039
        42.200          28.700
                  82095463.857 7  19766371.008                    19766371.473
                        43.800
 117671028.360 8  91691881.62246  22392087.570                    22392093.918
        48.300          37.300
 115421005.229 7  89938444.91446  21963886.273                    21963888.488
        47.600          37.500
 124789011.458 7  97238218.24444  23746560.867                    23746564.477
        45.300          24.300
 110410464.635 7  86034140.67445  21010413.313                    21010416.801
        47.900          35.500
 18  3 16 10 25 45.0000000  0 15R01G27G30G15R10R16R17R18G20G21R09G08
                                G28G07G13
                  84020726.261 6  20208656.125                    20208659.246
                        39.800
 123154997.232 6  95964974.89344  23435620.320                    23435626.914
        36.300          29.000
 115882429.937 7  90297944.94846  22051694.352                    22051700.949
        46.700          37.400
 113127105.532 8  88150935.94146  21527354.484                    21527357.801
        50.700          36.800
                  85731251.136 6  20678096.398                    20678099.559
                        38.200
                  96426287.596 6  23208688.500                    23208689.559
                        36.400
                  89490336.294 6  21501523.328                    21501525.633
                        40.900
                  86663587.392 6  20873582.219                    20873582.875
                        40.900
 117079012.556 7  91230414.18844  22279398.086                    22279399.313
        44.100          28.300
 129227774.083 7 100696972.22944  24591228.281                    24591230.613
        42.000          28.800
                  82096605.781 7  19766645.531                    19766646.637
                        43.800
 117671381.949 7  91692157.15446  22392154.680                    22392161.387
        47.500          36.400
 115419606.318 7  89937354.86946  21963619.766                    21963622.254
        47.800          37.600
 124792647.999 7  97241051.91844  23747252.977                    23747256.270
        45.300          25.100
 110411302.347 7  86034793.41745  21010572.500                    21010575.883
        47.800          34.900
 18  3 16 10 25 46.0000000  0 15R01G27G30G15R10R16R17R18G20G21R09G08
                                G28G07G13
                  84019784.627 6  20208429.336                    20208432.367
                        39.600
 123157915.301 5  95967248.69444  23436174.695                    23436182.184
        35.200          28.400
 115885095.758 7  90300022.22046  22052201.648                    22052207.645
        46.700          37.100
 113126182.588 8  88150216.77146  21527179.320                    21527182.625
        50.300          37.100
                  85728977.278 6  20677546.875                    20677550.957
                        38.200
                  96429900.339 6  23209558.680                    23209559.320
                        36.800
                  89492513.590 6  21502046.461                    21502049.488
                        40.700
                  86662580.341 6  20873338.711                    20873339.391
                        40.900
 117081146.490 7  91232076.97944  22279804.078                    22279806.543
        43.500          28.500
 129230375.128 7 100698999.02144  24591723.281                    24591725.508
        42.000          28.600
                  82097748.389 7  19766921.570                    19766921.473
                        43.800
 117671736.273 7  91692433.24646  22392221.477                    22392228.504
        47.000          37.100
 115418207.976 7  89936265.25646  21963353.227                    21963356.707
        47.800          37.900
 124796284.786 7  97243885.77444  23747945.117                    23747948.496
        45.800          25.800
 110412140.743 8  86035446.70445  21010732.367                    21010735.246
        48.000          35.100
 18  3 16 10 25 47.0000000  0 15R01G27G30G15R10R16R17R18G20G21R09G08
                                G28G07G13
                  84018843.716 6  20208202.414                    20208205.762
                        39.700
 123160833.919 5  95969522.92244  23436730.406                    23436737.633
        34.400          27.100
 115887762.077 7  90302099.86946  22052709.891                    22052715.602
        47.300          37.100
 113125260.321 8  88149498.12246  21527003.914                    21527007.004
        50.200          37.300
                  85726703.942 6  20676998.125                    20677002.063
                        38.100
                  96433513.221 6  23210427.070                    23210429.094
                        36.900
                  89494691.489 6  21502568.648                    21502572.293
                        40.600
                  86661574.013 6  20873096.609                    20873097.805
                        41.500
 117083281.104 7  91233740.30744  22280208.063                    22280211.957
        42.200          28.800
 129232976.571 6 100701026.13444  24592217.695                    24592220.438
        41.500          29.000
                  82098891.637 7  19767196.625                    19767196.789
                        43.600
 117672091.302 7  91692709.88146  22392289.500                    22392296.395
        46.300          37.300
 115416810.175 8  89935176.06746  21963087.539                    21963090.262
        48.300          37.800
 124799921.882 7  97246719.86944  23748637.758                    23748640.457
        46.400          27.000
 110412979.884 7  86036100.56445  21010892.086                    21010895.105
        47.900          34.900
 18  3 16 10 25 48.0000000  0 15R01G27G30G15R10R16R17R18G20G21R09G08
                                G28G07G13
                  84017903.491 6  20207977.250                    20207980.141
                        39.900
 123163753.041 5  95971797.55044  23437285.156                    23437293.105
        34.100          26.500
 115890428.979 7  90304177.98346  22053216.672                    22053222.695
        47.200          37.000
 113124338.755 8  88148780.00246  21526828.734                    21526831.391
        50.000          37.500
                  85724431.143 6  20676450.867                    20676454.496
                        38.700
                  96437126.333 6  23211295.883                    23211299.090
                        37.300
                  89496870.001 6  21503091.258                    21503096.578
                        40.700
                  86660568.430 6  20872854.281                    20872855.543
                        41.200
 117085416.416 6  91235404.18644  22280614.703                    22280618.508
        41.800          28.800
 129235578.395 6 100703053.51844  24592713.047                    24592716.055
        41.100          27.500
                  82100035.558 7  19767472.023                    19767472.223
                        44.000
 117672447.113 7  91692987.12846  22392357.484                    22392363.918
        46.200          37.300
 115415412.984 7  89934087.35546  21962821.617                    21962824.441
        47.500          37.300
 124803559.291 7  97249554.21844  23749329.516                    23749332.512
        47.000          27.900
 110413819.740 8  86036754.98445  21011051.766                    21011055.078
        48.000          35.100
 18  3 16 10 25 49.0000000  0 15R01G27G30G15R10R16R17R18G20G21R09G08
                                G28G07G13
                  84016963.945 6  20207751.023                    20207754.016
                        39.600
 123166672.769 5  95974072.64044  23437841.188                    23437848.754
        34.600          27.000
 115893096.387 7  90306256.50446  22053724.492                    22053730.367
        46.600          37.100
