% program   : RTKPOST ver.2.4.2
% inp file  : Z:\home\linda\Documents\Spring18\GitHub_Unis\data\processed_data\46250700.obs
% inp file  : Z:\home\linda\Documents\Spring18\GitHub_Unis\data\base_station_data\lyrs0700.18o
% inp file  : Z:\home\linda\Documents\Spring18\GitHub_Unis\data\processed_data\46250700.nav
% obs start : 2018/03/11 10:25:17.0 GPST (week1992  37517.0s)
% obs end   : 2018/03/11 10:43:41.0 GPST (week1992  38621.0s)
% pos mode  : static
% freqs     : L1+L2
% solution  : forward
% elev mask : 15.0 deg
% dynamics  : on
% tidecorr  : off
% ionos opt : estimation
% tropo opt : saastamoinen
% ephemeris : broadcast
% navi sys  : gps glonass galileo qzss sbas
% amb res   : fix and hold
% amb glo   : on
% val thres : 3.0
% antenna1  :                       ( 0.0000  0.0000  0.0000)
% antenna2  :                       ( 0.0000  0.0000  0.0000)
% ref pos   : 78.228825638   15.397310064   495.6816
%
% (lat/lon/height=WGS84/ellipsoidal,Q=1:fix,2:float,3:sbas,4:dgps,5:single,6:ppp,ns=# of satellites)
%  GPST                  latitude(deg) longitude(deg)  height(m)   Q  ns   sdn(m)   sde(m)   sdu(m)  sdne(m)  sdeu(m)  sdun(m) age(s)  ratio
2018/03/11 10:25:17.000   78.254770145   16.249362946   344.2704   1   9   0.0243   0.0133   0.0817   0.0070   0.0153   0.0357   0.00    4.1
2018/03/11 10:25:18.000   78.254771769   16.249365134   343.4742   2   9   0.4306   0.2357   1.4470   0.1238   0.2700   0.6326   0.00    2.4
2018/03/11 10:25:19.000   78.254771702   16.249365899   343.5606   2   9   0.3587   0.1963   1.2039   0.1031   0.2247   0.5267   0.00    1.9
2018/03/11 10:25:20.000   78.254772102   16.249364996   343.5649   2   9   0.3164   0.1731   1.0607   0.0909   0.1981   0.4643   0.00    1.6
2018/03/11 10:25:21.000   78.254771974   16.249363305   343.6727   2   9   0.2879   0.1575   0.9641   0.0827   0.1801   0.4223   0.00    1.5
2018/03/11 10:25:22.000   78.254771694   16.249361306   343.7637   2   9   0.2672   0.1462   0.8937   0.0768   0.1670   0.3917   0.00    1.5
2018/03/11 10:25:23.000   78.254771491   16.249360272   343.8470   2   9   0.2513   0.1375   0.8397   0.0722   0.1569   0.3682   0.00    1.3
2018/03/11 10:25:24.000   78.254771081   16.249359553   343.8863   2   9   0.2387   0.1306   0.7966   0.0685   0.1489   0.3495   0.00    1.3
2018/03/11 10:25:25.000   78.254771285   16.249360612   343.9709   2   9   0.2283   0.1250   0.7613   0.0656   0.1423   0.3341   0.00    1.3
2018/03/11 10:25:26.000   78.254771254   16.249360978   343.8000   2   9   0.2197   0.1202   0.7318   0.0631   0.1368   0.3213   0.00    1.3
2018/03/11 10:25:27.000   78.254771236   16.249362116   343.6813   2   9   0.2123   0.1162   0.7066   0.0609   0.1321   0.3104   0.00    1.2
2018/03/11 10:25:28.000   78.254771772   16.249363376   343.7336   2   9   0.2060   0.1128   0.6848   0.0591   0.1281   0.3009   0.00    1.2
2018/03/11 10:25:29.000   78.254772136   16.249363316   343.7909   2   9   0.2004   0.1097   0.6658   0.0575   0.1245   0.2927   0.00    1.1
2018/03/11 10:25:30.000   78.254772202   16.249363849   343.7857   2   9   0.1955   0.1071   0.6489   0.0560   0.1214   0.2853   0.00    1.1
2018/03/11 10:25:31.000   78.254772292   16.249363894   343.7853   2   9   0.1911   0.1047   0.6338   0.0548   0.1186   0.2788   0.00    1.0
2018/03/11 10:25:32.000   78.254772557   16.249364772   343.8728   2   9   0.1872   0.1026   0.6202   0.0536   0.1160   0.2729   0.00    1.0
2018/03/11 10:25:33.000   78.254772463   16.249365354   343.7984   2   9   0.1836   0.1007   0.6079   0.0526   0.1137   0.2676   0.00    1.0
2018/03/11 10:25:34.000   78.254772410   16.249365458   343.8372   2   9   0.1804   0.0989   0.5967   0.0516   0.1116   0.2627   0.00    1.0
2018/03/11 10:25:35.000   78.254772310   16.249365529   343.7751   2   9   0.1774   0.0973   0.5863   0.0507   0.1097   0.2582   0.00    1.0
2018/03/11 10:25:36.000   78.254772419   16.249365262   343.8442   2   9   0.1747   0.0958   0.5768   0.0499   0.1079   0.2540   0.00    1.1
2018/03/11 10:25:37.000   78.254772487   16.249364874   343.8892   2   9   0.1722   0.0945   0.5679   0.0492   0.1063   0.2502   0.00    1.1
2018/03/11 10:25:38.000   78.254772590   16.249365017   343.9521   2   9   0.1698   0.0933   0.5597   0.0485   0.1047   0.2466   0.00    1.1
2018/03/11 10:25:39.000   78.254772845   16.249365325   343.9792   2   9   0.1677   0.0921   0.5519   0.0478   0.1033   0.2432   0.00    1.1
2018/03/11 10:25:40.000   78.254772807   16.249365629   343.9442   2   9   0.1656   0.0910   0.5447   0.0472   0.1019   0.2401   0.00    1.1
2018/03/11 10:25:41.000   78.254772733   16.249366166   343.9081   2   9   0.1637   0.0900   0.5378   0.0466   0.1006   0.2371   0.00    1.1
2018/03/11 10:25:42.000   78.254772752   16.249366331   343.9133   2   9   0.1619   0.0891   0.5313   0.0461   0.0994   0.2343   0.00    1.1
2018/03/11 10:25:43.000   78.254772655   16.249366494   343.8909   2   9   0.1602   0.0882   0.5252   0.0456   0.0982   0.2316   0.00    1.1
2018/03/11 10:25:44.000   78.254772537   16.249366741   343.8838   2   9   0.1585   0.0873   0.5193   0.0451   0.0971   0.2290   0.00    1.1
2018/03/11 10:25:45.000   78.254772424   16.249366410   343.8624   2   9   0.1570   0.0865   0.5137   0.0446   0.0961   0.2265   0.00    1.1
2018/03/11 10:25:46.000   78.254772327   16.249365711   343.8905   2   9   0.1555   0.0858   0.5083   0.0441   0.0951   0.2242   0.00    1.1
2018/03/11 10:25:47.000   78.254772180   16.249365156   343.8887   2   9   0.1541   0.0851   0.5031   0.0437   0.0941   0.2219   0.00    1.0
2018/03/11 10:25:48.000   78.254771966   16.249364419   343.8892   2   9   0.1528   0.0844   0.4982   0.0433   0.0932   0.2197   0.00    1.0
2018/03/11 10:25:49.000   78.254771848   16.249363858   343.9225   2   9   0.1515   0.0837   0.4934   0.0429   0.0923   0.2176   0.00    1.0
2018/03/11 10:25:50.000   78.254771852   16.249363676   343.9937   2   9   0.1503   0.0831   0.4887   0.0425   0.0914   0.2156   0.00    1.0
2018/03/11 10:25:51.000   78.254771927   16.249363739   344.0438   2   9   0.1491   0.0825   0.4842   0.0421   0.0905   0.2136   0.00    1.0
2018/03/11 10:25:52.000   78.254771998   16.249364446   344.1298   2   9   0.1479   0.0820   0.4799   0.0417   0.0897   0.2117   0.00    1.0
2018/03/11 10:25:53.000   78.254772047   16.249364639   344.1947   2   9   0.1468   0.0814   0.4756   0.0414   0.0889   0.2098   0.00    1.0
2018/03/11 10:25:54.000   78.254772113   16.249364739   344.2152   2   9   0.1457   0.0809   0.4715   0.0410   0.0881   0.2080   0.00    1.0
2018/03/11 10:25:55.000   78.254772001   16.249365262   344.1796   2   9   0.1447   0.0804   0.4675   0.0407   0.0874   0.2062   0.00    1.0
2018/03/11 10:25:56.000   78.254771899   16.249365173   344.0952   2   9   0.1437   0.0799   0.4635   0.0403   0.0866   0.2045   0.00    1.0
2018/03/11 10:25:57.000   78.254771867   16.249365184   344.0418   2   9   0.1427   0.0795   0.4597   0.0400   0.0859   0.2028   0.00    1.0
2018/03/11 10:25:58.000   78.254771934   16.249365196   344.0073   2   9   0.1417   0.0790   0.4559   0.0397   0.0852   0.2011   0.00    1.0
2018/03/11 10:25:59.000   78.254772047   16.249365004   344.0234   2   9   0.1408   0.0786   0.4522   0.0394   0.0844   0.1994   0.00    1.0
2018/03/11 10:26:00.000   78.254772062   16.249365116   344.0515   2   9   0.1399   0.0782   0.4486   0.0391   0.0838   0.1978   0.00    1.0
2018/03/11 10:26:01.000   78.254771994   16.249365211   344.0728   2   9   0.1390   0.0778   0.4450   0.0388   0.0831   0.1962   0.00    1.0
2018/03/11 10:26:02.000   78.254771987   16.249365351   344.1039   2   9   0.1381   0.0774   0.4415   0.0385   0.0824   0.1946   0.00    1.0
2018/03/11 10:26:03.000   78.254772018   16.249365426   344.1054   2   9   0.1373   0.0770   0.4380   0.0382   0.0817   0.1931   0.00    1.0
2018/03/11 10:26:04.000   78.254771984   16.249365612   344.1195   2   9   0.1365   0.0766   0.4346   0.0379   0.0811   0.1915   0.00    1.0
2018/03/11 10:26:05.000   78.254771994   16.249365625   344.1402   2   9   0.1356   0.0763   0.4312   0.0376   0.0804   0.1900   0.00    1.0
2018/03/11 10:26:06.000   78.254772005   16.249365816   344.1409   2   9   0.1348   0.0759   0.4279   0.0373   0.0798   0.1885   0.00    1.0
2018/03/11 10:26:07.000   78.254771989   16.249365764   344.1517   2   9   0.1340   0.0756   0.4246   0.0370   0.0792   0.1870   0.00    1.0
2018/03/11 10:26:08.000   78.254771964   16.249365768   344.1831   2   9   0.1333   0.0753   0.4213   0.0367   0.0785   0.1856   0.00    1.0
2018/03/11 10:26:09.000   78.254771819   16.249365468   344.1645   2   9   0.1325   0.0749   0.4181   0.0365   0.0779   0.1841   0.00    1.0
2018/03/11 10:26:10.000   78.254771916   16.249365395   344.1909   2   9   0.1318   0.0746   0.4149   0.0362   0.0773   0.1827   0.00    1.0
2018/03/11 10:26:11.000   78.254771841   16.249365265   344.1899   2   9   0.1310   0.0743   0.4117   0.0359   0.0767   0.1812   0.00    1.0
2018/03/11 10:26:12.000   78.254771791   16.249365174   344.1849   2   9   0.1303   0.0740   0.4086   0.0357   0.0761   0.1798   0.00    1.0
2018/03/11 10:26:13.000   78.254771824   16.249365216   344.1925   2   9   0.1296   0.0737   0.4055   0.0354   0.0755   0.1784   0.00    1.0
2018/03/11 10:26:14.000   78.254771749   16.249365364   344.1736   2   9   0.1289   0.0734   0.4024   0.0351   0.0749   0.1770   0.00    1.0
2018/03/11 10:26:15.000   78.254771732   16.249365636   344.1719   2   9   0.1282   0.0732   0.3994   0.0349   0.0743   0.1756   0.00    1.0
2018/03/11 10:26:16.000   78.254771708   16.249366003   344.1695   2   9   0.1275   0.0729   0.3964   0.0346   0.0737   0.1742   0.00    1.0
2018/03/11 10:26:17.000   78.254771732   16.249366000   344.1919   2   9   0.1268   0.0726   0.3933   0.0344   0.0732   0.1728   0.00    1.0
2018/03/11 10:26:18.000   78.254771719   16.249366021   344.2024   2   9   0.1261   0.0724   0.3904   0.0341   0.0726   0.1715   0.00    1.0
2018/03/11 10:26:19.000   78.254771655   16.249365780   344.1879   2   9   0.1255   0.0721   0.3874   0.0339   0.0720   0.1701   0.00    1.0
2018/03/11 10:26:20.000   78.254771590   16.249365613   344.1781   2   9   0.1248   0.0718   0.3845   0.0336   0.0714   0.1688   0.00    1.0
2018/03/11 10:26:21.000   78.254771497   16.249365476   344.1489   2   9   0.1241   0.0716   0.3815   0.0334   0.0709   0.1674   0.00    1.0
2018/03/11 10:26:22.000   78.254771424   16.249365393   344.1282   2   9   0.1235   0.0714   0.3786   0.0331   0.0703   0.1661   0.00    1.0
2018/03/11 10:26:23.000   78.254771271   16.249365367   344.1040   2   9   0.1229   0.0711   0.3757   0.0329   0.0697   0.1647   0.00    1.0
2018/03/11 10:26:24.000   78.254771126   16.249365242   344.0854   2   9   0.1222   0.0709   0.3729   0.0326   0.0692   0.1634   0.00    1.0
2018/03/11 10:26:25.000   78.254771118   16.249365030   344.1112   2   9   0.1216   0.0707   0.3700   0.0324   0.0686   0.1621   0.00    1.0
2018/03/11 10:26:26.000   78.254771098   16.249364900   344.1346   2   9   0.1210   0.0704   0.3672   0.0322   0.0681   0.1608   0.00    1.0
2018/03/11 10:26:27.000   78.254771162   16.249364880   344.1667   2   9   0.1204   0.0702   0.3644   0.0319   0.0675   0.1595   0.00    1.0
2018/03/11 10:26:28.000   78.254771212   16.249365119   344.1915   2   9   0.1198   0.0700   0.3616   0.0317   0.0670   0.1582   0.00    1.0
2018/03/11 10:26:29.000   78.254771304   16.249365553   344.2356   2   9   0.1192   0.0698   0.3588   0.0315   0.0664   0.1569   0.00    1.0
2018/03/11 10:26:30.000   78.254771418   16.249365773   344.2832   2   9   0.1186   0.0696   0.3560   0.0312   0.0659   0.1556   0.00    1.0
2018/03/11 10:26:31.000   78.254771457   16.249365845   344.3175   2   9   0.1180   0.0693   0.3533   0.0310   0.0654   0.1543   0.00    1.0
2018/03/11 10:26:32.000   78.254771412   16.249365930   344.3188   2   9   0.1174   0.0691   0.3505   0.0308   0.0648   0.1531   0.00    1.1
2018/03/11 10:26:33.000   78.254771343   16.249366161   344.3163   2   9   0.1168   0.0689   0.3478   0.0306   0.0643   0.1518   0.00    1.1
2018/03/11 10:26:34.000   78.254771282   16.249366171   344.3033   2   9   0.1162   0.0687   0.3451   0.0303   0.0638   0.1505   0.00    1.1
2018/03/11 10:26:35.000   78.254771131   16.249366176   344.2684   2   9   0.1157   0.0685   0.3424   0.0301   0.0633   0.1493   0.00    1.1
2018/03/11 10:26:36.000   78.254771162   16.249366194   344.2902   2   9   0.1151   0.0683   0.3398   0.0299   0.0627   0.1480   0.00    1.1
2018/03/11 10:26:37.000   78.254771143   16.249365955   344.2861   2   9   0.1145   0.0681   0.3371   0.0297   0.0622   0.1468   0.00    1.1
2018/03/11 10:26:38.000   78.254771115   16.249365933   344.2855   2   9   0.1140   0.0680   0.3345   0.0295   0.0617   0.1456   0.00    1.1
2018/03/11 10:26:39.000   78.254771091   16.249365898   344.2941   2   9   0.1134   0.0678   0.3319   0.0293   0.0612   0.1443   0.00    1.1
2018/03/11 10:26:40.000   78.254771128   16.249365912   344.3152   2   9   0.1129   0.0676   0.3293   0.0290   0.0607   0.1431   0.00    1.1
2018/03/11 10:26:41.000   78.254771184   16.249366050   344.3165   2   9   0.1124   0.0674   0.3267   0.0288   0.0602   0.1419   0.00    1.1
2018/03/11 10:26:42.000   78.254771198   16.249366501   344.3370   2   9   0.1118   0.0672   0.3241   0.0286   0.0597   0.1407   0.00    1.1
2018/03/11 10:26:43.000   78.254771272   16.249366846   344.3735   2   9   0.1113   0.0670   0.3216   0.0284   0.0592   0.1395   0.00    1.1
2018/03/11 10:26:44.000   78.254771337   16.249367115   344.4216   2   9   0.1108   0.0669   0.3190   0.0282   0.0587   0.1383   0.00    1.1
2018/03/11 10:26:45.000   78.254771369   16.249367257   344.4641   2   9   0.1102   0.0667   0.3165   0.0280   0.0582   0.1371   0.00    1.2
2018/03/11 10:26:46.000   78.254771353   16.249367349   344.4748   2   9   0.1097   0.0665   0.3140   0.0278   0.0577   0.1360   0.00    1.2
2018/03/11 10:26:47.000   78.254771276   16.249367684   344.4611   2   9   0.1092   0.0663   0.3115   0.0276   0.0572   0.1348   0.00    1.2
2018/03/11 10:26:48.000   78.254771280   16.249367814   344.4563   2   9   0.1087   0.0662   0.3091   0.0274   0.0567   0.1336   0.00    1.2
2018/03/11 10:26:49.000   78.254771295   16.249367719   344.4596   2   9   0.1082   0.0660   0.3066   0.0272   0.0562   0.1325   0.00    1.2
2018/03/11 10:26:50.000   78.254771288   16.249367553   344.4476   2   9   0.1077   0.0658   0.3042   0.0270   0.0558   0.1313   0.00    1.2
2018/03/11 10:26:51.000   78.254771250   16.249367412   344.4312   2   9   0.1072   0.0657   0.3018   0.0269   0.0553   0.1302   0.00    1.2
2018/03/11 10:26:52.000   78.254771240   16.249367315   344.4310   2   9   0.1067   0.0655   0.2994   0.0267   0.0548   0.1290   0.00    1.2
2018/03/11 10:26:53.000   78.254771247   16.249367276   344.4328   2   9   0.1062   0.0653   0.2970   0.0265   0.0543   0.1279   0.00    1.2
2018/03/11 10:26:55.000   78.254771280   16.249367263   344.4456   2   9   0.1057   0.0652   0.2946   0.0263   0.0538   0.1267   0.00    1.2
2018/03/11 10:26:56.000   78.254771308   16.249367398   344.4672   2   9   0.1052   0.0650   0.2922   0.0261   0.0534   0.1256   0.00    1.3
2018/03/11 10:26:57.000   78.254771376   16.249367356   344.4862   2   9   0.1047   0.0648   0.2898   0.0259   0.0529   0.1244   0.00    1.3
2018/03/11 10:26:58.000   78.254771425   16.249367347   344.5061   2   9   0.1042   0.0647   0.2874   0.0257   0.0524   0.1233   0.00    1.3
2018/03/11 10:26:59.000   78.254771399   16.249367316   344.5200   2   9   0.1038   0.0645   0.2850   0.0256   0.0520   0.1222   0.00    1.3
2018/03/11 10:27:00.000   78.254771372   16.249367276   344.5248   2   9   0.1033   0.0644   0.2827   0.0254   0.0515   0.1211   0.00    1.3
2018/03/11 10:27:01.000   78.254771312   16.249367310   344.5162   2   9   0.1028   0.0642   0.2804   0.0252   0.0510   0.1200   0.00    1.3
2018/03/11 10:27:02.000   78.254771217   16.249367316   344.4987   2   9   0.1023   0.0641   0.2781   0.0250   0.0506   0.1189   0.00    1.3
2018/03/11 10:27:03.000   78.254771164   16.249367211   344.4870   2   9   0.1019   0.0639   0.2759   0.0249   0.0501   0.1178   0.00    1.3
2018/03/11 10:27:04.000   78.254771134   16.249367091   344.4756   2   9   0.1014   0.0638   0.2736   0.0247   0.0497   0.1167   0.00    1.3
2018/03/11 10:27:05.000   78.254771108   16.249367019   344.4628   2   9   0.1010   0.0636   0.2714   0.0245   0.0492   0.1157   0.00    1.3
2018/03/11 10:27:06.000   78.254771080   16.249366983   344.4544   2   9   0.1005   0.0635   0.2692   0.0244   0.0488   0.1146   0.00    1.3
2018/03/11 10:27:07.000   78.254771072   16.249366930   344.4449   2   9   0.1001   0.0633   0.2670   0.0242   0.0484   0.1136   0.00    1.3
2018/03/11 10:27:08.000   78.254771036   16.249367004   344.4276   2   9   0.0996   0.0632   0.2649   0.0241   0.0479   0.1125   0.00    1.3
2018/03/11 10:27:09.000   78.254771060   16.249367078   344.4421   2   9   0.0992   0.0630   0.2628   0.0239   0.0475   0.1115   0.00    1.3
2018/03/11 10:27:10.000   78.254771042   16.249367174   344.4433   2   9   0.0987   0.0629   0.2606   0.0238   0.0471   0.1105   0.00    1.3
2018/03/11 10:27:11.000   78.254771028   16.249367333   344.4471   2   9   0.0983   0.0627   0.2586   0.0236   0.0467   0.1095   0.00    1.3
2018/03/11 10:27:12.000   78.254771039   16.249367516   344.4506   2   9   0.0979   0.0626   0.2565   0.0235   0.0462   0.1085   0.00    1.3
2018/03/11 10:27:13.000   78.254771026   16.249367588   344.4680   2   9   0.0975   0.0625   0.2544   0.0233   0.0458   0.1075   0.00    1.3
2018/03/11 10:27:14.000   78.254771027   16.249367543   344.4778   2   9   0.0970   0.0623   0.2524   0.0232   0.0454   0.1065   0.00    1.3
2018/03/11 10:27:15.000   78.254770990   16.249367486   344.4838   2   9   0.0966   0.0622   0.2504   0.0230   0.0450   0.1056   0.00    1.3
2018/03/11 10:27:16.000   78.254770965   16.249367471   344.4878   2   9   0.0962   0.0620   0.2484   0.0229   0.0446   0.1046   0.00    1.3
2018/03/11 10:27:17.000   78.254770989   16.249367468   344.5034   2   9   0.0958   0.0619   0.2464   0.0228   0.0442   0.1036   0.00    1.3
2018/03/11 10:27:18.000   78.254770996   16.249367470   344.5049   2   9   0.0954   0.0618   0.2445   0.0226   0.0438   0.1027   0.00    1.3
2018/03/11 10:27:19.000   78.254771018   16.249367498   344.5066   2   9   0.0950   0.0616   0.2425   0.0225   0.0434   0.1018   0.00    1.3
2018/03/11 10:27:20.000   78.254771045   16.249367535   344.5030   2   9   0.0946   0.0615   0.2406   0.0224   0.0431   0.1008   0.00    1.3
2018/03/11 10:27:21.000   78.254771134   16.249367567   344.5199   2   9   0.0942   0.0614   0.2387   0.0222   0.0427   0.0999   0.00    1.3
2018/03/11 10:27:22.000   78.254771192   16.249367578   344.5360   2   9   0.0938   0.0612   0.2369   0.0221   0.0423   0.0990   0.00    1.3
2018/03/11 10:27:23.000   78.254771245   16.249367570   344.5472   2   9   0.0934   0.0611   0.2350   0.0220   0.0419   0.0981   0.00    1.3
2018/03/11 10:27:24.000   78.254771236   16.249367613   344.5463   2   9   0.0930   0.0610   0.2332   0.0219   0.0415   0.0972   0.00    1.3
2018/03/11 10:27:25.000   78.254771195   16.249367655   344.5384   2   9   0.0927   0.0608   0.2313   0.0218   0.0412   0.0963   0.00    1.3
2018/03/11 10:27:26.000   78.254771186   16.249367515   344.5392   2   9   0.0923   0.0607   0.2295   0.0216   0.0408   0.0955   0.00    1.3
2018/03/11 10:27:27.000   78.254771191   16.249367515   344.5369   2   9   0.0919   0.0606   0.2278   0.0215   0.0404   0.0946   0.00    1.3
2018/03/11 10:27:28.000   78.254771193   16.249367631   344.5442   2   9   0.0915   0.0604   0.2260   0.0214   0.0401   0.0937   0.00    1.3
2018/03/11 10:27:29.000   78.254771186   16.249367671   344.5591   2   9   0.0912   0.0603   0.2243   0.0213   0.0397   0.0929   0.00    1.3
2018/03/11 10:27:30.000   78.254771221   16.249367705   344.5739   2   9   0.0908   0.0602   0.2225   0.0212   0.0394   0.0920   0.00    1.3
2018/03/11 10:27:31.000   78.254771252   16.249367759   344.5934   2   9   0.0904   0.0601   0.2208   0.0211   0.0390   0.0912   0.00    1.3
2018/03/11 10:27:32.000   78.254771285   16.249367803   344.6064   2   9   0.0901   0.0599   0.2191   0.0210   0.0387   0.0904   0.00    1.3
2018/03/11 10:27:33.000   78.254771343   16.249367722   344.6167   2   9   0.0897   0.0598   0.2175   0.0209   0.0383   0.0896   0.00    1.3
2018/03/11 10:27:34.000   78.254771374   16.249367580   344.6205   2   9   0.0893   0.0597   0.2158   0.0208   0.0380   0.0888   0.00    1.3
2018/03/11 10:27:35.000   78.254771420   16.249367593   344.6353   2   9   0.0890   0.0596   0.2142   0.0207   0.0377   0.0880   0.00    1.3
2018/03/11 10:27:36.000   78.254771419   16.249367565   344.6389   2   9   0.0886   0.0594   0.2125   0.0206   0.0373   0.0872   0.00    1.3
2018/03/11 10:27:37.000   78.254771391   16.249367626   344.6387   2   9   0.0883   0.0593   0.2109   0.0205   0.0370   0.0864   0.00    1.3
2018/03/11 10:27:38.000   78.254771377   16.249367745   344.6545   2   9   0.0879   0.0592   0.2093   0.0204   0.0367   0.0856   0.00    1.3
2018/03/11 10:27:39.000   78.254771340   16.249367893   344.6643   2   9   0.0876   0.0591   0.2078   0.0203   0.0363   0.0848   0.00    1.3
2018/03/11 10:27:40.000   78.254771322   16.249367978   344.6731   2   9   0.0873   0.0589   0.2062   0.0203   0.0360   0.0841   0.00    1.3
2018/03/11 10:27:41.000   78.254771321   16.249367927   344.6787   2   9   0.0869   0.0588   0.2047   0.0202   0.0357   0.0833   0.00    1.3
2018/03/11 10:27:42.000   78.254771318   16.249367937   344.6887   2   9   0.0866   0.0587   0.2031   0.0201   0.0354   0.0826   0.00    1.3
2018/03/11 10:27:43.000   78.254771313   16.249367854   344.6909   2   9   0.0863   0.0586   0.2016   0.0200   0.0351   0.0818   0.00    1.3
2018/03/11 10:27:44.000   78.254771284   16.249367722   344.6845   2   9   0.0859   0.0585   0.2001   0.0199   0.0348   0.0811   0.00    1.2
2018/03/11 10:27:45.000   78.254771281   16.249367587   344.6805   2   9   0.0856   0.0583   0.1987   0.0199   0.0344   0.0804   0.00    1.2
2018/03/11 10:27:46.000   78.254771276   16.249367530   344.6852   2   9   0.0853   0.0582   0.1972   0.0198   0.0341   0.0796   0.00    1.2
2018/03/11 10:27:47.000   78.254771294   16.249367374   344.6922   2   9   0.0850   0.0581   0.1958   0.0197   0.0338   0.0789   0.00    1.2
2018/03/11 10:27:48.000   78.254771378   16.249367321   344.7079   2   9   0.0846   0.0580   0.1943   0.0196   0.0335   0.0782   0.00    1.2
2018/03/11 10:27:49.000   78.254771433   16.249367447   344.7186   2   9   0.0843   0.0579   0.1929   0.0196   0.0332   0.0775   0.00    1.2
2018/03/11 10:27:50.000   78.254771487   16.249367633   344.7353   2   9   0.0840   0.0577   0.1915   0.0195   0.0330   0.0768   0.00    1.2
2018/03/11 10:27:51.000   78.254771553   16.249367786   344.7555   2   9   0.0837   0.0576   0.1901   0.0194   0.0327   0.0762   0.00    1.2
2018/03/11 10:27:52.000   78.254771550   16.249367908   344.7609   2   9   0.0834   0.0575   0.1888   0.0194   0.0324   0.0755   0.00    1.1
2018/03/11 10:27:53.000   78.254771565   16.249367957   344.7628   2   9   0.0831   0.0574   0.1874   0.0193   0.0321   0.0748   0.00    1.1
2018/03/11 10:27:54.000   78.254771554   16.249367896   344.7632   2   9   0.0828   0.0573   0.1860   0.0192   0.0318   0.0741   0.00    1.1
2018/03/11 10:27:55.000   78.254771538   16.249367704   344.7674   2   9   0.0824   0.0572   0.1847   0.0192   0.0315   0.0735   0.00    1.1
2018/03/11 10:27:56.000   78.254771521   16.249367565   344.7708   2   9   0.0821   0.0571   0.1834   0.0191   0.0312   0.0728   0.00    1.1
2018/03/11 10:27:57.000   78.254771529   16.249367576   344.7689   2   9   0.0818   0.0569   0.1821   0.0191   0.0310   0.0722   0.00    1.1
2018/03/11 10:27:58.000   78.254771510   16.249367569   344.7654   2   9   0.0815   0.0568   0.1808   0.0190   0.0307   0.0715   0.00    1.1
2018/03/11 10:27:59.000   78.254771493   16.249367572   344.7623   2   9   0.0812   0.0567   0.1795   0.0189   0.0304   0.0709   0.00    1.1
2018/03/11 10:28:00.000   78.254771505   16.249367482   344.7702   2   9   0.0809   0.0566   0.1783   0.0189   0.0302   0.0703   0.00    1.1
2018/03/11 10:28:01.000   78.254771526   16.249367363   344.7801   2   9   0.0807   0.0565   0.1770   0.0188   0.0299   0.0697   0.00    1.1
2018/03/11 10:28:02.000   78.254771537   16.249367329   344.7929   2   9   0.0804   0.0564   0.1758   0.0188   0.0296   0.0691   0.00    1.1
2018/03/11 10:28:03.000   78.254771544   16.249367303   344.8009   2   9   0.0801   0.0563   0.1746   0.0187   0.0294   0.0684   0.00    1.0
2018/03/11 10:28:04.000   78.254771542   16.249367340   344.7986   2   9   0.0798   0.0561   0.1733   0.0187   0.0291   0.0678   0.00    1.0
2018/03/11 10:28:05.000   78.254771530   16.249367421   344.7908   2   9   0.0795   0.0560   0.1721   0.0186   0.0288   0.0673   0.00    1.0
2018/03/11 10:28:06.000   78.254771523   16.249367465   344.7796   2   9   0.0792   0.0559   0.1710   0.0186   0.0286   0.0667   0.00    1.0
2018/03/11 10:28:07.000   78.254771539   16.249367479   344.7761   2   9   0.0789   0.0558   0.1698   0.0186   0.0283   0.0661   0.00    1.0
2018/03/11 10:28:08.000   78.254771524   16.249367398   344.7739   2   9   0.0786   0.0557   0.1686   0.0185   0.0281   0.0655   0.00    1.0
2018/03/11 10:28:09.000   78.254771494   16.249367382   344.7743   2   9   0.0784   0.0556   0.1675   0.0185   0.0278   0.0649   0.00    1.0
2018/03/11 10:28:10.000   78.254771480   16.249367397   344.7733   2   9   0.0781   0.0555   0.1663   0.0184   0.0276   0.0644   0.00    1.0
2018/03/11 10:28:11.000   78.254771493   16.249367404   344.7824   2   9   0.0778   0.0554   0.1652   0.0184   0.0273   0.0638   0.00    1.0
2018/03/11 10:28:12.000   78.254771496   16.249367405   344.7833   2   9   0.0775   0.0553   0.1641   0.0183   0.0271   0.0632   0.00    1.0
2018/03/11 10:28:13.000   78.254771500   16.249367555   344.7880   2   9   0.0773   0.0551   0.1630   0.0183   0.0269   0.0627   0.00    1.0
2018/03/11 10:28:14.000   78.254771501   16.249367749   344.7958   2   9   0.0770   0.0550   0.1619   0.0183   0.0266   0.0621   0.00    1.0
2018/03/11 10:28:15.000   78.254771514   16.249367902   344.8051   2   9   0.0767   0.0549   0.1608   0.0182   0.0264   0.0616   0.00    1.1
2018/03/11 10:28:16.000   78.254771526   16.249368017   344.8148   2   9   0.0765   0.0548   0.1597   0.0182   0.0261   0.0611   0.00    1.1
2018/03/11 10:28:17.000   78.254771510   16.249368081   344.8114   2   9   0.0762   0.0547   0.1587   0.0182   0.0259   0.0605   0.00    1.1
2018/03/11 10:28:18.000   78.254771474   16.249368171   344.8065   2   9   0.0759   0.0546   0.1576   0.0181   0.0257   0.0600   0.00    1.1
2018/03/11 10:28:19.000   78.254771426   16.249368243   344.7948   2   9   0.0757   0.0545   0.1566   0.0181   0.0255   0.0595   0.00    1.1
2018/03/11 10:28:20.000   78.254771381   16.249368127   344.7868   2   9   0.0754   0.0544   0.1556   0.0181   0.0252   0.0590   0.00    1.1
2018/03/11 10:28:21.000   78.254771332   16.249368003   344.7763   2   9   0.0751   0.0543   0.1545   0.0180   0.0250   0.0585   0.00    1.1
2018/03/11 10:28:22.000   78.254771284   16.249367905   344.7635   2   9   0.0749   0.0542   0.1535   0.0180   0.0248   0.0580   0.00    1.1
2018/03/11 10:28:23.000   78.254771238   16.249367836   344.7605   2   9   0.0746   0.0541   0.1525   0.0180   0.0246   0.0575   0.00    1.0
2018/03/11 10:28:24.000   78.254771246   16.249367760   344.7555   2   9   0.0744   0.0540   0.1516   0.0180   0.0243   0.0570   0.00    1.0
2018/03/11 10:28:25.000   78.254771286   16.249367726   344.7637   2   9   0.0741   0.0538   0.1506   0.0179   0.0241   0.0565   0.00    1.1
2018/03/11 10:28:26.000   78.254771305   16.249367768   344.7696   2   9   0.0739   0.0537   0.1496   0.0179   0.0239   0.0560   0.00    1.1
2018/03/11 10:28:27.000   78.254771323   16.249367847   344.7759   2   9   0.0736   0.0536   0.1486   0.0179   0.0237   0.0555   0.00    1.1
2018/03/11 10:28:28.000   78.254771338   16.249367958   344.7809   2   9   0.0734   0.0535   0.1477   0.0179   0.0235   0.0550   0.00    1.1
2018/03/11 10:28:29.000   78.254771342   16.249368113   344.7824   2   9   0.0731   0.0534   0.1468   0.0178   0.0233   0.0546   0.00    1.1
2018/03/11 10:28:30.000   78.254771335   16.249368254   344.7783   2   9   0.0729   0.0533   0.1458   0.0178   0.0231   0.0541   0.00    1.1
2018/03/11 10:28:31.000   78.254771308   16.249368374   344.7685   2   9   0.0726   0.0532   0.1449   0.0178   0.0228   0.0536   0.00    1.1
2018/03/11 10:28:32.000   78.254771264   16.249368409   344.7606   2   9   0.0724   0.0531   0.1440   0.0178   0.0226   0.0532   0.00    1.1
2018/03/11 10:28:33.000   78.254771201   16.249368287   344.7511   2   9   0.0721   0.0530   0.1431   0.0177   0.0224   0.0527   0.00    1.1
2018/03/11 10:28:34.000   78.254771145   16.249368042   344.7431   2   9   0.0719   0.0529   0.1422   0.0177   0.0222   0.0523   0.00    1.1
2018/03/11 10:28:35.000   78.254771086   16.249367864   344.7321   2   9   0.0716   0.0528   0.1413   0.0177   0.0220   0.0518   0.00    1.1
2018/03/11 10:28:36.000   78.254771057   16.249367698   344.7184   2   9   0.0714   0.0527   0.1404   0.0177   0.0218   0.0514   0.00    1.1
2018/03/11 10:28:37.000   78.254771060   16.249367659   344.7104   2   9   0.0712   0.0526   0.1396   0.0177   0.0216   0.0510   0.00    1.1
2018/03/11 10:28:38.000   78.254771101   16.249367792   344.7022   2   9   0.0709   0.0525   0.1387   0.0177   0.0214   0.0505   0.00    1.1
2018/03/11 10:28:39.000   78.254771135   16.249368060   344.6980   2   9   0.0707   0.0524   0.1379   0.0176   0.0212   0.0501   0.00    1.1
2018/03/11 10:28:40.000   78.254771178   16.249368171   344.6981   2   9   0.0705   0.0523   0.1370   0.0176   0.0210   0.0497   0.00    1.1
2018/03/11 10:28:41.000   78.254771190   16.249368156   344.7006   2   9   0.0702   0.0522   0.1362   0.0176   0.0208   0.0493   0.00    1.1
2018/03/11 10:28:42.000   78.254771187   16.249368106   344.6994   2   9   0.0700   0.0521   0.1353   0.0176   0.0207   0.0488   0.00    1.1
2018/03/11 10:28:43.000   78.254771160   16.249368135   344.6948   2   9   0.0698   0.0520   0.1345   0.0176   0.0205   0.0484   0.00    1.1
2018/03/11 10:28:44.000   78.254771112   16.249368110   344.6827   2   9   0.0695   0.0519   0.1337   0.0176   0.0203   0.0480   0.00    1.1
2018/03/11 10:28:45.000   78.254771043   16.249368083   344.6698   2   9   0.0693   0.0518   0.1329   0.0175   0.0201   0.0476   0.00    1.0
2018/03/11 10:28:46.000   78.254770982   16.249368112   344.6554   2   9   0.0691   0.0517   0.1321   0.0175   0.0199   0.0472   0.00    1.0
2018/03/11 10:28:47.000   78.254770923   16.249368153   344.6458   2   9   0.0688   0.0516   0.1313   0.0175   0.0197   0.0468   0.00    1.0
2018/03/11 10:28:48.000   78.254770859   16.249368139   344.6341   2   9   0.0686   0.0515   0.1305   0.0175   0.0195   0.0464   0.00    1.0
2018/03/11 10:28:49.000   78.254770802   16.249368180   344.6312   2   9   0.0684   0.0514   0.1298   0.0175   0.0193   0.0460   0.00    1.0
2018/03/11 10:28:50.000   78.254770773   16.249368229   344.6334   2   9   0.0682   0.0513   0.1290   0.0175   0.0192   0.0457   0.00    1.0
2018/03/11 10:28:51.000   78.254770758   16.249368288   344.6372   2   9   0.0680   0.0512   0.1282   0.0175   0.0190   0.0453   0.00    1.0
2018/03/11 10:28:52.000   78.254770775   16.249368424   344.6394   2   9   0.0677   0.0511   0.1275   0.0175   0.0188   0.0449   0.00    1.0
2018/03/11 10:28:53.000   78.254770804   16.249368571   344.6478   2   9   0.0675   0.0510   0.1268   0.0174   0.0186   0.0445   0.00    1.0
2018/03/11 10:28:54.000   78.254770842   16.249368779   344.6543   2   9   0.0673   0.0509   0.1260   0.0174   0.0184   0.0441   0.00    1.0
2018/03/11 10:28:55.000   78.254770864   16.249368913   344.6623   2   9   0.0671   0.0508   0.1253   0.0174   0.0183   0.0438   0.00    1.0
2018/03/11 10:28:56.000   78.254770877   16.249369034   344.6625   2   9   0.0669   0.0507   0.1246   0.0174   0.0181   0.0434   0.00    1.0
2018/03/11 10:28:57.000   78.254770869   16.249369092   344.6590   2   9   0.0666   0.0506   0.1238   0.0174   0.0179   0.0430   0.00    1.0
2018/03/11 10:28:58.000   78.254770827   16.249369072   344.6539   2   9   0.0664   0.0505   0.1231   0.0174   0.0177   0.0427   0.00    1.0
2018/03/11 10:28:59.000   78.254770783   16.249368964   344.6494   2   9   0.0662   0.0504   0.1224   0.0174   0.0176   0.0423   0.00    1.0
2018/03/11 10:29:00.000   78.254770707   16.249368789   344.6392   2   9   0.0660   0.0503   0.1217   0.0174   0.0174   0.0420   0.00    1.0
2018/03/11 10:29:01.000   78.254770644   16.249368632   344.6279   2   9   0.0658   0.0502   0.1210   0.0174   0.0172   0.0416   0.00    1.0
2018/03/11 10:29:02.000   78.254770593   16.249368380   344.6211   2   9   0.0656   0.0501   0.1204   0.0174   0.0171   0.0413   0.00    1.0
2018/03/11 10:29:03.000   78.254770548   16.249368161   344.6156   2   9   0.0654   0.0500   0.1197   0.0173   0.0169   0.0409   0.00    1.0
2018/03/11 10:29:04.000   78.254770515   16.249368140   344.6116   2   9   0.0652   0.0499   0.1190   0.0173   0.0167   0.0406   0.00    1.0
2018/03/11 10:29:05.000   78.254770515   16.249368240   344.6154   2   9   0.0649   0.0498   0.1183   0.0173   0.0166   0.0403   0.00    1.0
2018/03/11 10:29:06.000   78.254770548   16.249368367   344.6256   2   9   0.0647   0.0497   0.1177   0.0173   0.0164   0.0399   0.00    1.0
2018/03/11 10:29:07.000   78.254770572   16.249368489   344.6312   2   9   0.0645   0.0496   0.1170   0.0173   0.0162   0.0396   0.00    1.0
2018/03/11 10:29:08.000   78.254770588   16.249368586   344.6343   2   9   0.0643   0.0495   0.1164   0.0173   0.0161   0.0393   0.00    1.0
2018/03/11 10:29:09.000   78.254770592   16.249368722   344.6372   2   9   0.0641   0.0494   0.1157   0.0173   0.0159   0.0390   0.00    1.0
2018/03/11 10:29:10.000   78.254770584   16.249368759   344.6373   2   9   0.0639   0.0493   0.1151   0.0173   0.0158   0.0386   0.00    1.0
2018/03/11 10:29:11.000   78.254770559   16.249368768   344.6335   2   9   0.0637   0.0492   0.1145   0.0173   0.0156   0.0383   0.00    1.0
2018/03/11 10:29:12.000   78.254770522   16.249368718   344.6244   2   9   0.0635   0.0491   0.1138   0.0173   0.0154   0.0380   0.00    1.0
2018/03/11 10:29:13.000   78.254770477   16.249368677   344.6186   2   9   0.0633   0.0490   0.1132   0.0173   0.0153   0.0377   0.00    1.0
2018/03/11 10:29:14.000   78.254770409   16.249368566   344.6127   2   9   0.0631   0.0489   0.1126   0.0173   0.0151   0.0374   0.00    1.0
2018/03/11 10:29:15.000   78.254770354   16.249368397   344.6124   2   9   0.0629   0.0488   0.1120   0.0173   0.0150   0.0371   0.00    1.0
2018/03/11 10:29:16.000   78.254770305   16.249368259   344.6094   2   9   0.0627   0.0487   0.1114   0.0173   0.0148   0.0368   0.00    1.0
2018/03/11 10:29:17.000   78.254770278   16.249368209   344.6085   2   9   0.0625   0.0486   0.1108   0.0173   0.0146   0.0365   0.00    1.0
2018/03/11 10:29:18.000   78.254770296   16.249368263   344.6079   2   9   0.0623   0.0485   0.1102   0.0172   0.0145   0.0362   0.00    1.0
2018/03/11 10:29:19.000   78.254770310   16.249368291   344.6109   2   9   0.0621   0.0484   0.1096   0.0172   0.0143   0.0359   0.00    1.0
2018/03/11 10:29:20.000   78.254770327   16.249368245   344.6153   2   9   0.0619   0.0483   0.1090   0.0172   0.0142   0.0356   0.00    1.0
2018/03/11 10:29:21.000   78.254770331   16.249368163   344.6186   2   9   0.0617   0.0482   0.1085   0.0172   0.0140   0.0353   0.00    1.0
2018/03/11 10:29:22.000   78.254770319   16.249368073   344.6184   2   9   0.0616   0.0481   0.1079   0.0172   0.0139   0.0350   0.00    1.0
2018/03/11 10:29:23.000   78.254770299   16.249368077   344.6164   2   9   0.0614   0.0480   0.1073   0.0172   0.0137   0.0347   0.00    1.0
2018/03/11 10:29:24.000   78.254770294   16.249368041   344.6118   2   9   0.0612   0.0479   0.1067   0.0172   0.0136   0.0344   0.00    1.1
2018/03/11 10:29:25.000   78.254770277   16.249368009   344.6071   2   9   0.0610   0.0478   0.1062   0.0172   0.0134   0.0341   0.00    1.1
2018/03/11 10:29:26.000   78.254770275   16.249368044   344.6078   2   9   0.0608   0.0477   0.1056   0.0172   0.0133   0.0339   0.00    1.1
2018/03/11 10:29:27.000   78.254770259   16.249368027   344.6095   2   9   0.0606   0.0477   0.1051   0.0172   0.0131   0.0336   0.00    1.1
2018/03/11 10:29:28.000   78.254770261   16.249367930   344.6129   2   9   0.0604   0.0476   0.1045   0.0172   0.0130   0.0333   0.00    1.1
2018/03/11 10:29:29.000   78.254770245   16.249367869   344.6139   2   9   0.0602   0.0475   0.1040   0.0172   0.0128   0.0330   0.00    1.1
2018/03/11 10:29:30.000   78.254770235   16.249367753   344.6122   2   9   0.0600   0.0474   0.1035   0.0172   0.0127   0.0328   0.00    1.1
2018/03/11 10:29:31.000   78.254770223   16.249367684   344.6113   2   9   0.0599   0.0473   0.1029   0.0172   0.0125   0.0325   0.00    1.1
2018/03/11 10:29:32.000   78.254770220   16.249367618   344.6111   2   9   0.0597   0.0472   0.1024   0.0172   0.0124   0.0322   0.00    1.1
2018/03/11 10:29:33.000   78.254770219   16.249367610   344.6113   2   9   0.0595   0.0471   0.1019   0.0172   0.0123   0.0320   0.00    1.1
2018/03/11 10:29:34.000   78.254770222   16.249367606   344.6147   2   9   0.0593   0.0470   0.1014   0.0172   0.0121   0.0317   0.00    1.1
2018/03/11 10:29:35.000   78.254770229   16.249367643   344.6145   2   9   0.0591   0.0469   0.1009   0.0172   0.0120   0.0314   0.00    1.1
2018/03/11 10:29:36.000   78.254770242   16.249367676   344.6143   2   9   0.0589   0.0468   0.1004   0.0171   0.0118   0.0312   0.00    1.1
2018/03/11 10:29:37.000   78.254770244   16.249367650   344.6127   2   9   0.0588   0.0467   0.0999   0.0171   0.0117   0.0309   0.00    1.1
2018/03/11 10:29:38.000   78.254770253   16.249367642   344.6121   2   9   0.0586   0.0466   0.0994   0.0171   0.0115   0.0307   0.00    1.1
2018/03/11 10:29:39.000   78.254770235   16.249367583   344.6097   2   9   0.0584   0.0465   0.0989   0.0171   0.0114   0.0304   0.00    1.1
2018/03/11 10:29:40.000   78.254770201   16.249367489   344.6062   2   9   0.0582   0.0464   0.0984   0.0171   0.0113   0.0302   0.00    1.1
2018/03/11 10:29:41.000   78.254770160   16.249367383   344.6029   2   9   0.0581   0.0464   0.0979   0.0171   0.0111   0.0299   0.00    1.1
2018/03/11 10:29:42.000   78.254770142   16.249367318   344.6006   2   9   0.0579   0.0463   0.0974   0.0171   0.0110   0.0297   0.00    1.1
2018/03/11 10:29:43.000   78.254770146   16.249367278   344.5995   2   9   0.0577   0.0462   0.0969   0.0171   0.0108   0.0295   0.00    1.1
2018/03/11 10:29:44.000   78.254770137   16.249367315   344.5988   2   9   0.0575   0.0461   0.0965   0.0171   0.0107   0.0292   0.00    1.1
2018/03/11 10:29:45.000   78.254770156   16.249367354   344.6005   2   9   0.0574   0.0460   0.0960   0.0171   0.0105   0.0290   0.00    1.1
2018/03/11 10:29:46.000   78.254770167   16.249367368   344.6060   2   9   0.0572   0.0459   0.0955   0.0171   0.0104   0.0287   0.00    1.1
2018/03/11 10:29:47.000   78.254770163   16.249367414   344.6103   2   9   0.0570   0.0458   0.0950   0.0171   0.0103   0.0285   0.00    1.1
2018/03/11 10:29:48.000   78.254770156   16.249367459   344.6108   2   9   0.0568   0.0457   0.0946   0.0171   0.0101   0.0283   0.00    1.1
2018/03/11 10:29:49.000   78.254770144   16.249367453   344.6100   2   9   0.0567   0.0456   0.0941   0.0171   0.0100   0.0280   0.00    1.1
2018/03/11 10:29:50.000   78.254770134   16.249367446   344.6068   2   9   0.0565   0.0455   0.0937   0.0171   0.0098   0.0278   0.00    1.1
2018/03/11 10:29:51.000   78.254770114   16.249367475   344.6042   2   9   0.0563   0.0454   0.0932   0.0171   0.0097   0.0276   0.00    1.1
2018/03/11 10:29:52.000   78.254770085   16.249367364   344.6014   2   9   0.0562   0.0454   0.0928   0.0171   0.0096   0.0274   0.00    1.1
2018/03/11 10:29:53.000   78.254770062   16.249367344   344.5995   2   9   0.0560   0.0453   0.0923   0.0171   0.0094   0.0271   0.00    1.1
2018/03/11 10:29:54.000   78.254770052   16.249367318   344.6023   2   9   0.0558   0.0452   0.0919   0.0170   0.0093   0.0269   0.00    1.1
2018/03/11 10:29:55.000   78.254770047   16.249367328   344.6035   2   9   0.0557   0.0451   0.0915   0.0170   0.0092   0.0267   0.00    1.1
2018/03/11 10:29:56.000   78.254770054   16.249367335   344.6061   2   9   0.0555   0.0450   0.0910   0.0170   0.0090   0.0265   0.00    1.2
2018/03/11 10:29:57.000   78.254770056   16.249367402   344.6059   2   9   0.0553   0.0449   0.0906   0.0170   0.0089   0.0263   0.00    1.2
2018/03/11 10:29:58.000   78.254770052   16.249367499   344.6052   2   9   0.0552   0.0448   0.0902   0.0170   0.0087   0.0261   0.00    1.2
2018/03/11 10:29:59.000   78.254770058   16.249367504   344.6085   2   9   0.0550   0.0447   0.0898   0.0170   0.0086   0.0258   0.00    1.2
2018/03/11 10:30:00.000   78.254770062   16.249367529   344.6095   2   9   0.0548   0.0446   0.0894   0.0170   0.0085   0.0256   0.00    1.2
2018/03/11 10:30:01.000   78.254770048   16.249367528   344.6087   2   9   0.0547   0.0446   0.0889   0.0170   0.0083   0.0254   0.00    1.2
2018/03/11 10:30:02.000   78.254770035   16.249367465   344.6066   2   9   0.0545   0.0445   0.0885   0.0170   0.0082   0.0252   0.00    1.2
2018/03/11 10:30:03.000   78.254770037   16.249367361   344.6005   2   9   0.0543   0.0444   0.0881   0.0170   0.0080   0.0250   0.00    1.2
2018/03/11 10:30:04.000   78.254770037   16.249367284   344.5956   2   9   0.0542   0.0443   0.0877   0.0170   0.0079   0.0248   0.00    1.2
2018/03/11 10:30:05.000   78.254770061   16.249367202   344.5901   2   9   0.0540   0.0442   0.0873   0.0170   0.0078   0.0246   0.00    1.2
2018/03/11 10:30:06.000   78.254770061   16.249367114   344.5846   2   9   0.0539   0.0441   0.0869   0.0170   0.0076   0.0244   0.00    1.1
2018/03/11 10:30:07.000   78.254770080   16.249367022   344.5809   2   9   0.0537   0.0440   0.0865   0.0170   0.0075   0.0242   0.00    1.2
2018/03/11 10:30:08.000   78.254770099   16.249366981   344.5822   2   9   0.0536   0.0440   0.0861   0.0170   0.0073   0.0240   0.00    1.2
2018/03/11 10:30:09.000   78.254770106   16.249366940   344.5834   2   9   0.0534   0.0439   0.0857   0.0170   0.0072   0.0238   0.00    1.2
2018/03/11 10:30:10.000   78.254770115   16.249366931   344.5837   2   9   0.0532   0.0438   0.0854   0.0169   0.0070   0.0236   0.00    1.2
2018/03/11 10:30:11.000   78.254770120   16.249366917   344.5849   2   9   0.0531   0.0437   0.0850   0.0169   0.0069   0.0234   0.00    1.2
2018/03/11 10:30:12.000   78.254770134   16.249366895   344.5876   2   9   0.0529   0.0436   0.0846   0.0169   0.0067   0.0232   0.00    1.2
2018/03/11 10:30:13.000   78.254770137   16.249366904   344.5911   2   9   0.0528   0.0435   0.0842   0.0169   0.0066   0.0230   0.00    1.2
2018/03/11 10:30:14.000   78.254770143   16.249366930   344.5935   2   9   0.0526   0.0434   0.0838   0.0169   0.0065   0.0229   0.00    1.2
2018/03/11 10:30:15.000   78.254770133   16.249366980   344.5944   2   9   0.0525   0.0434   0.0835   0.0169   0.0063   0.0227   0.00    1.2
2018/03/11 10:30:16.000   78.254770107   16.249366999   344.5939   2   9   0.0523   0.0433   0.0831   0.0169   0.0062   0.0225   0.00    1.2
2018/03/11 10:30:17.000   78.254770082   16.249366965   344.5917   2   9   0.0522   0.0432   0.0827   0.0169   0.0060   0.0223   0.00    1.2
2018/03/11 10:30:18.000   78.254770059   16.249366936   344.5849   2   9   0.0520   0.0431   0.0824   0.0169   0.0058   0.0221   0.00    1.2
2018/03/11 10:30:19.000   78.254770041   16.249366851   344.5792   2   9   0.0519   0.0430   0.0820   0.0169   0.0057   0.0219   0.00    1.2
2018/03/11 10:30:20.000   78.254770042   16.249366769   344.5768   2   9   0.0517   0.0429   0.0817   0.0169   0.0055   0.0217   0.00    1.2
2018/03/11 10:30:21.000   78.254770050   16.249366640   344.5761   2   9   0.0516   0.0428   0.0813   0.0169   0.0054   0.0216   0.00    1.2
2018/03/11 10:30:22.000   78.254770070   16.249366634   344.5772   2   9   0.0514   0.0428   0.0809   0.0169   0.0052   0.0214   0.00    1.2
2018/03/11 10:30:23.000   78.254770097   16.249366707   344.5791   2   9   0.0513   0.0427   0.0806   0.0169   0.0051   0.0212   0.00    1.2
2018/03/11 10:30:24.000   78.254770128   16.249366847   344.5819   2   9   0.0511   0.0426   0.0802   0.0168   0.0049   0.0210   0.00    1.2
2018/03/11 10:30:25.000   78.254770149   16.249367004   344.5840   2   9   0.0510   0.0425   0.0799   0.0168   0.0047   0.0209   0.00    1.2
2018/03/11 10:30:26.000   78.254770159   16.249367079   344.5869   2   9   0.0508   0.0424   0.0796   0.0168   0.0045   0.0207   0.00    1.2
2018/03/11 10:30:27.000   78.254770151   16.249367132   344.5884   2   9   0.0507   0.0423   0.0792   0.0168   0.0044   0.0205   0.00    1.2
2018/03/11 10:30:28.000   78.254770145   16.249367152   344.5878   2   9   0.0505   0.0423   0.0789   0.0168   0.0042   0.0204   0.00    1.2
2018/03/11 10:30:29.000   78.254770118   16.249367159   344.5878   2   9   0.0504   0.0422   0.0785   0.0168   0.0040   0.0202   0.00    1.1
2018/03/11 10:30:30.000   78.254770087   16.249367065   344.5869   2   9   0.0502   0.0421   0.0782   0.0168   0.0038   0.0200   0.00    1.1
2018/03/11 10:30:31.000   78.254770035   16.249366987   344.5840   2   9   0.0501   0.0420   0.0779   0.0168   0.0036   0.0198   0.00    1.1
2018/03/11 10:30:32.000   78.254769988   16.249366928   344.5800   2   9   0.0500   0.0419   0.0776   0.0168   0.0034   0.0197   0.00    1.1
2018/03/11 10:30:33.000   78.254769963   16.249366887   344.5761   2   9   0.0498   0.0418   0.0772   0.0168   0.0032   0.0195   0.00    1.1
2018/03/11 10:30:34.000   78.254769965   16.249366878   344.5759   2   9   0.0497   0.0418   0.0769   0.0168   0.0029   0.0194   0.00    1.1
2018/03/11 10:30:35.000   78.254769997   16.249366877   344.5760   2   9   0.0495   0.0417   0.0766   0.0167   0.0027   0.0192   0.00    1.2
2018/03/11 10:30:36.000   78.254770034   16.249366927   344.5774   2   9   0.0494   0.0416   0.0763   0.0167   0.0024   0.0190   0.00    1.2
2018/03/11 10:30:37.000   78.254770075   16.249367009   344.5775   2   9   0.0493   0.0415   0.0760   0.0167   0.0021   0.0189   0.00    1.2
2018/03/11 10:30:38.000   78.254770103   16.249367095   344.5765   2   9   0.0491   0.0414   0.0756   0.0167   0.0018   0.0187   0.00    1.2
2018/03/11 10:30:39.000   78.254770130   16.249367145   344.5740   2   9   0.0490   0.0414   0.0753   0.0167   0.0013   0.0186   0.00    1.1
2018/03/11 10:30:40.000   78.254770130   16.249367179   344.5731   2   9   0.0488   0.0413   0.0750   0.0167   0.0007   0.0184   0.00    1.1
2018/03/11 10:30:41.000   78.254770123   16.249367146   344.5691   2   9   0.0487   0.0412   0.0747   0.0167  -0.0009   0.0182   0.00    1.1
2018/03/11 10:30:42.000   78.254770114   16.249367115   344.5651   2   9   0.0486   0.0411   0.0744   0.0167  -0.0014   0.0181   0.00    1.1
2018/03/11 10:30:43.000   78.254770095   16.249367059   344.5627   2   9   0.0484   0.0410   0.0741   0.0167  -0.0018   0.0179   0.00    1.1
2018/03/11 10:30:44.000   78.254770085   16.249367029   344.5609   2   9   0.0483   0.0410   0.0738   0.0167  -0.0021   0.0178   0.00    1.1
2018/03/11 10:30:45.000   78.254770067   16.249367028   344.5590   2   9   0.0482   0.0409   0.0735   0.0167  -0.0024   0.0176   0.00    1.1
2018/03/11 10:30:46.000   78.254770044   16.249367082   344.5570   2   9   0.0480   0.0408   0.0732   0.0166  -0.0026   0.0175   0.00    1.1
2018/03/11 10:30:47.000   78.254770030   16.249367097   344.5559   2   9   0.0479   0.0407   0.0729   0.0166  -0.0029   0.0173   0.00    1.1
2018/03/11 10:30:48.000   78.254770031   16.249367173   344.5581   2   9   0.0478   0.0406   0.0726   0.0166  -0.0030   0.0172   0.00    1.1
2018/03/11 10:30:49.000   78.254770044   16.249367270   344.5594   2   9   0.0476   0.0406   0.0723   0.0166  -0.0032   0.0170   0.00    1.1
2018/03/11 10:30:50.000   78.254770069   16.249367383   344.5606   2   9   0.0475   0.0405   0.0720   0.0166  -0.0034   0.0169   0.00    1.1
2018/03/11 10:30:51.000   78.254770091   16.249367496   344.5609   2   9   0.0474   0.0404   0.0718   0.0166  -0.0036   0.0167   0.00    1.1
2018/03/11 10:30:52.000   78.254770100   16.249367514   344.5621   2   9   0.0472   0.0403   0.0715   0.0166  -0.0037   0.0166   0.00    1.1
2018/03/11 10:30:53.000   78.254770117   16.249367508   344.5612   2   9   0.0471   0.0402   0.0712   0.0166  -0.0038   0.0165   0.00    1.1
2018/03/11 10:30:54.000   78.254770113   16.249367500   344.5605   2   9   0.0470   0.0402   0.0709   0.0166  -0.0040   0.0163   0.00    1.1
2018/03/11 10:30:55.000   78.254770099   16.249367465   344.5598   2   9   0.0468   0.0401   0.0706   0.0165  -0.0041   0.0162   0.00    1.1
2018/03/11 10:30:56.000   78.254770084   16.249367438   344.5584   2   9   0.0467   0.0400   0.0704   0.0165  -0.0042   0.0160   0.00    1.1
2018/03/11 10:30:57.000   78.254770053   16.249367401   344.5566   2   9   0.0466   0.0399   0.0701   0.0165  -0.0043   0.0159   0.00    1.1
2018/03/11 10:30:58.000   78.254770044   16.249367356   344.5539   2   9   0.0465   0.0399   0.0698   0.0165  -0.0045   0.0158   0.00    1.1
2018/03/11 10:30:59.000   78.254770035   16.249367377   344.5500   2   9   0.0463   0.0398   0.0695   0.0165  -0.0046   0.0156   0.00    1.1
2018/03/11 10:31:00.000   78.254770032   16.249367421   344.5489   2   9   0.0462   0.0397   0.0693   0.0165  -0.0047   0.0155   0.00    1.1
2018/03/11 10:31:01.000   78.254770034   16.249367467   344.5493   2   9   0.0461   0.0396   0.0690   0.0165  -0.0048   0.0153   0.00    1.1
2018/03/11 10:31:02.000   78.254770048   16.249367544   344.5502   2   9   0.0460   0.0395   0.0687   0.0165  -0.0049   0.0152   0.00    1.1
2018/03/11 10:31:03.000   78.254770069   16.249367641   344.5518   2   9   0.0458   0.0395   0.0685   0.0165  -0.0050   0.0151   0.00    1.1
2018/03/11 10:31:04.000   78.254770088   16.249367700   344.5532   2   9   0.0457   0.0394   0.0682   0.0164  -0.0051   0.0149   0.00    1.1
2018/03/11 10:31:05.000   78.254770101   16.249367725   344.5547   2   9   0.0456   0.0393   0.0680   0.0164  -0.0051   0.0148   0.00    1.1
2018/03/11 10:31:06.000   78.254770118   16.249367731   344.5553   2   9   0.0455   0.0392   0.0677   0.0164  -0.0052   0.0147   0.00    1.1
2018/03/11 10:31:07.000   78.254770117   16.249367751   344.5558   2   9   0.0453   0.0392   0.0674   0.0164  -0.0053   0.0145   0.00    1.1
2018/03/11 10:31:08.000   78.254770105   16.249367718   344.5561   2   9   0.0452   0.0391   0.0672   0.0164  -0.0054   0.0144   0.00    1.1
2018/03/11 10:31:09.000   78.254770084   16.249367676   344.5544   2   9   0.0451   0.0390   0.0669   0.0164  -0.0055   0.0143   0.00    1.1
2018/03/11 10:31:10.000   78.254770061   16.249367648   344.5532   2   9   0.0450   0.0389   0.0667   0.0164  -0.0055   0.0142   0.00    1.1
2018/03/11 10:31:11.000   78.254770049   16.249367596   344.5513   2   9   0.0448   0.0389   0.0664   0.0164  -0.0056   0.0140   0.00    1.1
2018/03/11 10:31:12.000   78.254770039   16.249367609   344.5496   2   9   0.0447   0.0388   0.0662   0.0163  -0.0057   0.0139   0.00    1.1
2018/03/11 10:31:13.000   78.254770050   16.249367670   344.5487   2   9   0.0446   0.0387   0.0659   0.0163  -0.0057   0.0138   0.00    1.1
2018/03/11 10:31:14.000   78.254770070   16.249367750   344.5493   2   9   0.0445   0.0386   0.0657   0.0163  -0.0058   0.0137   0.00    1.1
2018/03/11 10:31:15.000   78.254770087   16.249367809   344.5508   2   9   0.0444   0.0386   0.0654   0.0163  -0.0059   0.0135   0.00    1.1
2018/03/11 10:31:16.000   78.254770110   16.249367868   344.5532   2   9   0.0442   0.0385   0.0652   0.0163  -0.0059   0.0134   0.00    1.1
2018/03/11 10:31:17.000   78.254770110   16.249367936   344.5550   2   9   0.0441   0.0384   0.0650   0.0163  -0.0060   0.0133   0.00    1.1
2018/03/11 10:31:18.000   78.254770115   16.249367960   344.5550   2   9   0.0440   0.0383   0.0647   0.0163  -0.0061   0.0132   0.00    1.1
2018/03/11 10:31:19.000   78.254770117   16.249367916   344.5537   2   9   0.0439   0.0383   0.0645   0.0163  -0.0061   0.0130   0.00    1.1
2018/03/11 10:31:20.000   78.254770127   16.249367901   344.5517   2   9   0.0438   0.0382   0.0643   0.0162  -0.0062   0.0129   0.00    1.1
2018/03/11 10:31:21.000   78.254770122   16.249367849   344.5488   2   9   0.0437   0.0381   0.0640   0.0162  -0.0062   0.0128   0.00    1.1
2018/03/11 10:31:22.000   78.254770112   16.249367759   344.5447   2   9   0.0435   0.0380   0.0638   0.0162  -0.0063   0.0127   0.00    1.1
2018/03/11 10:31:23.000   78.254770102   16.249367681   344.5419   2   9   0.0434   0.0380   0.0636   0.0162  -0.0063   0.0125   0.00    1.1
2018/03/11 10:31:24.000   78.254770087   16.249367591   344.5407   2   9   0.0433   0.0379   0.0633   0.0162  -0.0064   0.0124   0.00    1.1
2018/03/11 10:31:25.000   78.254770087   16.249367569   344.5405   2   9   0.0432   0.0378   0.0631   0.0162  -0.0064   0.0123   0.00    1.1
2018/03/11 10:31:26.000   78.254770099   16.249367598   344.5389   2   9   0.0431   0.0378   0.0629   0.0162  -0.0065   0.0122   0.00    1.1
2018/03/11 10:31:27.000   78.254770118   16.249367678   344.5391   2   9   0.0430   0.0377   0.0626   0.0162  -0.0065   0.0121   0.00    1.1
2018/03/11 10:31:28.000   78.254770137   16.249367764   344.5405   2   9   0.0429   0.0376   0.0624   0.0161  -0.0066   0.0120   0.00    1.1
2018/03/11 10:31:29.000   78.254770148   16.249367812   344.5423   2   9   0.0427   0.0375   0.0622   0.0161  -0.0066   0.0118   0.00    1.1
2018/03/11 10:31:30.000   78.254770168   16.249367868   344.5430   2   9   0.0426   0.0375   0.0620   0.0161  -0.0067   0.0117   0.00    1.1
2018/03/11 10:31:31.000   78.254770173   16.249367848   344.5431   2   9   0.0425   0.0374   0.0618   0.0161  -0.0067   0.0116   0.00    1.1
2018/03/11 10:31:32.000   78.254770166   16.249367818   344.5421   2   9   0.0424   0.0373   0.0615   0.0161  -0.0068   0.0115   0.00    1.1
2018/03/11 10:31:33.000   78.254770146   16.249367724   344.5405   2   9   0.0423   0.0373   0.0613   0.0161  -0.0068   0.0114   0.00    1.1
2018/03/11 10:31:34.000   78.254770121   16.249367615   344.5372   2   9   0.0422   0.0372   0.0611   0.0161  -0.0068   0.0113   0.00    1.1
2018/03/11 10:31:35.000   78.254770103   16.249367511   344.5321   2   9   0.0421   0.0371   0.0609   0.0160  -0.0069   0.0112   0.00    1.1
2018/03/11 10:31:36.000   78.254770080   16.249367454   344.5279   2   9   0.0420   0.0370   0.0607   0.0160  -0.0069   0.0110   0.00    1.1
2018/03/11 10:31:37.000   78.254770070   16.249367410   344.5269   2   9   0.0419   0.0370   0.0605   0.0160  -0.0070   0.0109   0.00    1.1
2018/03/11 10:31:38.000   78.254770060   16.249367415   344.5268   2   9   0.0418   0.0369   0.0603   0.0160  -0.0070   0.0108   0.00    1.1
2018/03/11 10:31:39.000   78.254770069   16.249367499   344.5287   2   9   0.0416   0.0368   0.0600   0.0160  -0.0070   0.0107   0.00    1.1
2018/03/11 10:31:40.000   78.254770083   16.249367628   344.5320   2   9   0.0415   0.0368   0.0598   0.0160  -0.0071   0.0106   0.00    1.1
2018/03/11 10:31:41.000   78.254770101   16.249367785   344.5340   2   9   0.0414   0.0367   0.0596   0.0160  -0.0071   0.0105   0.00    1.1
2018/03/11 10:31:42.000   78.254770116   16.249367921   344.5363   2   9   0.0413   0.0366   0.0594   0.0159  -0.0071   0.0104   0.00    1.1
2018/03/11 10:31:43.000   78.254770135   16.249367980   344.5385   2   9   0.0412   0.0365   0.0592   0.0159  -0.0072   0.0103   0.00    1.1
2018/03/11 10:31:44.000   78.254770137   16.249368013   344.5397   2   9   0.0411   0.0365   0.0590   0.0159  -0.0072   0.0102   0.00    1.1
2018/03/11 10:31:45.000   78.254770135   16.249368012   344.5401   2   9   0.0410   0.0364   0.0588   0.0159  -0.0072   0.0101   0.00    1.1
2018/03/11 10:31:46.000   78.254770124   16.249367954   344.5399   2   9   0.0409   0.0363   0.0586   0.0159  -0.0073   0.0099   0.00    1.1
2018/03/11 10:31:47.000   78.254770109   16.249367888   344.5399   2   9   0.0408   0.0363   0.0584   0.0159  -0.0073   0.0098   0.00    1.1
2018/03/11 10:31:48.000   78.254770090   16.249367804   344.5380   2   9   0.0407   0.0362   0.0582   0.0159  -0.0073   0.0097   0.00    1.1
2018/03/11 10:31:49.000   78.254770075   16.249367739   344.5358   2   9   0.0406   0.0361   0.0580   0.0158  -0.0074   0.0096   0.00    1.1
2018/03/11 10:31:50.000   78.254770069   16.249367668   344.5345   2   9   0.0405   0.0361   0.0578   0.0158  -0.0074   0.0095   0.00    1.1
2018/03/11 10:31:51.000   78.254770089   16.249367688   344.5330   2   9   0.0404   0.0360   0.0576   0.0158  -0.0074   0.0094   0.00    1.1
2018/03/11 10:31:52.000   78.254770112   16.249367733   344.5328   2   9   0.0403   0.0359   0.0574   0.0158  -0.0074   0.0093   0.00    1.1
2018/03/11 10:31:53.000   78.254770134   16.249367787   344.5335   2   9   0.0402   0.0359   0.0572   0.0158  -0.0075   0.0092   0.00    1.1
2018/03/11 10:31:54.000   78.254770151   16.249367926   344.5345   2   9   0.0401   0.0358   0.0571   0.0158  -0.0075   0.0091   0.00    1.1
2018/03/11 10:31:55.000   78.254770165   16.249368085   344.5362   2   9   0.0400   0.0357   0.0569   0.0158  -0.0075   0.0090   0.00    1.1
2018/03/11 10:31:56.000   78.254770185   16.249368180   344.5374   2   9   0.0399   0.0357   0.0567   0.0157  -0.0075   0.0089   0.00    1.1
2018/03/11 10:31:57.000   78.254770193   16.249368266   344.5383   2   9   0.0398   0.0356   0.0565   0.0157  -0.0076   0.0088   0.00    1.1
2018/03/11 10:31:58.000   78.254770192   16.249368327   344.5394   2   9   0.0397   0.0355   0.0563   0.0157  -0.0076   0.0087   0.00    1.1
2018/03/11 10:31:59.000   78.254770188   16.249368331   344.5399   2   9   0.0396   0.0355   0.0561   0.0157  -0.0076   0.0086   0.00    1.1
2018/03/11 10:32:00.000   78.254770183   16.249368308   344.5390   2   9   0.0395   0.0354   0.0559   0.0157  -0.0076   0.0085   0.00    1.1
2018/03/11 10:32:01.000   78.254770177   16.249368259   344.5390   2   9   0.0394   0.0353   0.0558   0.0157  -0.0077   0.0084   0.00    1.1
2018/03/11 10:32:02.000   78.254770169   16.249368235   344.5380   2   9   0.0393   0.0353   0.0556   0.0157  -0.0077   0.0083   0.00    1.1
2018/03/11 10:32:03.000   78.254770172   16.249368213   344.5379   2   9   0.0392   0.0352   0.0554   0.0156  -0.0077   0.0082   0.00    1.1
2018/03/11 10:32:04.000   78.254770178   16.249368229   344.5378   2   9   0.0391   0.0351   0.0552   0.0156  -0.0077   0.0081   0.00    1.1
2018/03/11 10:32:05.000   78.254770200   16.249368275   344.5389   2   9   0.0390   0.0351   0.0550   0.0156  -0.0077   0.0080   0.00    1.1
2018/03/11 10:32:06.000   78.254770221   16.249368297   344.5396   2   9   0.0389   0.0350   0.0549   0.0156  -0.0078   0.0079   0.00    1.1
2018/03/11 10:32:07.000   78.254770243   16.249368307   344.5391   2   9   0.0388   0.0349   0.0547   0.0156  -0.0078   0.0078   0.00    1.1
2018/03/11 10:32:08.000   78.254770255   16.249368288   344.5375   2   9   0.0387   0.0349   0.0545   0.0156  -0.0078   0.0076   0.00    1.1
2018/03/11 10:32:09.000   78.254770270   16.249368319   344.5366   2   9   0.0386   0.0348   0.0543   0.0155  -0.0078   0.0075   0.00    1.1
2018/03/11 10:32:10.000   78.254770268   16.249368354   344.5359   2   9   0.0385   0.0347   0.0542   0.0155  -0.0078   0.0074   0.00    1.1
2018/03/11 10:32:11.000   78.254770267   16.249368410   344.5355   2   9   0.0384   0.0347   0.0540   0.0155  -0.0079   0.0073   0.00    1.1
