     2.11           OBSERVATION DATA    M (MIXED)           RINEX VERSION / TYPE
teqc  2018Mar15                         20180319 14:17:33UTCPGM / RUN BY / DATE
Linux 2.6.32-573.12.1.x86_64|x86_64|gcc -static|Linux 64|=+ COMMENT
END OF STATIC MODE OBSERVATION                              COMMENT
BIT 2 OF LLI FLAGS DATA COLLECTED UNDER A/S CONDITION       COMMENT
-Unknown-                                                   MARKER NAME
4625                                                        MARKER NUMBER
-Unknown-           -Unknown-                               OBSERVER / AGENCY
5127468778          TRIMBLE             4.63                REC # / TYPE / VERS
47477114                            NONE                    ANT # / TYPE
  5669815.8475        0.0000 -2911475.7793                  APPROX POSITION XYZ
        0.0000        0.0000        0.0000                  ANTENNA: DELTA H/E/N
     1     1                                                WAVELENGTH FACT L1/2
     7    L1    L2    C1    P1    P2    S1    S2            # / TYPES OF OBSERV
    18                                                      LEAP SECONDS
 SNR is mapped to RINEX snr flag value [0-9]                COMMENT
  L1 & L2: min(max(int(snr_dBHz/6), 0), 9)                  COMMENT
  2018     3    13    13    24   36.0000000     GPS         TIME OF FIRST OBS
                                                            END OF HEADER
 18  3 13 13 24 36.0000000  0 19G10R08R07G14G22R09R15R16R17R18R24G19
                                G11G12G28G32G24G17G01
 121723567.831 7  94849690.32044  23163257.664                    23163264.496
        43.800          29.800
                  86328192.425 6  20727236.547                    20727237.363
                        41.800
                  86410134.063 6  20754181.742                    20754183.434
                        41.100
 129453870.014 6 100873075.88443  24634233.078                    24634237.129
        37.800          22.600
 129158796.691 6 100643315.71944  24578124.500                    24578124.949
        39.200          25.300
                  88050654.729 6  21200220.102                    21200220.605
                        41.600
                  94708731.225 5  22787287.875                    22787291.426
                        35.700
                  80032374.637 6  19262866.188                    19262867.461
                        40.600
                  84132742.465 6  20214277.563                    20214279.129
                        41.800
                  94098352.877 6  22664304.031                    22664306.434
                        41.500
                  88111878.647 5  21185185.016                    21185185.891
                        32.200
 116267414.626 7  90597991.07945  22124954.313                    22124955.500
        45.600          34.400
 121176044.205 7  94422897.64544  23059033.195                    23059036.125
        42.000          25.800
 121228627.906 7  94463795.27244  23069020.516                    23069023.730
        45.200          28.900
 125738520.316 6  97978082.54244  23927245.992                    23927249.617
        40.400          25.300
 119961460.913 7  93476483.13145  22827906.813                    22827912.063
        47.400          34.600
 109480000.766 8  85309110.73246  20833351.438                    20833357.477
        49.300          41.200
 114920383.368 8  89548361.32146  21868622.008                    21868625.289
        50.600          40.500
 117064124.336 7  91218855.56545  22276571.836                    22276577.688
        42.200          31.000
 18  3 13 13 24 37.0000000  0 19G10R08R07G14G22R09R15R16R17R18R24G19
                                G11G12G28G32G24G17G01
 121726543.809 7  94852009.28345  23163824.063                    23163830.535
        44.100          30.600
                  86327103.946 6  20726975.820                    20726976.438
                        41.800
                  86412331.820 6  20754709.383                    20754710.766
                        41.500
 129450867.525 6 100870736.27643  24633662.250                    24633665.980
        38.000          22.800
 129156370.513 6 100641425.18244  24577662.430                    24577663.293
        39.900          24.500
                  88048158.604 6  21199618.625                    21199619.070
                        41.500
                  94712454.155 6  22788183.352                    22788187.410
                        36.400
                  80033193.669 6  19263063.703                    19263064.566
                        40.600
                  84131995.553 6  20214098.609                    20214100.246
                        41.700
                  94095247.070 6  22663556.305                    22663558.938
                        41.000
                  88114413.677 5  21185794.250                    21185795.648
                        31.900
 116265199.988 7  90596265.37845  22124531.359                    22124533.758
        44.900          34.800
 121178652.892 6  94424930.37444  23059530.133                    23059532.609
        41.800          27.500
 121225303.038 7  94461204.47444  23068386.992                    23068390.992
        45.200          28.100
 125742177.164 6  97980932.03744  23927940.875                    23927944.887
        40.900          26.700
 119959443.952 7  93474911.45445  22827522.992                    22827528.008
        47.400          34.400
 109480680.771 8  85309640.60846  20833480.922                    20833486.867
        48.800          41.100
 114919809.308 8  89547914.02046  21868512.789                    21868515.965
        50.500          40.400
 117064857.304 7  91219426.70945  22276711.813                    22276716.785
        42.700          31.900
 18  3 13 13 24 38.0000000  0 19G10R08R07G14G22R09R15R16R17R18R24G19
                                G11G12G28G32G24G17G01
 121729520.343 7  94854328.67844  23164390.352                    23164397.195
        43.900          29.400
                  86326016.169 6  20726714.289                    20726715.098
                        41.400
                  86414530.232 6  20755237.453                    20755238.832
                        41.300
 129447865.304 6 100868396.88243  24633091.484                    24633094.859
        37.900          22.300
 129153944.800 6 100639535.02544  24577200.898                    24577201.883
        39.400          25.800
                  88045662.912 6  21199018.164                    21199017.988
                        40.700
                  94716177.268 6  22789078.922                    22789083.379
                        36.000
                  80034013.384 6  19263260.797                    19263261.902
                        39.900
                  84131249.363 6  20213918.711                    20213919.957
                        41.500
                  94092141.531 6  22662807.961                    22662811.184
                        40.500
                  88116949.302 5  21186404.758                    21186404.941
                        32.100
 116262986.002 7  90594540.20745  22124111.336                    22124112.352
        45.400          34.300
 121181262.283 6  94426963.66544  23060027.102                    23060028.586
        41.400          25.700
 121221978.510 7  94458613.95044  23067755.008                    23067758.121
        44.900          26.000
 125745834.204 6  97983781.68844  23928636.672                    23928641.680
        41.000          25.800
 119957427.555 7  93473340.21445  22827138.672                    22827144.527
        47.300          34.700
 109481361.491 8  85310171.04346  20833611.328                    20833616.793
        48.400          40.800
 114919235.931 8  89547467.25846  21868404.031                    21868406.758
        50.900          40.000
 117065591.091 7  91219998.50645  22276851.406                    22276856.426
        42.900          32.100
 18  3 13 13 24 39.0000000  0 19G10R08R07G14G22R09R15R16R17R18R24G19
                                G11G12G28G32G24G17G01
 121732497.376 7  94856648.45344  23164956.852                    23164963.805
        43.300          29.100
                  86324929.063 6  20726453.406                    20726454.551
                        41.300
                  86416729.242 6  20755766.203                    20755767.113
                        41.500
 129444863.336 6 100866057.68743  24632519.602                    24632523.090
        38.500          22.600
 129151519.421 6 100637645.12744  24576739.422                    24576739.813
        39.200          25.200
                  88043167.563 6  21198417.313                    21198417.078
                        40.900
                  94719900.573 5  22789975.031                    22789978.703
                        35.000
                  80034833.795 6  19263459.188                    19263459.328
                        40.300
                  84130503.889 6  20213740.242                    20213741.570
                        41.600
                  94089036.276 6  22662059.820                    22662062.398
                        40.200
                  88119485.553 5  21187014.805                    21187015.148
                        32.400
 116260772.652 7  90592815.52845  22123690.883                    22123691.473
        46.000          34.800
 121183872.321 6  94428997.46344  23060523.414                    23060525.645
        41.100          26.200
 121218654.332 7  94456023.67745  23067122.547                    23067125.691
        47.000          30.200
 125749491.491 6  97986631.52644  23929333.844                    23929337.441
        41.500          25.800
 119955411.674 7  93471769.38245  22826754.672                    22826760.527
        46.800          33.200
 109482042.912 8  85310702.01546  20833739.969                    20833746.129
        48.000          40.700
 114918663.171 8  89547020.96546  21868294.633                    21868298.047
        51.000          39.800
 117066325.646 7  91220570.89345  22276990.781                    22276996.758
        42.900          31.300
 18  3 13 13 24 40.0000000  0 19G10R08R07G14G22R09R15R16R17R18R24G19
                                G11G12G28G32G24G17G01
 121735474.954 7  94858968.64144  23165522.859                    23165530.008
        43.100          28.600
                  86323842.648 6  20726192.984                    20726193.559
                        41.000
                  86418928.892 6  20756294.664                    20756295.641
                        41.300
 129441861.641 6 100863718.70443  24631949.008                    24631951.965
        39.100          22.600
 129149094.422 6 100635755.52044  24576277.719                    24576278.914
        39.900          26.000
                  88040672.616 6  21197816.805                    21197817.035
                        41.300
                  94723624.041 5  22790871.828                    22790874.844
                        34.400
                  80035654.866 6  19263655.875                    19263657.047
                        40.400
                  84129759.123 6  20213561.156                    20213562.672
                        41.600
                  94085931.312 6  22661312.859                    22661314.254
                        40.400
                  88122022.354 5  21187623.656                    21187624.918
                        31.800
 116258559.902 7  90591091.30945  22123269.047                    22123270.648
        45.700          35.000
 121186482.986 6  94431031.74744  23061020.563                    23061022.707
        40.700          26.200
 121215330.464 7  94453433.63945  23066489.656                    23066493.074
        47.200          30.600
 125753149.002 6  97989481.54344  23930029.266                    23930032.961
        41.700          26.000
 119953396.352 7  93470198.98645  22826370.805                    22826377.293
        46.000          34.200
 109482725.047 7  85311233.55246  20833869.820                    20833875.949
        47.700          41.100
 114918091.081 8  89546575.18746  21868185.617                    21868188.871
        50.900          40.000
 117067060.981 7  91221143.89045  22277130.461                    22277136.594
        43.000          32.100
 18  3 13 13 24 41.0000000  0 19G10R08R07G14G22R09R15R16R17R18R24G19
                                G11G12G28G32G24G17G01
 121738453.130 7  94861289.30044  23166089.852                    23166096.961
        43.000          29.100
                  86322757.002 6  20725932.008                    20725932.559
                        41.200
                  86421129.285 6  20756823.000                    20756823.871
                        41.600
 129438860.257 6 100861379.96843  24631378.359                    24631380.953
        38.600          23.900
 129146669.944 6 100633866.32144  24575816.859                    24575817.449
        40.300          25.800
                  88038178.109 6  21197215.164                    21197216.523
                        41.800
                  94727347.818 5  22791766.578                    22791770.254
                        32.900
                  80036476.704 6  19263853.086                    19263854.801
                        41.200
                  84129015.116 6  20213382.375                    20213383.484
                        41.500
                  94082826.672 6  22660565.336                    22660567.305
                        41.400
                  88124559.910 5  21188232.828                    21188234.742
                        31.000
 116256347.818 7  90589367.60345  22122847.258                    22122849.223
        45.400          35.300
 121189094.393 6  94433066.62044  23061517.594                    23061519.496
        41.100          24.400
 121212006.959 7  94450843.89045  23065857.258                    23065860.762
        47.300          30.900
 125756806.918 7  97992331.88844  23930724.844                    23930729.016
        42.000          27.000
 119951381.621 7  93468629.06345  22825987.055                    22825994.227
        45.000          33.400
 109483407.943 8  85311765.68646  20834000.047                    20834005.852
        48.700          40.600
 114917519.734 8  89546129.99546  21868077.148                    21868080.219
        51.200          38.600
 117067797.138 7  91221717.53445  22277270.234                    22277276.758
        43.000          32.800
 18  3 13 13 24 42.0000000  0 19G10R08R07G14G22R09R15R16R17R18R24G19
                                G11G12G28G32G24G17G01
 121741431.807 7  94863610.33944  23166656.609                    23166663.652
        42.900          29.100
                  86321671.981 6  20725671.266                    20725672.332
                        40.500
                  86423330.232 6  20757351.648                    20757352.629
                        41.600
 129435859.064 6 100859041.40843  24630806.977                    24630809.883
        38.800          22.300
 129144245.683 6 100631977.26544  24575355.930                    24575356.277
        40.900          27.800
                  88035683.886 6  21196615.719                    21196615.535
                        41.500
                  94731071.737 5  22792662.508                    22792666.184
                        33.900
                  80037299.187 6  19264051.883                    19264052.258
                        41.100
                  84128271.824 6  20213203.773                    20213205.020
                        41.300
                  94079722.256 6  22659817.523                    22659819.539
                        41.400
                  88127097.935 5  21188845.422                    21188844.754
                        32.500
 116254136.335 7  90587644.35845  22122427.141                    22122428.242
        45.000          35.900
 121191706.364 6  94435101.92544  23062013.891                    23062016.906
        41.900          27.200
 121208683.742 7  94448254.36945  23065224.836                    23065228.293
        46.500          30.600
 125760464.887 6  97995182.26644  23931420.766                    23931425.379
        41.000          25.300
 119949367.392 7  93467059.56345  22825603.914                    22825610.492
        45.100          33.600
 109484091.539 8  85312298.35546  20834130.102                    20834135.824
        48.400          40.500
 114916948.957 8  89545685.23746  21867968.836                    21867971.848
        51.100          38.400
 117068533.987 7  91222291.70945  22277410.055                    22277416.684
        44.100          34.600
 18  3 13 13 24 43.0000000  0 19G10R08R07G14G22R09R15R16R17R18R24G19
                                G11G12G28G32G24G17G01
 121744410.980 7  94865931.77544  23167222.898                    23167230.477
        43.200          28.100
                  86320587.668 6  20725411.305                    20725412.383
                        40.700
                  86425531.863 6  20757879.813                    20757881.504
                        41.200
 129432858.157 6 100856703.04443  24630235.680                    24630238.855
        38.600          21.800
 129141821.905 6 100630088.60144  24574894.688                    24574894.879
        41.000          27.800
                  88033190.079 6  21196015.070                    21196014.844
                        41.200
                  94734795.861 5  22793559.734                    22793563.004
                        33.600
                  80038122.337 6  19264249.367                    19264250.727
                        40.800
                  84127529.264 6  20213024.906                    20213027.223
                        41.200
                  94076618.107 6  22659069.328                    22659071.543
                        41.000
                  88129636.548 5  21189455.930                    21189455.664
                        32.600
 116251925.401 7  90585921.55545  22122006.555                    22122007.918
        45.000          35.800
 121194318.972 7  94437137.72744  23062511.133                    23062513.719
        42.100          26.500
 121205360.845 7  94445665.09844  23064592.789                    23064595.918
        46.400          29.700
 125764123.124 7  97998032.83044  23932117.539                    23932121.961
        42.500          25.900
 119947353.733 7  93465490.51045  22825221.195                    22825227.660
        45.200          33.900
 109484775.851 8  85312831.59246  20834260.617                    20834266.297
        49.100          40.800
 114916378.857 8  89545241.01646  21867859.727                    21867863.066
        51.200          38.600
 117069271.659 7  91222866.52145  22277550.656                    22277557.512
        43.300          33.700
 18  3 13 13 24 44.0000000  0 19G10R08R07G14G22R09R15R16R17R18R24G19
                                G11G12G28G32G24G17G01
 121747390.664 7  94868253.61844  23167790.445                    23167797.414
        43.100          29.000
                  86319503.989 6  20725150.367                    20725151.406
                        40.500
                  86427734.084 6  20758408.438                    20758410.129
                        41.200
 129429857.496 6 100854364.85443  24629664.711                    24629668.078
        38.400          21.500
 129139398.453 6 100628200.19044  24574432.813                    24574433.637
        40.900          27.400
                  88030696.675 6  21195414.859                    21195414.547
                        41.200
                  94738520.120 5  22794456.297                    22794459.266
                        33.500
                  80038946.165 6  19264447.672                    19264449.254
                        40.900
                  84126787.426 6  20212847.211                    20212848.496
                        40.900
                  94073514.193 6  22658320.844                    22658323.945
                        41.100
                  88132175.809 5  21190064.344                    21190066.168
                        32.200
 116249715.122 7  90584199.25546  22121585.797                    22121587.387
        45.100          36.100
 121196932.244 7  94439174.04244  23063008.109                    23063011.215
        42.300          27.200
 121202038.246 7  94443076.06845  23063960.516                    23063963.855
        46.600          30.200
 125767781.613 7  98000883.59344  23932813.609                    23932817.586
        42.300          25.900
 119945340.597 7  93463921.86045  22824838.258                    22824844.492
        46.000          33.900
 109485460.840 8  85313365.35046  20834391.180                    20834396.367
        49.800          40.500
 114915809.391 8  89544797.29346  21867751.688                    21867754.828
        51.300          38.600
 117070010.100 7  91223441.92145  22277691.141                    22277697.840
        43.600          33.800
 18  3 13 13 24 45.0000000  0 19G10R08R07G14G22R09R15R16R17R18R24G19
                                G11G12G28G32G24G17G01
 121750370.918 7  94870575.91544  23168357.992                    23168364.434
        42.800          28.000
                  86318421.002 6  20724890.742                    20724891.863
                        40.900
                  86429936.944 6  20758937.320                    20758939.574
                        41.200
 129426857.126 6 100852026.89643  24629093.711                    24629096.840
        38.300          22.200
 129136975.455 6 100626312.14044  24573972.203                    24573972.852
        41.100          27.000
                  88028203.628 6  21194815.016                    21194814.125
                        41.400
                  94742244.563 5  22795351.844                    22795355.348
                        33.300
                  80039770.658 6  19264646.133                    19264647.473
                        40.900
                  84126046.348 6  20212668.922                    20212670.746
                        41.500
                  94070410.590 6  22657573.883                    22657576.691
                        41.000
                  88134715.645 5  21190675.219                    21190676.262
                        32.500
 116247505.445 7  90582477.43645  22121165.641                    22121166.883
        46.300          35.500
 121199546.153 6  94441210.85244  23063505.641                    23063508.672
        41.600          27.000
 121198715.983 7  94440487.29644  23063328.070                    23063331.824
        46.800          29.400
 125771440.354 7  98003734.54844  23933509.898                    23933514.254
        42.100          25.200
 119943328.045 7  93462353.64645  22824455.602                    22824461.566
        46.500          34.200
 109486146.589 8  85313899.70446  20834521.961                    20834527.156
        50.000          41.300
 114915240.592 8  89544354.09146  21867643.344                    21867646.445
        51.100          38.900
 117070749.298 7  91224017.90745  22277832.031                    22277838.285
        44.000          34.200
 18  3 13 13 24 46.0000000  0 19G10R08R07G14G22R09R15R16R17R18R24G19
                                G11G12G28G32G24G17G01
 121753351.688 7  94872898.61744  23168925.609                    23168931.453
        43.300          28.900
                  86317338.724 6  20724630.438                    20724631.617
                        40.500
                  86432140.446 6  20759466.367                    20759468.406
                        41.200
 129423857.023 6 100849689.16543  24628522.008                    24628526.254
        38.000          21.800
 129134552.786 6 100624424.35044  24573510.914                    24573511.859
        41.300          27.000
                  88025710.976 6  21194213.945                    21194214.719
                        41.200
                  94745969.240 5  22796247.211                    22796251.496
                        31.700
                  80040595.864 6  19264844.352                    19264846.340
                        40.500
                  84125305.984 6  20212492.008                    20212492.914
                        41.400
                  94067307.284 6  22656826.570                    22656829.207
                        41.200
                  88137256.037 5  21191288.500                    21191287.020
                        32.300
 116245296.390 7  90580756.09545  22120745.211                    22120746.691
        46.700          35.900
 121202160.707 6  94443248.15944  23064003.023                    23064006.457
        41.700          27.400
 121195394.055 7  94437898.78544  23062695.953                    23062699.453
        46.800          29.400
 125775099.332 6  98006585.69044  23934205.719                    23934210.262
        41.100          25.300
 119941316.021 7  93460785.83645  22824072.742                    22824077.922
        46.300          34.200
 109486833.046 8  85314434.60246  20834652.273                    20834657.813
        50.200          40.800
 114914672.452 8  89543911.40246  21867535.438                    21867538.375
        51.300          39.000
 117071489.271 7  91224594.50645  22277973.070                    22277979.406
        43.600          33.700
 18  3 13 13 24 47.0000000  0 19G10R08R07G14G22R09R15R16R17R18R24G19
                                G11G12G28G32G24G17G01
 121756332.940 7  94875221.68844  23169492.547                    23169498.992
        43.000          27.400
                  86316257.152 6  20724371.344                    20724372.211
                        40.200
                  86434344.604 6  20759995.492                    20759998.199
                        40.800
 129420857.140 6 100847351.58943  24627951.828                    24627955.496
        38.000          21.500
 129132130.528 6 100622536.87344  24573050.109                    24573051.352
        40.800          27.100
                  88023218.704 6  21193613.648                    21193614.285
                        40.900
                  94749694.146 5  22797143.000                    22797147.391
                        32.200
                  80041421.761 6  19265044.367                    19265044.945
                        40.700
                  84124566.358 6  20212313.234                    20212315.000
                        40.900
                  94064204.259 6  22656078.453                    22656081.711
                        40.900
                  88139797.027 5  21191898.117                    21191898.234
                        32.000
 116243087.938 7  90579035.22445  22120324.750                    22120326.430
        45.500          35.400
 121204775.890 7  94445285.96044  23064501.055                    23064503.930
        42.100          26.900
 121192072.431 7  94435310.52145  23062063.844                    23062067.375
        46.200          30.300
 125778758.556 6  98009437.02544  23934902.086                    23934906.930
        40.600          24.700
 119939304.561 7  93459218.46045  22823690.055                    22823695.465
        46.600          33.600
 109487520.204 8  85314970.04346  20834783.031                    20834788.543
        49.800          40.600
 114914104.968 8  89543469.22346  21867427.352                    21867430.203
        51.200          38.800
 117072230.013 7  91225171.70045  22278114.172                    22278120.414
        44.300          33.800
 18  3 13 13 24 48.0000000  0 19G10R08R07G14G22R09R15R16R17R18R24G19
                                G11G12G28G32G24G17G01
 121759314.744 7  94877545.18944  23170060.164                    23170066.473
        43.300          28.600
                  86315176.259 6  20724110.836                    20724112.578
                        40.600
                  86436549.424 6  20760524.367                    20760527.430
                        41.000
 129417857.529 6 100845014.21343  24627380.375                    24627384.215
        37.700          21.100
 129129708.611 6 100620649.65744  24572589.727                    24572590.059
        40.800          27.100
                  88020726.812 6  21193014.352                    21193014.246
                        41.200
                  94753419.215 5  22798039.852                    22798043.273
                        33.300
                  80042248.319 6  19265242.375                    19265243.430
                        40.400
                  84123827.485 6  20212136.141                    20212137.570
                        41.100
                  94061101.457 6  22655331.250                    22655334.441
                        41.400
                  88142338.635 5  21192508.516                    21192509.445
                        31.400
 116240880.079 7  90577314.81345  22119904.367                    22119906.191
        45.300          35.200
 121207391.739 6  94447324.27844  23064998.422                    23065001.375
        41.800          26.300
 121188751.146 7  94432722.50344  23061431.969                    23061435.352
        46.100          29.900
 125782417.951 6  98012288.49144  23935599.430                    23935603.270
        41.300          26.600
 119937293.646 7  93457651.51345  22823307.063                    22823312.676
        46.700          33.700
 109488208.092 8  85315506.05146  20834914.320                    20834919.508
        49.800          40.600
 114913538.129 8  89543027.54046  21867319.391                    21867322.488
        51.500          38.600
 117072971.528 7  91225749.50745  22278255.313                    22278261.688
        44.000          33.800
 18  3 13 13 24 49.0000000  0 19G10R08R07G14G22R09R15R16R17R18R24G19
                                G11G12G28G32G24G17G01
 121762297.063 7  94879869.07244  23170627.313                    23170633.840
        43.500          28.900
                  86314096.029 6  20723852.266                    20723853.547
                        40.400
                  86438754.877 6  20761054.914                    20761056.984
                        41.200
 129414858.133 6 100842677.02443  24626810.180                    24626813.313
        37.900          21.300
 129127287.087 6 100618762.75444  24572128.523                    24572129.348
        41.100          27.200
                  88018235.292 6  21192414.633                    21192414.531
                        41.300
                  94757144.436 5  22798936.305                    22798940.145
                        33.300
                  80043075.523 6  19265441.633                    19265442.863
                        40.800
                  84123089.313 6  20211958.641                    20211960.348
                        41.300
                  94057998.913 6  22654584.281                    22654587.543
                        40.400
                  88144880.794 5  21193121.508                    21193120.461
                        31.300
 116238672.824 7  90575594.88045  22119484.680                    22119485.672
        45.700          35.100
 121210008.190 6  94449363.06644  23065496.688                    23065499.734
        41.100          25.400
 121185430.156 7  94430134.70644  23060799.906                    23060803.473
        46.400          29.400
 125786077.626 6  98015140.18544  23936296.203                    23936299.477
        41.600          26.500
 119935283.232 7  93456084.95145  22822924.531                    22822930.340
        47.000          34.300
 109488896.672 8  85316042.60446  20835045.195                    20835050.371
        49.500          40.900
 114912971.925 8  89542586.35246  21867211.953                    21867214.535
        51.600          38.100
 117073713.825 7  91226327.91345  22278396.141                    22278402.328
        43.800          33.600
 18  3 13 13 24 50.0000000  0 19G10R08R07G14G22R09R15R16R17R18R24G19
                                G11G12G28G32G24G17G01
 121765279.897 7  94882193.35844  23171194.836                    23171201.859
        43.000          28.500
                  86313016.440 6  20723592.789                    20723593.695
                        40.500
                  86440960.949 6  20761585.125                    20761586.938
                        40.900
 129411859.007 6 100840340.05443  24626239.305                    24626242.906
        37.700          20.900
 129124865.962 6 100616876.16444  24571667.734                    24571668.453
        41.000          26.500
                  88015744.138 6  21191814.734                    21191814.723
                        40.900
                  94760869.857 5  22799832.133                    22799836.996
                        33.100
                  80043903.415 6  19265640.773                    19265642.242
                        40.400
                  84122351.908 6  20211782.031                    20211783.055
                        40.900
                  94054896.660 6  22653837.063                    22653840.445
                        40.800
                  88147423.543 5  21193732.320                    21193732.461
                        30.900
 116236466.182 7  90573875.42445  22119065.000                    22119065.879
        45.900          35.200
 121212625.280 6  94451402.36344  23065994.359                    23065997.777
        40.900          26.500
 121182109.505 7  94427547.17544  23060167.852                    23060171.672
        45.100          26.800
 125789737.539 6  98017992.06844  23936992.000                    23936995.926
        41.300          26.400
 119933273.389 7  93454518.83045  22822542.211                    22822548.242
        46.900          34.400
 109489585.975 8  85316579.72146  20835175.906                    20835181.281
        49.400          40.900
 114912406.386 8  89542145.67746  21867104.219                    21867107.086
        51.700          38.400
 117074456.905 7  91226906.94145  22278537.125                    22278544.277
        43.700          33.400
 18  3 13 13 24 51.0000000  0 19G10R08R07G14G22R09R15R16R17R18R24G19
                                G11G12G28G32G24G17G01
 121768263.299 7  94884518.09244  23171762.969                    23171769.449
        43.000          28.400
                  86311937.544 6  20723334.070                    20723334.941
                        40.500
                  86443167.618 6  20762114.930                    20762116.961
                        41.200
 129408860.139 6 100838003.27443  24625667.953                    24625672.008
        37.200          21.100
 129122445.209 6 100614989.86444  24571207.594                    24571207.965
        41.300          26.800
                  88013253.408 6  21191214.578                    21191214.875
                        41.600
                  94764595.476 5  22800728.000                    22800732.559
                        30.700
                  80044731.979 6  19265840.078                    19265841.539
                        40.300
                  84121615.240 6  20211604.086                    20211606.000
                        40.500
                  94051794.656 6  22653089.711                    22653092.676
                        40.300
                  88149966.925 5  21194342.492                    21194343.758
                        30.700
 116234260.156 7  90572156.44545  22118644.711                    22118646.215
        45.800          35.500
 121215243.055 6  94453442.18944  23066492.320                    23066495.832
        40.200          26.500
 121178789.134 7  94424959.90744  23059536.523                    23059539.508
        46.300          29.300
 125793397.657 6  98020844.09344  23937687.859                    23937692.133
        41.300          26.500
 119931264.060 7  93452953.11645  22822160.313                    22822165.250
        47.600          34.600
 109490275.956 8  85317117.36846  20835307.594                    20835312.984
        49.600          41.100
 114911841.486 8  89541705.50846  21866996.008                    21866999.621
        51.700          37.900
 117075200.745 7  91227486.55445  22278678.500                    22278685.566
        43.300          33.800
 18  3 13 13 24 52.0000000  0 19G10R08R07G14G22R09R15R16R17R18R24G19
                                G11G12G28G32G24G17G01
 121771247.157 7  94886843.18844  23172330.578                    23172337.453
        42.200          27.700
                  86310859.393 6  20723074.977                    20723075.762
                        41.100
                  86445374.896 6  20762645.500                    20762646.891
                        41.500
 129405861.547 6 100835666.71743  24625097.945                    24625101.555
        37.000          21.300
 129120024.817 6 100613103.84844  24570746.117                    24570747.438
        40.500          26.400
                  88010763.021 6  21190615.391                    21190615.492
                        41.600
                  94768321.245 5  22801625.195                    22801628.246
                        32.200
                  80045561.221 6  19266039.516                    19266041.191
                        40.000
                  84120879.289 6  20211427.891                    20211429.648
                        41.000
                  94048692.922 6  22652342.781                    22652345.715
                        41.000
                  88152510.863 5  21194954.953                    21194955.230
                        32.600
 116232054.748 7  90570437.95545  22118225.109                    22118226.379
        46.000          35.200
 121217861.443 6  94455482.49844  23066990.672                    23066993.965
        39.900          26.000
 121175469.094 7  94422372.91244  23058904.055                    23058907.672
        46.400          28.300
 125797058.010 6  98023696.29644  23938385.016                    23938389.336
        41.500          26.500
 119929255.286 8  93451387.83545  22821778.000                    22821783.102
        48.100          34.700
 109490966.601 8  85317655.52946  20835438.398                    20835444.477
        50.000          40.900
 114911277.227 8  89541265.83746  21866889.016                    21866892.379
        51.600          38.400
 117075945.341 7  91228066.76345  22278819.914                    22278827.371
        43.100          32.600
 18  3 13 13 24 53.0000000  0 19G10R08R07G14G22R09R15R16R17R18R24G19
                                G11G12G28G32G24G17G01
 121774231.537 7  94889168.69144  23172898.805                    23172905.449
        44.400          29.100
                  86309781.941 6  20722816.945                    20722817.688
                        41.100
                  86447582.816 6  20763176.383                    20763177.418
                        41.800
 129402863.158 5 100833330.31943  24624527.328                    24624531.055
        35.400          20.900
 129117604.810 6 100611218.12944  24570286.781                    24570287.258
        41.100          27.600
                  88008273.021 6  21190015.297                    21190015.551
                        41.300
                  94772047.258 5  22802523.109                    22802524.977
                        32.600
                  80046391.167 6  19266239.844                    19266241.172
                        40.400
                  84120144.082 6  20211251.242                    20211252.641
                        40.600
                  94045591.481 6  22651596.438                    22651598.547
                        41.200
                  88155055.393 5  21195567.477                    21195567.223
                        32.400
 116229849.938 7  90568719.92245  22117805.805                    22117807.148
        46.000          35.800
 121220480.448 6  94457523.27944  23067489.422                    23067492.586
        39.600          27.500
 121172149.401 7  94419786.17345  23058272.734                    23058276.137
        46.900          31.000
 125800718.538 7  98026548.62644  23939081.875                    23939084.922
        42.100          25.300
 119927247.090 7  93449823.00545  22821395.773                    22821401.172
        47.800          34.200
 109491657.989 8  85318194.27146  20835569.742                    20835575.734
        50.200          41.300
 114910713.632 8  89540826.68446  21866782.500                    21866784.840
        51.600          38.500
 117076690.712 7  91228647.56645  22278962.563                    22278969.332
        43.200          33.300
 18  3 13 13 24 54.0000000  0 19G10R08R07G14G22R09R15R16R17R18R24G19
                                G11G12G28G32G24G17G01
 121777216.491 7  94891494.64944  23173466.484                    23173473.297
        42.800          29.100
                  86308705.184 6  20722558.266                    20722559.121
                        40.900
                  86449791.385 6  20763706.406                    20763707.359
                        40.900
 129399865.043 5 100830994.11943  24623957.477                    24623961.051
        35.700          21.300
 129115185.212 6 100609332.73144  24569826.008                    24569826.723
        40.400          27.000
                  88005783.432 6  21189416.750                    21189416.059
                        41.600
                  94775773.462 5  22803418.945                    22803422.215
                        34.200
                  80047221.797 6  19266440.086                    19266440.965
                        40.500
                  84119409.649 6  20211074.813                    20211076.254
                        41.000
                  94042490.326 6  22650849.742                    22650851.105
                        40.800
                  88157600.524 5  21196178.813                    21196178.559
                        31.500
 116227645.733 7  90567002.35845  22117385.656                    22117387.461
        45.200          35.500
 121223100.194 6  94459564.62544  23067988.281                    23067991.055
        40.400          27.900
 121168830.031 7  94417199.64444  23057641.172                    23057644.508
        45.700          29.300
 125804379.404 6  98029401.23544  23939777.969                    23939781.906
        41.800          25.700
 119925239.441 8  93448258.59545  22821013.820                    22821019.359
        48.300          34.400
 109492350.117 8  85318733.59546  20835701.992                    20835707.461
        50.300          41.100
 114910150.695 8  89540388.04046  21866674.656                    21866677.820
        51.500          38.400
 117077436.898 7  91229229.00745  22279105.219                    22279110.988
        43.700          33.600
 18  3 13 13 24 55.0000000  0 19G10R08R07G14G22R09R15R16R17R18R24G19
                                G11G12G28G32G24G17G01
 121780202.010 7  94893821.04544  23174034.727                    23174041.133
        42.700          29.000
                  86307629.096 6  20722299.547                    20722300.348
                        41.200
                  86452000.638 6  20764236.781                    20764238.629
                        41.500
 129396867.250 6 100828658.17743  24623385.578                    24623390.027
        36.100          21.700
 129112765.977 6 100607447.61844  24569365.102                    24569366.410
        40.900          25.300
                  88003294.222 7  21188817.203                    21188817.340
                        42.100
                  94779499.855 5  22804314.258                    22804318.980
                        34.100
                  80048053.119 6  19266639.523                    19266640.629
                        40.400
                  84118675.947 6  20210898.563                    20210899.699
                        40.700
                  94039389.422 6  22650102.570                    22650104.586
                        40.800
                  88160146.230 5  21196791.273                    21196790.781
                        32.400
 116225442.146 7  90565285.28145  22116966.430                    22116968.172
        45.200          35.400
 121225720.538 6  94461606.43244  23068487.383                    23068489.230
        40.500          27.000
 121165510.996 7  94414613.39744  23057009.500                    23057013.039
        45.700          27.800
 125808040.436 7  98032253.95744  23940474.805                    23940478.531
        42.000          26.500
 119923232.348 8  93446694.61745  22820631.711                    22820637.660
        48.000          33.600
 109493043.026 8  85319273.52946  20835833.641                    20835839.531
        49.900          40.500
 114909588.420 8  89539949.91346  21866567.680                    21866570.480
        51.300          39.000
 117078183.838 7  91229811.02945  22279247.453                    22279253.438
        44.200          33.800
 18  3 13 13 24 56.0000000  0 19G10R08R07G14G22R09R15R16R17R18R24G19
                                G11G12G28G32G24G17G01
 121783188.007 7  94896147.81244  23174602.539                    23174609.441
        43.100          29.500
                  86306553.635 6  20722041.750                    20722042.082
                        41.300
                  86454210.524 6  20764767.891                    20764769.645
                        41.400
 129393869.637 6 100826322.35643  24622816.055                    24622819.543
        36.600          21.300
 129110347.127 6 100605562.80444  24568905.211                    24568906.172
        40.500          25.400
                  88000805.362 7  21188216.938                    21188218.133
                        42.300
                  94783226.427 5  22805211.328                    22805216.023
                        33.300
                  80048885.121 6  19266840.273                    19266841.141
                        40.800
                  84117942.975 6  20210722.445                    20210723.984
                        41.200
                  94036288.769 6  22649355.898                    22649357.664
                        41.000
                  88162692.504 5  21197402.570                    21197403.383
                        32.600
 116223239.173 7  90563568.68645  22116547.664                    22116548.777
        45.800          34.800
 121228341.502 6  94463648.73144  23068986.500                    23068988.172
        41.700          26.800
 121162192.297 7  94412027.35944  23056377.844                    23056380.977
        45.300          29.200
 125811701.741 7  98035106.89544  23941171.133                    23941175.699
        42.000          25.700
 119921225.822 7  93445131.08345  22820249.336                    22820255.684
        46.600          33.600
 109493736.613 8  85319813.98546  20835965.422                    20835971.324
        49.600          40.900
 114909026.807 8  89539512.29446  21866461.133                    21866463.813
        51.400          39.200
 117078931.540 7  91230393.65245  22279389.594                    22279395.586
        44.300          34.400
 18  3 13 13 24 57.0000000  0 19G10R08R07G14G22R09R15R16R17R18R24G19
                                G11G12G28G32G24G17G01
 121786174.511 7  94898474.97644  23175170.570                    23175177.809
        43.400          28.100
                  86305478.821 6  20721783.555                    20721783.887
                        40.900
                  86456421.008 6  20765298.516                    20765299.938
                        41.600
 129390872.351 6 100823986.82143  24622245.742                    24622249.391
        36.200          21.300
 129107928.672 6 100603678.29844  24568444.609                    24568445.867
        39.900          25.100
                  87998316.913 7  21187618.563                    21187618.500
                        42.100
                  94786953.143 5  22806107.914                    22806111.957
                        32.100
                  80049717.800 6  19267040.367                    19267041.480
                        41.000
                  84117210.703 6  20210546.617                    20210547.637
                        41.200
                  94033188.391 6  22648608.617                    22648610.418
                        40.600
                  88165239.379 5  21198015.570                    21198015.500
                        32.700
 116221036.817 7  90561852.56245  22116128.539                    22116129.953
        45.500          35.500
 121230963.110 7  94465691.55744  23069484.477                    23069486.957
        42.500          25.500
 121158873.873 7  94409441.55744  23055746.359                    23055749.977
        45.300          29.100
 125815363.224 6  98037959.96644  23941868.695                    23941872.605
        41.500          27.300
 119919219.792 7  93443567.93845  22819867.086                    22819873.867
        45.800          33.200
 109494430.887 8  85320354.97046  20836097.555                    20836103.309
        49.900          41.400
 114908465.811 8  89539075.17046  21866354.188                    21866357.488
        51.000          38.900
 117079680.021 7  91230976.89345  22279532.297                    22279538.566
        44.400          33.500
 18  3 13 13 24 58.0000000  0 19G10R08R07G14G22R09R15R16R17R18R24G19
                                G11G12G28G32G24G17G01
 121789161.530 7  94900802.53744  23175739.492                    23175746.566
        43.400          28.200
                  86304404.671 6  20721525.875                    20721526.375
                        40.900
                  86458632.116 6  20765829.172                    20765831.313
                        41.500
 129387875.224 6 100821651.40643  24621675.906                    24621678.988
        37.100          22.300
 129105510.563 6 100601794.05744  24567984.008                    24567985.422
        40.500          25.400
                  87995828.813 6  21187019.188                    21187019.336
                        41.600
                  94790680.052 5  22807005.492                    22807008.723
                        31.900
                  80050551.138 6  19267241.086                    19267241.984
                        41.000
                  84116479.116 6  20210370.922                    20210372.008
                        40.600
                  94030088.246 6  22647862.484                    22647864.645
                        40.700
                  88167786.807 5  21198628.664                    21198627.922
                        32.300
 116218835.009 7  90560136.85945  22115709.313                    22115710.887
        44.600          33.900
 121233585.287 7  94467734.83444  23069983.703                    23069985.871
        43.200          27.400
 121155555.734 7  94406855.99644  23055115.031                    23055118.465
        44.300          26.500
 125819024.917 7  98040813.20144  23942565.773                    23942568.777
        42.900          26.000
 119917214.314 7  93442005.22745  22819484.453                    22819492.277
        44.500          33.000
 109495125.889 8  85320896.52846  20836230.234                    20836235.918
        49.400          40.600
 114907905.461 8  89538638.54146  21866247.266                    21866250.730
        50.300          38.700
 117080429.266 7  91231560.73745  22279674.586                    22279680.355
        44.700          33.100
 18  3 13 13 24 59.0000000  0 19G10R08R07G14G22R09R15R16R17R18R24G19
                                G11G12G28G32G24G17G01
 121792149.071 7  94903130.50444  23176307.609                    23176314.410
        43.900          29.800
                  86303331.243 6  20721267.305                    20721268.723
                        40.700
                  86460843.933 6  20766360.531                    20766362.008
                        41.800
 129384878.412 6 100819316.22943  24621105.477                    24621108.617
        36.100          21.300
 129103092.817 6 100599910.10944  24567524.539                    24567525.207
        39.500          24.400
                  87993341.145 7  21186420.227                    21186420.367
                        42.100
                  94794407.168 5  22807902.078                    22807905.000
                        34.800
                  80051385.156 6  19267441.313                    19267442.539
                        40.800
                  84115748.245 6  20210195.063                    20210196.309
                        41.400
                                  22647116.609

                  88170334.845 5  21199240.039                    21199241.152
                        32.300
 116216633.976 7  90558421.76144  22115290.633                    22115292.211
        43.200          29.100
 121236208.196 7  94469778.67344  23070482.539                    23070484.871
        42.900          26.700
 121152237.988 7  94404270.75444  23054483.625                    23054487.090
        44.500          25.800
 125822686.917 6  98043666.66844  23943261.227                    23943265.613
        40.600          25.100
 119915209.324 7  93440442.91345  22819103.141                    22819110.465
        43.900          32.700
 109495821.577 8  85321438.62446  20836362.508                    20836368.316
        49.600          40.000
 114907345.794 8  89538202.44046  21866140.883                    21866143.953
        50.500          38.700
 117081179.232 7  91232145.13945  22279817.117                    22279822.965
        44.600          33.000
 18  3 13 13 25  0.0000000  0 18G10R08R07G14G22R09R15R16R17R24G19G11
                                G12G28G32G24G17G01
 121795137.129 7  94905458.88044  23176876.844                    23176883.344
        43.900          29.100
                  86302258.479 6  20721010.602                    20721011.027
                        41.500
                  86463056.285 6  20766892.109                    20766894.246
                        41.000
 129381881.879 6 100816981.27443  24620534.906                    24620539.293
        36.800          21.100
 129100675.447 6 100598026.44743  24567064.500                    24567065.113
        40.300          22.600
                  87990853.761 6  21185821.914                    21185821.988
                        41.500
                  94798134.584 5  22808797.500                    22808802.504
                        34.700
                  80052219.827 6  19267643.523                    19267643.582
                        39.900
                  84115018.112 6  20210019.633                    20210020.527
                        40.700
                  88172883.501 5  21199852.961                    21199853.813
                        31.400
 116214433.359 7  90556706.99845  22114872.102                    22114873.590
        46.400          35.500
 121238831.693 6  94471822.94643  23070981.586                    23070984.262
        40.500          23.200
 121148920.517 7  94401685.70844  23053852.172                    23053855.230
        44.700          28.300
 125826349.084 6  98046520.24644  23943958.375                    23943962.906
        40.600          25.500
 119913204.935 7  93438881.08345  22818722.508                    22818728.766
        43.500          34.000
 109496517.996 8  85321981.28546  20836494.906                    20836500.633
        50.600          41.400
 114906786.740 8  89537766.82346  21866034.781                    21866037.645
        51.800          40.800
 117081929.981 7  91232730.15745  22279959.977                    22279966.117
        44.300          33.000
 18  3 13 13 25  1.0000000  0 18G10R08R07G14G22R09R15R16R17R24G19G11
                                G12G28G32G24G17G01
 121798125.742 7  94907787.68844  23177445.148                    23177452.371
        43.900          29.200
                  86301186.430 6  20720752.938                    20720753.828
                        41.500
                  86465269.339 6  20767423.148                    20767425.711
                        41.600
 129378885.559 5 100814646.47543  24619964.664                    24619968.539
        35.000          21.300
 129098258.450 6 100596143.08344  24566604.516                    24566605.301
        39.200          24.200
                  87988366.860 7  21185222.500                    21185222.852
                        42.100
                  94801862.156 5  22809695.688                    22809699.824
                        35.600
                  80053055.205 6  19267843.461                    19267844.695
                        41.300
                  84114288.776 6  20209844.344                    20209845.680
                        41.400
                  88175432.737 5  21200466.008                    21200466.531
                        32.000
 116212233.458 7  90554992.78845  22114453.117                    22114454.406
        46.200          35.600
 121241455.872 6  94473867.74644  23071480.648                    23071483.352
        39.700          24.800
 121145603.426 7  94399100.97544  23053221.031                    23053224.605
        45.000          29.400
 125830011.474 6  98049373.98443  23944656.023                    23944659.863
        39.800          22.800
 119911201.029 7  93437319.62345  22818342.117                    22818347.316
        43.200          32.100
 109497215.130 8  85322524.51346  20836627.180                    20836633.109
        49.300          40.500
 114906228.405 8  89537331.75246  21865928.586                    21865931.559
        51.600          40.200
 117082681.536 7  91233315.78945  22280102.148                    22280108.996
        43.400          33.000
 18  3 13 13 25  2.0000000  0 18G10R08R07G14G22R09R15R16R17R24G19G11
                                G12G28G32G24G17G01
 121801114.881 7  94910116.88944  23178013.711                    23178020.855
        43.400          29.800
                  86300115.096 7  20720496.469                    20720496.355
                        42.100
                  86467483.032 6  20767955.055                    20767956.855
                        41.300
 129375889.552 6 100812311.90843  24619394.766                    24619398.313
        36.400          21.700
 129095841.927 6 100594260.08143  24566144.422                    24566145.098
        39.000          22.000
                  87985880.304 6  21184623.844                    21184624.137
                        41.600
                  94805589.858 5  22810592.430                    22810595.859
                        34.100
                  80053891.259 6  19268045.070                    19268046.043
                        40.900
                  84113560.163 6  20209669.344                    20209671.086
                        41.500
                  88177982.586 5  21201078.945                    21201079.520
                        31.600
 116210034.192 7  90553279.07745  22114034.922                    22114035.914
