% program   : RTKPOST ver.2.4.2
% inp file  : C:\users\linda\My Documents\Documents\Spring18\GitHub_Unis\data\processed_data\46250700.obs
% inp file  : C:\users\linda\My Documents\Documents\Spring18\GitHub_Unis\data\20180311_base_data\lyrs0700.18o
% inp file  : C:\users\linda\My Documents\Documents\Spring18\GitHub_Unis\data\processed_data\46250700.nav
% obs start : 2018/03/11 10:25:17.0 GPST (week1992  37517.0s)
% obs end   : 2018/03/11 10:43:41.0 GPST (week1992  38621.0s)
% pos mode  : static
% freqs     : L1+L2
% solution  : forward
% elev mask : 15.0 deg
% dynamics  : on
% tidecorr  : off
% ionos opt : broadcast
% tropo opt : saastamoinen
% ephemeris : broadcast
% navi sys  : gps glonass galileo qzss sbas
% amb res   : fix and hold
% amb glo   : on
% val thres : 3.0
% antenna1  :                       ( 0.0000  0.0000  0.0000)
% antenna2  :                       ( 0.0000  0.0000  0.0000)
% ref pos   : 78.228825638   15.397310064   495.6816
%
% (lat/lon/height=WGS84/ellipsoidal,Q=1:fix,2:float,3:sbas,4:dgps,5:single,6:ppp,ns=# of satellites)
%  GPST                  latitude(deg) longitude(deg)  height(m)   Q  ns   sdn(m)   sde(m)   sdu(m)  sdne(m)  sdeu(m)  sdun(m) age(s)  ratio
2018/03/11 10:25:17.000   78.254771407   16.249366656   344.0736   2   9   0.5830   0.3194   1.9626   0.1676   0.3656   0.8566   0.00    2.9
2018/03/11 10:25:18.000   78.254771757   16.249365102   343.4718   2   9   0.4143   0.2269   1.3944   0.1190   0.2600   0.6088   0.00    2.6
2018/03/11 10:25:19.000   78.254771718   16.249365811   343.5732   2   9   0.3387   0.1855   1.1395   0.0972   0.2125   0.4975   0.00    2.4
2018/03/11 10:25:20.000   78.254772132   16.249364953   343.5927   2   9   0.2934   0.1608   0.9864   0.0842   0.1840   0.4307   0.00    2.3
2018/03/11 10:25:21.000   78.254772028   16.249363278   343.7032   2   9   0.2624   0.1439   0.8813   0.0752   0.1644   0.3847   0.00    2.3
2018/03/11 10:25:22.000   78.254771764   16.249361239   343.7985   2   9   0.2393   0.1313   0.8031   0.0685   0.1498   0.3506   0.00    2.1
2018/03/11 10:25:23.000   78.254771608   16.249360160   343.8914   2   9   0.2214   0.1216   0.7419   0.0633   0.1384   0.3238   0.00    2.0
2018/03/11 10:25:24.000   78.254771231   16.249359361   343.9382   2   9   0.2068   0.1137   0.6922   0.0591   0.1291   0.3021   0.00    2.1
2018/03/11 10:25:25.000   78.254771377   16.249360312   343.9960   2   9   0.1947   0.1072   0.6507   0.0555   0.1213   0.2839   0.00    2.1
2018/03/11 10:25:26.000   78.254771349   16.249360500   343.8221   2   9   0.1844   0.1017   0.6153   0.0525   0.1147   0.2684   0.00    2.1
2018/03/11 10:25:27.000   78.254771354   16.249361605   343.7173   2   9   0.1755   0.0970   0.5844   0.0499   0.1089   0.2549   0.00    2.1
2018/03/11 10:25:28.000   78.254771827   16.249362720   343.7366   2   9   0.1677   0.0928   0.5573   0.0475   0.1038   0.2429   0.00    2.1
2018/03/11 10:25:29.000   78.254772140   16.249362501   343.7554   2   9   0.1608   0.0891   0.5331   0.0455   0.0993   0.2323   0.00    2.1
2018/03/11 10:25:30.000   78.254772107   16.249362843   343.6930   2   9   0.1546   0.0859   0.5113   0.0436   0.0952   0.2227   0.00    2.1
2018/03/11 10:25:31.000   78.254772185   16.249362778   343.6822   2   9   0.1490   0.0829   0.4915   0.0419   0.0915   0.2140   0.00    2.1
2018/03/11 10:25:32.000   78.254772450   16.249363552   343.7567   2   9   0.1439   0.0803   0.4734   0.0404   0.0881   0.2060   0.00    2.1
2018/03/11 10:25:33.000   78.254772350   16.249364119   343.6687   2   9   0.1392   0.0778   0.4567   0.0390   0.0850   0.1987   0.00    2.1
2018/03/11 10:25:34.000   78.254772269   16.249364222   343.6908   2   9   0.1349   0.0756   0.4412   0.0377   0.0821   0.1918   0.00    2.1
2018/03/11 10:25:35.000   78.254772170   16.249364340   343.6300   2   9   0.1309   0.0736   0.4268   0.0364   0.0793   0.1855   0.00    2.1
2018/03/11 10:25:36.000   78.254772257   16.249364175   343.6881   2   9   0.1272   0.0717   0.4133   0.0353   0.0768   0.1795   0.00    2.1
2018/03/11 10:25:37.000   78.254772280   16.249363772   343.7068   2   9   0.1237   0.0699   0.4007   0.0342   0.0744   0.1739   0.00    2.1
2018/03/11 10:25:38.000   78.254772367   16.249363948   343.7544   2   9   0.1204   0.0683   0.3888   0.0332   0.0722   0.1687   0.00    2.1
2018/03/11 10:25:39.000   78.254772592   16.249364250   343.7708   2   9   0.1174   0.0667   0.3776   0.0323   0.0701   0.1637   0.00    2.1
2018/03/11 10:25:40.000   78.254772609   16.249364503   343.7513   2   9   0.1145   0.0653   0.3669   0.0314   0.0681   0.1590   0.00    2.1
2018/03/11 10:25:41.000   78.254772530   16.249364959   343.7269   2   9   0.1118   0.0639   0.3568   0.0305   0.0662   0.1545   0.00    2.1
2018/03/11 10:25:42.000   78.254772488   16.249364927   343.6993   2   9   0.1092   0.0627   0.3472   0.0297   0.0643   0.1502   0.00    2.2
2018/03/11 10:25:43.000   78.254772358   16.249364896   343.6600   2   9   0.1068   0.0615   0.3380   0.0289   0.0626   0.1461   0.00    2.2
2018/03/11 10:25:44.000   78.254772194   16.249364966   343.6343   2   9   0.1045   0.0603   0.3293   0.0282   0.0610   0.1422   0.00    2.3
2018/03/11 10:25:45.000   78.254772091   16.249364531   343.6129   2   9   0.1022   0.0592   0.3209   0.0275   0.0594   0.1385   0.00    2.3
2018/03/11 10:25:46.000   78.254771939   16.249363805   343.6183   2   9   0.1001   0.0582   0.3129   0.0268   0.0579   0.1349   0.00    2.4
2018/03/11 10:25:47.000   78.254771793   16.249363300   343.6124   2   9   0.0981   0.0572   0.3052   0.0262   0.0564   0.1315   0.00    2.4
2018/03/11 10:25:48.000   78.254771574   16.249362563   343.6007   2   9   0.0962   0.0563   0.2978   0.0256   0.0550   0.1282   0.00    2.5
2018/03/11 10:25:49.000   78.254771358   16.249361923   343.5833   2   9   0.0943   0.0554   0.2907   0.0250   0.0536   0.1250   0.00    2.6
2018/03/11 10:25:50.000   78.254771297   16.249361617   343.6118   2   9   0.0926   0.0545   0.2839   0.0244   0.0523   0.1220   0.00    2.6
2018/03/11 10:25:51.000   78.254771277   16.249361482   343.6210   2   9   0.0909   0.0537   0.2773   0.0238   0.0511   0.1190   0.00    2.7
2018/03/11 10:25:52.000   78.254771213   16.249361812   343.6400   2   9   0.0892   0.0529   0.2710   0.0233   0.0499   0.1162   0.00    2.8
2018/03/11 10:25:53.000   78.254771187   16.249361821   343.6773   2   9   0.0876   0.0522   0.2649   0.0228   0.0487   0.1134   0.00    2.9
2018/03/11 10:25:54.000   78.254771112   16.249361699   343.6338   2   9   0.0861   0.0514   0.2590   0.0223   0.0476   0.1108   0.00    3.0
2018/03/11 10:25:55.000   78.254770008   16.249362514   344.2754   1   9   0.0009   0.0005   0.0032   0.0003   0.0006   0.0014   0.00    3.1
2018/03/11 10:25:56.000   78.254770007   16.249362512   344.2749   1   9   0.0009   0.0005   0.0031   0.0003   0.0006   0.0014   0.00    3.1
2018/03/11 10:25:57.000   78.254770008   16.249362509   344.2746   1   9   0.0009   0.0005   0.0031   0.0003   0.0006   0.0014   0.00    3.2
2018/03/11 10:25:58.000   78.254770009   16.249362508   344.2744   1   9   0.0009   0.0005   0.0031   0.0003   0.0006   0.0013   0.00    3.2
2018/03/11 10:25:59.000   78.254770010   16.249362508   344.2742   1   9   0.0009   0.0005   0.0030   0.0003   0.0006   0.0013   0.00    3.3
2018/03/11 10:26:00.000   78.254770011   16.249362507   344.2738   1   9   0.0009   0.0005   0.0030   0.0003   0.0006   0.0013   0.00    3.4
2018/03/11 10:26:01.000   78.254770012   16.249362507   344.2736   1   9   0.0009   0.0005   0.0030   0.0003   0.0006   0.0013   0.00    3.4
2018/03/11 10:26:02.000   78.254770014   16.249362510   344.2736   1   9   0.0009   0.0005   0.0029   0.0002   0.0005   0.0013   0.00    3.5
2018/03/11 10:26:03.000   78.254770015   16.249362514   344.2733   1   9   0.0009   0.0005   0.0029   0.0002   0.0005   0.0013   0.00    3.5
2018/03/11 10:26:04.000   78.254770016   16.249362518   344.2737   1   9   0.0009   0.0005   0.0029   0.0002   0.0005   0.0013   0.00    3.5
2018/03/11 10:26:05.000   78.254770017   16.249362518   344.2735   1   9   0.0008   0.0005   0.0028   0.0002   0.0005   0.0012   0.00    9.4
2018/03/11 10:26:06.000   78.254770017   16.249362521   344.2736   1   9   0.0008   0.0005   0.0028   0.0002   0.0005   0.0012   0.00   10.6
2018/03/11 10:26:07.000   78.254770018   16.249362524   344.2737   1   9   0.0008   0.0005   0.0028   0.0002   0.0005   0.0012   0.00   12.0
2018/03/11 10:26:08.000   78.254770018   16.249362518   344.2732   1   9   0.0008   0.0004   0.0028   0.0002   0.0005   0.0012   0.00   13.3
2018/03/11 10:26:09.000   78.254770019   16.249362516   344.2732   1   9   0.0008   0.0004   0.0027   0.0002   0.0005   0.0012   0.00   14.7
2018/03/11 10:26:10.000   78.254770020   16.249362519   344.2731   1   9   0.0008   0.0004   0.0027   0.0002   0.0005   0.0012   0.00   16.1
2018/03/11 10:26:11.000   78.254770020   16.249362520   344.2732   1   9   0.0008   0.0004   0.0027   0.0002   0.0005   0.0012   0.00   17.7
2018/03/11 10:26:12.000   78.254770021   16.249362520   344.2731   1   9   0.0008   0.0004   0.0027   0.0002   0.0005   0.0012   0.00   19.3
2018/03/11 10:26:13.000   78.254770021   16.249362519   344.2727   1   9   0.0008   0.0004   0.0026   0.0002   0.0005   0.0012   0.00   20.8
2018/03/11 10:26:14.000   78.254770022   16.249362516   344.2724   1   9   0.0008   0.0004   0.0026   0.0002   0.0005   0.0011   0.00   22.3
2018/03/11 10:26:15.000   78.254770022   16.249362511   344.2719   1   9   0.0008   0.0004   0.0026   0.0002   0.0005   0.0011   0.00   23.9
2018/03/11 10:26:16.000   78.254770021   16.249362509   344.2711   1   9   0.0008   0.0004   0.0026   0.0002   0.0005   0.0011   0.00   25.5
2018/03/11 10:26:17.000   78.254770022   16.249362503   344.2703   1   9   0.0008   0.0004   0.0026   0.0002   0.0005   0.0011   0.00   27.1
2018/03/11 10:26:18.000   78.254770022   16.249362499   344.2696   1   9   0.0008   0.0004   0.0025   0.0002   0.0005   0.0011   0.00   28.9
2018/03/11 10:26:19.000   78.254770023   16.249362495   344.2690   1   9   0.0007   0.0004   0.0025   0.0002   0.0005   0.0011   0.00   30.8
2018/03/11 10:26:20.000   78.254770023   16.249362490   344.2682   1   9   0.0007   0.0004   0.0025   0.0002   0.0005   0.0011   0.00   32.6
2018/03/11 10:26:21.000   78.254770024   16.249362486   344.2673   1   9   0.0007   0.0004   0.0025   0.0002   0.0005   0.0011   0.00   34.5
2018/03/11 10:26:22.000   78.254770024   16.249362480   344.2665   1   9   0.0007   0.0004   0.0025   0.0002   0.0005   0.0011   0.00   36.4
2018/03/11 10:26:23.000   78.254770025   16.249362473   344.2658   1   9   0.0007   0.0004   0.0024   0.0002   0.0005   0.0011   0.00   38.3
2018/03/11 10:26:24.000   78.254770026   16.249362468   344.2651   1   9   0.0007   0.0004   0.0024   0.0002   0.0005   0.0011   0.00   40.1
2018/03/11 10:26:25.000   78.254770026   16.249362463   344.2643   1   9   0.0007   0.0004   0.0024   0.0002   0.0004   0.0011   0.00   42.1
2018/03/11 10:26:26.000   78.254770025   16.249362459   344.2634   1   9   0.0007   0.0004   0.0024   0.0002   0.0004   0.0010   0.00   44.0
2018/03/11 10:26:27.000   78.254770025   16.249362454   344.2625   1   9   0.0007   0.0004   0.0024   0.0002   0.0004   0.0010   0.00   46.0
2018/03/11 10:26:28.000   78.254770025   16.249362450   344.2615   1   9   0.0007   0.0004   0.0024   0.0002   0.0004   0.0010   0.00   48.0
2018/03/11 10:26:29.000   78.254770025   16.249362444   344.2607   1   9   0.0007   0.0004   0.0023   0.0002   0.0004   0.0010   0.00   50.2
2018/03/11 10:26:30.000   78.254770025   16.249362440   344.2600   1   9   0.0007   0.0004   0.0023   0.0002   0.0004   0.0010   0.00   52.7
2018/03/11 10:26:31.000   78.254770025   16.249362434   344.2592   1   9   0.0007   0.0004   0.0023   0.0002   0.0004   0.0010   0.00   54.9
2018/03/11 10:26:32.000   78.254770024   16.249362428   344.2581   1   9   0.0007   0.0004   0.0023   0.0002   0.0004   0.0010   0.00   57.1
2018/03/11 10:26:33.000   78.254770024   16.249362423   344.2571   1   9   0.0007   0.0004   0.0023   0.0002   0.0004   0.0010   0.00   59.5
2018/03/11 10:26:34.000   78.254770023   16.249362417   344.2561   1   9   0.0007   0.0004   0.0023   0.0002   0.0004   0.0010   0.00   62.2
2018/03/11 10:26:35.000   78.254770023   16.249362410   344.2553   1   9   0.0007   0.0004   0.0022   0.0002   0.0004   0.0010   0.00   64.8
2018/03/11 10:26:36.000   78.254770023   16.249362404   344.2544   1   9   0.0007   0.0004   0.0022   0.0002   0.0004   0.0010   0.00   67.2
2018/03/11 10:26:37.000   78.254770022   16.249362399   344.2535   1   9   0.0007   0.0004   0.0022   0.0002   0.0004   0.0010   0.00   69.8
2018/03/11 10:26:38.000   78.254770022   16.249362394   344.2528   1   9   0.0007   0.0004   0.0022   0.0002   0.0004   0.0010   0.00   72.5
2018/03/11 10:26:39.000   78.254770022   16.249362390   344.2522   1   9   0.0007   0.0004   0.0022   0.0002   0.0004   0.0010   0.00   75.1
2018/03/11 10:26:40.000   78.254770023   16.249362385   344.2513   1   9   0.0006   0.0004   0.0022   0.0002   0.0004   0.0010   0.00   77.7
2018/03/11 10:26:41.000   78.254770022   16.249362383   344.2506   1   9   0.0006   0.0004   0.0022   0.0002   0.0004   0.0010   0.00   80.0
2018/03/11 10:26:42.000   78.254770023   16.249362380   344.2501   1   9   0.0006   0.0004   0.0022   0.0002   0.0004   0.0009   0.00   82.0
2018/03/11 10:26:43.000   78.254770023   16.249362376   344.2494   1   9   0.0006   0.0003   0.0021   0.0002   0.0004   0.0009   0.00   84.0
2018/03/11 10:26:44.000   78.254770023   16.249362373   344.2491   1   9   0.0006   0.0003   0.0021   0.0002   0.0004   0.0009   0.00   85.6
2018/03/11 10:26:45.000   78.254770024   16.249362371   344.2486   1   9   0.0006   0.0003   0.0021   0.0002   0.0004   0.0009   0.00   86.8
2018/03/11 10:26:46.000   78.254770024   16.249362367   344.2482   1   9   0.0006   0.0003   0.0021   0.0002   0.0004   0.0009   0.00   88.1
2018/03/11 10:26:47.000   78.254770025   16.249362365   344.2478   1   9   0.0006   0.0003   0.0021   0.0002   0.0004   0.0009   0.00   88.7
2018/03/11 10:26:48.000   78.254770025   16.249362362   344.2477   1   9   0.0006   0.0003   0.0021   0.0002   0.0004   0.0009   0.00   89.7
2018/03/11 10:26:49.000   78.254770026   16.249362360   344.2476   1   9   0.0006   0.0003   0.0021   0.0002   0.0004   0.0009   0.00   90.4
2018/03/11 10:26:50.000   78.254770028   16.249362360   344.2474   1   9   0.0006   0.0003   0.0021   0.0002   0.0004   0.0009   0.00   91.0
2018/03/11 10:26:51.000   78.254770028   16.249362359   344.2472   1   9   0.0006   0.0003   0.0021   0.0002   0.0004   0.0009   0.00   91.5
2018/03/11 10:26:52.000   78.254770029   16.249362358   344.2470   1   9   0.0006   0.0003   0.0020   0.0002   0.0004   0.0009   0.00   91.8
2018/03/11 10:26:53.000   78.254770030   16.249362358   344.2470   1   9   0.0006   0.0003   0.0020   0.0002   0.0004   0.0009   0.00   92.3
2018/03/11 10:26:55.000   78.254770031   16.249362357   344.2470   1   9   0.0006   0.0003   0.0020   0.0002   0.0004   0.0009   0.00   92.8
2018/03/11 10:26:56.000   78.254770032   16.249362356   344.2469   1   9   0.0006   0.0003   0.0020   0.0002   0.0004   0.0009   0.00   93.2
2018/03/11 10:26:57.000   78.254770032   16.249362355   344.2469   1   9   0.0006   0.0003   0.0020   0.0002   0.0004   0.0009   0.00   93.5
2018/03/11 10:26:58.000   78.254770033   16.249362354   344.2468   1   9   0.0006   0.0003   0.0020   0.0002   0.0004   0.0009   0.00   93.8
2018/03/11 10:26:59.000   78.254770033   16.249362353   344.2467   1   9   0.0006   0.0003   0.0020   0.0002   0.0004   0.0009   0.00   94.3
2018/03/11 10:27:00.000   78.254770033   16.249362352   344.2469   1   9   0.0006   0.0003   0.0020   0.0002   0.0004   0.0009   0.00   95.2
2018/03/11 10:27:01.000   78.254770032   16.249362350   344.2466   1   9   0.0006   0.0003   0.0020   0.0002   0.0004   0.0009   0.00   95.9
2018/03/11 10:27:02.000   78.254770032   16.249362348   344.2466   1   9   0.0006   0.0003   0.0020   0.0002   0.0004   0.0009   0.00   96.9
2018/03/11 10:27:03.000   78.254770032   16.249362347   344.2466   1   9   0.0006   0.0003   0.0020   0.0002   0.0004   0.0009   0.00   97.7
2018/03/11 10:27:04.000   78.254770031   16.249362347   344.2466   1   9   0.0006   0.0003   0.0019   0.0002   0.0004   0.0009   0.00   98.9
2018/03/11 10:27:05.000   78.254770031   16.249362348   344.2465   1   9   0.0006   0.0003   0.0019   0.0002   0.0004   0.0008   0.00  100.0
2018/03/11 10:27:06.000   78.254770031   16.249362348   344.2466   1   9   0.0006   0.0003   0.0019   0.0002   0.0004   0.0008   0.00  100.7
2018/03/11 10:27:07.000   78.254770030   16.249362349   344.2465   1   9   0.0006   0.0003   0.0019   0.0002   0.0004   0.0008   0.00  101.6
2018/03/11 10:27:08.000   78.254770030   16.249362350   344.2465   1   9   0.0006   0.0003   0.0019   0.0002   0.0004   0.0008   0.00  102.2
2018/03/11 10:27:09.000   78.254770029   16.249362351   344.2467   1   9   0.0006   0.0003   0.0019   0.0002   0.0004   0.0008   0.00  103.2
2018/03/11 10:27:10.000   78.254770029   16.249362351   344.2467   1   9   0.0006   0.0003   0.0019   0.0002   0.0004   0.0008   0.00  104.1
2018/03/11 10:27:11.000   78.254770028   16.249362353   344.2467   1   9   0.0006   0.0003   0.0019   0.0002   0.0004   0.0008   0.00  104.9
2018/03/11 10:27:12.000   78.254770027   16.249362356   344.2468   1   9   0.0006   0.0003   0.0019   0.0002   0.0003   0.0008   0.00  105.4
2018/03/11 10:27:13.000   78.254770026   16.249362357   344.2469   1   9   0.0006   0.0003   0.0019   0.0002   0.0003   0.0008   0.00  106.3
2018/03/11 10:27:14.000   78.254770025   16.249362359   344.2471   1   9   0.0006   0.0003   0.0019   0.0002   0.0003   0.0008   0.00  107.0
2018/03/11 10:27:15.000   78.254770025   16.249362362   344.2472   1   9   0.0006   0.0003   0.0019   0.0002   0.0003   0.0008   0.00  107.6
2018/03/11 10:27:16.000   78.254770024   16.249362364   344.2474   1   9   0.0006   0.0003   0.0018   0.0002   0.0003   0.0008   0.00  108.3
2018/03/11 10:27:17.000   78.254770023   16.249362367   344.2475   1   9   0.0005   0.0003   0.0018   0.0002   0.0003   0.0008   0.00  108.9
2018/03/11 10:27:18.000   78.254770022   16.249362369   344.2477   1   9   0.0005   0.0003   0.0018   0.0002   0.0003   0.0008   0.00  109.6
2018/03/11 10:27:19.000   78.254770021   16.249362372   344.2478   1   9   0.0005   0.0003   0.0018   0.0002   0.0003   0.0008   0.00  110.3
2018/03/11 10:27:20.000   78.254770019   16.249362374   344.2479   1   9   0.0005   0.0003   0.0018   0.0002   0.0003   0.0008   0.00  110.7
2018/03/11 10:27:21.000   78.254770018   16.249362377   344.2480   1   9   0.0005   0.0003   0.0018   0.0002   0.0003   0.0008   0.00  111.1
2018/03/11 10:27:22.000   78.254770017   16.249362379   344.2482   1   9   0.0005   0.0003   0.0018   0.0002   0.0003   0.0008   0.00  111.2
2018/03/11 10:27:23.000   78.254770016   16.249362381   344.2483   1   9   0.0005   0.0003   0.0018   0.0002   0.0003   0.0008   0.00  111.9
2018/03/11 10:27:24.000   78.254770015   16.249362384   344.2485   1   9   0.0005   0.0003   0.0018   0.0002   0.0003   0.0008   0.00  112.1
2018/03/11 10:27:25.000   78.254770015   16.249362387   344.2489   1   9   0.0005   0.0003   0.0018   0.0002   0.0003   0.0008   0.00  112.3
2018/03/11 10:27:26.000   78.254770014   16.249362389   344.2491   1   9   0.0005   0.0003   0.0018   0.0002   0.0003   0.0008   0.00  112.6
2018/03/11 10:27:27.000   78.254770014   16.249362393   344.2494   1   9   0.0005   0.0003   0.0018   0.0001   0.0003   0.0008   0.00  112.5
2018/03/11 10:27:28.000   78.254770013   16.249362395   344.2498   1   9   0.0005   0.0003   0.0018   0.0001   0.0003   0.0008   0.00  112.5
2018/03/11 10:27:29.000   78.254770012   16.249362397   344.2501   1   9   0.0005   0.0003   0.0018   0.0001   0.0003   0.0008   0.00  112.1
2018/03/11 10:27:30.000   78.254770012   16.249362400   344.2503   1   9   0.0005   0.0003   0.0018   0.0001   0.0003   0.0008   0.00  111.7
2018/03/11 10:27:31.000   78.254770011   16.249362403   344.2506   1   9   0.0005   0.0003   0.0017   0.0001   0.0003   0.0008   0.00  111.4
2018/03/11 10:27:32.000   78.254770011   16.249362405   344.2509   1   9   0.0005   0.0003   0.0017   0.0001   0.0003   0.0008   0.00  110.9
2018/03/11 10:27:33.000   78.254770011   16.249362406   344.2511   1   9   0.0005   0.0003   0.0017   0.0001   0.0003   0.0008   0.00  110.2
2018/03/11 10:27:34.000   78.254770012   16.249362408   344.2514   1   9   0.0005   0.0003   0.0017   0.0001   0.0003   0.0008   0.00  109.4
2018/03/11 10:27:35.000   78.254770012   16.249362410   344.2516   1   9   0.0005   0.0003   0.0017   0.0001   0.0003   0.0008   0.00  107.9
2018/03/11 10:27:36.000   78.254770013   16.249362412   344.2519   1   9   0.0005   0.0003   0.0017   0.0001   0.0003   0.0008   0.00  106.6
2018/03/11 10:27:37.000   78.254770014   16.249362414   344.2521   1   9   0.0005   0.0003   0.0017   0.0001   0.0003   0.0008   0.00  104.9
2018/03/11 10:27:38.000   78.254770015   16.249362416   344.2523   1   9   0.0005   0.0003   0.0017   0.0001   0.0003   0.0008   0.00  103.4
2018/03/11 10:27:39.000   78.254770015   16.249362417   344.2524   1   9   0.0005   0.0003   0.0017   0.0001   0.0003   0.0007   0.00  102.0
2018/03/11 10:27:40.000   78.254770016   16.249362418   344.2524   1   9   0.0005   0.0003   0.0017   0.0001   0.0003   0.0007   0.00  100.6
2018/03/11 10:27:41.000   78.254770017   16.249362419   344.2525   1   9   0.0005   0.0003   0.0017   0.0001   0.0003   0.0007   0.00   99.5
2018/03/11 10:27:42.000   78.254770017   16.249362419   344.2527   1   9   0.0005   0.0003   0.0017   0.0001   0.0003   0.0007   0.00   98.2
2018/03/11 10:27:43.000   78.254770018   16.249362419   344.2527   1   9   0.0005   0.0003   0.0017   0.0001   0.0003   0.0007   0.00   96.9
2018/03/11 10:27:44.000   78.254770018   16.249362419   344.2526   1   9   0.0005   0.0003   0.0017   0.0001   0.0003   0.0007   0.00   95.7
2018/03/11 10:27:45.000   78.254770019   16.249362419   344.2526   1   9   0.0005   0.0003   0.0017   0.0001   0.0003   0.0007   0.00   94.4
2018/03/11 10:27:46.000   78.254770020   16.249362420   344.2527   1   9   0.0005   0.0003   0.0017   0.0001   0.0003   0.0007   0.00   93.4
2018/03/11 10:27:47.000   78.254770020   16.249362420   344.2527   1   9   0.0005   0.0003   0.0017   0.0001   0.0003   0.0007   0.00   92.4
2018/03/11 10:27:48.000   78.254770021   16.249362421   344.2527   1   9   0.0005   0.0003   0.0017   0.0001   0.0003   0.0007   0.00   91.4
2018/03/11 10:27:49.000   78.254770021   16.249362421   344.2527   1   9   0.0005   0.0003   0.0017   0.0001   0.0003   0.0007   0.00   90.8
2018/03/11 10:27:50.000   78.254770022   16.249362422   344.2527   1   9   0.0005   0.0003   0.0016   0.0001   0.0003   0.0007   0.00   90.2
2018/03/11 10:27:51.000   78.254770022   16.249362422   344.2527   1   9   0.0005   0.0003   0.0016   0.0001   0.0003   0.0007   0.00   89.7
2018/03/11 10:27:52.000   78.254770022   16.249362421   344.2526   1   9   0.0005   0.0003   0.0016   0.0001   0.0003   0.0007   0.00   89.1
2018/03/11 10:27:53.000   78.254770023   16.249362421   344.2526   1   9   0.0005   0.0003   0.0016   0.0001   0.0003   0.0007   0.00   88.8
2018/03/11 10:27:54.000   78.254770023   16.249362420   344.2526   1   9   0.0005   0.0003   0.0016   0.0001   0.0003   0.0007   0.00   88.5
2018/03/11 10:27:55.000   78.254770023   16.249362420   344.2524   1   9   0.0005   0.0003   0.0016   0.0001   0.0003   0.0007   0.00   88.3
2018/03/11 10:27:56.000   78.254770024   16.249362419   344.2523   1   9   0.0005   0.0003   0.0016   0.0001   0.0003   0.0007   0.00   88.3
2018/03/11 10:27:57.000   78.254770024   16.249362418   344.2522   1   9   0.0005   0.0003   0.0016   0.0001   0.0003   0.0007   0.00   88.2
2018/03/11 10:27:58.000   78.254770025   16.249362417   344.2521   1   9   0.0005   0.0003   0.0016   0.0001   0.0003   0.0007   0.00   88.0
2018/03/11 10:27:59.000   78.254770025   16.249362415   344.2519   1   9   0.0005   0.0003   0.0016   0.0001   0.0003   0.0007   0.00   87.9
2018/03/11 10:28:00.000   78.254770026   16.249362414   344.2517   1   9   0.0005   0.0003   0.0016   0.0001   0.0003   0.0007   0.00   87.6
2018/03/11 10:28:01.000   78.254770026   16.249362413   344.2515   1   9   0.0005   0.0003   0.0016   0.0001   0.0003   0.0007   0.00   87.4
2018/03/11 10:28:02.000   78.254770026   16.249362411   344.2513   1   9   0.0005   0.0003   0.0016   0.0001   0.0003   0.0007   0.00   87.3
2018/03/11 10:28:03.000   78.254770026   16.249362410   344.2510   1   9   0.0005   0.0003   0.0016   0.0001   0.0003   0.0007   0.00   87.2
2018/03/11 10:28:04.000   78.254770026   16.249362408   344.2506   1   9   0.0005   0.0003   0.0016   0.0001   0.0003   0.0007   0.00   87.2
2018/03/11 10:28:05.000   78.254770026   16.249362406   344.2503   1   9   0.0005   0.0003   0.0016   0.0001   0.0003   0.0007   0.00   87.1
2018/03/11 10:28:06.000   78.254770026   16.249362405   344.2501   1   9   0.0005   0.0003   0.0016   0.0001   0.0003   0.0007   0.00   87.1
2018/03/11 10:28:07.000   78.254770026   16.249362404   344.2500   1   9   0.0005   0.0003   0.0016   0.0001   0.0003   0.0007   0.00   86.9
2018/03/11 10:28:08.000   78.254770026   16.249362402   344.2499   1   9   0.0005   0.0003   0.0016   0.0001   0.0003   0.0007   0.00   86.7
2018/03/11 10:28:09.000   78.254770026   16.249362402   344.2497   1   9   0.0005   0.0003   0.0016   0.0001   0.0003   0.0007   0.00   86.6
2018/03/11 10:28:10.000   78.254770026   16.249362401   344.2496   1   9   0.0005   0.0003   0.0016   0.0001   0.0003   0.0007   0.00   86.5
2018/03/11 10:28:11.000   78.254770026   16.249362401   344.2496   1   9   0.0005   0.0003   0.0016   0.0001   0.0003   0.0007   0.00   86.3
2018/03/11 10:28:12.000   78.254770026   16.249362400   344.2495   1   9   0.0005   0.0003   0.0015   0.0001   0.0003   0.0007   0.00   86.2
2018/03/11 10:28:13.000   78.254770025   16.249362400   344.2494   1   9   0.0005   0.0003   0.0015   0.0001   0.0003   0.0007   0.00   86.0
2018/03/11 10:28:14.000   78.254770025   16.249362400   344.2494   1   9   0.0005   0.0003   0.0015   0.0001   0.0003   0.0007   0.00   86.0
2018/03/11 10:28:15.000   78.254770025   16.249362399   344.2493   1   9   0.0005   0.0003   0.0015   0.0001   0.0003   0.0007   0.00   86.0
2018/03/11 10:28:16.000   78.254770024   16.249362400   344.2493   1   9   0.0005   0.0002   0.0015   0.0001   0.0003   0.0007   0.00   86.0
2018/03/11 10:28:17.000   78.254770024   16.249362400   344.2492   1   9   0.0005   0.0002   0.0015   0.0001   0.0003   0.0007   0.00   86.2
2018/03/11 10:28:18.000   78.254770024   16.249362399   344.2491   1   9   0.0005   0.0002   0.0015   0.0001   0.0003   0.0007   0.00   86.3
2018/03/11 10:28:19.000   78.254770023   16.249362399   344.2491   1   9   0.0005   0.0002   0.0015   0.0001   0.0003   0.0007   0.00   86.4
2018/03/11 10:28:20.000   78.254770023   16.249362398   344.2491   1   9   0.0005   0.0002   0.0015   0.0001   0.0003   0.0007   0.00   86.7
2018/03/11 10:28:21.000   78.254770022   16.249362398   344.2490   1   9   0.0005   0.0002   0.0015   0.0001   0.0003   0.0007   0.00   86.8
2018/03/11 10:28:22.000   78.254770022   16.249362398   344.2489   1   9   0.0005   0.0002   0.0015   0.0001   0.0003   0.0007   0.00   86.8
2018/03/11 10:28:23.000   78.254770021   16.249362399   344.2489   1   9   0.0004   0.0002   0.0015   0.0001   0.0003   0.0007   0.00   87.1
2018/03/11 10:28:24.000   78.254770021   16.249362399   344.2488   1   9   0.0004   0.0002   0.0015   0.0001   0.0003   0.0007   0.00   87.0
2018/03/11 10:28:25.000   78.254770020   16.249362401   344.2488   1   9   0.0004   0.0002   0.0015   0.0001   0.0003   0.0007   0.00   87.0
2018/03/11 10:28:26.000   78.254770020   16.249362402   344.2489   1   9   0.0004   0.0002   0.0015   0.0001   0.0003   0.0007   0.00   86.9
2018/03/11 10:28:27.000   78.254770020   16.249362404   344.2490   1   9   0.0004   0.0002   0.0015   0.0001   0.0003   0.0007   0.00   86.7
2018/03/11 10:28:28.000   78.254770020   16.249362405   344.2491   1   9   0.0004   0.0002   0.0015   0.0001   0.0003   0.0007   0.00   86.5
2018/03/11 10:28:29.000   78.254770020   16.249362406   344.2491   1   9   0.0004   0.0002   0.0015   0.0001   0.0003   0.0007   0.00   86.3
2018/03/11 10:28:30.000   78.254770019   16.249362407   344.2492   1   9   0.0004   0.0002   0.0015   0.0001   0.0003   0.0007   0.00   86.2
2018/03/11 10:28:31.000   78.254770019   16.249362408   344.2492   1   9   0.0004   0.0002   0.0015   0.0001   0.0003   0.0007   0.00   85.9
2018/03/11 10:28:32.000   78.254770018   16.249362408   344.2491   1   9   0.0004   0.0002   0.0015   0.0001   0.0003   0.0006   0.00   85.7
2018/03/11 10:28:33.000   78.254770018   16.249362409   344.2491   1   9   0.0004   0.0002   0.0015   0.0001   0.0003   0.0006   0.00   85.6
2018/03/11 10:28:34.000   78.254770017   16.249362409   344.2491   1   9   0.0004   0.0002   0.0015   0.0001   0.0003   0.0006   0.00   85.7
2018/03/11 10:28:35.000   78.254770017   16.249362410   344.2492   1   9   0.0004   0.0002   0.0015   0.0001   0.0003   0.0006   0.00   85.8
2018/03/11 10:28:36.000   78.254770016   16.249362411   344.2492   1   9   0.0004   0.0002   0.0015   0.0001   0.0003   0.0006   0.00   85.7
2018/03/11 10:28:37.000   78.254770015   16.249362413   344.2491   1   9   0.0004   0.0002   0.0015   0.0001   0.0003   0.0006   0.00   85.6
2018/03/11 10:28:38.000   78.254770015   16.249362414   344.2491   1   9   0.0004   0.0002   0.0015   0.0001   0.0003   0.0006   0.00   85.5
2018/03/11 10:28:39.000   78.254770014   16.249362415   344.2491   1   9   0.0004   0.0002   0.0015   0.0001   0.0003   0.0006   0.00   85.3
2018/03/11 10:28:40.000   78.254770014   16.249362415   344.2490   1   9   0.0004   0.0002   0.0015   0.0001   0.0003   0.0006   0.00   85.0
2018/03/11 10:28:41.000   78.254770014   16.249362416   344.2490   1   9   0.0004   0.0002   0.0014   0.0001   0.0003   0.0006   0.00   84.6
2018/03/11 10:28:42.000   78.254770014   16.249362417   344.2490   1   9   0.0004   0.0002   0.0014   0.0001   0.0003   0.0006   0.00   84.2
2018/03/11 10:28:43.000   78.254770013   16.249362418   344.2490   1   9   0.0004   0.0002   0.0014   0.0001   0.0003   0.0006   0.00   83.9
2018/03/11 10:28:44.000   78.254770013   16.249362419   344.2490   1   9   0.0004   0.0002   0.0014   0.0001   0.0003   0.0006   0.00   83.5
2018/03/11 10:28:45.000   78.254770013   16.249362420   344.2490   1   9   0.0004   0.0002   0.0014   0.0001   0.0003   0.0006   0.00   82.9
2018/03/11 10:28:46.000   78.254770013   16.249362420   344.2490   1   9   0.0004   0.0002   0.0014   0.0001   0.0003   0.0006   0.00   82.5
2018/03/11 10:28:47.000   78.254770012   16.249362421   344.2490   1   9   0.0004   0.0002   0.0014   0.0001   0.0003   0.0006   0.00   82.1
2018/03/11 10:28:48.000   78.254770012   16.249362422   344.2489   1   9   0.0004   0.0002   0.0014   0.0001   0.0003   0.0006   0.00   81.8
2018/03/11 10:28:49.000   78.254770012   16.249362422   344.2489   1   9   0.0004   0.0002   0.0014   0.0001   0.0003   0.0006   0.00   81.6
2018/03/11 10:28:50.000   78.254770011   16.249362423   344.2489   1   9   0.0004   0.0002   0.0014   0.0001   0.0003   0.0006   0.00   81.4
2018/03/11 10:28:51.000   78.254770011   16.249362423   344.2489   1   9   0.0004   0.0002   0.0014   0.0001   0.0003   0.0006   0.00   81.3
2018/03/11 10:28:52.000   78.254770011   16.249362424   344.2489   1   9   0.0004   0.0002   0.0014   0.0001   0.0003   0.0006   0.00   81.2
2018/03/11 10:28:53.000   78.254770011   16.249362425   344.2489   1   9   0.0004   0.0002   0.0014   0.0001   0.0003   0.0006   0.00   80.9
2018/03/11 10:28:54.000   78.254770010   16.249362426   344.2489   1   9   0.0004   0.0002   0.0014   0.0001   0.0003   0.0006   0.00   80.6
2018/03/11 10:28:55.000   78.254770010   16.249362427   344.2489   1   9   0.0004   0.0002   0.0014   0.0001   0.0003   0.0006   0.00   80.4
2018/03/11 10:28:56.000   78.254770010   16.249362428   344.2489   1   9   0.0004   0.0002   0.0014   0.0001   0.0003   0.0006   0.00   80.1
2018/03/11 10:28:57.000   78.254770010   16.249362429   344.2489   1   9   0.0004   0.0002   0.0014   0.0001   0.0003   0.0006   0.00   79.8
2018/03/11 10:28:58.000   78.254770009   16.249362430   344.2489   1   9   0.0004   0.0002   0.0014   0.0001   0.0003   0.0006   0.00   79.5
2018/03/11 10:28:59.000   78.254770009   16.249362431   344.2489   1   9   0.0004   0.0002   0.0014   0.0001   0.0003   0.0006   0.00   79.2
2018/03/11 10:29:00.000   78.254770009   16.249362432   344.2490   1   9   0.0004   0.0002   0.0014   0.0001   0.0003   0.0006   0.00   78.9
2018/03/11 10:29:01.000   78.254770009   16.249362433   344.2490   1   9   0.0004   0.0002   0.0014   0.0001   0.0003   0.0006   0.00   78.6
2018/03/11 10:29:02.000   78.254770009   16.249362434   344.2490   1   9   0.0004   0.0002   0.0014   0.0001   0.0003   0.0006   0.00   78.3
2018/03/11 10:29:03.000   78.254770009   16.249362435   344.2490   1   9   0.0004   0.0002   0.0014   0.0001   0.0003   0.0006   0.00   78.0
2018/03/11 10:29:04.000   78.254770009   16.249362436   344.2491   1   9   0.0004   0.0002   0.0014   0.0001   0.0003   0.0006   0.00   77.8
2018/03/11 10:29:05.000   78.254770009   16.249362437   344.2492   1   9   0.0004   0.0002   0.0014   0.0001   0.0003   0.0006   0.00   77.5
2018/03/11 10:29:06.000   78.254770009   16.249362439   344.2493   1   9   0.0004   0.0002   0.0014   0.0001   0.0003   0.0006   0.00   77.3
2018/03/11 10:29:07.000   78.254770008   16.249362441   344.2494   1   9   0.0004   0.0002   0.0014   0.0001   0.0003   0.0006   0.00   76.9
2018/03/11 10:29:08.000   78.254770008   16.249362442   344.2494   1   9   0.0004   0.0002   0.0014   0.0001   0.0003   0.0006   0.00   76.6
2018/03/11 10:29:09.000   78.254770008   16.249362444   344.2495   1   9   0.0004   0.0002   0.0014   0.0001   0.0003   0.0006   0.00   76.3
2018/03/11 10:29:10.000   78.254770007   16.249362445   344.2496   1   9   0.0004   0.0002   0.0014   0.0001   0.0003   0.0006   0.00   76.0
2018/03/11 10:29:11.000   78.254770007   16.249362446   344.2496   1   9   0.0004   0.0002   0.0014   0.0001   0.0003   0.0006   0.00   75.8
2018/03/11 10:29:12.000   78.254770006   16.249362448   344.2497   1   9   0.0004   0.0002   0.0014   0.0001   0.0003   0.0006   0.00   75.5
2018/03/11 10:29:13.000   78.254770006   16.249362449   344.2498   1   9   0.0004   0.0002   0.0014   0.0001   0.0003   0.0006   0.00   75.1
2018/03/11 10:29:14.000   78.254770006   16.249362451   344.2499   1   9   0.0004   0.0002   0.0014   0.0001   0.0003   0.0006   0.00   74.7
2018/03/11 10:29:15.000   78.254770005   16.249362452   344.2501   1   9   0.0004   0.0002   0.0014   0.0001   0.0003   0.0006   0.00   74.4
2018/03/11 10:29:16.000   78.254770005   16.249362454   344.2502   1   9   0.0004   0.0002   0.0014   0.0001   0.0003   0.0006   0.00   74.1
2018/03/11 10:29:17.000   78.254770005   16.249362456   344.2503   1   9   0.0004   0.0002   0.0013   0.0001   0.0003   0.0006   0.00   73.8
2018/03/11 10:29:18.000   78.254770004   16.249362458   344.2504   1   9   0.0004   0.0002   0.0013   0.0001   0.0003   0.0006   0.00   73.5
2018/03/11 10:29:19.000   78.254770004   16.249362459   344.2506   1   9   0.0004   0.0002   0.0013   0.0001   0.0003   0.0006   0.00   73.2
2018/03/11 10:29:20.000   78.254770004   16.249362461   344.2508   1   9   0.0004   0.0002   0.0013   0.0001   0.0002   0.0006   0.00   72.9
2018/03/11 10:29:21.000   78.254770003   16.249362463   344.2509   1   9   0.0004   0.0002   0.0013   0.0001   0.0002   0.0006   0.00   72.5
2018/03/11 10:29:22.000   78.254770003   16.249362465   344.2510   1   9   0.0004   0.0002   0.0013   0.0001   0.0002   0.0006   0.00   72.1
2018/03/11 10:29:23.000   78.254770003   16.249362467   344.2512   1   9   0.0004   0.0002   0.0013   0.0001   0.0002   0.0006   0.00   71.7
2018/03/11 10:29:24.000   78.254770003   16.249362469   344.2514   1   9   0.0004   0.0002   0.0013   0.0001   0.0002   0.0006   0.00   71.4
2018/03/11 10:29:25.000   78.254770002   16.249362471   344.2516   1   9   0.0004   0.0002   0.0013   0.0001   0.0002   0.0006   0.00   71.0
2018/03/11 10:29:26.000   78.254770002   16.249362473   344.2518   1   9   0.0004   0.0002   0.0013   0.0001   0.0002   0.0006   0.00   70.5
2018/03/11 10:29:27.000   78.254770002   16.249362475   344.2521   1   9   0.0004   0.0002   0.0013   0.0001   0.0002   0.0006   0.00   70.1
2018/03/11 10:29:28.000   78.254770002   16.249362477   344.2523   1   9   0.0004   0.0002   0.0013   0.0001   0.0002   0.0006   0.00   69.6
2018/03/11 10:29:29.000   78.254770002   16.249362479   344.2524   1   9   0.0004   0.0002   0.0013   0.0001   0.0002   0.0006   0.00   69.1
2018/03/11 10:29:30.000   78.254770002   16.249362482   344.2527   1   9   0.0004   0.0002   0.0013   0.0001   0.0002   0.0006   0.00   68.5
2018/03/11 10:29:31.000   78.254770002   16.249362484   344.2529   1   9   0.0004   0.0002   0.0013   0.0001   0.0002   0.0006   0.00   67.9
2018/03/11 10:29:32.000   78.254770003   16.249362486   344.2532   1   9   0.0004   0.0002   0.0013   0.0001   0.0002   0.0006   0.00   67.3
2018/03/11 10:29:33.000   78.254770003   16.249362489   344.2534   1   9   0.0004   0.0002   0.0013   0.0001   0.0002   0.0006   0.00   66.7
2018/03/11 10:29:34.000   78.254770003   16.249362491   344.2536   1   9   0.0004   0.0002   0.0013   0.0001   0.0002   0.0006   0.00   66.3
2018/03/11 10:29:35.000   78.254770003   16.249362492   344.2538   1   9   0.0004   0.0002   0.0013   0.0001   0.0002   0.0006   0.00   65.8
2018/03/11 10:29:36.000   78.254770004   16.249362494   344.2540   1   9   0.0004   0.0002   0.0013   0.0001   0.0002   0.0006   0.00   65.3
2018/03/11 10:29:37.000   78.254770004   16.249362496   344.2542   1   9   0.0004   0.0002   0.0013   0.0001   0.0002   0.0006   0.00   64.8
2018/03/11 10:29:38.000   78.254770005   16.249362499   344.2545   1   9   0.0004   0.0002   0.0013   0.0001   0.0002   0.0006   0.00   64.3
2018/03/11 10:29:39.000   78.254770005   16.249362501   344.2548   1   9   0.0004   0.0002   0.0013   0.0001   0.0002   0.0006   0.00   63.8
2018/03/11 10:29:40.000   78.254770006   16.249362503   344.2550   1   9   0.0004   0.0002   0.0013   0.0001   0.0002   0.0006   0.00   63.3
2018/03/11 10:29:41.000   78.254770006   16.249362505   344.2553   1   9   0.0004   0.0002   0.0013   0.0001   0.0002   0.0006   0.00   62.8
2018/03/11 10:29:42.000   78.254770006   16.249362507   344.2555   1   9   0.0004   0.0002   0.0013   0.0001   0.0002   0.0006   0.00   62.4
2018/03/11 10:29:43.000   78.254770007   16.249362510   344.2558   1   9   0.0004   0.0002   0.0013   0.0001   0.0002   0.0006   0.00   62.0
2018/03/11 10:29:44.000   78.254770008   16.249362512   344.2560   1   9   0.0004   0.0002   0.0013   0.0001   0.0002   0.0006   0.00   61.5
2018/03/11 10:29:45.000   78.254770008   16.249362514   344.2563   1   9   0.0004   0.0002   0.0013   0.0001   0.0002   0.0006   0.00   61.1
2018/03/11 10:29:46.000   78.254770009   16.249362517   344.2566   1   9   0.0004   0.0002   0.0013   0.0001   0.0002   0.0006   0.00   60.7
2018/03/11 10:29:47.000   78.254770009   16.249362519   344.2568   1   9   0.0004   0.0002   0.0013   0.0001   0.0002   0.0006   0.00   60.3
2018/03/11 10:29:48.000   78.254770010   16.249362521   344.2570   1   9   0.0004   0.0002   0.0013   0.0001   0.0002   0.0006   0.00   59.9
2018/03/11 10:29:49.000   78.254770011   16.249362522   344.2573   1   9   0.0004   0.0002   0.0013   0.0001   0.0002   0.0006   0.00   59.5
2018/03/11 10:29:50.000   78.254770011   16.249362524   344.2575   1   9   0.0004   0.0002   0.0013   0.0001   0.0002   0.0006   0.00   59.2
2018/03/11 10:29:51.000   78.254770011   16.249362526   344.2577   1   9   0.0004   0.0002   0.0013   0.0001   0.0002   0.0006   0.00   58.9
2018/03/11 10:29:52.000   78.254770012   16.249362528   344.2580   1   9   0.0004   0.0002   0.0013   0.0001   0.0002   0.0006   0.00   58.5
2018/03/11 10:29:53.000   78.254770012   16.249362530   344.2582   1   9   0.0004   0.0002   0.0013   0.0001   0.0002   0.0006   0.00   58.3
2018/03/11 10:29:54.000   78.254770013   16.249362532   344.2585   1   9   0.0004   0.0002   0.0013   0.0001   0.0002   0.0006   0.00   58.1
2018/03/11 10:29:55.000   78.254770013   16.249362535   344.2587   1   9   0.0004   0.0002   0.0013   0.0001   0.0002   0.0006   0.00   57.9
2018/03/11 10:29:56.000   78.254770013   16.249362537   344.2589   1   9   0.0004   0.0002   0.0013   0.0001   0.0002   0.0006   0.00   57.8
2018/03/11 10:29:57.000   78.254770013   16.249362539   344.2591   1   9   0.0004   0.0002   0.0013   0.0001   0.0002   0.0006   0.00   57.7
2018/03/11 10:29:58.000   78.254770013   16.249362541   344.2592   1   9   0.0004   0.0002   0.0013   0.0001   0.0002   0.0006   0.00   57.7
2018/03/11 10:29:59.000   78.254770013   16.249362543   344.2594   1   9   0.0004   0.0002   0.0013   0.0001   0.0002   0.0006   0.00   57.6
2018/03/11 10:30:00.000   78.254770013   16.249362545   344.2595   1   9   0.0004   0.0002   0.0013   0.0001   0.0002   0.0006   0.00   57.6
2018/03/11 10:30:01.000   78.254770013   16.249362547   344.2597   1   9   0.0004   0.0002   0.0013   0.0001   0.0002   0.0006   0.00   57.6
2018/03/11 10:30:02.000   78.254770013   16.249362548   344.2598   1   9   0.0004   0.0002   0.0013   0.0001   0.0002   0.0006   0.00   57.6
2018/03/11 10:30:03.000   78.254770013   16.249362550   344.2598   1   9   0.0004   0.0002   0.0013   0.0001   0.0002   0.0006   0.00   57.7
2018/03/11 10:30:04.000   78.254770013   16.249362551   344.2599   1   9   0.0004   0.0002   0.0013   0.0001   0.0002   0.0006   0.00   57.9
2018/03/11 10:30:05.000   78.254770014   16.249362553   344.2600   1   9   0.0004   0.0002   0.0012   0.0001   0.0002   0.0006   0.00   58.0
2018/03/11 10:30:06.000   78.254770014   16.249362554   344.2601   1   9   0.0004   0.0002   0.0012   0.0001   0.0002   0.0006   0.00   58.2
2018/03/11 10:30:07.000   78.254770014   16.249362556   344.2602   1   9   0.0004   0.0002   0.0012   0.0001   0.0002   0.0005   0.00   58.4
2018/03/11 10:30:08.000   78.254770014   16.249362558   344.2603   1   9   0.0004   0.0002   0.0012   0.0001   0.0002   0.0005   0.00   58.6
2018/03/11 10:30:09.000   78.254770014   16.249362560   344.2604   1   9   0.0004   0.0002   0.0012   0.0001   0.0002   0.0005   0.00   58.7
2018/03/11 10:30:10.000   78.254770014   16.249362561   344.2605   1   9   0.0004   0.0002   0.0012   0.0001   0.0002   0.0005   0.00   58.9
2018/03/11 10:30:11.000   78.254770014   16.249362563   344.2607   1   9   0.0004   0.0002   0.0012   0.0001   0.0002   0.0005   0.00   59.1
2018/03/11 10:30:12.000   78.254770014   16.249362565   344.2608   1   9   0.0004   0.0002   0.0012   0.0001   0.0002   0.0005   0.00   59.3
2018/03/11 10:30:13.000   78.254770014   16.249362566   344.2609   1   9   0.0004   0.0002   0.0012   0.0001   0.0002   0.0005   0.00   59.5
2018/03/11 10:30:14.000   78.254770014   16.249362568   344.2610   1   9   0.0004   0.0002   0.0012   0.0001   0.0002   0.0005   0.00   59.8
2018/03/11 10:30:15.000   78.254770014   16.249362569   344.2611   1   9   0.0004   0.0002   0.0012   0.0001   0.0002   0.0005   0.00   60.0
2018/03/11 10:30:16.000   78.254770014   16.249362571   344.2613   1   9   0.0004   0.0002   0.0012   0.0001   0.0002   0.0005   0.00   60.2
2018/03/11 10:30:17.000   78.254770014   16.249362572   344.2613   1   9   0.0004   0.0002   0.0012   0.0001   0.0002   0.0005   0.00   60.4
2018/03/11 10:30:18.000   78.254770014   16.249362573   344.2614   1   9   0.0004   0.0002   0.0012   0.0001   0.0002   0.0005   0.00   60.6
2018/03/11 10:30:19.000   78.254770015   16.249362574   344.2615   1   9   0.0004   0.0002   0.0012   0.0001   0.0002   0.0005   0.00   60.7
2018/03/11 10:30:20.000   78.254770015   16.249362576   344.2616   1   9   0.0004   0.0002   0.0012   0.0001   0.0002   0.0005   0.00   61.0
2018/03/11 10:30:21.000   78.254770015   16.249362577   344.2617   1   9   0.0004   0.0002   0.0012   0.0001   0.0002   0.0005   0.00   61.2
2018/03/11 10:30:22.000   78.254770015   16.249362578   344.2618   1   9   0.0004   0.0002   0.0012   0.0001   0.0002   0.0005   0.00   61.4
2018/03/11 10:30:23.000   78.254770016   16.249362580   344.2618   1   9   0.0004   0.0002   0.0012   0.0001   0.0002   0.0005   0.00   61.6
2018/03/11 10:30:24.000   78.254770016   16.249362581   344.2619   1   9   0.0004   0.0002   0.0012   0.0001   0.0002   0.0005   0.00   61.7
2018/03/11 10:30:25.000   78.254770016   16.249362582   344.2619   1   9   0.0004   0.0002   0.0012   0.0001   0.0002   0.0005   0.00   62.0
2018/03/11 10:30:26.000   78.254770016   16.249362583   344.2620   1   9   0.0004   0.0002   0.0012   0.0001   0.0002   0.0005   0.00   62.1
2018/03/11 10:30:27.000   78.254770016   16.249362584   344.2621   1   9   0.0004   0.0002   0.0012   0.0001   0.0002   0.0005   0.00   62.3
2018/03/11 10:30:28.000   78.254770016   16.249362585   344.2622   1   9   0.0004   0.0002   0.0012   0.0001   0.0002   0.0005   0.00   62.4
2018/03/11 10:30:29.000   78.254770016   16.249362587   344.2622   1   9   0.0004   0.0002   0.0012   0.0001   0.0002   0.0005   0.00   62.6
2018/03/11 10:30:30.000   78.254770016   16.249362588   344.2623   1   9   0.0004   0.0002   0.0012   0.0001   0.0002   0.0005   0.00   62.7
2018/03/11 10:30:31.000   78.254770016   16.249362589   344.2623   1   9   0.0004   0.0002   0.0012   0.0001   0.0002   0.0005   0.00   62.9
2018/03/11 10:30:32.000   78.254770016   16.249362590   344.2624   1   9   0.0004   0.0002   0.0012   0.0001   0.0002   0.0005   0.00   63.1
2018/03/11 10:30:33.000   78.254770016   16.249362592   344.2625   1   9   0.0004   0.0002   0.0012   0.0001   0.0002   0.0005   0.00   63.3
2018/03/11 10:30:34.000   78.254770016   16.249362593   344.2627   1   9   0.0004   0.0002   0.0012   0.0001   0.0002   0.0005   0.00   63.5
2018/03/11 10:30:35.000   78.254770016   16.249362595   344.2628   1   9   0.0004   0.0002   0.0012   0.0001   0.0002   0.0005   0.00   63.6
2018/03/11 10:30:36.000   78.254770016   16.249362596   344.2629   1   9   0.0004   0.0002   0.0012   0.0001   0.0002   0.0005   0.00   63.9
2018/03/11 10:30:37.000   78.254770016   16.249362597   344.2629   1   9   0.0004   0.0002   0.0012   0.0001   0.0002   0.0005   0.00   64.1
2018/03/11 10:30:38.000   78.254770016   16.249362598   344.2630   1   9   0.0004   0.0002   0.0012   0.0001   0.0002   0.0005   0.00   64.4
2018/03/11 10:30:39.000   78.254770016   16.249362598   344.2631   1   9   0.0004   0.0002   0.0012   0.0001   0.0002   0.0005   0.00   64.7
2018/03/11 10:30:40.000   78.254770016   16.249362599   344.2632   1   9   0.0004   0.0002   0.0012   0.0001   0.0002   0.0005   0.00   64.8
2018/03/11 10:30:41.000   78.254770016   16.249362600   344.2633   1   9   0.0004   0.0002   0.0012   0.0001   0.0002   0.0005   0.00   64.9
2018/03/11 10:30:42.000   78.254770016   16.249362601   344.2633   1   9   0.0004   0.0002   0.0012   0.0001   0.0002   0.0005   0.00   65.0
2018/03/11 10:30:43.000   78.254770016   16.249362602   344.2634   1   9   0.0004   0.0002   0.0012   0.0001   0.0002   0.0005   0.00   65.1
2018/03/11 10:30:44.000   78.254770016   16.249362602   344.2634   1   9   0.0004   0.0002   0.0012   0.0001   0.0002   0.0005   0.00   65.1
2018/03/11 10:30:45.000   78.254770016   16.249362603   344.2634   1   9   0.0004   0.0002   0.0012   0.0001   0.0002   0.0005   0.00   65.2
2018/03/11 10:30:46.000   78.254770016   16.249362603   344.2634   1   9   0.0004   0.0002   0.0012   0.0001   0.0002   0.0005   0.00   65.3
2018/03/11 10:30:47.000   78.254770016   16.249362604   344.2634   1   9   0.0004   0.0002   0.0012   0.0001   0.0002   0.0005   0.00   65.4
2018/03/11 10:30:48.000   78.254770017   16.249362604   344.2634   1   9   0.0004   0.0002   0.0012   0.0001   0.0002   0.0005   0.00   65.5
2018/03/11 10:30:49.000   78.254770017   16.249362604   344.2634   1   9   0.0004   0.0002   0.0012   0.0001   0.0002   0.0005   0.00   65.6
2018/03/11 10:30:50.000   78.254770017   16.249362605   344.2634   1   9   0.0004   0.0002   0.0012   0.0001   0.0002   0.0005   0.00   65.7
2018/03/11 10:30:51.000   78.254770017   16.249362605   344.2633   1   9   0.0004   0.0002   0.0012   0.0001   0.0002   0.0005   0.00   65.8
2018/03/11 10:30:52.000   78.254770017   16.249362605   344.2633   1   9   0.0004   0.0002   0.0012   0.0001   0.0002   0.0005   0.00   65.9
2018/03/11 10:30:53.000   78.254770017   16.249362605   344.2632   1   9   0.0004   0.0002   0.0012   0.0001   0.0002   0.0005   0.00   65.9
2018/03/11 10:30:54.000   78.254770017   16.249362606   344.2632   1   9   0.0004   0.0002   0.0012   0.0001   0.0002   0.0005   0.00   66.0
2018/03/11 10:30:55.000   78.254770017   16.249362606   344.2632   1   9   0.0004   0.0002   0.0012   0.0001   0.0002   0.0005   0.00   66.0
2018/03/11 10:30:56.000   78.254770017   16.249362607   344.2632   1   9   0.0004   0.0002   0.0012   0.0001   0.0002   0.0005   0.00   66.1
2018/03/11 10:30:57.000   78.254770017   16.249362607   344.2631   1   9   0.0004   0.0002   0.0012   0.0001   0.0002   0.0005   0.00   66.2
2018/03/11 10:30:58.000   78.254770017   16.249362607   344.2630   1   9   0.0003   0.0002   0.0012   0.0001   0.0002   0.0005   0.00   66.5
2018/03/11 10:30:59.000   78.254770017   16.249362608   344.2630   1   9   0.0003   0.0002   0.0012   0.0001   0.0002   0.0005   0.00   66.7
2018/03/11 10:31:00.000   78.254770017   16.249362609   344.2629   1   9   0.0003   0.0002   0.0012   0.0001   0.0002   0.0005   0.00   67.1
2018/03/11 10:31:01.000   78.254770017   16.249362609   344.2629   1   9   0.0003   0.0002   0.0012   0.0001   0.0002   0.0005   0.00   67.4
2018/03/11 10:31:02.000   78.254770017   16.249362609   344.2628   1   9   0.0003   0.0002   0.0012   0.0001   0.0002   0.0005   0.00   67.6
2018/03/11 10:31:03.000   78.254770017   16.249362609   344.2627   1   9   0.0003   0.0002   0.0012   0.0001   0.0002   0.0005   0.00   67.8
2018/03/11 10:31:04.000   78.254770017   16.249362609   344.2626   1   9   0.0003   0.0002   0.0012   0.0001   0.0002   0.0005   0.00   68.0
2018/03/11 10:31:05.000   78.254770017   16.249362608   344.2625   1   9   0.0003   0.0002   0.0012   0.0001   0.0002   0.0005   0.00   68.4
2018/03/11 10:31:06.000   78.254770017   16.249362608   344.2624   1   9   0.0003   0.0002   0.0012   0.0001   0.0002   0.0005   0.00   68.7
2018/03/11 10:31:07.000   78.254770016   16.249362608   344.2623   1   9   0.0003   0.0002   0.0012   0.0001   0.0002   0.0005   0.00   69.1
2018/03/11 10:31:08.000   78.254770016   16.249362607   344.2622   1   9   0.0003   0.0002   0.0012   0.0001   0.0002   0.0005   0.00   69.4
2018/03/11 10:31:09.000   78.254770015   16.249362607   344.2621   1   9   0.0003   0.0002   0.0011   0.0001   0.0002   0.0005   0.00   69.9
2018/03/11 10:31:10.000   78.254770014   16.249362607   344.2620   1   9   0.0003   0.0002   0.0011   0.0001   0.0002   0.0005   0.00   70.4
2018/03/11 10:31:11.000   78.254770014   16.249362607   344.2619   1   9   0.0003   0.0002   0.0011   0.0001   0.0002   0.0005   0.00   70.8
2018/03/11 10:31:12.000   78.254770013   16.249362608   344.2618   1   9   0.0003   0.0002   0.0011   0.0001   0.0002   0.0005   0.00   71.4
2018/03/11 10:31:13.000   78.254770012   16.249362608   344.2617   1   9   0.0003   0.0002   0.0011   0.0001   0.0002   0.0005   0.00   71.9
2018/03/11 10:31:14.000   78.254770012   16.249362608   344.2616   1   9   0.0003   0.0002   0.0011   0.0001   0.0002   0.0005   0.00   72.4
2018/03/11 10:31:15.000   78.254770011   16.249362608   344.2616   1   9   0.0003   0.0002   0.0011   0.0001   0.0002   0.0005   0.00   72.9
2018/03/11 10:31:16.000   78.254770010   16.249362608   344.2615   1   9   0.0003   0.0002   0.0011   0.0001   0.0002   0.0005   0.00   73.3
2018/03/11 10:31:17.000   78.254770010   16.249362608   344.2615   1   9   0.0003   0.0002   0.0011   0.0001   0.0002   0.0005   0.00   73.7
2018/03/11 10:31:18.000   78.254770009   16.249362608   344.2614   1   9   0.0003   0.0002   0.0011   0.0001   0.0002   0.0005   0.00   74.1
2018/03/11 10:31:19.000   78.254770009   16.249362608   344.2614   1   9   0.0003   0.0002   0.0011   0.0001   0.0002   0.0005   0.00   74.4
2018/03/11 10:31:20.000   78.254770008   16.249362608   344.2613   1   9   0.0003   0.0002   0.0011   0.0001   0.0002   0.0005   0.00   74.7
2018/03/11 10:31:21.000   78.254770008   16.249362608   344.2612   1   9   0.0003   0.0002   0.0011   0.0001   0.0002   0.0005   0.00   75.1
2018/03/11 10:31:22.000   78.254770007   16.249362608   344.2612   1   9   0.0003   0.0002   0.0011   0.0001   0.0002   0.0005   0.00   75.5
2018/03/11 10:31:23.000   78.254770007   16.249362608   344.2611   1   9   0.0003   0.0002   0.0011   0.0001   0.0002   0.0005   0.00   75.9
2018/03/11 10:31:24.000   78.254770006   16.249362608   344.2610   1   9   0.0003   0.0002   0.0011   0.0001   0.0002   0.0005   0.00   76.4
2018/03/11 10:31:25.000   78.254770006   16.249362608   344.2609   1   9   0.0003   0.0002   0.0011   0.0001   0.0002   0.0005   0.00   76.9
2018/03/11 10:31:26.000   78.254770005   16.249362609   344.2609   1   9   0.0003   0.0002   0.0011   0.0001   0.0002   0.0005   0.00   77.4
2018/03/11 10:31:27.000   78.254770005   16.249362609   344.2608   1   9   0.0003   0.0002   0.0011   0.0001   0.0002   0.0005   0.00   77.8
2018/03/11 10:31:28.000   78.254770005   16.249362608   344.2607   1   9   0.0003   0.0002   0.0011   0.0001   0.0002   0.0005   0.00   78.1
2018/03/11 10:31:29.000   78.254770005   16.249362608   344.2606   1   9   0.0003   0.0002   0.0011   0.0001   0.0002   0.0005   0.00   78.5
2018/03/11 10:31:30.000   78.254770004   16.249362608   344.2606   1   9   0.0003   0.0002   0.0011   0.0001   0.0002   0.0005   0.00   78.8
2018/03/11 10:31:31.000   78.254770004   16.249362607   344.2605   1   9   0.0003   0.0002   0.0011   0.0001   0.0002   0.0005   0.00   79.0
2018/03/11 10:31:32.000   78.254770004   16.249362607   344.2604   1   9   0.0003   0.0002   0.0011   0.0001   0.0002   0.0005   0.00   79.2
2018/03/11 10:31:33.000   78.254770004   16.249362607   344.2604   1   9   0.0003   0.0002   0.0011   0.0001   0.0002   0.0005   0.00   79.4
2018/03/11 10:31:34.000   78.254770004   16.249362607   344.2603   1   9   0.0003   0.0002   0.0011   0.0001   0.0002   0.0005   0.00   79.5
2018/03/11 10:31:35.000   78.254770004   16.249362607   344.2601   1   9   0.0003   0.0002   0.0011   0.0001   0.0002   0.0005   0.00   79.6
2018/03/11 10:31:36.000   78.254770004   16.249362607   344.2601   1   9   0.0003   0.0002   0.0011   0.0001   0.0002   0.0005   0.00   79.7
2018/03/11 10:31:37.000   78.254770004   16.249362607   344.2600   1   9   0.0003   0.0002   0.0011   0.0001   0.0002   0.0005   0.00   79.7
2018/03/11 10:31:38.000   78.254770004   16.249362607   344.2600   1   9   0.0003   0.0002   0.0011   0.0001   0.0002   0.0005   0.00   79.6
2018/03/11 10:31:39.000   78.254770004   16.249362608   344.2600   1   9   0.0003   0.0002   0.0011   0.0001   0.0002   0.0005   0.00   79.5
2018/03/11 10:31:40.000   78.254770004   16.249362608   344.2600   1   9   0.0003   0.0002   0.0011   0.0001   0.0002   0.0005   0.00   79.4
2018/03/11 10:31:41.000   78.254770004   16.249362608   344.2600   1   9   0.0003   0.0002   0.0011   0.0001   0.0002   0.0005   0.00   79.2
2018/03/11 10:31:42.000   78.254770004   16.249362608   344.2599   1   9   0.0003   0.0002   0.0011   0.0001   0.0002   0.0005   0.00   79.0
2018/03/11 10:31:43.000   78.254770004   16.249362609   344.2599   1   9   0.0003   0.0002   0.0011   0.0001   0.0002   0.0005   0.00   78.8
2018/03/11 10:31:44.000   78.254770004   16.249362609   344.2599   1   9   0.0003   0.0002   0.0011   0.0001   0.0002   0.0005   0.00   78.6
2018/03/11 10:31:45.000   78.254770005   16.249362609   344.2599   1   9   0.0003   0.0002   0.0011   0.0001   0.0002   0.0005   0.00   78.4
2018/03/11 10:31:46.000   78.254770005   16.249362610   344.2599   1   9   0.0003   0.0002   0.0011   0.0001   0.0002   0.0005   0.00   78.3
2018/03/11 10:31:47.000   78.254770005   16.249362610   344.2600   1   9   0.0003   0.0002   0.0011   0.0001   0.0002   0.0005   0.00   78.0
2018/03/11 10:31:48.000   78.254770005   16.249362611   344.2600   1   9   0.0003   0.0002   0.0011   0.0001   0.0002   0.0005   0.00   77.9
2018/03/11 10:31:49.000   78.254770005   16.249362611   344.2601   1   9   0.0003   0.0002   0.0011   0.0001   0.0002   0.0005   0.00   77.6
2018/03/11 10:31:50.000   78.254770005   16.249362612   344.2602   1   9   0.0003   0.0002   0.0011   0.0001   0.0002   0.0005   0.00   77.4
2018/03/11 10:31:51.000   78.254770005   16.249362613   344.2603   1   9   0.0003   0.0002   0.0011   0.0001   0.0002   0.0005   0.00   77.2
2018/03/11 10:31:52.000   78.254770005   16.249362615   344.2605   1   9   0.0003   0.0002   0.0011   0.0001   0.0002   0.0005   0.00   77.0
2018/03/11 10:31:53.000   78.254770005   16.249362616   344.2606   1   9   0.0003   0.0002   0.0011   0.0001   0.0002   0.0005   0.00   76.8
2018/03/11 10:31:54.000   78.254770005   16.249362616   344.2607   1   9   0.0003   0.0002   0.0011   0.0001   0.0002   0.0005   0.00   76.4
2018/03/11 10:31:55.000   78.254770005   16.249362617   344.2608   1   9   0.0003   0.0002   0.0011   0.0001   0.0002   0.0005   0.00   76.1
2018/03/11 10:31:56.000   78.254770006   16.249362618   344.2609   1   9   0.0003   0.0002   0.0011   0.0001   0.0002   0.0005   0.00   75.7
2018/03/11 10:31:57.000   78.254770006   16.249362619   344.2610   1   9   0.0003   0.0002   0.0011   0.0001   0.0002   0.0005   0.00   75.3
2018/03/11 10:31:58.000   78.254770006   16.249362619   344.2612   1   9   0.0003   0.0002   0.0011   0.0001   0.0002   0.0005   0.00   75.0
2018/03/11 10:31:59.000   78.254770006   16.249362620   344.2613   1   9   0.0003   0.0002   0.0011   0.0001   0.0002   0.0005   0.00   74.6
2018/03/11 10:32:00.000   78.254770007   16.249362621   344.2614   1   9   0.0003   0.0002   0.0011   0.0001   0.0002   0.0005   0.00   74.2
2018/03/11 10:32:01.000   78.254770007   16.249362622   344.2615   1   9   0.0003   0.0002   0.0011   0.0001   0.0002   0.0005   0.00   73.9
2018/03/11 10:32:02.000   78.254770007   16.249362624   344.2616   1   9   0.0003   0.0002   0.0011   0.0001   0.0002   0.0005   0.00   73.5
2018/03/11 10:32:03.000   78.254770008   16.249362624   344.2617   1   9   0.0003   0.0002   0.0011   0.0001   0.0002   0.0005   0.00   73.2
2018/03/11 10:32:04.000   78.254770008   16.249362625   344.2618   1   9   0.0003   0.0002   0.0011   0.0001   0.0002   0.0005   0.00   72.9
2018/03/11 10:32:05.000   78.254770008   16.249362626   344.2619   1   9   0.0003   0.0002   0.0011   0.0001   0.0002   0.0005   0.00   72.5
2018/03/11 10:32:06.000   78.254770009   16.249362627   344.2621   1   9   0.0003   0.0002   0.0011   0.0001   0.0002   0.0005   0.00   72.0
2018/03/11 10:32:07.000   78.254770009   16.249362628   344.2622   1   9   0.0003   0.0002   0.0011   0.0001   0.0002   0.0005   0.00   71.5
2018/03/11 10:32:08.000   78.254770009   16.249362629   344.2623   1   9   0.0003   0.0002   0.0011   0.0001   0.0002   0.0005   0.00   71.1
2018/03/11 10:32:09.000   78.254770010   16.249362630   344.2624   1   9   0.0003   0.0002   0.0011   0.0001   0.0002   0.0005   0.00   70.8
2018/03/11 10:32:10.000   78.254770010   16.249362631   344.2626   1   9   0.0003   0.0002   0.0011   0.0001   0.0002   0.0005   0.00   70.3
