     2.11           OBSERVATION DATA    M (MIXED)           RINEX VERSION / TYPE
teqc  2018Mar15                         20180319 14:17:32UTCPGM / RUN BY / DATE
Linux 2.6.32-573.12.1.x86_64|x86_64|gcc -static|Linux 64|=+ COMMENT
END OF STATIC MODE OBSERVATION                              COMMENT
BIT 2 OF LLI FLAGS DATA COLLECTED UNDER A/S CONDITION       COMMENT
-Unknown-                                                   MARKER NAME
4625                                                        MARKER NUMBER
-Unknown-           -Unknown-                               OBSERVER / AGENCY
5127468778          TRIMBLE             4.63                REC # / TYPE / VERS
47477114                            NONE                    ANT # / TYPE
  6378137.0000        0.0000        0.0000                  APPROX POSITION XYZ
        0.0000        0.0000        0.0000                  ANTENNA: DELTA H/E/N
     1     1                                                WAVELENGTH FACT L1/2
     7    L1    L2    C1    P1    P2    S1    S2            # / TYPES OF OBSERV
    18                                                      LEAP SECONDS
 SNR is mapped to RINEX snr flag value [0-9]                COMMENT
  L1 & L2: min(max(int(snr_dBHz/6), 0), 9)                  COMMENT
  2018     3    11    12    52   14.0000000     GPS         TIME OF FIRST OBS
                                                            END OF HEADER
 18  3 11 12 52 14.0000000  0 16R05G15R04R06R13R14R15R22R23G28G11G19
                                G10G24G01G17
                  84380720.586 5  20295210.602                    20295211.621
                        33.300
 122859906.317 6  95735005.81043  23379464.336                    23379467.129
        41.700          22.500
                  91758711.190 6  22031089.203                    22031089.930
                        36.200
                  92322380.574 5  22244367.969                    22244368.367
                        31.500
                  84121108.857 5  20254089.773                    20254090.254
                        31.200
                  81306884.342 6  19610956.297                    19610958.180
                        37.600
                  92150051.210 5  22171662.094                    22171666.125
                        31.000
                  84723715.634 6  20406354.672                    20406355.922
                        36.800
                  90550045.402 5  21763770.250                    21763775.098
                        32.100
 119063131.407 7  92776463.69144  22656957.680                    22656959.789
        46.300          29.200
 118244536.981 7  92138613.70544  22501189.375                    22501191.277
        46.200          29.400
 124539354.136 5  97043608.44242  23699039.813                    23699043.133
        35.700          16.900
 117589549.364 7  91628241.85245  22376547.633                    22376553.590
        46.100          31.500
 111273750.636 7  86706843.24345  21174689.984                    21174695.520
        47.900          31.400
 118892771.907 7  92643775.90445  22624552.188                    22624558.652
        45.900          31.200
 119461025.215 7  93086554.59944  22732684.133                    22732686.316
        47.300          26.200
 18  3 11 12 52 15.0000000  0 16R05G15R04R06R13R14R15R22R23G28G11G19
                                G10G24G01G17
                  84381392.376 5  20295372.570                    20295373.605
                        32.800
 122863654.412 6  95737926.40143  23380177.523                    23380180.449
        41.600          22.300
                  91762125.425 6  22031909.672                    22031909.496
                        36.300
                  92319762.015 5  22243737.430                    22243738.180
                        32.700
                  84123511.357 5  20254669.625                    20254669.230
                        30.400
                  81305974.757 6  19610737.500                    19610739.398
                        37.600
                  92147101.308 5  22170951.508                    22170956.129
                        31.400
                  84724582.524 6  20406562.984                    20406564.496
                        36.800
                  90547412.066 5  21763138.945                    21763142.156
                        32.900
 119066006.552 7  92778704.06444  22657504.578                    22657507.629
        46.300          28.700
 118245384.834 7  92139274.37244  22501350.680                    22501352.547
        46.100          29.000
 124535983.524 5  97040982.01842  23698397.852                    23698401.516
        35.900          16.300
 117591020.316 7  91629388.05945  22376827.211                    22376833.785
        46.200          31.100
 111272737.987 7  86706054.17145  21174497.313                    21174502.910
        47.500          31.600
 118891672.297 7  92642919.08645  22624342.945                    22624349.551
        45.700          31.400
 119459026.578 7  93084997.21444  22732303.859                    22732306.391
        47.500          25.600
 18  3 11 12 52 16.0000000  0 16R05G15R04R06R13R14R15R22R23G28G11G19
                                G10G24G01G17
                  84382064.910 5  20295533.523                    20295535.172
                        33.200
 122867402.858 6  95740847.26443  23380890.453                    23380893.750
        41.900          22.500
                  91765540.015 5  22032729.836                    22032729.313
                        35.700
                  92317143.820 5  22243106.328                    22243107.410
                        32.400
                  84125914.357 5  20255246.836                    20255247.770
                        30.100
                  81305065.786 6  19610517.656                    19610519.230
                        37.900
                  92144151.698 5  22170242.750                    22170246.586
                        31.500
                  84725450.145 6  20406772.539                    20406773.688
                        36.500
                  90544779.147 5  21762506.133                    21762509.605
                        33.200
 119068882.077 7  92780944.73344  22658052.141                    22658054.551
        46.000          28.000
 118246233.419 7  92139935.61444  22501512.281                    22501514.156
        46.300          28.100
 124532613.245 6  97038355.82442  23697757.492                    23697760.453
        36.100          16.300
 117592491.965 7  91630534.80145  22377107.273                    22377113.953
        46.000          31.700
 111271725.964 7  86705265.58445  21174305.219                    21174310.594
        47.300          31.900
 118890573.392 7  92642062.80545  22624133.289                    22624140.441
        45.200          30.800
 119457028.388 7  93083440.18144  22731922.563                    22731925.539
        46.500          25.400
 18  3 11 12 52 17.0000000  0 16R05G15R04R06R13R14R15R22R23G28G11G19
                                G10G24G01G17
                  84382738.154 5  20295695.719                    20295697.156
                        33.200
 122871151.607 7  95743768.34443  23381604.328                    23381607.090
        42.600          23.500
                  91768954.968 6  22033549.492                    22033549.438
                        36.100
                  92314526.021 5  22242476.414                    22242476.926
                        32.900
                  84128317.870 5  20255824.922                    20255825.781
                        30.400
                  81304157.438 6  19610298.898                    19610300.461
                        37.600
                  92141202.305 5  22169532.688                    22169536.930
                        31.000
                  84726318.488 6  20406981.789                    20406982.484
                        37.000
                  90542146.605 5  21761872.789                    21761876.684
                        33.700
 119071757.970 7  92783185.68844  22658599.297                    22658601.809
        46.300          28.700
 118247082.762 7  92140597.46144  22501673.547                    22501675.613
        46.000          28.700
 124529243.275 6  97035729.86943  23697115.852                    23697118.941
        37.100          18.300
 117593964.270 7  91631682.05545  22377387.445                    22377393.898
        46.000          31.800
 111270714.567 7  86704477.48245  21174112.281                    21174117.727
        46.800          31.100
 118889475.127 7  92641207.02745  22623925.719                    22623931.500
        45.500          30.600
 119455030.696 7  93081883.52944  22731543.016                    22731545.613
        46.600          26.700
 18  3 11 12 52 18.0000000  0 16R05G15R04R06R13R14R15R22R23G28G11G19
                                G10G24G01G17
                  84383412.142 5  20295857.453                    20295859.180
                        32.800
 122874900.669 7  95746689.68643  23382317.758                    23382320.629
        43.100          22.000
                  91772370.223 5  22034369.516                    22034369.621
                        35.600
                  92311908.603 5  22241845.750                    22241845.773
                        33.300
                  84130721.875 5  20256404.125                    20256404.703
                        30.800
                  81303249.727 6  19610079.430                    19610081.691
                        37.200
                  92138253.184 5  22168823.430                    22168827.566
                        30.800
                  84727187.592 6  20407191.063                    20407191.805
                        37.000
                  90539514.514 5  21761240.266                    21761244.578
                        33.300
 119074634.260 7  92785426.95244  22659146.555                    22659149.309
        46.000          28.800
 118247932.847 7  92141259.87644  22501834.758                    22501837.559
        45.800          27.300
 124525873.618 6  97033104.14943  23696474.406                    23696477.832
        36.500          18.300
 117595437.229 7  91632829.82645  22377667.719                    22377674.438
        45.500          31.500
 111269703.797 7  86703689.87245  21173920.344                    21173925.637
        45.800          31.400
 118888377.553 7  92640351.77645  22623715.461                    22623722.402
        45.700          31.000
 119453033.489 7  93080327.26044  22731163.961                    22731165.645
        46.700          26.200
 18  3 11 12 52 19.0000000  0 16R05G15R04R06R13R14R15R22R23G28G11G19
                                G10G24G01G17
                  84384086.830 5  20296020.273                    20296021.445
                        32.800
 122878650.045 7  95749611.26643  23383031.508                    23383034.109
        43.700          22.200
                  91775785.820 5  22035189.172                    22035189.488
                        35.600
                  92309291.559 5  22241215.281                    22241216.176
                        33.800
                  84133126.380 5  20256982.313                    20256983.777
                        30.900
                  81302342.577 6  19609861.109                    19609862.887
                        37.300
                  92135304.287 5  22168113.836                    22168117.762
                        31.000
                  84728057.388 6  20407401.078                    20407401.734
                        37.200
                  90536882.847 5  21760607.375                    21760611.945
                        33.300
 119077510.897 7  92787668.48744  22659694.180                    22659696.434
        46.300          28.300
 118248783.691 7  92141922.88544  22501995.453                    22501999.234
        45.200          27.500
 124522504.240 6  97030478.68643  23695833.289                    23695836.336
        36.600          18.600
 117596910.843 7  91633978.09945  22377948.359                    22377954.621
        45.600          31.600
 111268693.622 7  86702902.71645  21173727.555                    21173732.762
        46.000          30.400
 118887280.640 7  92639497.03945  22623507.570                    22623513.785
        46.000          31.500
 119451036.773 7  93078771.36944  22730783.648                    22730785.535
        46.600          26.500
 18  3 11 12 52 20.0000000  0 16R05G15R04R06R13R14R15R22R23G28G11G19
                                G10G24G01G17
                  84384762.271 5  20296182.313                    20296183.906
                        33.100
 122882399.806 7  95752533.17843  23383744.930                    23383747.766
        43.700          21.800
                  91779201.834 5  22036009.680                    22036009.805
                        35.700
                  92306674.969 5  22240584.375                    22240585.621
                        33.600
                  84135531.413 5  20257563.180                    20257563.457
                        30.600
                  81301436.067 6  19609643.039                    19609644.242
                        37.500
                  92132355.675 5  22167405.000                    22167409.172
                        31.600
                  84728927.989 6  20407609.984                    20407611.563
                        37.000
                  90534251.658 5  21759974.727                    21759980.031
                        33.100
 119080387.994 7  92789910.37844  22660241.234                    22660243.996
        46.500          28.900
 118249635.344 7  92142586.50944  22502157.672                    22502161.453
        44.900          28.300
 124519135.257 6  97027853.51842  23695191.516                    23695195.500
        36.800          17.400
 117598385.226 7  91635126.97345  22378228.922                    22378234.883
        45.200          31.500
 111267684.155 7  86702116.11845  21173535.922                    21173541.109
        46.300          30.800
 118886184.496 7  92638642.90045  22623298.555                    22623305.250
        45.800          31.400
 119449040.575 7  93077215.87244  22730402.656                    22730406.016
        45.500          26.100
 18  3 11 12 52 21.0000000  0 16R05G15R04R06R13R14R15R22R23G28G11G19
                                G10G24G01G17
                  84385438.457 5  20296345.961                    20296346.199
                        33.000
 122886149.867 7  95755455.31343  23384458.336                    23384461.563
        43.600          22.500
                  91782618.199 6  22036829.750                    22036830.281
                        36.000
                  92304058.770 5  22239954.961                    22239955.520
                        33.800
                  84137936.967 5  20258142.102                    20258141.820
                        31.400
                  81300530.167 6  19609423.711                    19609425.746
                        37.500
                  92129407.309 5  22166695.180                    22166698.664
                        31.700
                  84729799.343 6  20407819.523                    20407821.113
                        37.200
                  90531620.887 5  21759342.133                    21759348.020
                        33.300
 119083265.471 7  92792152.56044  22660789.242                    22660792.109
        46.700          28.400
 118250487.759 7  92143250.71844  22502320.031                    22502323.363
        44.100          28.700
 124515766.613 6  97025228.60542  23694552.063                    23694554.238
        37.000          17.400
 117599860.228 7  91636276.32745  22378510.016                    22378515.539
        45.100          31.700
 111266675.314 7  86701330.01445  21173343.867                    21173349.066
        46.800          30.700
 118885089.019 7  92637789.28445  22623089.836                    22623096.441
        46.200          30.300
 119447044.844 7  93075660.74644  22730023.328                    22730026.211
        46.000          26.900
 18  3 11 12 52 22.0000000  0 16R05G15R04R06R13R14R15R22R23G28G11G19
                                G10G24G01G17
                  84386115.425 5  20296507.828                    20296509.238
                        33.800
 122889900.291 7  95758377.73843  23385171.758                    23385174.789
        43.400          21.800
                  91786034.916 6  22037649.469                    22037650.316
                        36.200
                  92301443.005 5  22239324.016                    22239325.113
                        33.100
                  84140343.059 5  20258721.969                    20258721.387
                        30.800
                  81299624.925 6  19609205.648                    19609207.055
                        37.200
                  92126459.243 5  22165985.891                    22165989.766
                        31.500
                  84730671.435 6  20408030.484                    20408031.188
                        36.800
                  90528990.606 5  21758710.336                    21758715.156
                        32.500
 119086143.378 7  92794395.09144  22661336.617                    22661339.027
        46.700          28.100
 118251340.973 7  92143915.54444  22502483.211                    22502485.309
        45.000          28.700
 124512398.278 6  97022603.93942  23693910.844                    23693913.684
        36.600          16.900
 117601335.979 7  91637426.26545  22378790.305                    22378796.332
        45.500          31.100
 111265667.150 7  86700544.43745  21173152.078                    21173157.441
        47.100          30.700
 118883994.275 7  92636936.23345  22622882.508                    22622888.180
        46.700          31.000
 119445049.663 7  93074106.07344  22729644.156                    22729646.246
        47.500          28.700
 18  3 11 12 52 23.0000000  0 16R05G15R04R06R13R14R15R22R23G28G11G19
                                G10G24G01G17
                  84386793.123 5  20296671.133                    20296673.125
                        33.100
 122893651.067 7  95761300.42843  23385885.273                    23385888.973
        42.900          22.300
                  91789452.018 6  22038469.375                    22038471.551
                        36.200
                  92298827.631 5  22238693.156                    22238694.863
                        32.700
                  84142749.664 5  20259301.148                    20259301.523
                        30.900
                  81298720.329 6  19608987.313                    19608989.254
                        37.400
                  92123511.434 5  22165276.844                    22165280.070
                        30.800
                  84731544.285 6  20408240.133                    20408241.590
                        36.900
                  90526360.735 5  21758078.852                    21758083.309
                        32.900
 119089021.669 7  92796637.91544  22661884.711                    22661887.039
        46.400          28.500
 118252194.930 7  92144580.94944  22502646.617                    22502648.352
        46.200          28.100
 124509030.301 6  97019979.53443  23693270.086                    23693272.492
        37.000          18.300
 117602812.395 7  91638576.71845  22379072.398                    22379077.543
        45.800          31.600
 111264659.620 7  86699759.34445  21172960.406                    21172965.832
        46.800          30.900
 118882900.221 7  92636083.71945  22622673.813                    22622680.234
        47.000          30.200
 119443054.994 7  93072551.78144  22729264.656                    22729266.734
        47.300          27.400
 18  3 11 12 52 24.0000000  0 16R05G15R04R06R13R14R15R22R23G28G11G19
                                G10G24G01G17
                  84387471.574 5  20296834.250                    20296836.180
                        33.200
 122897402.214 7  95764223.40543  23386598.813                    23386602.262
        42.800          22.900
                  91792869.478 6  22039290.672                    22039290.941
                        36.300
                  92296212.722 5  22238063.125                    22238064.926
                        32.700
                  84145156.828 5  20259879.734                    20259880.090
                        30.800
                  81297816.396 6  19608769.781                    19608770.738
                        37.700
                  92120563.904 5  22164567.625                    22164571.484
                        30.700
                  84732417.933 6  20408450.203                    20408451.703
                        37.300
                  90523731.304 5  21757446.609                    21757450.719
                        32.600
 119091900.418 7  92798881.10044  22662432.047                    22662434.703
        46.300          28.200
 118253049.682 7  92145246.98744  22502809.789                    22502811.172
        46.700          29.200
 124505662.696 6  97017355.42742  23692629.016                    23692631.938
        36.900          17.800
 117604289.513 7  91639727.71745  22379353.492                    22379358.648
        45.800          30.300
 111263652.791 7  86698974.80445  21172768.484                    21172773.727
        46.900          31.500
 118881806.913 7  92635231.78845  22622466.094                    22622472.770
        47.000          31.200
 119441060.813 7  93070997.87244  22728883.719                    22728887.699
        45.700          26.600
 18  3 11 12 52 25.0000000  0 16R05G15R04R06R13R14R15R22R23G28G11G19
                                G10G24G01G17
                  84388150.808 5  20296997.406                    20296999.148
                        33.800
 122901153.710 7  95767146.63643  23387313.055                    23387316.563
        42.000          22.900
                  91796287.253 6  22040111.539                    22040112.199
                        36.400
                  92293598.177 5  22237432.984                    22237434.563
                        32.200
                  84147564.500 5  20260459.453                    20260459.953
                        31.300
                  81296913.031 6  19608551.867                    19608552.555
                        37.900
                  92117616.616 5  22163857.477                    22163861.773
                        31.500
                  84733292.305 6  20408661.297                    20408662.699
                        37.200
                  90521102.313 5  21756814.828                    21756818.512
                        32.600
 119094779.512 7  92801124.54344  22662979.969                    22662982.816
        46.000          27.800
 118253905.166 7  92145913.61544  22502972.000                    22502973.738
        46.100          27.900
 124502295.364 6  97014731.52443  23691988.539                    23691990.984
        37.600          19.600
 117605767.337 7  91640879.26845  22379634.680                    22379639.441
        46.400          30.900
 111262646.594 7  86698190.76145  21172577.164                    21172582.738
        47.300          30.900
 118880714.249 7  92634380.36945  22622257.906                    22622264.555
        46.800          31.600
 119439067.122 7  93069444.35344  22728505.273                    22728508.051
        45.100          26.200
 18  3 11 12 52 26.0000000  0 16R05G15R04R06R13R14R15R22R23G28G11G19
                                G10G24G01G17
                  84388830.755 5  20297161.063                    20297162.777
                        33.000
 122904905.522 7  95770070.10443  23388027.391                    23388030.609
        42.900          22.500
                  91799705.435 6  22040932.219                    22040933.039
                        36.300
                  92290984.055 5  22236802.906                    22236805.168
                        32.200
                  84149972.677 5  20261039.594                    20261040.227
                        30.800
                  81296010.271 6  19608334.313                    19608335.836
                        37.400
                  92114669.597 5  22163150.305                    22163152.961
                        31.800
                  84734167.421 6  20408872.461                    20408873.816
                        37.200
                  90518473.741 5  21756183.844                    21756186.422
                        32.600
 119097658.996 7  92803368.29944  22663528.266                    22663530.531
        46.600          28.700
 118254761.420 7  92146580.84144  22503134.195                    22503136.715
        45.100          27.200
 124498928.385 6  97012107.89143  23691347.602                    23691349.895
        37.000          19.300
 117607245.806 7  91642031.31945  22379916.148                    22379921.121
        46.400          31.800
 111261641.017 7  86697407.18845  21172385.898                    21172391.445
        47.300          31.700
 118879622.286 7  92633529.49245  22622050.219                    22622056.324
        46.500          31.500
 119437073.958 7  93067891.23744  22728127.430                    22728129.000
        46.800          27.800
 18  3 11 12 52 27.0000000  0 16R05G15R04R06R13R14R15R22R23G28G11G19
                                G10G24G01G17
                  84389511.486 5  20297325.641                    20297326.531
                        33.600
 122908657.679 7  95772993.84543  23388741.797                    23388744.426
        44.000          22.200
                  91803124.007 6  22041752.914                    22041753.918
                        36.200
                  92288370.361 5  22236173.805                    22236174.820
                        32.400
                  84152381.441 5  20261619.484                    20261620.219
                        30.900
                  81295108.191 6  19608116.547                    19608117.879
                        37.600
                  92111722.868 5  22162439.250                    22162444.414
                        31.400
                  84735043.349 6  20409082.273                    20409084.453
                        36.800
                  90515845.636 5  21755550.609                    21755555.078
                        33.400
 119100538.959 7  92805612.42244  22664076.234                    22664079.078
        46.000          29.200
 118255618.519 7  92147248.72044  22503296.750                    22503300.250
        44.600          28.700
 124495561.802 6  97009484.58843  23690706.930                    23690709.457
        37.300          19.000
 117608725.006 7  91643183.94845  22380197.672                    22380202.289
        46.900          31.000
 111260636.169 7  86696624.18945  21172194.664                    21172199.797
        47.100          30.700
 118878531.082 7  92632679.20545  22621842.055                    22621848.859
        46.300          31.800
 119435081.355 7  93066338.54844  22727747.203                    22727749.637
        46.100          25.900
 18  3 11 12 52 28.0000000  0 16R05G15R04R06R13R14R15R22R23G28G11G19
                                G10G24G01G17
                  84390192.963 5  20297488.711                    20297490.391
                        33.400
 122912410.211 7  95775917.88043  23389456.094                    23389458.391
        44.300          23.300
                  91806542.948 6  22042573.313                    22042573.633
                        36.400
                  92285757.085 5  22235543.320                    22235545.508
                        31.600
                  84154790.687 5  20262199.422                    20262199.824
                        30.800
                  81294206.733 6  19607898.125                    19607900.043
                        37.600
                  92108776.409 5  22161731.508                    22161734.957
                        31.700
                  84735920.022 6  20409294.547                    20409295.801
                        36.600
                  90513218.008 5  21754918.609                    21754923.707
                        33.100
 119103419.319 7  92807856.86044  22664624.125                    22664626.934
        45.800          28.700
 118256476.401 7  92147917.19444  22503459.805                    22503463.160
        44.300          28.800
 124492195.508 6  97006861.50243  23690066.281                    23690069.363
        37.600          19.300
 117610204.935 7  91644337.14245  22380479.297                    22380484.262
        47.100          31.400
 111259631.977 7  86695841.69745  21172003.375                    21172008.855
        47.200          30.900
 118877440.601 7  92631829.49045  22621633.758                    22621641.367
        46.100          30.800
 119433089.242 7  93064786.24544  22727366.789                    22727370.715
        45.000          26.500
 18  3 11 12 52 29.0000000  0 16R05G15R04R06R13R14R15R22R23G28G11G19
                                G10G24G01G17
                  84390875.198 5  20297653.289                    20297655.016
                        33.600
 122916163.085 7  95778842.20543  23390169.906                    23390172.816
        44.500          22.200
                  91809962.235 6  22043395.477                    22043395.703
                        36.200
                  92283144.215 5  22234913.961                    22234915.098
                        32.700
                  84157200.494 5  20262779.539                    20262780.164
                        31.100
                  81293305.924 6  19607681.523                    19607683.176
                        37.500
                  92105830.256 5  22161022.922                    22161026.266
                        31.000
                  84736797.440 6  20409505.555                    20409506.609
                        37.200
                  90510590.844 5  21754287.375                    21754292.262
                        33.700
 119106300.094 7  92810101.62544  22665172.641                    22665174.891
        45.800          27.500
 118257335.045 7  92148586.26844  22503623.609                    22503626.563
        44.400          29.300
 124488829.613 6  97004238.73243  23689426.227                    23689429.016
        36.900          19.300
 117611685.527 7  91645490.85545  22380760.516                    22380766.250
        46.700          31.200
 111258628.440 7  86695059.72845  21171812.570                    21171817.957
        46.500          31.600
 118876350.843 7  92630980.32645  22621426.484                    22621433.910
        45.600          31.000
 119431097.633 7  93063234.34744  22726988.398                    22726991.594
        45.300          27.200
 18  3 11 12 52 30.0000000  0 16R05G15R04R06R13R14R15R22R23G28G11G19
                                G10G24G01G17
                  84391558.172 5  20297817.336                    20297818.777
                        33.800
 122919916.273 7  95781766.77743  23390884.031                    23390886.895
        44.900          23.600
                  91813381.864 6  22044215.672                    22044216.461
                        36.800
                  92280531.704 5  22234285.289                    22234285.695
                        32.700
                  84159610.803 5  20263360.555                    20263360.383
                        30.600
                  81292405.717 6  19607464.234                    19607465.723
                        37.500
                  92102884.334 5  22160313.570                    22160317.297
                        31.300
                  84737675.626 6  20409716.672                    20409718.461
                        37.200
                  90507964.095 5  21753656.484                    21753661.500
                        33.800
 119109181.242 7  92812346.67544  22665720.750                    22665723.230
        46.200          29.100
 118258194.436 7  92149255.92244  22503787.883                    22503790.223
        44.700          28.100
 124485463.990 6  97001616.19743  23688784.547                    23688788.297
        36.700          18.600
 117613166.813 7  91646645.11345  22381042.375                    22381047.746
        47.000          31.900
 111257625.507 7  86694278.22645  21171621.867                    21171627.211
        46.500          31.000
 118875261.747 7  92630131.67945  22621218.203                    22621226.836
        45.000          30.200
 119429106.558 7  93061682.87144  22726610.641                    22726613.160
        47.000          27.500
 18  3 11 12 52 31.0000000  0 16R05G15R04R06R13R14R15R22R23G28G11G19
                                G10G24G01G17
                  84392241.860 5  20297981.773                    20297983.285
                        34.500
 122923669.784 7  95784691.61343  23391597.758                    23391601.113
        44.500          21.500
                  91816801.834 6  22045037.500                    22045037.387
                        36.500
                  92277919.586 5  22233656.805                    22233656.902
                        32.300
                  84162021.596 5  20263940.688                    20263940.535
                        30.600
                  81291506.145 6  19607246.758                    19607249.242
                        37.500
                  92099938.646 5  22159605.109                    22159608.102
                        31.700
                  84738554.534 6  20409928.617                    20409929.777
                        37.000
                  90505337.734 5  21753024.945                    21753029.816
                        33.700
 119112062.760 7  92814592.01844  22666269.031                    22666271.566
        46.400          28.800
 118259054.574 7  92149926.16344  22503951.219                    22503953.797
        44.200          28.200
 124482098.691 6  96998993.88643  23688144.656                    23688147.469
        37.200          18.300
 117614648.745 7  91647799.86845  22381324.016                    22381329.898
        47.100          31.200
 111256623.216 7  86693497.21745  21171431.000                    21171436.656
        46.700          30.900
 118874173.333 7  92629283.56845  22621012.195                    22621019.680
        45.000          31.500
 119427115.957 7  93060131.76644  22726231.523                    22726234.238
        46.900          26.500
 18  3 11 12 52 32.0000000  0 16R05G15R04R06R13R14R15R22R23G28G11G19
                                G10G24G01G17
                  84392926.309 5  20298145.844                    20298147.977
                        33.800
 122927423.639 7  95787616.72143  23392311.273                    23392315.504
        43.400          22.500
                  91820222.155 6  22045858.438                    22045859.164
                        36.000
                  92275307.839 5  22233027.805                    22233027.137
                        33.400
                  84164432.938 5  20264521.266                    20264521.984
                        31.700
                  81290607.203 6  19607031.188                    19607032.090
                        37.700
                  92096993.257 5  22158896.148                    22158900.043
                        30.600
                  84739434.188 6  20410140.734                    20410141.793
                        37.100
                  90502711.826 5  21752395.023                    21752399.164
                        32.900
 119114944.677 7  92816837.66344  22666817.523                    22666819.680
        46.100          29.200
 118259915.487 7  92150597.01544  22504115.031                    22504117.859
        44.300          26.800
 124478733.717 6  96996371.83542  23687504.234                    23687507.391
        36.900          17.800
 117616131.367 7  91648955.16645  22381606.195                    22381611.801
        46.900          31.200
 111255621.563 7  86692716.70745  21171240.297                    21171245.695
        46.600          31.000
 118873085.613 7  92628435.98845  22620804.734                    22620812.602
        44.700          31.100
 119425125.820 7  93058580.99344  22725851.719                    22725855.137
        46.300          27.600
 18  3 11 12 52 33.0000000  0 16R05G15R04R06R13R14R15R22R23G28G11G19
                                G10G24G01G17
                  84393611.509 5  20298311.094                    20298312.945
                        33.500
 122931177.829 7  95790542.07143  23393025.359                    23393029.902
        42.000          22.600
                  91823642.856 6  22046679.805                    22046680.789
                        36.200
                  92272696.511 5  22232397.664                    22232397.918
                        32.900
                  84166844.813 5  20265102.539                    20265102.527
                        30.200
                  81289708.875 6  19606813.781                    19606815.773
                        37.900
                  92094048.104 5  22158187.734                    22158190.801
                        31.100
                  84740314.594 6  20410353.094                    20410354.141
                        37.400
                  90500086.355 5  21751765.289                    21751768.164
                        33.300
 119117827.005 7  92819083.62444  22667365.813                    22667368.379
        46.300          28.700
 118260777.163 7  92151268.44744  22504278.586                    22504281.672
        43.800          27.700
 124475369.107 6  96993750.05642  23686864.133                    23686866.859
        37.000          17.400
 117617614.683 7  91650111.00745  22381888.539                    22381894.336
        47.000          31.300
 111254620.575 7  86691936.71845  21171049.656                    21171055.508
        46.400          30.900
 118871998.604 7  92627588.96645  22620598.172                    22620605.523
        44.400          31.000
 119423136.174 7  93057030.63344  22725473.352                    22725476.770
        46.200          26.500
 18  3 11 12 52 34.0000000  0 16R05G15R04R06R13R14R15R22R23G28G11G19
                                G10G24G01G17
                  84394297.455 5  20298476.078                    20298477.707
                        33.800
 122934932.425 6  95793467.71643  23393740.156                    23393743.820
        41.700          22.800
                  91827063.886 6  22047501.320                    22047501.348
                        36.300
                  92270085.595 5  22231769.586                    22231768.516
                        33.100
                  84169257.214 5  20265682.867                    20265683.352
                        31.400
                  81288811.172 6  19606598.234                    19606599.184
                        37.600
                  92091103.252 5  22157478.859                    22157482.422
                        30.300
                  84741195.760 6  20410564.711                    20410566.691
                        37.300
                  90497461.303 5  21751131.883                    21751137.176
                        33.200
 119120709.722 7  92821329.88844  22667914.578                    22667916.824
        46.300          29.500
 118261639.629 7  92151940.49144  22504442.703                    22504445.824
        44.000          27.300
 124472004.812 6  96991128.52242  23686224.211                    23686226.625
        36.300          17.800
 117619098.676 7  91651267.36345  22382170.344                    22382176.535
        46.400          31.300
 111253620.213 7  86691157.21445  21170859.188                    21170864.434
        46.400          30.500
 118870912.298 7  92626742.49445  22620391.875                    22620398.633
        44.700          30.500
 119421147.056 7  93055480.68844  22725095.648                    22725098.016
        47.200          27.200
 18  3 11 12 52 35.0000000  0 16R05G15R04R06R13R14R15R22R23G28G11G19
                                G10G24G01G17
                  84394984.169 5  20298642.648                    20298643.520
                        33.700
 122938687.345 7  95796393.59143  23394455.984                    23394458.672
        42.200          22.800
                  91830485.293 6  22048322.656                    22048322.965
                        36.800
                  92267475.131 5  22231139.961                    22231140.156
                        33.400
                  84171670.152 5  20266264.203                    20266264.020
                        30.100
                  81287914.103 6  19606381.500                    19606381.586
                        37.900
                  92088158.691 5  22156769.648                    22156774.012
                        30.900
                  84742077.708 6  20410777.414                    20410778.711
                        37.300
                  90494836.729 5  21750500.938                    21750505.793
                        33.200
 119123592.884 7  92823576.51344  22668462.586                    22668465.617
        46.300          29.700
 118262502.894 7  92152613.15044  22504607.891                    22504610.574
        44.700          27.700
 124468640.902 6  96988507.27042  23685584.063                    23685586.637
        36.600          16.900
 117620583.422 7  91652424.30645  22382453.078                    22382458.773
        46.000          30.600
 111252620.580 7  86690378.28245  21170669.391                    21170674.648
        46.600          31.000
 118869826.727 7  92625896.58845  22620185.328                    22620192.301
        43.900          31.100
 119419158.499 7  93053931.16844  22724717.320                    22724719.824
        47.300          27.500
 18  3 11 12 52 36.0000000  0 16R05G15R04R06R13R14R15R22R23G28G11G19
                                G10G24G01G17
                  84395671.598 5  20298806.914                    20298808.152
                        33.800
 122942442.569 7  95799319.71544  23395171.211                    23395173.293
        42.900          24.100
                  91833907.035 6  22049143.727                    22049144.434
                        36.500
                  92264865.014 5  22230510.875                    22230511.988
                        33.700
                  84174083.611 5  20266845.570                    20266845.438
                        31.200
                  81287017.643 6  19606165.211                    19606165.816
                        37.500
                  92085214.362 5  22156061.688                    22156065.785
                        30.200
                  84742960.379 6  20410990.406                    20410991.324
                        37.500
                  90492212.573 5  21749871.180                    21749874.840
                        33.000
 119126476.381 7  92825823.39544  22669012.016                    22669014.551
        46.100          29.200
 118263366.877 7  92153286.37744  22504772.508                    22504774.477
        45.800          27.700
 124465277.239 6  96985886.24342  23684943.797                    23684946.801
        36.300          16.900
 117622068.803 7  91653581.73745  22382735.570                    22382741.555
        45.900          30.900
 111251621.500 7  86689599.77745  21170479.297                    21170484.598
        46.300          30.800
 118868741.804 7  92625051.18045  22619979.680                    22619985.621
        44.000          31.300
 119417170.374 7  93052381.97244  22724338.273                    22724341.387
        46.700          26.400
 18  3 11 12 52 37.0000000  0 16R05G15R04R06R13R14R15R22R23G28G11G19
                                G10G24G01G17
                  84396359.809 5  20298972.625                    20298973.840
                        33.700
 122946198.115 7  95802246.10243  23395886.055                    23395887.766
        44.000          22.900
                  91837329.203 6  22049965.656                    22049966.379
                        37.000
                  92262255.369 5  22229880.656                    22229882.832
                        33.400
                  84176497.602 5  20267426.031                    20267426.211
                        30.900
                  81286121.838 6  19605949.164                    19605949.887
                        37.800
                  92082270.338 5  22155353.813                    22155357.461
                        31.300
                  84743843.840 6  20411202.758                    20411204.152
                        37.500
                  90489588.880 5  21749239.617                    21749244.137
                        33.300
 119129360.330 7  92828070.63344  22669560.531                    22669563.203
        46.300          29.800
 118264231.652 7  92153960.23144  22504937.398                    22504938.895
        46.600          28.100
 124461913.922 5  96983265.49642  23684302.688                    23684306.270
        35.700          17.800
 117623554.938 7  91654739.76445  22383018.523                    22383024.488
        45.800          31.800
 111250623.148 7  86688821.83745  21170289.086                    21170294.340
        46.000          31.200
 118867657.613 7  92624206.35045  22619773.328                    22619779.715
        44.000          31.200
 119415182.775 7  93050833.20644  22723959.938                    22723962.734
        46.300          26.300
 18  3 11 12 52 38.0000000  0 16R05G15R04R06R13R14R15R22R23G28G11G19
                                G10G24G01G17
                  84397048.765 5  20299137.789                    20299140.176
                        33.700
 122949954.025 7  95805172.80043  23396600.695                    23396603.145
        44.700          22.500
                  91840751.739 6  22050786.750                    22050788.098
                        36.300
                  92259646.148 5  22229252.461                    22229253.871
                        33.400
                  84178912.097 5  20268006.703                    20268007.578
                        30.600
                  81285226.653 6  19605732.820                    19605734.430
                        37.300
                  92079326.574 5  22154644.602                    22154649.074
                        31.200
                  84744728.023 6  20411415.844                    20411416.488
                        37.300
                  90486965.604 5  21748608.773                    21748613.941
                        33.600
 119132244.661 7  92830318.16644  22670109.453                    22670111.813
        46.400          29.300
 118265097.172 7  92154634.67744  22505101.641                    22505103.914
        46.600          27.600
 124458550.996 5  96980645.03942  23683663.180                    23683666.090
        35.900          17.800
 117625041.714 7  91655898.28245  22383301.719                    22383307.855
        46.100          31.900
 111249625.424 7  86688044.38945  21170099.180                    21170105.051
        46.000          31.500
 118866574.108 7  92623362.06145  22619566.867                    22619573.184
        43.700          31.200
 119413195.687 7  93049284.83044  22723582.492                    22723585.023
        47.400          25.800
 18  3 11 12 52 39.0000000  0 16R05G15R04R06R13R14R15R22R23G28G11G19
                                G10G24G01G17
                  84397738.451 5  20299303.898                    20299305.352
                        34.000
 122953710.257 7  95808099.75543  23397314.805                    23397317.836
        44.400          22.300
                  91844174.594 6  22051609.594                    22051609.590
                        36.100
                  92257037.309 5  22228624.750                    22228626.168
                        33.100
                  84181327.091 5  20268588.492                    20268589.172
                        30.800
                  81284332.093 6  19605517.555                    19605518.574
                        37.300
                  92076383.073 5  22153936.320                    22153940.641
                        31.000
                  84745612.952 6  20411629.281                    20411630.145
                        37.300
                  90484342.797 5  21747979.586                    21747983.402
                        32.900
 119135129.365 7  92832565.98745  22670658.680                    22670661.227
        46.600          30.100
 118265963.460 7  92155309.72344  22505265.469                    22505268.594
        45.800          28.300
 124455188.357 5  96978024.80342  23683024.180                    23683026.797
        35.800          17.800
 117626529.151 7  91657057.32145  22383584.836                    22383590.645
        45.900          31.300
 111248628.339 7  86687267.44045  21169909.695                    21169915.273
        45.600          31.800
 118865491.279 7  92622518.30145  22619361.766                    22619367.105
        44.300          30.600
 119411209.097 7  93047736.83644  22723204.500                    22723206.773
        47.400          26.100
 18  3 11 12 52 40.0000000  0 16R05G15R04R06R13R14R15R22R23G28G11G19
                                G10G24G01G17
                  84398428.927 5  20299469.344                    20299472.188
                        33.800
 122957466.815 7  95811026.95643  23398029.086                    23398032.703
        43.900          22.600
                  91847597.813 6  22052431.195                    22052431.637
                        36.300
                  92254428.881 5  22227995.758                    22227997.383
                        33.000
                  84183742.615 5  20269170.906                    20269170.520
                        31.400
                  81283438.138 6  19605301.953                    19605303.031
                        37.500
                  92073439.861 5  22153229.555                    22153232.707
                        31.800
                  84746498.633 6  20411842.344                    20411843.672
                        37.300
                  90481720.398 5  21747349.680                    21747353.473
                        33.300
 119138014.467 7  92834814.10944  22671207.086                    22671210.250
        46.900          29.600
 118266830.532 7  92155985.37744  22505429.977                    22505433.547
        45.100          27.900
 124451826.088 6  96975404.82743  23682383.539                    23682387.008
        36.300          18.300
 117628017.308 7  91658216.91645  22383868.156                    22383874.070
        45.800          31.700
 111247631.927 7  86686491.01345  21169719.742                    21169725.488
        45.800          31.700
 118864409.193 7  92621675.12545  22619155.148                    22619161.488
        44.400          30.800
 119409223.006 7  93046189.22044  22722825.938                    22722829.082
        47.500          26.300
 18  3 11 12 52 41.0000000  0 16R05G15R04R06R13R14R15R22R23G28G11G19
                                G10G24G01G17
                  84399120.126 5  20299635.977                    20299637.605
                        33.900
 122961223.728 7  95813954.42643  23398743.281                    23398747.570
        42.700          22.000
                  91851021.360 6  22053252.289                    22053253.402
                        36.100
                  92251820.837 5  22227368.008                    22227368.465
                        33.600
                  84186158.660 5  20269752.781                    20269752.652
                        30.800
                  81282544.816 6  19605086.039                    19605087.496
                        37.500
                  92070496.857 5  22152520.031                    22152524.719
                        31.500
                  84747385.066 6  20412055.438                    20412056.766
                        37.000
                  90479098.411 5  21746718.750                    21746723.273
                        33.100
 119140899.974 7  92837062.56244  22671756.406                    22671759.266
        46.700          29.200
 118267698.375 7  92156661.61544  22505595.219                    22505598.430
        45.200          28.000
 124448464.104 6  96972785.11242  23681743.984                    23681747.531
        37.100          17.800
 117629506.123 7  91659377.02245  22384151.625                    22384157.223
        45.700          31.800
 111246636.152 7  86685715.08445  21169530.641                    21169535.977
        45.600          31.900
 118863327.781 7  92620832.47545  22618949.445                    22618955.504
        44.600          31.400
 119407237.382 7  93044641.97644  22722447.813                    22722451.035
        47.000          26.600
 18  3 11 12 52 42.0000000  0 16R05G15R04R06R13R14R15R22R23G28G11G19
                                G10G24G01G17
                  84399812.107 5  20299801.516                    20299804.270
                        34.000
 122964981.065 6  95816882.23443  23399457.922                    23399462.219
        41.800          21.800
                  91854445.279 5  22054074.898                    22054075.930
                        35.700
                  92249213.247 5  22226739.305                    22226740.262
                        32.900
                  84188575.264 5  20270333.688                    20270334.480
                        30.700
                  81281652.166 6  19604870.297                    19604872.543
                        37.700
                  92067554.175 5  22151812.484                    22151816.434
                        31.200
                  84748272.268 6  20412269.594                    20412270.566
                        37.000
                  90476476.908 5  21746088.578                    21746092.516
                        32.300
 119143785.922 7  92839311.35844  22672306.023                    22672308.227
        46.700          29.600
 118268567.031 7  92157338.47944  22505760.625                    22505763.781
        45.200          27.900
 124445102.538 6  96970165.71443  23681104.625                    23681107.508
        37.500          18.600
 117630995.680 7  91660537.71145  22384435.195                    22384440.512
        46.100          31.800
 111245641.080 7  86684939.70745  21169341.125                    21169346.734
        45.600          31.400
 118862247.110 7  92619990.39645  22618744.117                    22618750.039
        44.700          30.900
 119405252.310 7  93043095.16244  22722070.305                    22722073.434
        46.800          26.500
 18  3 11 12 52 43.0000000  0 16R05G15R04R06R13R14R15R22R23G28G11G19
                                G10G24G01G17
                  84400504.849 5  20299968.891                    20299970.914
                        33.800
 122968738.741 6  95819810.27343  23400173.703                    23400177.020
        41.100          21.800
                  91857869.584 6  22054896.727                    22054898.148
                        36.200
                  92246606.069 5  22226111.422                    22226112.070
                        32.900
                  84190992.419 5  20270915.484                    20270916.496
                        31.100
                  81280760.132 6  19604655.195                    19604657.117
                        37.700
                  92064611.760 5  22151104.680                    22151108.617
                        31.000
                  84749160.235 6  20412483.383                    20412484.484
                        37.200
                  90473855.859 5  21745458.961                    21745463.039
                        33.300
 119146672.277 7  92841560.46944  22672854.234                    22672857.363
        46.000          29.200
 118269436.443 7  92158015.92844  22505927.063                    22505929.387
        45.500          27.000
 124441741.308 6  96967546.55442  23680465.211                    23680467.832
        37.300          17.800
 117632485.919 7  91661698.93945  22384719.234                    22384724.270
        46.000          31.100
 111244646.679 7  86684164.85345  21169152.133                    21169157.453
        45.800          32.100
 118861167.145 7  92619148.86445  22618538.227                    22618544.461
        44.700          31.300
 119403267.771 7  93041548.77044  22721693.141                    22721695.945
        47.100          26.700
 18  3 11 12 52 44.0000000  0 16R05G15R04R06R13R14R15R22R23G28G11G19
                                G10G24G01G17
                  84401198.305 5  20300136.641                    20300137.605
                        33.800
 122972496.695 6  95822738.53143  23400889.258                    23400892.031
        41.900          21.500
                  91861294.244 6  22055719.500                    22055720.113
                        36.800
                  92243999.258 5  22225482.695                    22225483.641
                        33.600
                  84193410.037 5  20271498.078                    20271498.547
                        30.600
                  81279868.725 6  19604440.688                    19604442.078
                        37.900
                  92061669.598 5  22150397.180                    22150400.516
                        31.900
                  84750048.941 6  20412697.578                    20412698.758
                        37.300
                  90471235.221 5  21744827.625                    21744833.398
                        32.500
 119149559.011 7  92843809.86444  22673404.633                    22673406.695
        46.500          29.100
 118270306.601 7  92158693.96744  22506092.883                    22506094.883
        45.800          27.700
 124438380.391 6  96964927.66643  23679825.523                    23679828.379
        37.500          18.300
 117633976.816 7  91662860.68145  22385002.422                    22385007.863
        46.300          31.100
 111243652.857 7  86683390.44445  21168962.781                    21168968.289
        45.900          31.500
 118860087.877 7  92618307.88945  22618333.234                    22618339.102
        44.900          30.800
 119401283.720 7  93040002.75344  22721315.234                    22721318.266
        47.000          26.600
 18  3 11 12 52 45.0000000  0 16R05G15R04R06R13R14R15R22R23G28G11G19
                                G10G24G01G17
                  84401892.468 5  20300302.805                    20300304.988
                        33.600
 122976254.967 7  95825667.05543  23401604.688                    23401607.406
        43.000          22.300
                  91864719.246 6  22056541.953                    22056542.137
                        36.300
