% program   : RTKPOST ver.2.4.2
% inp file  : Z:\home\linda\Documents\Spring18\GitHub_Unis\data\processed_data\46250728.obs
% inp file  : Z:\home\linda\Documents\Spring18\GitHub_Unis\data\base_station_data\lyrs0720.18o
% inp file  : Z:\home\linda\Documents\Spring18\GitHub_Unis\data\processed_data\46250728.nav
% obs start : 2018/03/13 15:07:39.0 GPST (week1992 227259.0s)
% obs end   : 2018/03/13 15:14:54.0 GPST (week1992 227694.0s)
% pos mode  : static
% freqs     : L1+L2
% solution  : forward
% elev mask : 15.0 deg
% dynamics  : on
% tidecorr  : off
% ionos opt : iono-free
% tropo opt : saastamoinen
% ephemeris : broadcast
% navi sys  : gps glonass galileo qzss sbas
% amb res   : fix and hold
% amb glo   : on
% val thres : 3.0
% antenna1  :                       ( 0.0000  0.0000  0.0000)
% antenna2  :                       ( 0.0000  0.0000  0.0000)
% ref pos   : 78.228825638   15.397310064   495.6816
%
% (lat/lon/height=WGS84/ellipsoidal,Q=1:fix,2:float,3:sbas,4:dgps,5:single,6:ppp,ns=# of satellites)
%  GPST                  latitude(deg) longitude(deg)  height(m)   Q  ns   sdn(m)   sde(m)   sdu(m)  sdne(m)  sdeu(m)  sdun(m) age(s)  ratio
2018/03/13 15:07:39.000   78.255295605   16.193790850   486.8348   2  10   0.9881   0.8042   3.5333  -0.2247   0.5477   1.1043   0.00    1.0
2018/03/13 15:07:40.000   78.255296259   16.193781497   487.0857   2  10   0.6998   0.5691   2.5079  -0.1589   0.3885   0.7844   0.00    1.0
2018/03/13 15:07:41.000   78.255297127   16.193768968   486.5168   2  10   0.5716   0.4648   2.0495  -0.1298   0.3174   0.6412   0.00    1.1
2018/03/13 15:07:42.000   78.255294654   16.193780962   486.1719   2  10   0.4951   0.4025   1.7748  -0.1125   0.2747   0.5554   0.00    1.0
2018/03/13 15:07:43.000   78.255295406   16.193778155   485.8110   2  10   0.4428   0.3600   1.5866  -0.1007   0.2455   0.4965   0.00    1.0
2018/03/13 15:07:44.000   78.255295436   16.193780069   485.3703   2  10   0.4042   0.3286   1.4472  -0.0920   0.2238   0.4529   0.00    1.0
2018/03/13 15:07:45.000   78.255294902   16.193783079   485.6478   2  10   0.3741   0.3042   1.3383  -0.0853   0.2069   0.4188   0.00    1.0
2018/03/13 15:07:46.000   78.255294593   16.193779067   485.1932   2  10   0.3499   0.2846   1.2501  -0.0799   0.1931   0.3912   0.00    1.0
2018/03/13 15:07:47.000   78.255294184   16.193779018   484.9647   2  10   0.3298   0.2682   1.1767  -0.0755   0.1816   0.3682   0.00    1.1
2018/03/13 15:07:48.000   78.255293322   16.193779838   484.8914   2  10   0.3127   0.2544   1.1143  -0.0718   0.1719   0.3486   0.00    1.1
2018/03/13 15:07:49.000   78.255293378   16.193779017   484.8063   2  10   0.2980   0.2425   1.0603  -0.0686   0.1634   0.3316   0.00    1.1
2018/03/13 15:07:50.000   78.255293600   16.193778630   484.8334   2  10   0.2852   0.2322   1.0128  -0.0658   0.1559   0.3168   0.00    1.1
2018/03/13 15:07:51.000   78.255294083   16.193783137   485.0748   2  10   0.2739   0.2230   0.9707  -0.0634   0.1493   0.3035   0.00    1.1
2018/03/13 15:07:52.000   78.255294520   16.193784744   485.2212   2  10   0.2638   0.2149   0.9329  -0.0612   0.1433   0.2916   0.00    1.1
2018/03/13 15:07:53.000   78.255294703   16.193781367   485.0824   2  10   0.2547   0.2075   0.8987  -0.0593   0.1379   0.2809   0.00    1.0
2018/03/13 15:07:54.000   78.255295015   16.193778918   485.2318   2  10   0.2464   0.2009   0.8676  -0.0576   0.1330   0.2711   0.00    1.0
2018/03/13 15:07:55.000   78.255295795   16.193779322   485.5071   2  10   0.2389   0.1948   0.8390  -0.0560   0.1284   0.2621   0.00    1.0
2018/03/13 15:07:56.000   78.255296031   16.193780581   485.6982   2  10   0.2320   0.1893   0.8126  -0.0546   0.1242   0.2537   0.00    1.0
2018/03/13 15:07:57.000   78.255296488   16.193783058   485.9622   2  10   0.2257   0.1842   0.7881  -0.0533   0.1203   0.2460   0.00    1.0
2018/03/13 15:07:58.000   78.255296749   16.193783994   486.1448   2  10   0.2198   0.1794   0.7653  -0.0521   0.1166   0.2388   0.00    1.0
2018/03/13 15:07:59.000   78.255296910   16.193785398   486.2271   2  10   0.2143   0.1750   0.7440  -0.0510   0.1132   0.2321   0.00    1.0
2018/03/13 15:08:00.000   78.255297249   16.193784742   486.3332   2  10   0.2092   0.1710   0.7240  -0.0500   0.1100   0.2257   0.00    1.1
2018/03/13 15:08:01.000   78.255297041   16.193784969   486.2780   2  10   0.2044   0.1671   0.7051  -0.0491   0.1069   0.2197   0.00    1.1
2018/03/13 15:08:02.000   78.255297022   16.193784375   486.3194   2  10   0.1999   0.1635   0.6873  -0.0482   0.1040   0.2141   0.00    1.1
2018/03/13 15:08:03.000   78.255297316   16.193783298   486.4114   2  10   0.1957   0.1602   0.6704  -0.0474   0.1012   0.2087   0.00    1.1
2018/03/13 15:08:04.000   78.255297248   16.193782365   486.4416   2  10   0.1917   0.1570   0.6543  -0.0467   0.0986   0.2036   0.00    1.1
2018/03/13 15:08:05.000   78.255297287   16.193783489   486.5516   2  10   0.1879   0.1540   0.6391  -0.0460   0.0961   0.1988   0.00    1.1
2018/03/13 15:08:06.000   78.255297207   16.193785075   486.6406   2  10   0.1843   0.1511   0.6245  -0.0453   0.0937   0.1941   0.00    1.1
2018/03/13 15:08:07.000   78.255296897   16.193785376   486.5777   2   9   0.1812   0.1489   0.6122  -0.0458   0.0894   0.1909   0.00    1.1
2018/03/13 15:08:08.000   78.255297131   16.193785379   486.6489   2  10   0.1781   0.1463   0.5996  -0.0452   0.0873   0.1870   0.00    1.0
2018/03/13 15:08:09.000   78.255297572   16.193785001   486.7019   2  10   0.1750   0.1438   0.5876  -0.0446   0.0852   0.1833   0.00    1.0
2018/03/13 15:08:10.000   78.255297706   16.193783984   486.7362   2  10   0.1722   0.1415   0.5761  -0.0441   0.0832   0.1798   0.00    1.1
2018/03/13 15:08:11.000   78.255297740   16.193784146   486.7731   2  10   0.1694   0.1392   0.5649  -0.0435   0.0812   0.1764   0.00    1.2
2018/03/13 15:08:12.000   78.255297528   16.193784815   486.9291   2   9   0.1669   0.1374   0.5548  -0.0439   0.0777   0.1736   0.00    1.1
2018/03/13 15:08:13.000   78.255297283   16.193785145   486.9266   2   9   0.1645   0.1357   0.5449  -0.0442   0.0744   0.1709   0.00    1.1
2018/03/13 15:08:14.000   78.255297589   16.193785792   486.9782   2   9   0.1622   0.1341   0.5354  -0.0444   0.0711   0.1683   0.00    1.1
2018/03/13 15:08:15.000   78.255297649   16.193786083   486.9666   2   9   0.1600   0.1325   0.5261  -0.0446   0.0680   0.1658   0.00    1.1
2018/03/13 15:08:16.000   78.255297764   16.193786108   486.9619   2   9   0.1579   0.1309   0.5172  -0.0448   0.0650   0.1633   0.00    1.0
2018/03/13 15:08:17.000   78.255297777   16.193786124   486.9713   2   9   0.1558   0.1294   0.5085  -0.0449   0.0621   0.1608   0.00    1.0
2018/03/13 15:08:18.000   78.255297784   16.193786153   486.9719   2  10   0.1537   0.1276   0.4996  -0.0444   0.0608   0.1580   0.00    1.0
2018/03/13 15:08:19.000   78.255298095   16.193786023   486.9782   2  10   0.1516   0.1259   0.4909  -0.0439   0.0595   0.1553   0.00    1.0
2018/03/13 15:08:20.000   78.255298120   16.193785782   487.0864   2  10   0.1497   0.1243   0.4826  -0.0434   0.0582   0.1527   0.00    1.1
2018/03/13 15:08:21.000   78.255298160   16.193786515   487.0937   2  10   0.1477   0.1227   0.4744  -0.0429   0.0570   0.1501   0.00    1.1
2018/03/13 15:08:22.000   78.255298188   16.193787408   487.0900   2  10   0.1459   0.1212   0.4665  -0.0425   0.0558   0.1476   0.00    1.1
2018/03/13 15:08:23.000   78.255298282   16.193787496   487.1125   2  10   0.1441   0.1197   0.4588  -0.0421   0.0546   0.1452   0.00    1.1
2018/03/13 15:08:24.000   78.255298118   16.193786716   487.0647   2  10   0.1424   0.1183   0.4513  -0.0417   0.0534   0.1428   0.00    1.2
2018/03/13 15:08:25.000   78.255298075   16.193787084   487.0451   2  10   0.1407   0.1169   0.4441  -0.0413   0.0522   0.1405   0.00    1.2
2018/03/13 15:08:26.000   78.255298114   16.193787540   487.0002   2  10   0.1390   0.1156   0.4370  -0.0409   0.0511   0.1383   0.00    1.2
2018/03/13 15:08:27.000   78.255298076   16.193787662   486.9669   2  10   0.1374   0.1143   0.4300  -0.0406   0.0499   0.1361   0.00    1.2
2018/03/13 15:08:28.000   78.255298196   16.193788065   487.0128   2  10   0.1359   0.1130   0.4233  -0.0402   0.0488   0.1340   0.00    1.2
2018/03/13 15:08:29.000   78.255298083   16.193788630   487.0035   2  10   0.1344   0.1118   0.4167  -0.0399   0.0477   0.1319   0.00    1.2
2018/03/13 15:08:30.000   78.255298069   16.193788977   486.9980   2  10   0.1329   0.1106   0.4103  -0.0396   0.0466   0.1299   0.00    1.2
2018/03/13 15:08:31.000   78.255297882   16.193788385   486.9755   2  10   0.1315   0.1094   0.4040  -0.0393   0.0455   0.1279   0.00    1.2
2018/03/13 15:08:32.000   78.255297894   16.193787694   486.9501   2  10   0.1301   0.1083   0.3979  -0.0390   0.0445   0.1260   0.00    1.2
2018/03/13 15:08:33.000   78.255297796   16.193787474   486.9107   2  10   0.1288   0.1072   0.3919  -0.0387   0.0434   0.1241   0.00    1.2
2018/03/13 15:08:34.000   78.255297939   16.193787774   486.8996   2  10   0.1274   0.1061   0.3861  -0.0384   0.0424   0.1222   0.00    1.2
2018/03/13 15:08:35.000   78.255297929   16.193787755   486.8773   2  10   0.1262   0.1051   0.3803  -0.0382   0.0414   0.1204   0.00    1.2
2018/03/13 15:08:36.000   78.255297840   16.193788019   486.8927   2  10   0.1249   0.1041   0.3747  -0.0379   0.0404   0.1187   0.00    1.2
2018/03/13 15:08:37.000   78.255297705   16.193788281   486.8497   2  10   0.1237   0.1031   0.3693  -0.0377   0.0394   0.1169   0.00    1.2
2018/03/13 15:08:38.000   78.255297572   16.193788232   486.8132   2  10   0.1225   0.1021   0.3639  -0.0374   0.0384   0.1152   0.00    1.2
2018/03/13 15:08:39.000   78.255297562   16.193788400   486.7886   2  10   0.1213   0.1011   0.3587  -0.0372   0.0375   0.1136   0.00    1.1
2018/03/13 15:08:40.000   78.255297562   16.193787984   486.8475   2  10   0.1202   0.1002   0.3536  -0.0370   0.0365   0.1119   0.00    1.1
2018/03/13 15:08:41.000   78.255297570   16.193788031   486.8887   2  10   0.1190   0.0993   0.3485  -0.0368   0.0356   0.1103   0.00    1.1
2018/03/13 15:08:42.000   78.255297418   16.193788596   486.9151   2  10   0.1179   0.0984   0.3436  -0.0365   0.0347   0.1088   0.00    1.1
2018/03/13 15:08:43.000   78.255297379   16.193789480   486.9500   2  10   0.1169   0.0976   0.3388  -0.0363   0.0337   0.1073   0.00    1.1
2018/03/13 15:08:44.000   78.255297396   16.193789735   486.9916   2  10   0.1158   0.0967   0.3341  -0.0361   0.0328   0.1057   0.00    1.1
2018/03/13 15:08:45.000   78.255297370   16.193789447   487.0515   2  10   0.1148   0.0959   0.3295  -0.0359   0.0320   0.1043   0.00    1.1
2018/03/13 15:08:46.000   78.255297330   16.193790227   487.0968   2  10   0.1138   0.0951   0.3250  -0.0357   0.0311   0.1028   0.00    1.1
2018/03/13 15:08:47.000   78.255297126   16.193790613   487.1061   2  10   0.1128   0.0943   0.3205  -0.0355   0.0302   0.1014   0.00    1.1
2018/03/13 15:08:48.000   78.255297123   16.193790866   487.1268   2  10   0.1118   0.0935   0.3162  -0.0354   0.0293   0.1000   0.00    1.1
2018/03/13 15:08:49.000   78.255297166   16.193790596   487.1524   2  10   0.1109   0.0928   0.3119  -0.0352   0.0285   0.0987   0.00    1.1
2018/03/13 15:08:50.000   78.255297089   16.193790523   487.1278   2  10   0.1099   0.0920   0.3078  -0.0350   0.0276   0.0973   0.00    1.1
2018/03/13 15:08:51.000   78.255297053   16.193790594   487.1330   2  10   0.1090   0.0913   0.3037  -0.0348   0.0268   0.0960   0.00    1.1
2018/03/13 15:08:52.000   78.255297116   16.193790536   487.1464   2  10   0.1081   0.0906   0.2997  -0.0346   0.0260   0.0947   0.00    1.1
2018/03/13 15:08:53.000   78.255297200   16.193790320   487.1885   2  10   0.1072   0.0898   0.2957  -0.0345   0.0252   0.0935   0.00    1.1
2018/03/13 15:08:54.000   78.255297237   16.193790243   487.1831   2  10   0.1064   0.0892   0.2919  -0.0343   0.0243   0.0922   0.00    1.1
2018/03/13 15:08:55.000   78.255297016   16.193791015   487.1597   2  10   0.1055   0.0885   0.2881  -0.0341   0.0235   0.0910   0.00    1.1
2018/03/13 15:08:56.000   78.255297039   16.193791270   487.1705   2  10   0.1047   0.0878   0.2844  -0.0340   0.0227   0.0898   0.00    1.1
2018/03/13 15:08:57.000   78.255296957   16.193791588   487.1839   2  10   0.1039   0.0872   0.2807  -0.0338   0.0219   0.0886   0.00    1.1
2018/03/13 15:08:58.000   78.255296823   16.193791947   487.1980   2  10   0.1030   0.0865   0.2772  -0.0337   0.0211   0.0875   0.00    1.1
2018/03/13 15:08:59.000   78.255296755   16.193791877   487.2040   2  10   0.1022   0.0859   0.2737  -0.0335   0.0203   0.0863   0.00    1.1
2018/03/13 15:09:00.000   78.255296582   16.193792164   487.2047   2  10   0.1015   0.0853   0.2702  -0.0334   0.0195   0.0852   0.00    1.1
2018/03/13 15:09:01.000   78.255296459   16.193792566   487.1928   2  10   0.1007   0.0846   0.2669  -0.0332   0.0188   0.0841   0.00    1.1
2018/03/13 15:09:02.000   78.255296525   16.193792689   487.2263   2  10   0.0999   0.0840   0.2635  -0.0331   0.0180   0.0830   0.00    1.1
2018/03/13 15:09:03.000   78.255296509   16.193793303   487.2159   2  10   0.0992   0.0834   0.2603  -0.0329   0.0172   0.0820   0.00    1.0
2018/03/13 15:09:04.000   78.255296365   16.193793769   487.2265   2  10   0.0985   0.0829   0.2571  -0.0328   0.0164   0.0809   0.00    1.0
2018/03/13 15:09:05.000   78.255296324   16.193794079   487.2215   2  10   0.0977   0.0823   0.2540  -0.0326   0.0156   0.0799   0.00    1.0
2018/03/13 15:09:06.000   78.255296299   16.193794150   487.2285   2  10   0.0970   0.0817   0.2509  -0.0325   0.0148   0.0789   0.00    1.0
2018/03/13 15:09:07.000   78.255296278   16.193794632   487.2467   2  10   0.0963   0.0812   0.2479  -0.0323   0.0139   0.0779   0.00    1.0
2018/03/13 15:09:08.000   78.255296267   16.193794787   487.2523   2  10   0.0957   0.0806   0.2449  -0.0322   0.0131   0.0770   0.00    1.0
2018/03/13 15:09:09.000   78.255296230   16.193794829   487.2576   2  10   0.0950   0.0801   0.2420  -0.0321   0.0122   0.0760   0.00    1.0
2018/03/13 15:09:10.000   78.255296196   16.193795245   487.2711   2  10   0.0943   0.0796   0.2391  -0.0319   0.0114   0.0751   0.00    1.0
2018/03/13 15:09:11.000   78.255296177   16.193795352   487.2740   2  10   0.0936   0.0790   0.2363  -0.0318   0.0105   0.0742   0.00    1.0
2018/03/13 15:09:12.000   78.255296065   16.193795544   487.2581   2  10   0.0930   0.0785   0.2336  -0.0317   0.0095   0.0733   0.00    1.0
2018/03/13 15:09:13.000   78.255295944   16.193795826   487.2548   2  10   0.0924   0.0780   0.2309  -0.0315   0.0085   0.0724   0.00    1.0
2018/03/13 15:09:14.000   78.255295827   16.193795859   487.2660   2  10   0.0917   0.0775   0.2282  -0.0314   0.0074   0.0715   0.00    1.0
2018/03/13 15:09:15.000   78.255295748   16.193795874   487.2523   2  10   0.0911   0.0770   0.2256  -0.0313   0.0062   0.0706   0.00    1.0
2018/03/13 15:09:16.000   78.255295627   16.193795979   487.2434   2  10   0.0905   0.0765   0.2230  -0.0312   0.0047   0.0698   0.00    1.0
2018/03/13 15:09:17.000   78.255295525   16.193796146   487.2295   2  10   0.0899   0.0760   0.2205  -0.0310   0.0026   0.0690   0.00    1.0
2018/03/13 15:09:18.000   78.255295443   16.193796001   487.2298   2  10   0.0893   0.0756   0.2180  -0.0309  -0.0028   0.0681   0.00    1.0
2018/03/13 15:09:19.000   78.255295396   16.193796227   487.2252   2  10   0.0887   0.0751   0.2156  -0.0308  -0.0046   0.0673   0.00    1.0
2018/03/13 15:09:20.000   78.255295386   16.193796738   487.2058   2  10   0.0881   0.0746   0.2132  -0.0307  -0.0059   0.0665   0.00    1.1
2018/03/13 15:09:21.000   78.255295240   16.193796742   487.2073   2  10   0.0876   0.0742   0.2108  -0.0306  -0.0069   0.0658   0.00    1.1
2018/03/13 15:09:22.000   78.255295202   16.193796913   487.2076   2  10   0.0870   0.0737   0.2085  -0.0304  -0.0077   0.0650   0.00    1.1
2018/03/13 15:09:23.000   78.255295164   16.193797035   487.2075   2  10   0.0864   0.0733   0.2062  -0.0303  -0.0084   0.0643   0.00    1.1
2018/03/13 15:09:24.000   78.255295072   16.193797217   487.1928   2  10   0.0859   0.0729   0.2040  -0.0302  -0.0091   0.0635   0.00    1.1
2018/03/13 15:09:25.000   78.255294999   16.193797595   487.1896   2  10   0.0853   0.0724   0.2018  -0.0301  -0.0096   0.0628   0.00    1.1
2018/03/13 15:09:26.000   78.255294935   16.193797920   487.1757   2  10   0.0848   0.0720   0.1996  -0.0300  -0.0101   0.0621   0.00    1.0
2018/03/13 15:09:27.000   78.255294882   16.193798210   487.1749   2  10   0.0843   0.0716   0.1975  -0.0299  -0.0106   0.0614   0.00    1.0
2018/03/13 15:09:28.000   78.255294855   16.193798138   487.1675   2  10   0.0838   0.0712   0.1954  -0.0297  -0.0110   0.0607   0.00    1.0
2018/03/13 15:09:29.000   78.255294786   16.193798198   487.1602   2  10   0.0832   0.0707   0.1934  -0.0296  -0.0114   0.0600   0.00    1.0
2018/03/13 15:09:30.000   78.255294730   16.193798342   487.1323   2  10   0.0827   0.0703   0.1913  -0.0295  -0.0118   0.0593   0.00    1.0
2018/03/13 15:09:31.000   78.255294692   16.193798475   487.1182   2  10   0.0822   0.0699   0.1894  -0.0294  -0.0121   0.0586   0.00    1.0
2018/03/13 15:09:32.000   78.255294602   16.193798864   487.1096   2  10   0.0817   0.0695   0.1874  -0.0293  -0.0124   0.0580   0.00    1.0
2018/03/13 15:09:33.000   78.255294513   16.193799149   487.1020   2  10   0.0812   0.0692   0.1855  -0.0292  -0.0127   0.0573   0.00    1.0
2018/03/13 15:09:34.000   78.255294462   16.193799261   487.0934   2  10   0.0808   0.0688   0.1836  -0.0291  -0.0130   0.0567   0.00    1.0
2018/03/13 15:09:35.000   78.255294399   16.193799734   487.0958   2  10   0.0803   0.0684   0.1817  -0.0290  -0.0132   0.0561   0.00    1.0
2018/03/13 15:09:36.000   78.255294302   16.193800152   487.0964   2  10   0.0798   0.0680   0.1799  -0.0289  -0.0134   0.0555   0.00    1.0
2018/03/13 15:09:37.000   78.255294166   16.193800379   487.0930   2  10   0.0793   0.0676   0.1781  -0.0288  -0.0137   0.0549   0.00    1.0
2018/03/13 15:09:38.000   78.255294138   16.193800456   487.0928   2  10   0.0789   0.0673   0.1763  -0.0287  -0.0139   0.0543   0.00    1.0
2018/03/13 15:09:39.000   78.255294082   16.193800848   487.0834   2  10   0.0784   0.0669   0.1746  -0.0285  -0.0140   0.0537   0.00    1.0
2018/03/13 15:09:40.000   78.255293969   16.193800994   487.0844   2  10   0.0780   0.0665   0.1729  -0.0284  -0.0142   0.0531   0.00    1.0
2018/03/13 15:09:41.000   78.255293909   16.193801364   487.0785   2  10   0.0775   0.0662   0.1712  -0.0283  -0.0144   0.0525   0.00    1.0
2018/03/13 15:09:42.000   78.255293845   16.193801611   487.0883   2  10   0.0771   0.0658   0.1695  -0.0282  -0.0145   0.0520   0.00    1.0
2018/03/13 15:09:43.000   78.255293795   16.193801829   487.0920   2  10   0.0766   0.0655   0.1679  -0.0281  -0.0147   0.0514   0.00    1.0
2018/03/13 15:09:44.000   78.255293728   16.193801883   487.0940   2  10   0.0762   0.0651   0.1662  -0.0280  -0.0148   0.0509   0.00    1.0
2018/03/13 15:09:45.000   78.255293660   16.193802285   487.0958   2  10   0.0758   0.0648   0.1647  -0.0279  -0.0149   0.0504   0.00    1.0
2018/03/13 15:09:46.000   78.255293671   16.193802278   487.1057   2  10   0.0753   0.0644   0.1631  -0.0278  -0.0150   0.0498   0.00    1.0
2018/03/13 15:09:47.000   78.255293644   16.193802390   487.1066   2  10   0.0749   0.0641   0.1616  -0.0277  -0.0151   0.0493   0.00    1.0
2018/03/13 15:09:48.000   78.255293632   16.193802355   487.1098   2  10   0.0745   0.0638   0.1600  -0.0276  -0.0152   0.0488   0.00    1.0
2018/03/13 15:09:49.000   78.255293579   16.193802520   487.1104   2  10   0.0741   0.0634   0.1585  -0.0275  -0.0153   0.0483   0.00    1.0
2018/03/13 15:09:50.000   78.255293546   16.193802477   487.1097   2  10   0.0737   0.0631   0.1571  -0.0274  -0.0154   0.0478   0.00    1.0
2018/03/13 15:09:51.000   78.255293550   16.193802502   487.1260   2  10   0.0733   0.0628   0.1556  -0.0273  -0.0155   0.0473   0.00    1.0
2018/03/13 15:09:52.000   78.255293498   16.193802416   487.1214   2  10   0.0729   0.0625   0.1542  -0.0272  -0.0156   0.0468   0.00    1.0
2018/03/13 15:09:53.000   78.255293437   16.193802423   487.1288   2  10   0.0725   0.0622   0.1528  -0.0271  -0.0156   0.0463   0.00    1.0
2018/03/13 15:09:54.000   78.255293440   16.193802617   487.1329   2  10   0.0721   0.0619   0.1514  -0.0270  -0.0157   0.0459   0.00    1.0
2018/03/13 15:09:55.000   78.255293406   16.193802693   487.1304   2  10   0.0717   0.0615   0.1501  -0.0270  -0.0158   0.0454   0.00    1.0
2018/03/13 15:09:56.000   78.255293385   16.193802802   487.1216   2  10   0.0714   0.0612   0.1487  -0.0269  -0.0158   0.0449   0.00    1.0
2018/03/13 15:09:57.000   78.255293348   16.193802876   487.1249   2  10   0.0710   0.0609   0.1474  -0.0268  -0.0159   0.0445   0.00    1.0
2018/03/13 15:09:58.000   78.255293308   16.193802628   487.1358   2  10   0.0706   0.0606   0.1461  -0.0267  -0.0159   0.0441   0.00    1.0
2018/03/13 15:09:59.000   78.255293292   16.193802588   487.1409   2  10   0.0702   0.0603   0.1448  -0.0266  -0.0160   0.0436   0.00    1.0
2018/03/13 15:10:00.000   78.255293293   16.193802695   487.1486   2  10   0.0699   0.0600   0.1435  -0.0265  -0.0160   0.0432   0.00    1.0
2018/03/13 15:10:01.000   78.255293301   16.193802415   487.1533   2  10   0.0695   0.0597   0.1423  -0.0264  -0.0160   0.0428   0.00    1.0
2018/03/13 15:10:02.000   78.255293272   16.193802463   487.1559   2  10   0.0691   0.0595   0.1411  -0.0263  -0.0160   0.0423   0.00    1.0
2018/03/13 15:10:03.000   78.255293246   16.193802456   487.1504   2  10   0.0688   0.0592   0.1398  -0.0262  -0.0161   0.0419   0.00    1.0
2018/03/13 15:10:04.000   78.255293274   16.193802192   487.1400   2  10   0.0684   0.0589   0.1386  -0.0261  -0.0161   0.0415   0.00    1.0
2018/03/13 15:10:05.000   78.255293270   16.193802306   487.1328   2  10   0.0681   0.0586   0.1375  -0.0260  -0.0161   0.0411   0.00    1.0
2018/03/13 15:10:06.000   78.255293231   16.193802492   487.1222   2  10   0.0677   0.0583   0.1363  -0.0259  -0.0161   0.0407   0.00    1.0
2018/03/13 15:10:07.000   78.255293172   16.193802503   487.1189   2  10   0.0674   0.0581   0.1352  -0.0259  -0.0161   0.0403   0.00    1.0
2018/03/13 15:10:08.000   78.255293128   16.193802493   487.1282   2  10   0.0671   0.0578   0.1340  -0.0258  -0.0161   0.0399   0.00    1.0
2018/03/13 15:10:09.000   78.255293102   16.193802559   487.1312   2  10   0.0667   0.0575   0.1329  -0.0257  -0.0162   0.0396   0.00    1.0
2018/03/13 15:10:10.000   78.255293051   16.193802693   487.1314   2  10   0.0664   0.0572   0.1318  -0.0256  -0.0162   0.0392   0.00    1.0
2018/03/13 15:10:11.000   78.255293008   16.193802805   487.1356   2  10   0.0661   0.0570   0.1307  -0.0255  -0.0162   0.0388   0.00    1.0
2018/03/13 15:10:12.000   78.255292999   16.193802993   487.1396   2  10   0.0657   0.0567   0.1297  -0.0254  -0.0162   0.0384   0.00    1.0
2018/03/13 15:10:13.000   78.255292919   16.193803189   487.1451   2  10   0.0654   0.0565   0.1286  -0.0253  -0.0162   0.0381   0.00    1.0
2018/03/13 15:10:14.000   78.255292856   16.193803351   487.1478   2  10   0.0651   0.0562   0.1276  -0.0252  -0.0162   0.0377   0.00    1.0
2018/03/13 15:10:15.000   78.255292880   16.193803502   487.1496   2  10   0.0648   0.0559   0.1266  -0.0252  -0.0161   0.0374   0.00    1.0
2018/03/13 15:10:16.000   78.255292880   16.193803660   487.1499   2  10   0.0645   0.0557   0.1256  -0.0251  -0.0161   0.0370   0.00    1.0
2018/03/13 15:10:17.000   78.255292891   16.193803629   487.1506   2  10   0.0642   0.0554   0.1246  -0.0250  -0.0161   0.0367   0.00    1.0
2018/03/13 15:10:18.000   78.255292895   16.193803608   487.1498   2  10   0.0639   0.0552   0.1236  -0.0249  -0.0161   0.0363   0.00    1.0
2018/03/13 15:10:19.000   78.255292889   16.193803763   487.1572   2  10   0.0635   0.0549   0.1226  -0.0248  -0.0161   0.0360   0.00    1.0
2018/03/13 15:10:20.000   78.255292847   16.193803559   487.1603   2  10   0.0632   0.0547   0.1217  -0.0247  -0.0161   0.0357   0.00    1.0
2018/03/13 15:10:21.000   78.255292813   16.193803695   487.1584   2  10   0.0629   0.0545   0.1207  -0.0247  -0.0161   0.0354   0.00    1.0
2018/03/13 15:10:22.000   78.255292787   16.193803805   487.1592   2  10   0.0626   0.0542   0.1198  -0.0246  -0.0161   0.0350   0.00    1.0
2018/03/13 15:10:23.000   78.255292753   16.193803728   487.1534   2  10   0.0624   0.0540   0.1189  -0.0245  -0.0160   0.0347   0.00    1.0
2018/03/13 15:10:24.000   78.255292704   16.193803630   487.1458   2  10   0.0621   0.0537   0.1180  -0.0244  -0.0160   0.0344   0.00    1.0
2018/03/13 15:10:25.000   78.255292664   16.193803548   487.1341   2  10   0.0618   0.0535   0.1171  -0.0243  -0.0160   0.0341   0.00    1.0
2018/03/13 15:10:26.000   78.255292654   16.193803682   487.1272   2  10   0.0615   0.0533   0.1162  -0.0242  -0.0160   0.0338   0.00    1.0
2018/03/13 15:10:27.000   78.255292699   16.193803520   487.1242   2  10   0.0612   0.0530   0.1153  -0.0242  -0.0159   0.0335   0.00    1.0
2018/03/13 15:10:28.000   78.255292625   16.193803190   487.1470   2  10   0.0609   0.0528   0.1144  -0.0241  -0.0159   0.0332   0.00    1.0
2018/03/13 15:10:29.000   78.255292603   16.193803168   487.1588   2   9   0.0607   0.0526   0.1137  -0.0241  -0.0161   0.0330   0.00    1.0
2018/03/13 15:10:30.000   78.255292579   16.193803063   487.1704   2   9   0.0604   0.0524   0.1130  -0.0240  -0.0162   0.0329   0.00    1.2
2018/03/13 15:10:31.000   78.255292621   16.193802929   487.1890   2  10   0.0602   0.0522   0.1123  -0.0240  -0.0163   0.0328   0.00    1.2
2018/03/13 15:10:32.000   78.255292656   16.193803035   487.1956   2  10   0.0599   0.0520   0.1116  -0.0239  -0.0164   0.0326   0.00    1.3
2018/03/13 15:10:33.000   78.255292708   16.193802954   487.1963   2  10   0.0597   0.0518   0.1109  -0.0239  -0.0164   0.0325   0.00    1.3
2018/03/13 15:10:34.000   78.255292701   16.193803079   487.1970   2  10   0.0595   0.0515   0.1102  -0.0238  -0.0165   0.0323   0.00    1.3
2018/03/13 15:10:35.000   78.255292678   16.193803209   487.1992   2  10   0.0592   0.0513   0.1095  -0.0238  -0.0166   0.0322   0.00    1.3
2018/03/13 15:10:36.000   78.255292609   16.193803424   487.2012   2  10   0.0590   0.0511   0.1088  -0.0237  -0.0166   0.0320   0.00    1.3
2018/03/13 15:10:37.000   78.255292602   16.193803414   487.2061   2  10   0.0587   0.0509   0.1081  -0.0237  -0.0167   0.0319   0.00    1.3
2018/03/13 15:10:38.000   78.255292572   16.193803552   487.2129   2  10   0.0585   0.0507   0.1075  -0.0236  -0.0167   0.0317   0.00    1.3
2018/03/13 15:10:39.000   78.255292520   16.193803424   487.2242   2  10   0.0583   0.0505   0.1068  -0.0236  -0.0168   0.0316   0.00    1.3
2018/03/13 15:10:40.000   78.255292496   16.193803449   487.2286   2  10   0.0580   0.0503   0.1061  -0.0235  -0.0168   0.0314   0.00    1.3
2018/03/13 15:10:41.000   78.255292489   16.193803535   487.2267   2  10   0.0578   0.0501   0.1055  -0.0235  -0.0169   0.0313   0.00    1.3
2018/03/13 15:10:42.000   78.255292486   16.193803472   487.2290   2  10   0.0576   0.0499   0.1049  -0.0234  -0.0169   0.0311   0.00    1.3
2018/03/13 15:10:43.000   78.255292481   16.193803529   487.2309   2  10   0.0573   0.0497   0.1042  -0.0234  -0.0169   0.0310   0.00    1.3
2018/03/13 15:10:44.000   78.255292455   16.193803476   487.2334   2  10   0.0571   0.0495   0.1036  -0.0233  -0.0170   0.0309   0.00    1.3
2018/03/13 15:10:45.000   78.255292430   16.193803611   487.2270   2  10   0.0569   0.0493   0.1030  -0.0233  -0.0170   0.0307   0.00    1.3
2018/03/13 15:10:46.000   78.255292430   16.193803619   487.2212   2  10   0.0567   0.0491   0.1024  -0.0232  -0.0170   0.0306   0.00    1.3
2018/03/13 15:10:47.000   78.255292414   16.193803775   487.2162   2  10   0.0565   0.0489   0.1018  -0.0232  -0.0171   0.0304   0.00    1.3
2018/03/13 15:10:48.000   78.255292396   16.193803836   487.2100   2  10   0.0562   0.0487   0.1012  -0.0231  -0.0171   0.0303   0.00    1.3
2018/03/13 15:10:49.000   78.255292375   16.193804059   487.2125   2  10   0.0560   0.0485   0.1006  -0.0230  -0.0171   0.0302   0.00    1.4
2018/03/13 15:10:50.000   78.255292410   16.193804187   487.2011   2   9   0.0558   0.0484   0.1001  -0.0230  -0.0172   0.0301   0.00    1.4
2018/03/13 15:10:51.000   78.255292392   16.193804511   487.1953   2   9   0.0557   0.0482   0.0996  -0.0230  -0.0173   0.0301   0.00    1.8
2018/03/13 15:10:52.000   78.255292425   16.193804509   487.1910   2   8   0.0555   0.0480   0.0992  -0.0230  -0.0175   0.0301   0.00    1.8
2018/03/13 15:10:53.000   78.255292337   16.193804500   487.1997   2   9   0.0553   0.0479   0.0987  -0.0230  -0.0176   0.0301   0.00    1.1
2018/03/13 15:10:54.000   78.255292333   16.193804570   487.2055   2  10   0.0551   0.0477   0.0982  -0.0229  -0.0177   0.0300   0.00    1.2
2018/03/13 15:10:55.000   78.255292353   16.193804540   487.2029   2  10   0.0549   0.0475   0.0978  -0.0229  -0.0177   0.0299   0.00    1.3
2018/03/13 15:10:56.000   78.255292338   16.193804521   487.2058   2  10   0.0547   0.0473   0.0973  -0.0229  -0.0178   0.0299   0.00    1.3
2018/03/13 15:10:57.000   78.255292343   16.193804607   487.2075   2  10   0.0545   0.0471   0.0968  -0.0228  -0.0179   0.0298   0.00    1.4
2018/03/13 15:10:58.000   78.255292324   16.193804467   487.2109   2  10   0.0543   0.0470   0.0964  -0.0228  -0.0179   0.0297   0.00    1.5
2018/03/13 15:10:59.000   78.255292293   16.193804418   487.2155   2  10   0.0541   0.0468   0.0959  -0.0227  -0.0180   0.0297   0.00    1.5
2018/03/13 15:11:00.000   78.255292249   16.193804429   487.2212   2  10   0.0539   0.0466   0.0955  -0.0227  -0.0180   0.0296   0.00    1.6
2018/03/13 15:11:01.000   78.255292213   16.193804487   487.2296   2  10   0.0537   0.0465   0.0951  -0.0226  -0.0181   0.0295   0.00    1.6
2018/03/13 15:11:02.000   78.255292198   16.193804458   487.2351   2  10   0.0535   0.0463   0.0946  -0.0226  -0.0181   0.0295   0.00    1.5
2018/03/13 15:11:03.000   78.255292177   16.193804257   487.2369   2  10   0.0533   0.0461   0.0942  -0.0226  -0.0182   0.0294   0.00    1.5
2018/03/13 15:11:04.000   78.255292154   16.193804311   487.2390   2  10   0.0531   0.0459   0.0937  -0.0225  -0.0182   0.0293   0.00    1.5
2018/03/13 15:11:05.000   78.255292188   16.193804244   487.2395   2  10   0.0530   0.0458   0.0933  -0.0225  -0.0183   0.0293   0.00    1.5
2018/03/13 15:11:06.000   78.255292198   16.193804158   487.2407   2  10   0.0528   0.0456   0.0929  -0.0224  -0.0183   0.0292   0.00    1.5
2018/03/13 15:11:07.000   78.255292194   16.193803967   487.2382   2  10   0.0526   0.0455   0.0925  -0.0224  -0.0183   0.0291   0.00    1.5
2018/03/13 15:11:08.000   78.255292200   16.193803835   487.2387   2  10   0.0524   0.0453   0.0920  -0.0224  -0.0184   0.0291   0.00    1.5
2018/03/13 15:11:09.000   78.255292216   16.193803812   487.2396   2  10   0.0522   0.0451   0.0916  -0.0223  -0.0184   0.0290   0.00    1.5
2018/03/13 15:11:10.000   78.255292206   16.193803688   487.2427   2  10   0.0520   0.0450   0.0912  -0.0223  -0.0184   0.0289   0.00    1.4
2018/03/13 15:11:11.000   78.255292176   16.193803655   487.2456   2  10   0.0519   0.0448   0.0908  -0.0222  -0.0185   0.0288   0.00    1.4
2018/03/13 15:11:12.000   78.255292155   16.193803625   487.2455   2  10   0.0517   0.0447   0.0904  -0.0222  -0.0185   0.0288   0.00    1.4
2018/03/13 15:11:13.000   78.255292149   16.193803551   487.2473   2  10   0.0515   0.0445   0.0900  -0.0221  -0.0185   0.0287   0.00    1.4
2018/03/13 15:11:14.000   78.255292150   16.193803424   487.2515   2  10   0.0513   0.0443   0.0896  -0.0221  -0.0186   0.0286   0.00    1.4
2018/03/13 15:11:15.000   78.255292128   16.193803345   487.2587   2  10   0.0512   0.0442   0.0892  -0.0221  -0.0186   0.0286   0.00    1.4
2018/03/13 15:11:16.000   78.255292151   16.193803142   487.2630   2  10   0.0510   0.0440   0.0888  -0.0220  -0.0186   0.0285   0.00    1.4
2018/03/13 15:11:17.000   78.255292155   16.193803061   487.2653   2  10   0.0508   0.0439   0.0884  -0.0220  -0.0186   0.0284   0.00    1.4
2018/03/13 15:11:18.000   78.255292152   16.193802954   487.2722   2  10   0.0506   0.0437   0.0880  -0.0219  -0.0186   0.0283   0.00    1.4
2018/03/13 15:11:19.000   78.255292148   16.193802632   487.2801   2  10   0.0505   0.0436   0.0876  -0.0219  -0.0186   0.0283   0.00    1.4
2018/03/13 15:11:20.000   78.255292125   16.193802518   487.2845   2  10   0.0503   0.0434   0.0872  -0.0218  -0.0187   0.0282   0.00    1.4
2018/03/13 15:11:21.000   78.255292109   16.193802510   487.2880   2  10   0.0501   0.0433   0.0868  -0.0218  -0.0187   0.0281   0.00    1.4
2018/03/13 15:11:22.000   78.255292073   16.193802305   487.2906   2  10   0.0500   0.0431   0.0864  -0.0218  -0.0187   0.0281   0.00    1.3
2018/03/13 15:11:23.000   78.255292029   16.193802158   487.2945   2  10   0.0498   0.0430   0.0861  -0.0217  -0.0187   0.0280   0.00    1.3
2018/03/13 15:11:24.000   78.255292005   16.193801983   487.3006   2  10   0.0496   0.0428   0.0857  -0.0217  -0.0187   0.0279   0.00    1.3
2018/03/13 15:11:25.000   78.255291986   16.193801950   487.3003   2  10   0.0495   0.0427   0.0853  -0.0216  -0.0187   0.0278   0.00    1.3
2018/03/13 15:11:26.000   78.255291986   16.193801858   487.3029   2  10   0.0493   0.0426   0.0849  -0.0216  -0.0187   0.0278   0.00    1.3
2018/03/13 15:11:27.000   78.255291985   16.193801914   487.3034   2  10   0.0492   0.0424   0.0846  -0.0215  -0.0187   0.0277   0.00    1.3
2018/03/13 15:11:28.000   78.255291996   16.193802026   487.3013   2  10   0.0490   0.0423   0.0842  -0.0215  -0.0187   0.0276   0.00    1.3
2018/03/13 15:11:29.000   78.255291980   16.193801933   487.3031   2  10   0.0488   0.0421   0.0838  -0.0215  -0.0187   0.0275   0.00    1.3
2018/03/13 15:11:30.000   78.255292003   16.193801712   487.3072   2  10   0.0487   0.0420   0.0835  -0.0214  -0.0187   0.0275   0.00    1.3
2018/03/13 15:11:31.000   78.255291997   16.193801577   487.3095   2  10   0.0485   0.0419   0.0831  -0.0214  -0.0187   0.0274   0.00    1.3
2018/03/13 15:11:32.000   78.255291984   16.193801438   487.3127   2  10   0.0484   0.0417   0.0828  -0.0213  -0.0187   0.0273   0.00    1.3
2018/03/13 15:11:33.000   78.255291988   16.193801318   487.3177   2  10   0.0482   0.0416   0.0824  -0.0213  -0.0187   0.0272   0.00    1.3
2018/03/13 15:11:34.000   78.255291983   16.193801136   487.3217   2  10   0.0480   0.0415   0.0820  -0.0213  -0.0187   0.0272   0.00    1.3
2018/03/13 15:11:35.000   78.255291969   16.193801006   487.3230   2  10   0.0479   0.0413   0.0817  -0.0212  -0.0187   0.0271   0.00    1.3
2018/03/13 15:11:36.000   78.255291960   16.193800841   487.3297   2  10   0.0477   0.0412   0.0813  -0.0212  -0.0187   0.0270   0.00    1.3
2018/03/13 15:11:37.000   78.255291966   16.193800811   487.3313   2  10   0.0476   0.0411   0.0810  -0.0211  -0.0187   0.0269   0.00    1.2
2018/03/13 15:11:38.000   78.255291984   16.193800633   487.3328   2  10   0.0474   0.0409   0.0807  -0.0211  -0.0187   0.0269   0.00    1.2
2018/03/13 15:11:39.000   78.255291978   16.193800542   487.3357   2  10   0.0473   0.0408   0.0803  -0.0210  -0.0187   0.0268   0.00    1.2
2018/03/13 15:11:40.000   78.255291975   16.193800421   487.3384   2  10   0.0471   0.0407   0.0800  -0.0210  -0.0187   0.0267   0.00    1.2
2018/03/13 15:11:41.000   78.255291952   16.193800298   487.3413   2  10   0.0470   0.0405   0.0796  -0.0210  -0.0187   0.0266   0.00    1.2
2018/03/13 15:11:42.000   78.255291926   16.193800159   487.3421   2  10   0.0468   0.0404   0.0793  -0.0209  -0.0187   0.0266   0.00    1.2
2018/03/13 15:11:43.000   78.255291911   16.193800108   487.3396   2  10   0.0467   0.0403   0.0790  -0.0209  -0.0187   0.0265   0.00    1.2
2018/03/13 15:11:44.000   78.255291916   16.193800065   487.3380   2  10   0.0466   0.0401   0.0787  -0.0208  -0.0187   0.0264   0.00    1.2
2018/03/13 15:11:45.000   78.255291935   16.193800070   487.3364   2  10   0.0464   0.0400   0.0783  -0.0208  -0.0187   0.0263   0.00    1.2
2018/03/13 15:11:46.000   78.255291928   16.193800043   487.3355   2  10   0.0463   0.0399   0.0780  -0.0207  -0.0186   0.0263   0.00    1.2
2018/03/13 15:11:47.000   78.255291947   16.193800015   487.3357   2  10   0.0461   0.0398   0.0777  -0.0207  -0.0186   0.0262   0.00    1.2
2018/03/13 15:11:48.000   78.255291938   16.193800036   487.3339   2  10   0.0460   0.0396   0.0774  -0.0207  -0.0186   0.0261   0.00    1.2
2018/03/13 15:11:49.000   78.255291912   16.193799957   487.3322   2  10   0.0458   0.0395   0.0770  -0.0206  -0.0186   0.0260   0.00    1.2
2018/03/13 15:11:50.000   78.255291907   16.193799852   487.3310   2  10   0.0457   0.0394   0.0767  -0.0206  -0.0186   0.0260   0.00    1.2
2018/03/13 15:11:51.000   78.255291894   16.193799792   487.3326   2  10   0.0456   0.0393   0.0764  -0.0205  -0.0186   0.0259   0.00    1.2
2018/03/13 15:11:52.000   78.255291886   16.193799698   487.3337   2  10   0.0454   0.0392   0.0761  -0.0205  -0.0185   0.0258   0.00    1.2
2018/03/13 15:11:53.000   78.255291884   16.193799622   487.3342   2  10   0.0453   0.0390   0.0758  -0.0205  -0.0185   0.0257   0.00    1.2
2018/03/13 15:11:54.000   78.255291885   16.193799470   487.3343   2  10   0.0451   0.0389   0.0755  -0.0204  -0.0185   0.0256   0.00    1.2
2018/03/13 15:11:55.000   78.255291904   16.193799305   487.3336   2  10   0.0450   0.0388   0.0752  -0.0204  -0.0185   0.0256   0.00    1.2
2018/03/13 15:11:56.000   78.255291869   16.193799302   487.3305   2  10   0.0449   0.0387   0.0749  -0.0203  -0.0185   0.0255   0.00    1.2
2018/03/13 15:11:57.000   78.255291875   16.193799216   487.3325   2  10   0.0447   0.0386   0.0746  -0.0203  -0.0185   0.0254   0.00    1.2
2018/03/13 15:11:58.000   78.255291875   16.193799065   487.3371   2  10   0.0446   0.0385   0.0743  -0.0202  -0.0184   0.0253   0.00    1.2
2018/03/13 15:11:59.000   78.255291865   16.193799014   487.3406   2  10   0.0445   0.0383   0.0740  -0.0202  -0.0184   0.0253   0.00    1.2
2018/03/13 15:12:00.000   78.255291867   16.193798928   487.3397   2  10   0.0443   0.0382   0.0737  -0.0202  -0.0184   0.0252   0.00    1.2
2018/03/13 15:12:01.000   78.255291869   16.193798747   487.3407   2  10   0.0442   0.0381   0.0734  -0.0201  -0.0184   0.0251   0.00    1.2
2018/03/13 15:12:02.000   78.255291863   16.193798658   487.3438   2  10   0.0441   0.0380   0.0731  -0.0201  -0.0183   0.0250   0.00    1.2
2018/03/13 15:12:03.000   78.255291838   16.193798620   487.3416   2  10   0.0439   0.0379   0.0728  -0.0200  -0.0183   0.0250   0.00    1.2
2018/03/13 15:12:04.000   78.255291791   16.193798663   487.3421   2  10   0.0438   0.0378   0.0725  -0.0200  -0.0183   0.0249   0.00    1.2
2018/03/13 15:12:05.000   78.255291779   16.193798583   487.3431   2  10   0.0437   0.0377   0.0722  -0.0200  -0.0183   0.0248   0.00    1.2
2018/03/13 15:12:06.000   78.255291743   16.193798589   487.3412   2  10   0.0435   0.0375   0.0719  -0.0199  -0.0182   0.0247   0.00    1.2
2018/03/13 15:12:07.000   78.255291720   16.193798706   487.3380   2  10   0.0434   0.0374   0.0716  -0.0199  -0.0182   0.0247   0.00    1.2
2018/03/13 15:12:08.000   78.255291726   16.193798667   487.3411   2  10   0.0433   0.0373   0.0714  -0.0198  -0.0182   0.0246   0.00    1.2
2018/03/13 15:12:09.000   78.255291751   16.193798547   487.3407   2  10   0.0432   0.0372   0.0711  -0.0198  -0.0182   0.0245   0.00    1.2
2018/03/13 15:12:10.000   78.255291765   16.193798478   487.3383   2  10   0.0430   0.0371   0.0708  -0.0197  -0.0181   0.0244   0.00    1.2
2018/03/13 15:12:11.000   78.255291776   16.193798315   487.3383   2  10   0.0429   0.0370   0.0705  -0.0197  -0.0181   0.0243   0.00    1.2
2018/03/13 15:12:12.000   78.255291791   16.193798215   487.3408   2  10   0.0428   0.0369   0.0703  -0.0197  -0.0181   0.0243   0.00    1.2
2018/03/13 15:12:13.000   78.255291794   16.193798155   487.3428   2  10   0.0427   0.0368   0.0700  -0.0196  -0.0181   0.0242   0.00    1.2
2018/03/13 15:12:14.000   78.255291783   16.193798102   487.3430   2  10   0.0425   0.0367   0.0697  -0.0196  -0.0180   0.0241   0.00    1.2
2018/03/13 15:12:15.000   78.255291799   16.193797948   487.3482   2  10   0.0424   0.0366   0.0694  -0.0195  -0.0180   0.0240   0.00    1.2
2018/03/13 15:12:16.000   78.255291800   16.193797883   487.3498   2  10   0.0423   0.0365   0.0692  -0.0195  -0.0180   0.0240   0.00    1.2
2018/03/13 15:12:17.000   78.255291772   16.193797772   487.3517   2  10   0.0422   0.0364   0.0689  -0.0195  -0.0179   0.0239   0.00    1.2
2018/03/13 15:12:18.000   78.255291749   16.193797689   487.3518   2  10   0.0421   0.0363   0.0686  -0.0194  -0.0179   0.0238   0.00    1.2
2018/03/13 15:12:19.000   78.255291760   16.193797588   487.3538   2  10   0.0419   0.0362   0.0684  -0.0194  -0.0179   0.0237   0.00    1.2
2018/03/13 15:12:20.000   78.255291742   16.193797569   487.3515   2  10   0.0418   0.0361   0.0681  -0.0193  -0.0178   0.0237   0.00    1.2
2018/03/13 15:12:21.000   78.255291739   16.193797568   487.3510   2  10   0.0417   0.0360   0.0679  -0.0193  -0.0178   0.0236   0.00    1.2
2018/03/13 15:12:22.000   78.255291743   16.193797606   487.3528   2  10   0.0416   0.0359   0.0676  -0.0193  -0.0178   0.0235   0.00    1.2
2018/03/13 15:12:23.000   78.255291730   16.193797600   487.3525   2  10   0.0415   0.0358   0.0673  -0.0192  -0.0177   0.0234   0.00    1.2
2018/03/13 15:12:24.000   78.255291734   16.193797526   487.3521   2  10   0.0413   0.0357   0.0671  -0.0192  -0.0177   0.0234   0.00    1.2
2018/03/13 15:12:25.000   78.255291732   16.193797493   487.3544   2  10   0.0412   0.0356   0.0668  -0.0191  -0.0177   0.0233   0.00    1.2
2018/03/13 15:12:26.000   78.255291708   16.193797478   487.3561   2  10   0.0411   0.0355   0.0666  -0.0191  -0.0176   0.0232   0.00    1.2
2018/03/13 15:12:27.000   78.255291695   16.193797472   487.3564   2  10   0.0410   0.0354   0.0663  -0.0191  -0.0176   0.0231   0.00    1.2
2018/03/13 15:12:28.000   78.255291713   16.193797443   487.3585   2  10   0.0409   0.0353   0.0661  -0.0190  -0.0176   0.0231   0.00    1.2
2018/03/13 15:12:29.000   78.255291732   16.193797376   487.3613   2  10   0.0408   0.0352   0.0658  -0.0190  -0.0175   0.0230   0.00    1.2
2018/03/13 15:12:30.000   78.255291737   16.193797348   487.3644   2  10   0.0407   0.0351   0.0656  -0.0189  -0.0175   0.0229   0.00    1.2
2018/03/13 15:12:31.000   78.255291729   16.193797336   487.3647   2  10   0.0405   0.0350   0.0654  -0.0189  -0.0175   0.0228   0.00    1.2
2018/03/13 15:12:32.000   78.255291740   16.193797281   487.3654   2  10   0.0404   0.0349   0.0651  -0.0189  -0.0174   0.0228   0.00    1.2
2018/03/13 15:12:33.000   78.255291750   16.193797215   487.3675   2  10   0.0403   0.0348   0.0649  -0.0188  -0.0174   0.0227   0.00    1.2
2018/03/13 15:12:34.000   78.255291738   16.193797230   487.3713   2  10   0.0402   0.0347   0.0646  -0.0188  -0.0174   0.0226   0.00    1.2
2018/03/13 15:12:35.000   78.255291743   16.193797186   487.3749   2  10   0.0401   0.0346   0.0644  -0.0187  -0.0173   0.0225   0.00    1.2
2018/03/13 15:12:36.000   78.255291752   16.193797117   487.3778   2  10   0.0400   0.0345   0.0642  -0.0187  -0.0173   0.0225   0.00    1.2
2018/03/13 15:12:37.000   78.255291743   16.193797083   487.3775   2  10   0.0399   0.0344   0.0639  -0.0187  -0.0173   0.0224   0.00    1.2
2018/03/13 15:12:38.000   78.255291726   16.193797024   487.3775   2  10   0.0398   0.0343   0.0637  -0.0186  -0.0172   0.0223   0.00    1.2
2018/03/13 15:12:39.000   78.255291729   16.193796978   487.3783   2  10   0.0397   0.0342   0.0635  -0.0186  -0.0172   0.0223   0.00    1.2
2018/03/13 15:12:40.000   78.255291734   16.193796935   487.3801   2  10   0.0396   0.0341   0.0632  -0.0185  -0.0172   0.0222   0.00    1.2
2018/03/13 15:12:41.000   78.255291745   16.193796931   487.3798   2  10   0.0395   0.0341   0.0630  -0.0185  -0.0171   0.0221   0.00    1.2
2018/03/13 15:12:42.000   78.255291752   16.193796884   487.3797   2  10   0.0393   0.0340   0.0628  -0.0185  -0.0171   0.0220   0.00    1.2
2018/03/13 15:12:43.000   78.255291759   16.193796836   487.3809   2  10   0.0392   0.0339   0.0625  -0.0184  -0.0171   0.0220   0.00    1.2
2018/03/13 15:12:44.000   78.255291762   16.193796764   487.3818   2  10   0.0391   0.0338   0.0623  -0.0184  -0.0170   0.0219   0.00    1.2
2018/03/13 15:12:45.000   78.255291766   16.193796779   487.3810   2  10   0.0390   0.0337   0.0621  -0.0183  -0.0170   0.0218   0.00    1.2
2018/03/13 15:12:46.000   78.255291770   16.193796765   487.3833   2  10   0.0389   0.0336   0.0619  -0.0183  -0.0169   0.0217   0.00    1.2
2018/03/13 15:12:47.000   78.255291768   16.193796754   487.3848   2  10   0.0388   0.0335   0.0617  -0.0183  -0.0169   0.0217   0.00    1.2
2018/03/13 15:12:48.000   78.255291773   16.193796730   487.3853   2  10   0.0387   0.0334   0.0614  -0.0182  -0.0169   0.0216   0.00    1.2
2018/03/13 15:12:49.000   78.255291779   16.193796707   487.3846   2  10   0.0386   0.0333   0.0612  -0.0182  -0.0168   0.0215   0.00    1.2
2018/03/13 15:12:50.000   78.255291797   16.193796609   487.3841   2  10   0.0385   0.0333   0.0610  -0.0181  -0.0168   0.0215   0.00    1.2
2018/03/13 15:12:51.000   78.255291815   16.193796478   487.3861   2  10   0.0384   0.0332   0.0608  -0.0181  -0.0168   0.0214   0.00    1.2
2018/03/13 15:12:52.000   78.255291825   16.193796360   487.3875   2  10   0.0383   0.0331   0.0606  -0.0181  -0.0167   0.0213   0.00    1.2
2018/03/13 15:12:53.000   78.255291823   16.193796359   487.3877   2  10   0.0382   0.0330   0.0604  -0.0180  -0.0167   0.0212   0.00    1.2
2018/03/13 15:12:54.000   78.255291814   16.193796345   487.3862   2  10   0.0381   0.0329   0.0601  -0.0180  -0.0166   0.0212   0.00    1.2
2018/03/13 15:12:55.000   78.255291828   16.193796303   487.3856   2  10   0.0380   0.0328   0.0599  -0.0179  -0.0166   0.0211   0.00    1.2
2018/03/13 15:12:56.000   78.255291846   16.193796217   487.3864   2  10   0.0379   0.0327   0.0597  -0.0179  -0.0166   0.0210   0.00    1.2
2018/03/13 15:12:57.000   78.255291868   16.193796051   487.3890   2  10   0.0378   0.0327   0.0595  -0.0179  -0.0165   0.0210   0.00    1.2
2018/03/13 15:12:58.000   78.255291875   16.193795958   487.3888   2  10   0.0377   0.0326   0.0593  -0.0178  -0.0165   0.0209   0.00    1.2
2018/03/13 15:12:59.000   78.255291884   16.193795864   487.3886   2  10   0.0376   0.0325   0.0591  -0.0178  -0.0165   0.0208   0.00    1.2
2018/03/13 15:13:00.000   78.255291894   16.193795845   487.3866   2  10   0.0375   0.0324   0.0589  -0.0177  -0.0164   0.0207   0.00    1.2
2018/03/13 15:13:01.000   78.255291893   16.193795781   487.3871   2  10   0.0374   0.0323   0.0587  -0.0177  -0.0164   0.0207   0.00    1.2
2018/03/13 15:13:02.000   78.255291897   16.193795764   487.3875   2  10   0.0373   0.0323   0.0585  -0.0177  -0.0163   0.0206   0.00    1.2
2018/03/13 15:13:03.000   78.255291907   16.193795724   487.3855   2  10   0.0372   0.0322   0.0583  -0.0176  -0.0163   0.0205   0.00    1.2
2018/03/13 15:13:04.000   78.255291905   16.193795755   487.3835   2  10   0.0371   0.0321   0.0581  -0.0176  -0.0163   0.0205   0.00    1.2
2018/03/13 15:13:05.000   78.255291901   16.193795741   487.3823   2  10   0.0370   0.0320   0.0579  -0.0176  -0.0162   0.0204   0.00    1.2
2018/03/13 15:13:06.000   78.255291896   16.193795743   487.3806   2  10   0.0369   0.0319   0.0577  -0.0175  -0.0162   0.0203   0.00    1.2
2018/03/13 15:13:07.000   78.255291899   16.193795755   487.3786   2  10   0.0369   0.0319   0.0575  -0.0175  -0.0162   0.0203   0.00    1.2
2018/03/13 15:13:08.000   78.255291917   16.193795724   487.3786   2  10   0.0368   0.0318   0.0573  -0.0174  -0.0161   0.0202   0.00    1.2
2018/03/13 15:13:09.000   78.255291914   16.193795650   487.3773   2  10   0.0367   0.0317   0.0571  -0.0174  -0.0161   0.0201   0.00    1.2
2018/03/13 15:13:10.000   78.255291912   16.193795620   487.3754   2  10   0.0366   0.0316   0.0569  -0.0174  -0.0160   0.0200   0.00    1.2
2018/03/13 15:13:11.000   78.255291912   16.193795498   487.3738   2  10   0.0365   0.0315   0.0567  -0.0173  -0.0160   0.0200   0.00    1.2
2018/03/13 15:13:12.000   78.255291916   16.193795373   487.3748   2  10   0.0364   0.0315   0.0565  -0.0173  -0.0160   0.0199   0.00    1.2
2018/03/13 15:13:13.000   78.255291925   16.193795349   487.3733   2  10   0.0363   0.0314   0.0563  -0.0173  -0.0159   0.0198   0.00    1.2
2018/03/13 15:13:14.000   78.255291941   16.193795266   487.3740   2  10   0.0362   0.0313   0.0562  -0.0172  -0.0159   0.0198   0.00    1.2
2018/03/13 15:13:15.000   78.255291964   16.193795165   487.3733   2  10   0.0361   0.0312   0.0560  -0.0172  -0.0158   0.0197   0.00    1.2
2018/03/13 15:13:16.000   78.255291974   16.193795143   487.3738   2  10   0.0360   0.0312   0.0558  -0.0171  -0.0158   0.0196   0.00    1.2
2018/03/13 15:13:17.000   78.255291978   16.193795068   487.3733   2  10   0.0359   0.0311   0.0556  -0.0171  -0.0158   0.0196   0.00    1.2
2018/03/13 15:13:18.000   78.255291984   16.193794972   487.3730   2  10   0.0359   0.0310   0.0554  -0.0171  -0.0157   0.0195   0.00    1.2
2018/03/13 15:13:19.000   78.255291990   16.193794898   487.3728   2  10   0.0358   0.0309   0.0552  -0.0170  -0.0157   0.0194   0.00    1.2
2018/03/13 15:13:20.000   78.255292004   16.193794892   487.3727   2  10   0.0357   0.0309   0.0551  -0.0170  -0.0156   0.0194   0.00    1.2
2018/03/13 15:13:21.000   78.255292013   16.193794831   487.3727   2  10   0.0356   0.0308   0.0549  -0.0170  -0.0156   0.0193   0.00    1.2
2018/03/13 15:13:22.000   78.255292020   16.193794778   487.3722   2  10   0.0355   0.0307   0.0547  -0.0169  -0.0156   0.0192   0.00    1.2
2018/03/13 15:13:23.000   78.255292006   16.193794769   487.3708   2  10   0.0354   0.0306   0.0545  -0.0169  -0.0155   0.0192   0.00    1.2
2018/03/13 15:13:24.000   78.255292019   16.193794747   487.3708   2  10   0.0353   0.0306   0.0543  -0.0169  -0.0155   0.0191   0.00    1.2
2018/03/13 15:13:25.000   78.255292019   16.193794677   487.3691   2  10   0.0352   0.0305   0.0542  -0.0168  -0.0155   0.0190   0.00    1.2
2018/03/13 15:13:26.000   78.255292008   16.193794641   487.3678   2  10   0.0352   0.0304   0.0540  -0.0168  -0.0154   0.0190   0.00    1.2
2018/03/13 15:13:27.000   78.255292029   16.193794571   487.3684   2  10   0.0351   0.0304   0.0538  -0.0167  -0.0154   0.0189   0.00    1.2
2018/03/13 15:13:28.000   78.255292035   16.193794483   487.3684   2  10   0.0350   0.0303   0.0536  -0.0167  -0.0153   0.0188   0.00    1.2
2018/03/13 15:13:29.000   78.255292036   16.193794444   487.3670   2  10   0.0349   0.0302   0.0535  -0.0167  -0.0153   0.0188   0.00    1.2
2018/03/13 15:13:30.000   78.255292058   16.193794322   487.3660   2  10   0.0348   0.0302   0.0533  -0.0166  -0.0153   0.0187   0.00    1.2
2018/03/13 15:13:31.000   78.255292087   16.193794163   487.3665   2  10   0.0347   0.0301   0.0531  -0.0166  -0.0152   0.0187   0.00    1.2
2018/03/13 15:13:32.000   78.255292093   16.193794055   487.3652   2  10   0.0347   0.0300   0.0530  -0.0166  -0.0152   0.0186   0.00    1.2
2018/03/13 15:13:33.000   78.255292083   16.193793953   487.3654   2  10   0.0346   0.0299   0.0528  -0.0165  -0.0151   0.0185   0.00    1.2
2018/03/13 15:13:34.000   78.255292086   16.193793875   487.3649   2  10   0.0345   0.0299   0.0526  -0.0165  -0.0151   0.0185   0.00    1.2
2018/03/13 15:13:35.000   78.255292086   16.193793839   487.3631   2  10   0.0344   0.0298   0.0525  -0.0165  -0.0151   0.0184   0.00    1.2
2018/03/13 15:13:36.000   78.255292086   16.193793795   487.3614   2  10   0.0343   0.0297   0.0523  -0.0164  -0.0150   0.0183   0.00    1.2
2018/03/13 15:13:37.000   78.255292088   16.193793749   487.3584   2  10   0.0342   0.0297   0.0521  -0.0164  -0.0150   0.0183   0.00    1.2
2018/03/13 15:13:38.000   78.255292074   16.193793708   487.3568   2  10   0.0342   0.0296   0.0520  -0.0164  -0.0149   0.0182   0.00    1.2
2018/03/13 15:13:39.000   78.255292069   16.193793669   487.3542   2  10   0.0341   0.0295   0.0518  -0.0163  -0.0149   0.0181   0.00    1.2
2018/03/13 15:13:40.000   78.255292070   16.193793602   487.3526   2  10   0.0340   0.0295   0.0516  -0.0163  -0.0149   0.0181   0.00    1.2
2018/03/13 15:13:41.000   78.255292071   16.193793564   487.3493   2  10   0.0339   0.0294   0.0515  -0.0163  -0.0148   0.0180   0.00    1.2
2018/03/13 15:13:42.000   78.255292059   16.193793530   487.3455   2  10   0.0338   0.0293   0.0513  -0.0162  -0.0148   0.0180   0.00    1.2
2018/03/13 15:13:43.000   78.255292072   16.193793448   487.3449   2  10   0.0338   0.0293   0.0512  -0.0162  -0.0148   0.0179   0.00    1.2
2018/03/13 15:13:44.000   78.255292082   16.193793343   487.3442   2  10   0.0337   0.0292   0.0510  -0.0161  -0.0147   0.0178   0.00    1.2
2018/03/13 15:13:45.000   78.255292089   16.193793313   487.3429   2  10   0.0336   0.0291   0.0508  -0.0161  -0.0147   0.0178   0.00    1.2
2018/03/13 15:13:46.000   78.255292078   16.193793312   487.3419   2  10   0.0335   0.0291   0.0507  -0.0161  -0.0146   0.0177   0.00    1.2
2018/03/13 15:13:47.000   78.255292082   16.193793320   487.3409   2  10   0.0335   0.0290   0.0505  -0.0160  -0.0146   0.0176   0.00    1.2
2018/03/13 15:13:48.000   78.255292075   16.193793314   487.3389   2  10   0.0334   0.0289   0.0504  -0.0160  -0.0146   0.0176   0.00    1.2
2018/03/13 15:13:49.000   78.255292066   16.193793349   487.3367   2  10   0.0333   0.0289   0.0502  -0.0160  -0.0145   0.0175   0.00    1.2
2018/03/13 15:13:50.000   78.255292067   16.193793340   487.3351   2  10   0.0332   0.0288   0.0501  -0.0159  -0.0145   0.0175   0.00    1.2
2018/03/13 15:13:51.000   78.255292056   16.193793304   487.3346   2  10   0.0332   0.0288   0.0499  -0.0159  -0.0145   0.0174   0.00    1.2
2018/03/13 15:13:52.000   78.255292050   16.193793357   487.3325   2  10   0.0331   0.0287   0.0498  -0.0159  -0.0144   0.0173   0.00    1.2
2018/03/13 15:13:53.000   78.255292029   16.193793400   487.3310   2  10   0.0330   0.0286   0.0496  -0.0158  -0.0144   0.0173   0.00    1.2
2018/03/13 15:13:54.000   78.255292009   16.193793416   487.3291   2  10   0.0329   0.0286   0.0495  -0.0158  -0.0143   0.0172   0.00    1.2
2018/03/13 15:13:55.000   78.255291999   16.193793449   487.3283   2  10   0.0329   0.0285   0.0493  -0.0158  -0.0143   0.0172   0.00    1.2
2018/03/13 15:13:56.000   78.255291998   16.193793422   487.3290   2  10   0.0328   0.0284   0.0492  -0.0157  -0.0143   0.0171   0.00    1.2
2018/03/13 15:13:57.000   78.255291997   16.193793391   487.3290   2  10   0.0327   0.0284   0.0490  -0.0157  -0.0142   0.0170   0.00    1.2
2018/03/13 15:13:58.000   78.255292001   16.193793369   487.3282   2  10   0.0326   0.0283   0.0489  -0.0157  -0.0142   0.0170   0.00    1.2
2018/03/13 15:13:59.000   78.255292007   16.193793342   487.3278   2  10   0.0326   0.0283   0.0487  -0.0156  -0.0141   0.0169   0.00    1.2
2018/03/13 15:14:00.000   78.255291996   16.193793328   487.3260   2  10   0.0325   0.0282   0.0486  -0.0156  -0.0141   0.0169   0.00    1.2
2018/03/13 15:14:01.000   78.255291991   16.193793313   487.3255   2  10   0.0324   0.0281   0.0484  -0.0156  -0.0141   0.0168   0.00    1.2
2018/03/13 15:14:02.000   78.255292003   16.193793233   487.3256   2  10   0.0323   0.0281   0.0483  -0.0155  -0.0140   0.0168   0.00    1.2
2018/03/13 15:14:03.000   78.255291999   16.193793174   487.3244   2  10   0.0323   0.0280   0.0482  -0.0155  -0.0140   0.0167   0.00    1.2
2018/03/13 15:14:04.000   78.255291997   16.193793130   487.3248   2  10   0.0322   0.0280   0.0480  -0.0155  -0.0140   0.0166   0.00    1.2
2018/03/13 15:14:05.000   78.255292005   16.193793152   487.3259   2  10   0.0321   0.0279   0.0479  -0.0154  -0.0139   0.0166   0.00    1.2
2018/03/13 15:14:06.000   78.255292004   16.193793201   487.3273   2  10   0.0321   0.0278   0.0477  -0.0154  -0.0139   0.0165   0.00    1.2
2018/03/13 15:14:07.000   78.255291994   16.193793237   487.3287   2  10   0.0320   0.0278   0.0476  -0.0154  -0.0139   0.0165   0.00    1.2
2018/03/13 15:14:08.000   78.255292009   16.193793249   487.3301   2  10   0.0319   0.0277   0.0475  -0.0154  -0.0138   0.0164   0.00    1.2
2018/03/13 15:14:09.000   78.255292024   16.193793203   487.3308   2  10   0.0318   0.0277   0.0473  -0.0153  -0.0138   0.0163   0.00    1.2
2018/03/13 15:14:10.000   78.255292041   16.193793174   487.3325   2  10   0.0318   0.0276   0.0472  -0.0153  -0.0137   0.0163   0.00    1.2
2018/03/13 15:14:11.000   78.255292050   16.193793176   487.3332   2  10   0.0317   0.0275   0.0470  -0.0153  -0.0137   0.0162   0.00    1.2
2018/03/13 15:14:12.000   78.255292052   16.193793170   487.3335   2  10   0.0316   0.0275   0.0469  -0.0152  -0.0137   0.0162   0.00    1.2
2018/03/13 15:14:13.000   78.255292062   16.193793143   487.3349   2  10   0.0316   0.0274   0.0468  -0.0152  -0.0136   0.0161   0.00    1.2
2018/03/13 15:14:14.000   78.255292068   16.193793134   487.3355   2  10   0.0315   0.0274   0.0466  -0.0152  -0.0136   0.0161   0.00    1.2
2018/03/13 15:14:15.000   78.255292081   16.193793101   487.3372   2  10   0.0314   0.0273   0.0465  -0.0151  -0.0136   0.0160   0.00    1.2
2018/03/13 15:14:16.000   78.255292084   16.193793113   487.3388   2  10   0.0314   0.0273   0.0464  -0.0151  -0.0135   0.0160   0.00    1.2
2018/03/13 15:14:17.000   78.255292093   16.193793110   487.3410   2  10   0.0313   0.0272   0.0462  -0.0151  -0.0135   0.0159   0.00    1.2
2018/03/13 15:14:18.000   78.255292107   16.193793106   487.3450   2  10   0.0312   0.0272   0.0461  -0.0150  -0.0135   0.0158   0.00    1.2
2018/03/13 15:14:19.000   78.255292095   16.193793143   487.3463   2  10   0.0312   0.0271   0.0460  -0.0150  -0.0134   0.0158   0.00    1.2
2018/03/13 15:14:20.000   78.255292085   16.193793162   487.3489   2  10   0.0311   0.0270   0.0459  -0.0150  -0.0134   0.0157   0.00    1.2
2018/03/13 15:14:21.000   78.255292083   16.193793176   487.3505   2  10   0.0310   0.0270   0.0457  -0.0149  -0.0133   0.0157   0.00    1.2
2018/03/13 15:14:22.000   78.255292084   16.193793178   487.3515   2  10   0.0310   0.0269   0.0456  -0.0149  -0.0133   0.0156   0.00    1.2
2018/03/13 15:14:23.000   78.255292082   16.193793197   487.3533   2  10   0.0309   0.0269   0.0455  -0.0149  -0.0133   0.0156   0.00    1.2
2018/03/13 15:14:24.000   78.255292084   16.193793170   487.3557   2  10   0.0308   0.0268   0.0453  -0.0149  -0.0132   0.0155   0.00    1.2
2018/03/13 15:14:25.000   78.255292087   16.193793114   487.3581   2  10   0.0308   0.0268   0.0452  -0.0148  -0.0132   0.0155   0.00    1.2
2018/03/13 15:14:26.000   78.255292099   16.193793099   487.3598   2  10   0.0307   0.0267   0.0451  -0.0148  -0.0132   0.0154   0.00    1.2
2018/03/13 15:14:27.000   78.255292103   16.193793087   487.3612   2  10   0.0306   0.0267   0.0450  -0.0148  -0.0131   0.0154   0.00    1.2
2018/03/13 15:14:28.000   78.255292101   16.193793082   487.3615   2  10   0.0306   0.0266   0.0448  -0.0147  -0.0131   0.0153   0.00    1.2
2018/03/13 15:14:29.000   78.255292107   16.193793058   487.3630   2  10   0.0305   0.0266   0.0447  -0.0147  -0.0131   0.0152   0.00    1.2
2018/03/13 15:14:30.000   78.255292105   16.193793064   487.3634   2  10   0.0305   0.0265   0.0446  -0.0147  -0.0130   0.0152   0.00    1.2
2018/03/13 15:14:31.000   78.255292101   16.193793040   487.3650   2  10   0.0304   0.0264   0.0445  -0.0146  -0.0130   0.0151   0.00    1.2
2018/03/13 15:14:32.000   78.255292099   16.193793052   487.3663   2  10   0.0303   0.0264   0.0443  -0.0146  -0.0130   0.0151   0.00    1.2
