     2.11           OBSERVATION DATA    M (MIXED)           RINEX VERSION / TYPE
teqc  2018Mar15                         20180319 14:17:33UTCPGM / RUN BY / DATE
Linux 2.6.32-573.12.1.x86_64|x86_64|gcc -static|Linux 64|=+ COMMENT
END OF STATIC MODE OBSERVATION                              COMMENT
BIT 2 OF LLI FLAGS DATA COLLECTED UNDER A/S CONDITION       COMMENT
-Unknown-                                                   MARKER NAME
4625                                                        MARKER NUMBER
-Unknown-           -Unknown-                               OBSERVER / AGENCY
5127468778          TRIMBLE             4.63                REC # / TYPE / VERS
47477114                            NONE                    ANT # / TYPE
  3551784.4499      237.3020  5279922.1500                  APPROX POSITION XYZ
        0.0000        0.0000        0.0000                  ANTENNA: DELTA H/E/N
     1     1                                                WAVELENGTH FACT L1/2
     7    L1    L2    C1    P1    P2    S1    S2            # / TYPES OF OBSERV
    18                                                      LEAP SECONDS
 SNR is mapped to RINEX snr flag value [0-9]                COMMENT
  L1 & L2: min(max(int(snr_dBHz/6), 0), 9)                  COMMENT
  2018     3    15     9    50   11.0000000     GPS         TIME OF FIRST OBS
                                                            END OF HEADER
 18  3 15  9 50 11.0000000  0 16R07R15R16R06R23R24G30R17G21G07G08G27
                                G15G20G13G28
                  82541030.202 7  19824889.844                    19824892.051
                        42.700
                  91744009.257 5  22073968.836                    22073971.781
                        33.100
                  81271103.752 6  19561012.828                    19561014.508
                        40.200
                  90987374.059 3  21922707.609                    21922709.535
                        22.700
                  93360662.360 6  22439301.141                    22439306.512
                        38.700
                  86605401.360 5  20822972.828                    20822973.941
                        32.400
 111641316.844 8  86993228.11546  21244627.406                    21244633.078
        52.300          38.900
                  92369296.382 6  22193238.375                    22193242.676
                        41.600
 124766743.298 7  97220849.06045  23742320.898                    23742323.230
        43.800          31.200
 117614088.831 8  91647325.00445  22381216.766                    22381219.316
        48.100          34.000
 119365307.219 7  93012056.14545  22714488.922                    22714495.426
        43.800          32.800
 118386364.410 7  92249126.53145  22528175.711                    22528180.684
        44.200          34.300
 117633611.653 7  91662603.75644  22384940.164                    22384943.715
        45.500          29.100
 114383313.035 7  89129907.77844  21766429.938                    21766433.543
        44.300          29.800
 110946202.023 8  86451591.78645  21112358.234                    21112360.656
        48.700          34.800
 120694325.319 7  94047563.86045  22967371.781                    22967375.043
        46.300          30.000
 18  3 15  9 50 12.0000000  0 16R07R15R16R06R23R24G30R17G21G07G08G27
                                G15G20G13G28
                  82541540.992 7  19825013.188                    19825014.520
                        42.900
                  91747315.600 5  22074763.852                    22074766.516
                        35.000
                  81270872.011 6  19560957.836                    19560958.676
                        40.000
                  90990732.100 3  21923516.563                    21923518.934
                        22.800
                  93363757.707 6  22440045.852                    22440050.426
                        38.500
                  86605805.703 5  20823070.750                    20823071.707
                        32.800
 111642671.968 8  86994284.05546  21244885.461                    21244890.879
        52.800          39.200
                  92366759.980 6  22192629.156                    22192632.746
                        40.900
 124768333.451 7  97222088.15345  23742623.180                    23742625.785
        43.700          30.600
 117616917.067 8  91649528.82245  22381754.219                    22381757.285
        48.200          34.000
 119364061.537 7  93011085.45645  22714252.719                    22714258.027
        43.800          33.600
 118387883.577 7  92250310.29145  22528464.359                    22528469.973
        44.300          34.800
 117631306.884 7  91660807.82145  22384500.859                    22384505.297
        46.200          30.200
 114383939.664 7  89130396.06644  21766548.742                    21766552.449
        44.300          29.700
 110945426.214 8  86450987.25845  21112210.969                    21112213.066
        48.800          34.400
 120691854.272 7  94045638.37044  22966901.148                    22966904.633
        46.600          29.300
 18  3 15  9 50 13.0000000  0 16R07R15R16R06R23R24G30R17G21G07G08G27
                                G15G20G13G28
                  82542052.388 7  19825136.008                    19825137.488
                        42.300
                  91750622.130 6  22075559.609                    22075562.031
                        36.400
                  81270640.867 6  19560902.180                    19560902.965
                        40.400
                  90994090.398 3  21924326.859                    21924327.555
                        22.500
                  93366853.381 6  22440790.578                    22440795.020
                        39.600
                  86606210.739 5  20823167.367                    20823168.766
                        32.600
 111644027.568 8  86995340.36646  21245143.430                    21245149.016
        53.200          39.200
                  92364223.956 6  22192019.906                    22192023.441
                        40.700
 124769923.999 7  97223327.53745  23742926.094                    23742928.406
        44.100          31.300
 117619745.582 8  91651732.85245  22382293.039                    22382295.988
        48.500          33.900
 119362816.372 7  93010115.15845  22714014.977                    22714020.980
        44.300          33.600
 118389403.338 7  92251494.52245  22528753.438                    22528759.367
        44.500          34.300
 117629002.500 7  91659012.19444  22384062.133                    22384066.473
        45.900          28.900
 114384566.887 7  89130884.82045  21766667.922                    21766671.859
        43.900          30.200
 110944650.948 8  86450383.15545  21112063.453                    21112065.957
        48.800          34.800
 120689383.502 7  94043713.09244  22966430.953                    22966434.227
        46.100          29.000
 18  3 15  9 50 14.0000000  0 16R07R15R16R06R23R24G30R17G21G07G08G27
                                G15G20G13G28
                  82542564.393 7  19825258.938                    19825260.398
                        42.200
                  91753928.828 6  22076356.023                    22076358.156
                        38.100
                  81270410.312 6  19560845.750                    19560847.516
                        40.400
                  90997448.899 3  21925137.188                    21925136.699
                        22.100
                  93369949.360 6  22441536.086                    22441539.918
                        40.300
                  86606616.430 5  20823264.422                    20823265.816
                        31.500
 111645383.697 8  86996397.08746  21245401.414                    21245407.004
        52.800          39.200
                  92361688.337 6  22191410.711                    22191413.324
                        40.000
 124771514.938 7  97224567.21945  23743228.781                    23743231.484
        43.700          31.000
 117622574.449 8  91653937.16245  22382831.445                    22382833.758
        48.600          34.500
 119361571.788 7  93009145.31745  22713778.281                    22713784.293
        43.900          33.600
 118390923.640 7  92252679.17645  22529042.953                    22529048.648
        44.100          34.900
 117626698.533 7  91657216.88844  22383625.648                    22383628.262
        46.500          29.400
 114385194.668 7  89131374.00745  21766788.563                    21766791.855
        44.300          30.200
 110943876.227 8  86449779.47845  21111915.711                    21111918.398
        48.900          35.100
 120686912.986 7  94041788.00644  22965960.820                    22965964.105
        46.000          27.600
 18  3 15  9 50 15.0000000  0 16R07R15R16R06R23R24G30R17G21G07G08G27
                                G15G20G13G28
                  82543077.047 7  19825381.836                    19825383.297
                        42.000
                  91757235.672 6  22077152.781                    22077154.738
                        38.600
                  81270180.394 6  19560790.445                    19560792.281
                        40.600
                  91000807.688 3  21925945.484                    21925946.223
                        22.700
                  93373045.656 6  22442278.773                    22442284.340
                        40.500
                  86607022.792 5  20823362.000                    20823363.633
                        32.400
 111646740.393 8  86997454.24846  21245659.680                    21245665.340
        52.700          39.000
                  92359153.132 6  22190801.844                    22190802.867
                        39.900
 124773106.265 7  97225807.21045  23743532.273                    23743534.180
        44.200          31.200
 117625403.714 8  91656141.77745  22383369.875                    22383372.559
        49.100          34.200
 119360327.721 7  93008175.89345  22713541.297                    22713547.676
        44.300          32.600
 118392444.573 7  92253864.30745  22529332.453                    22529338.313
        44.900          35.300
 117624394.993 7  91655421.91044  22383186.719                    22383189.707
        46.600          29.700
 114385823.061 7  89131863.67044  21766907.953                    21766910.777
        44.100          29.000
 110943102.094 8  86449176.25545  21111768.375                    21111770.926
        48.900          34.500
 120684442.771 7  94039863.14544  22965489.961                    22965493.785
        45.800          27.300
 18  3 15  9 50 16.0000000  0 16R07R15R16R06R23R24G30R17G21G07G08G27
                                G15G20G13G28
                  82543590.348 7  19825504.492                    19825507.066
                        42.000
                  91760542.775 6  22077948.313                    22077951.066
                        38.600
                  81269951.098 6  19560735.227                    19560736.852
                        40.600
                  91004166.690 3  21926753.500                    21926755.918
                        22.500
                  93376142.381 6  22443023.750                    22443029.461
                        40.500
                  86607429.876 5  20823459.648                    20823461.516
                        33.200
 111648097.611 8  86998511.82646  21245917.727                    21245923.488
        52.200          38.900
                  92356618.315 6  22190193.680                    22190193.762
                        39.500
 124774698.084 7  97227047.59645  23743834.578                    23743836.855
        44.600          31.300
 117628233.321 8  91658346.66945  22383907.820                    22383911.137
        49.400          34.400
 119359084.249 7  93007206.93845  22713304.984                    22713311.211
        44.100          33.200
 118393966.109 7  92255049.91945  22529622.266                    22529627.711
        45.000          34.700
 117622091.876 7  91653627.25144  22382746.750                    22382751.500
        46.100          29.400
 114386452.082 7  89132353.81344  21767027.344                    21767030.473
        44.600          29.900
 110942328.543 8  86448573.49245  21111621.070                    21111623.680
        48.300          34.300
 120681972.862 7  94037938.53144  22965020.102                    22965023.426
        45.200          27.100
 18  3 15  9 50 17.0000000  0 16R07R15R16R06R23R24G30R17G21G07G08G27
                                G15G20G13G28
                  82544104.291 7  19825628.414                    19825630.328
                        42.300
                  91763850.159 6  22078743.547                    22078747.992
                        39.200
                  81269722.460 6  19560681.055                    19560682.293
                        40.200
                  91007525.969 3  21927562.578                    21927564.863
                        23.500
                  93379239.455 6  22443766.219                    22443773.750
                        40.500
                  86607837.676 5  20823557.734                    20823559.348
                        33.100
 111649455.415 8  86999569.85146  21246176.016                    21246181.930
        52.100          39.000
                  92354083.864 6  22189585.484                    22189583.711
                        40.000
 124776290.312 7  97228288.30645  23744138.414                    23744139.805
        45.100          30.600
 117631063.294 8  91660551.85145  22384447.047                    22384449.496
        48.800          34.400
 119357841.347 7  93006238.44845  22713068.594                    22713075.078
        44.100          32.800
 118395488.259 7  92256236.01045  22529911.711                    22529917.980
        45.300          35.200
 117619789.208 7  91651832.95344  22382308.609                    22382313.441
        46.300          29.700
 114387081.730 7  89132844.44244  21767146.773                    21767150.598
        43.900          29.800
 110941555.601 8  86447971.20045  21111474.313                    21111476.754
        48.500          34.300
 120679503.291 7  94036014.17944  22964550.781                    22964552.898
        45.200          26.700
 18  3 15  9 50 18.0000000  0 16R07R15R16R06R23R24G30R17G21G07G08G27
                                G15G20G13G28
                  82544618.831 7  19825752.055                    19825754.457
                        42.100
                  91767157.763 6  22079537.258                    22079543.297
                        38.500
                  81269494.429 6  19560626.078                    19560627.574
                        40.200
                  91010885.554 4  21928373.000                    21928374.066
                        24.400
                  93382336.920 6  22444510.094                    22444518.723
                        40.400
                  86608246.169 5  20823656.594                    20823657.922
                        31.600
 111650813.751 8  87000628.29246  21246434.969                    21246440.406
        51.900          39.000
                  92351549.801 6  22188977.078                    22188975.082
                        39.900
 124777882.957 7  97229529.33745  23744440.820                    23744443.340
        45.000          31.700
 117633893.667 8  91662757.33945  22384984.641                    22384987.770
        48.200          34.300
 119356599.027 7  93005270.41845  22712832.375                    22712838.625
        44.200          33.100
 118397011.010 7  92257422.56845  22530201.539                    22530207.484
        46.000          35.100
 117617486.938 7  91650038.97744  22381871.797                    22381875.344
        46.100          29.100
 114387712.033 7  89133335.57745  21767267.047                    21767270.957
        43.400          30.100
 110940783.234 8  86447369.35545  21111327.328                    21111329.707
        48.100          34.300
 120677033.988 7  94034090.03244  22964080.898                    22964083.098
        45.100          27.200
 18  3 15  9 50 19.0000000  0 16R07R15R16R06R23R24G30R17G21G07G08G27
                                G15G20G13G28
                  82545134.025 7  19825876.211                    19825877.773
                        42.300
                  91770465.618 6  22080332.109                    22080339.289
                        37.700
                  81269266.987 6  19560570.578                    19560572.402
                        40.600
                  91014245.363 3  21929181.055                    21929184.484
                        22.300
                  93385434.730 6  22445255.078                    22445263.148
                        39.700
                  86608655.377 5  20823754.828                    20823756.324
                        32.900
 111652172.615 8  87001687.14646  21246693.313                    21246698.539
        52.100          38.900
                  92349016.149 6  22188367.156                    22188366.242
                        40.100
 124779476.012 7  97230770.68045  23744743.961                    23744746.316
        45.200          31.200
 117636724.356 8  91664963.07445  22385523.547                    22385526.754
        48.000          34.100
 119355357.281 7  93004302.84745  22712596.195                    22712601.902
        44.100          33.400
 118398534.339 7  92258609.57345  22530491.563                    22530497.641
        46.000          34.900
 117615185.067 7  91648245.30444  22381433.750                    22381437.660
        46.100          29.200
 114388342.943 7  89133827.19945  21767386.398                    21767390.363
        43.100          30.200
 110940011.440 8  86446767.95745  21111180.328                    21111183.117
        48.500          34.400
 120674564.960 7  94032166.09944  22963610.656                    22963613.238
        45.200          28.600
 18  3 15  9 50 20.0000000  0 16R07R15R16R06R23R24G30R17G21G07G08G27
                                G15G20G13G28
                  82545649.846 7  19825999.695                    19826001.508
                        42.100
                  91773773.703 6  22081128.836                    22081135.277
                        37.100
                  81269040.147 6  19560516.094                    19560518.020
                        40.300
                  91017605.396 3  21929992.086                    21929993.457
                        22.800
                  93388532.834 6  22445999.508                    22446007.254
                        39.100
                  86609065.247 5  20823854.492                    20823855.102
                        32.400
 111653532.008 8  87002746.41346  21246952.313                    21246957.266
        52.500          39.000
                  92346482.890 6  22187760.359                    22187758.191
                        40.900
 124781069.447 7  97232012.31145  23745047.563                    23745049.516
        45.400          30.900
 117639555.396 8  91667169.07745  22386062.125                    22386064.949
        48.200          34.200
 119354116.075 7  93003335.69745  22712359.211                    22712366.008
        44.400          32.600
 118400058.264 7  92259797.04645  22530781.469                    22530787.492
        46.600          34.700
 117612883.596 7  91646451.94744  22380995.109                    22380999.262
        45.800          28.500
 114388974.458 7  89134319.29344  21767507.563                    21767510.664
        43.700          29.900
 110939240.214 8  86446166.99845  21111033.711                    21111036.207
        48.600          34.100
 120672096.240 7  94030242.41244  22963141.188                    22963143.789
        45.800          29.700
 18  3 15  9 50 21.0000000  0 16R07R15R16R06R23R24G30R17G21G07G08G27
                                G15G20G13G28
                  82546166.299 7  19826124.555                    19826125.414
                        42.300
                  91777082.000 6  22081925.852                    22081930.453
                        36.900
                  81268813.953 6  19560462.156                    19560463.313
                        40.700
                  91020965.704 3  21930802.172                    21930803.387
                        23.000
                  93391631.329 6  22446744.609                    22446751.641
                        39.100
                  86609475.789 5  20823953.320                    20823953.734
                        32.400
 111654891.944 8  87003806.10046  21247210.961                    21247216.320
        52.100          39.100
                  92343949.989 6  22187151.375                    22187150.391
                        41.900
 124782663.273 7  97233254.24645  23745350.727                    23745352.750
        45.700          30.900
 117642386.775 8  91669375.34545  22386601.172                    22386604.336
        48.700          34.200
 119352875.428 7  93002369.00845  22712123.039                    22712129.980
        44.000          33.300
 118401582.796 7  92260984.99345  22531071.563                    22531077.781
        47.000          34.500
 117610582.600 7  91644658.95444  22380557.664                    22380561.465
        45.700          28.100
 114389606.553 7  89134811.83945  21767627.359                    21767630.922
        44.000          30.100
 110938469.553 8  86445566.47945  21110887.234                    21110889.770
        48.200          34.500
 120669627.796 7  94028318.95645  22962671.711                    22962674.016
        45.900          30.400
 18  3 15  9 50 22.0000000  0 16R07R15R16R06R23R24G30R17G21G07G08G27
                                G15G20G13G28
                  82546683.371 7  19826247.875                    19826250.113
                        42.100
                  91780390.460 5  22082723.352                    22082726.316
                        35.800
                  81268588.378 6  19560407.906                    19560409.160
                        40.200
                  91024326.286 3  21931612.609                    21931613.172
                        23.300
                  93394730.172 6  22447489.672                    22447495.883
                        38.800
                  86609887.009 5  20824052.180                    20824052.863
                        32.500
 111656252.418 8  87004866.21146  21247469.648                    21247475.324
        52.200          38.900
                  92341417.466 7  22186544.055                    22186543.430
                        42.400
 124784257.536 7  97234496.52145  23745654.164                    23745655.918
        45.700          31.100
 117645218.528 8  91671581.89845  22387140.648                    22387143.324
        49.200          34.100
 119351635.294 7  93001402.71445  22711887.250                    22711894.113
        43.300          33.100
 118403107.931 7  92262173.42145  22531362.242                    22531367.957
        47.200          34.500
 117608282.021 7  91642866.28844  22380120.367                    22380123.871
        45.600          29.800
 114390239.289 7  89135304.88544  21767747.734                    21767750.887
        44.200          28.800
 110937699.488 8  86444966.42345  21110740.797                    21110743.270
        48.400          34.600
 120667159.650 7  94026395.73945  22962202.250                    22962205.105
        46.200          31.400
 18  3 15  9 50 23.0000000  0 16R07R15R16R06R23R24G30R17G21G07G08G27
                                G15G20G13G28
                  82547201.041 7  19826371.898                    19826373.945
                        42.300
                  91783699.156 5  22083520.688                    22083522.195
                        35.500
                  81268363.382 6  19560354.250                    19560354.895
                        40.400
                  91027687.028 3  21932421.500                    21932422.594
                        22.500
                  93397829.341 6  22448234.375                    22448240.852
                        38.500
                  86610298.921 5  20824151.242                    20824151.070
                        32.200
 111657613.390 8  87005926.70146  21247728.727                    21247734.129
        51.900          39.200
                  92338885.252 7  22185933.180                    22185935.180
                        43.400
 124785852.208 7  97235739.10145  23745957.367                    23745959.711
        45.800          31.100
 117648050.587 8  91673788.69745  22387678.609                    22387682.211
        48.800          34.200
 119350395.709 7  93000436.82145  22711651.102                    22711657.676
        43.000          33.000
 118404633.564 7  92263362.23645  22531652.070                    22531658.113
        47.300          34.900
 117605981.813 7  91641073.92345  22379682.117                    22379686.324
        45.200          30.100
 114390872.562 7  89135798.35444  21767868.594                    21767871.789
        44.300          29.400
 110936929.968 8  86444366.79845  21110594.039                    21110596.813
        48.400          34.200
 120664691.775 7  94024472.74045  22961732.531                    22961736.008
        46.500          31.500
 18  3 15  9 50 24.0000000  0 16R07R15R16R06R23R24G30R17G21G07G08G27
                                G15G20G13G28
                  82547719.348 7  19826497.266                    19826498.949
                        42.200
                  91787008.106 5  22084316.344                    22084317.898
                        34.900
                  81268139.003 6  19560299.570                    19560300.574
                        40.200
                  91031048.018 3  21933230.852                    21933232.676
                        22.500
                  93400928.860 6  22448980.461                    22448985.539
                        38.100
                  86610711.520 5  20824251.273                    20824250.934
                        32.800
 111658974.921 8  87006987.63346  21247987.742                    21247993.531
        52.200          39.100
                  92336353.422 7  22185324.375                    22185327.770
                        42.900
 124787447.293 7  97236982.02345  23746260.914                    23746262.953
        45.900          30.400
 117650883.033 8  91675995.80145  22388218.055                    22388220.953
        48.200          34.100
 119349156.606 7  92999471.28945  22711415.547                    22711422.359
        42.900          33.100
 118406159.852 7  92264551.55245  22531942.531                    22531948.699
        47.300          35.100
 117603682.052 7  91639281.90344  22379243.602                    22379248.352
        45.300          28.400
 114391506.506 7  89136292.33444  21767988.789                    21767992.660
        44.300          28.200
 110936161.021 8  86443767.62045  21110447.422                    21110450.348
        48.500          34.600
 120662224.203 7  94022549.97245  22961263.211                    22961266.906
        46.900          31.900
 18  3 15  9 50 25.0000000  0 16R07R15R16R06R23R24G30R17G21G07G08G27
                                G15G20G13G28
                  82548238.275 7  19826621.375                    19826623.141
                        42.300
                  91790317.311 5  22085111.977                    22085113.898
                        35.600
                  81267915.247 6  19560246.094                    19560247.258
                        40.600
                  91034409.340 3  21934040.188                    21934042.383
                        21.600
                  93404028.725 6  22449725.391                    22449729.734
                        37.800
                  86611124.817 5  20824350.578                    20824350.570
                        32.600
 111660336.981 8  87008048.98046  21248247.250                    21248252.832
        52.400          39.000
                  92333822.005 7  22184716.125                    22184720.180
                        43.300
 124789042.800 7  97238225.27445  23746564.914                    23746566.879
        46.500          30.100
 117653715.829 8  91678203.17645  22388757.047                    22388760.195
        48.000          34.000
 119347918.074 7  92998506.18745  22711180.055                    22711186.637
        43.600          33.400
 118407686.723 7  92265741.31445  22532232.609                    22532238.777
        47.600          33.900
 117601382.682 7  91637490.19444  22378806.922                    22378810.824
        46.000          29.900
 114392141.061 7  89136786.78944  21768109.078                    21768113.094
        44.300          29.600
 110935392.646 8  86443168.89045  21110301.156                    21110304.168
        48.600          34.800
 120659756.938 7  94020627.44145  22960793.313                    22960797.602
        46.700          31.900
 18  3 15  9 50 26.0000000  0 16R07R15R16R06R23R24G30R17G21G07G08G27
                                G15G20G13G28
                  82548757.784 7  19826746.656                    19826748.664
                        42.400
                  91793626.733 6  22085906.164                    22085909.926
                        36.200
                  81267692.063 6  19560191.297                    19560193.316
                        40.100
                  91037770.822 3  21934852.500                    21934852.418
                        22.500
                  93407128.889 6  22450470.430                    22450474.703
                        37.400
                  86611538.764 5  20824449.328                    20824450.313
                        32.800
 111661699.549 8  87009110.72346  21248506.461                    21248512.195
        52.700          39.200
                  92331290.951 7  22184107.703                    22184112.270
                        43.400
 124790638.671 7  97239468.81545  23746868.039                    23746870.188
        46.500          31.200
 117656548.938 8  91680410.78945  22389296.094                    22389299.281
        48.300          34.000
 119346680.010 7  92997541.43945  22710944.648                    22710950.793
        44.100          33.000
 118409214.172 7  92266931.52845  22532523.539                    22532528.953
        47.200          34.400
 117599083.710 7  91635698.78844  22378370.422                    22378373.488
        46.500          29.700
 114392776.153 7  89137281.67644  21768230.219                    21768233.961
        43.800          28.400
 110934624.810 8  86442570.57645  21110155.117                    21110158.141
        48.900          34.500
 120657289.900 7  94018705.09145  22960323.789                    22960328.180
        46.700          31.900
 18  3 15  9 50 27.0000000  0 16R07R15R16R06R23R24G30R17G21G07G08G27
                                G15G20G13G28
                  82549277.955 7  19826870.953                    19826872.984
                        42.400
                  91796936.384 6  22086701.336                    22086705.582
                        36.400
                  81267469.507 6  19560138.953                    19560139.711
                        40.400
                  91041132.589 3  21935661.375                    21935662.684
                        22.100
                  93410229.386 6  22451216.516                    22451219.695
                        36.800
                  86611953.366 5  20824549.406                    20824549.500
                        32.600
 111663062.623 8  87010172.85446  21248765.883                    21248771.523
        52.900          39.500
                  92328760.226 7  22183500.070                    22183503.820
                        43.500
 124792234.931 7  97240712.65545  23747171.688                    23747174.078
        46.000          30.500
 117659382.366 8  91682618.65645  22389835.813                    22389838.586
        48.100          34.100
 119345442.484 7  92996577.09245  22710708.977                    22710715.012
        44.800          33.100
 118410742.197 7  92268122.19945  22532814.195                    22532820.023
        47.100          34.000
 117596785.122 7  91633907.67444  22377932.781                    22377936.102
        46.300          29.400
 114393411.846 7  89137777.00944  21768351.453                    21768355.012
        44.100          28.500
 110933857.531 8  86441972.70245  21110009.383                    21110012.113
        49.100          34.300
 120654823.147 7  94016782.95645  22959854.344                    22959858.859
        47.000          30.500
 18  3 15  9 50 28.0000000  0 16R07R15R16R06R23R24G30R17G21G07G08G27
                                G15G20G13G28
                  82549798.737 7  19826996.344                    19826998.883
                        42.200
                  91800246.261 6  22087498.102                    22087502.699
                        36.600
                  81267247.572 6  19560084.859                    19560086.090
                        40.200
                  91044494.523 3  21936470.602                    21936472.867
                        21.100
                  93413330.248 6  22451961.977                    22451964.629
                        36.600
                  86612368.661 5  20824649.656                    20824648.793
                        32.400
 111664426.239 8  87011235.41546  21249025.547                    21249030.824
        52.500          38.900
                  92326229.873 7  22182891.648                    22182895.965
                        43.300
 124793831.629 7  97241956.83045  23747475.844                    23747478.371
        46.000          30.800
 117662216.170 8  91684826.80845  22390374.359                    22390377.773
        48.400          34.000
 119344205.505 7  92995613.17645  22710473.766                    22710479.758
        45.200          33.700
 118412270.782 7  92269313.30545  22533105.125                    22533110.891
        47.300          33.500
 117594486.970 7  91632116.89244  22377494.305                    22377498.711
        45.800          29.100
 114394048.197 7  89138272.85844  21768473.000                    21768475.828
        45.000          29.600
 110933090.834 8  86441375.27445  21109863.383                    21109866.398
        49.400          34.400
 120652356.690 7  94014861.05545  22959385.367                    22959389.207
        46.400          30.500
 18  3 15  9 50 29.0000000  0 16R07R15R16R06R23R24G30R17G21G07G08G27
                                G15G20G13G28
                  82550320.161 7  19827121.961                    19827123.727
                        42.300
                  91803556.335 6  22088295.539                    22088298.895
                        36.900
                  81267026.218 6  19560031.141                    19560033.004
                        40.000
                                  21937282.086

                  93416431.478 6  22452707.086                    22452709.457
                        36.700
                  86612784.672 5  20824750.227                    20824749.543
                        32.600
 111665790.424 8  87012298.41146  21249285.078                    21249290.605
        52.700          39.200
                  92323699.899 7  22182283.984                    22182287.660
                        43.100
 124795428.733 7  97243201.32145  23747779.938                    23747782.063
        46.000          31.600
 117665050.339 7  91687035.25545  22390913.656                    22390916.992
        47.600          33.900
 119342969.059 7  92994649.67045  22710238.938                    22710244.316
        45.400          32.900
 118413800.020 7  92270504.92245  22533396.320                    22533401.586
        47.700          33.400
 117592189.264 7  91630326.46744  22377056.633                    22377061.359
        46.300          29.800
 114394685.128 7  89138769.17344  21768593.977                    21768597.102
        44.900          29.700
 110932324.741 8  86440778.31745  21109717.859                    21109720.480
        49.700          34.600
 120649890.554 7  94012939.39344  22958915.367                    22958919.789
        45.600          29.300
 18  3 15  9 50 30.0000000  0 16R07R15R16R06R23R24G30R17G21G07G08G27
                                G15G20G13G28
                  82550842.210 7  19827246.781                    19827248.570
                        42.400
                  91806866.612 6  22089092.367                    22089095.871
                        37.900
                  81266805.535 6  19559979.461                    19559980.211
                        40.000
                                  21938091.664

                  93419533.072 6  22453451.281                    22453454.590
                        36.900
                  86613201.419 5  20824849.344                    20824849.594
                        33.200
 111667155.157 8  87013361.84446  21249544.586                    21249550.008
        52.700          39.000
                  92321170.328 7  22181676.602                    22181680.750
                        43.100
 124797026.304 7  97244446.17445  23748083.203                    23748085.910
        46.000          31.400
 117667884.899 7  91689244.00445  22391453.609                    22391456.426
        47.900          34.100
 119341733.194 7  92993686.60945  22710003.320                    22710009.418
        45.400          33.400
 118415329.873 7  92271697.01945  22533687.430                    22533692.688
        47.500          33.200
 117589891.965 7  91628536.38144  22376619.438                    22376624.305
        46.000          28.500
 114395322.737 7  89139266.02144  21768715.164                    21768718.238
        44.500          29.600
 110931559.229 8  86440181.81445  21109572.180                    21109574.738
        49.700          34.600
 120647424.705 7  94011017.95844  22958446.047                    22958450.215
        45.700          27.500
 18  3 15  9 50 31.0000000  0 16R07R15R16R06R23R24G30R17G21G07G08G27
                                G15G20G13G28
                  82551364.915 7  19827372.469                    19827374.277
                        42.100
                  91810177.170 6  22089888.516                    22089893.301
                        38.300
                  81266585.462 6  19559925.281                    19559926.629
                        40.200
                                  21938902.852

                  93422635.019 6  22454196.156                    22454199.855
                        37.600
                  86613618.853 5  20824948.953                    20824949.695
                        32.600
 111668520.452 8  87014425.71046  21249804.250                    21249809.781
        52.300          39.000
                  92318641.158 7  22181069.008                    22181072.609
                        42.700
 124798624.299 7  97245691.35745  23748387.523                    23748390.063
        45.800          30.400
 117670719.799 7  91691453.01845  22391992.664                    22391995.648
        47.000          34.900
 119340497.921 7  92992724.00045  22709768.117                    22709774.359
        45.800          33.800
 118416860.322 7  92272889.58545  22533978.156                    22533983.746
        47.500          33.600
 117587595.116 7  91626746.64444  22376183.234                    22376186.754
        47.100          29.200
 114395960.929 7  89139763.32244  21768836.219                    21768840.258
        44.200          29.600
 110930794.312 8  86439585.77345  21109426.313                    21109429.090
        50.000          34.200
 120644959.191 7  94009096.77944  22957977.297                    22957980.980
        46.300          27.100
 18  3 15  9 50 32.0000000  0 16R07R15R16R06R23R24G30R17G21G07G08G27
                                G15G20G13G28
                  82551888.269 7  19827498.406                    19827499.863
                        42.500
                  91813487.947 6  22090684.766                    22090689.660
                        38.300
                  81266366.043 6  19559872.820                    19559873.902
                        40.400
                                  21939712.578

                  93425737.312 6  22454941.133                    22454945.691
                        37.900
                  86614036.957 5  20825049.789                    20825050.586
                        33.300
 111669886.304 8  87015490.00146  21250064.289                    21250070.051
        52.500          38.800
                  92316112.414 7  22180462.406                    22180464.738
                        42.200
 124800222.763 7  97246936.91145  23748691.875                    23748694.250
        45.800          31.300
 117673555.096 7  91693662.34245  22392532.789                    22392535.230
        47.200          34.200
 119339263.207 7  92991761.83345  22709533.695                    22709539.480
        46.600          33.600
 118418391.360 7  92274082.60545  22534269.703                    22534274.727
        47.000          33.100
 117585298.682 7  91624957.21444  22375746.555                    22375750.199
        47.200          29.900
 114396599.779 7  89140261.12044  21768957.742                    21768961.348
        43.800          28.800
 110930030.006 8  86438990.20845  21109280.766                    21109283.754
        49.500          34.700
 120642493.991 7  94007175.82144  22957508.211                    22957511.047
        46.000          26.000
 18  3 15  9 50 33.0000000  0 16R07R15R16R06R23R24G30R17G21G07G08G27
                                G15G20G13G28
                  82552412.208 7  19827623.695                    19827626.059
                        42.700
                  91816798.946 6  22091481.180                    22091487.492
                        38.600
                  81266147.192 6  19559820.320                    19559821.438
                        40.800
                                  21940523.039

                  93428839.890 6  22455688.023                    22455691.809
                        38.600
                  86614455.738 5  20825150.914                    20825151.414
                        32.800
 111671252.611 8  87016554.65746  21250324.141                    21250329.473
        52.300          39.400
                  92313584.008 6  22179855.477                    22179856.125
                        41.600
 124801821.559 7  97248182.73945  23748995.875                    23748998.453
        45.600          31.300
 117676390.679 7  91695871.89045  22393071.672                    22393074.879
        46.900          34.300
 119338029.083 7  92990800.15045  22709298.844                    22709304.695
        47.000          33.000
 118419922.965 7  92275276.05845  22534561.742                    22534565.930
        46.700          33.200
 117583002.601 7  91623168.05145  22375309.219                    22375313.473
        46.900          30.000
 114397239.164 7  89140759.33144  21769079.992                    21769083.004
        43.900          29.600
 110929266.192 8  86438395.02545  21109135.008                    21109138.473
        49.700          34.700
 120640028.987 7  94005255.01944  22957039.320                    22957041.523
        45.800          26.500
 18  3 15  9 50 34.0000000  0 16R07R15R16R06R23R24G30R17G21G07G08G27
                                G15G20G13G28
                  82552936.761 7  19827750.273                    19827752.160
                        42.600
                  91820110.126 6  22092277.781                    22092283.934
                        37.700
                  81265928.931 6  19559767.719                    19559768.980
                        40.400
                                  21941333.672

                  93431942.771 6  22456433.617                    22456437.910
                        38.800
                  86614875.184 5  20825250.648                    20825251.527
                        32.800
 111672619.470 8  87017619.73846  21250584.063                    21250589.672
        52.400          39.100
                  92311055.994 6  22179250.086                    22179247.934
                        40.800
 124803420.761 7  97249428.88945  23749300.547                    23749302.840
        45.900          31.200
 117679226.577 7  91698081.67945  22393611.500                    22393614.398
        47.500          34.300
 119336795.464 7  92989838.90245  22709064.031                    22709070.168
        46.600          34.100
 118421455.118 7  92276469.93545  22534853.125                    22534857.313
        46.800          33.000
 117580706.940 7  91621379.21744  22374872.438                    22374876.426
        46.600          28.600
 114397879.173 7  89141258.04044  21769201.516                    21769204.730
        44.100          28.700
 110928502.952 8  86437800.29545  21108990.211                    21108993.125
        49.000          34.400
 120637564.261 7  94003334.43144  22956570.047                    22956572.160
        45.100          26.800
 18  3 15  9 50 35.0000000  0 16R07R15R16R06R23R24G30R17G21G07G08G27
                                G15G20G13G28
                  82553461.933 7  19827876.414                    19827878.313
                        42.600
                  91823421.482 6  22093075.383                    22093080.125
                        36.900
                  81265711.263 6  19559714.789                    19559716.734
                        40.200
                                  21942144.242

                  93435046.010 6  22457179.461                    22457184.676
                        39.600
                  86615295.299 5  20825352.547                    20825352.762
                        32.800
 111673986.835 8  87018685.22046  21250844.117                    21250850.023
        52.400          39.400
                  92308528.373 6  22178643.547                    22178639.680
                        39.700
 124805020.372 7  97250675.35145  23749604.938                    23749607.172
        46.300          31.000
 117682062.838 7  91700291.75645  22394151.750                    22394154.488
        47.400          34.600
 119335562.389 7  92988878.07945  22708829.430                    22708835.328
        46.900          33.500
 118422987.910 7  92277664.30745  22535145.063                    22535149.234
        47.500          33.900
 117578411.674 7  91619590.69344  22374435.875                    22374439.469
        46.700          29.700
 114398519.777 7  89141757.21244  21769323.992                    21769326.949
        44.100          28.500
 110927740.257 8  86437205.98245  21108844.930                    21108848.160
        49.100          34.900
 120635099.830 7  94001414.07644  22956100.969                    22956102.668
        45.800          27.600
 18  3 15  9 50 36.0000000  0 16R07R15R16R06R23R24G30R17G21G07G08G27
                                G15G20G13G28
                  82553987.745 7  19828002.469                    19828003.918
                        42.400
                  91826733.115 5  22093873.586                    22093877.109
                        35.600
                  81265494.245 6  19559663.563                    19559664.082
                        40.700
                                  21942953.352

                  93438149.609 6  22457926.000                    22457930.398
                        39.300
                  86615716.138 5  20825453.555                    20825454.281
                        32.400
 111675354.766 8  87019751.13546  21251104.977                    21251110.309
        52.300          39.000
                  92306001.084 6  22178038.125                    22178031.953
                        39.000
 124806620.375 7  97251922.11045  23749908.961                    23749911.508
        46.000          30.800
 117684899.471 7  91702502.12345  22394691.203                    22394694.121
        47.300          34.500
 119334329.922 7  92987917.73945  22708594.609                    22708601.055
        47.500          34.200
 118424521.266 7  92278859.13345  22535436.688                    22535440.590
        47.300          33.300
 117576116.839 7  91617802.49944  22373998.602                    22374002.980
        45.900          29.800
 114399160.983 7  89142256.85744  21769445.625                    21769449.125
        44.300          29.700
 110926978.171 8  86436612.15445  21108700.117                    21108703.141
        49.200          35.200
 120632635.710 7  93999493.96844  22955632.297                    22955633.883
        45.800          27.500
 18  3 15  9 50 37.0000000  0 16R07R15R16R06R23R24G30R17G21G07G08G27
                                G15G20G13G28
                  82554514.152 7  19828128.594                    19828131.535
                        42.300
                  91830044.944 5  22094672.156                    22094673.961
                        33.700
                  81265277.814 6  19559610.586                    19559612.121
                        40.200
                  91074777.15513  21943764.563                    21943766.277
                        22.100
                  93441253.560 6  22458671.852                    22458677.137
                        39.900
                  86616137.609 5  20825554.797                    20825555.590
                        32.800
 111676723.188 8  87020817.43846  21251365.211                    21251370.762
        52.600          39.400
                  92303474.092 6  22177432.633                    22177424.063
                        38.300
 124808220.803 7  97253169.20645  23750213.805                    23750216.012
        45.600          31.200
 117687736.434 7  91704712.73845  22395231.195                    22395233.891
        47.800          34.400
 119333098.006 7  92986957.83045  22708360.203                    22708366.473
        47.200          33.500
 118426055.222 7  92280054.42345  22535728.867                    22535732.523
        47.500          33.500
 117573822.406 7  91616014.60944  22373561.180                    22373566.172
        45.700          28.700
 114399802.774 7  89142756.96144  21769567.945                    21769570.855
        44.600          29.300
 110926216.629 8  86436018.74345  21108555.141                    21108558.313
        49.400          34.800
 120630171.843 7  93997574.06344  22955163.688                    22955165.098
        45.500          29.100
 18  3 15  9 50 38.0000000  0 15R07R15R16R06R23R24G30G21G07G08G27G15
                                G20G13G28
                  82555041.186 7  19828255.492                    19828257.063
                        42.300
                  91833357.067 5  22095468.703                    22095469.285
                        33.700
                  81265062.013 6  19559559.445                    19559560.289
                        40.400
                  91078141.69113  21944574.555                    21944578.012
                        21.100
                  93444357.851 6  22459418.344                    22459424.168
                        40.000
                  86616559.766 5  20825656.656                    20825656.914
                        32.500
 111678092.163 8  87021884.16546  21251626.000                    21251631.344
        52.800          39.200
 124809821.610 7  97254416.58445  23750518.313                    23750520.742
        45.000          31.800
 117690573.700 8  91706923.59845  22395771.758                    22395774.051
        48.700          34.100
 119331866.646 7  92985998.37345  22708126.383                    22708132.512
        47.500          33.500
 118427589.739 7  92281250.15845  22536020.750                    22536024.250
        47.200          33.500
 117571528.366 7  91614227.04044  22373125.203                    22373129.453
        46.200          28.200
 114400445.174 7  89143257.52544  21769690.125                    21769693.359
        44.300          29.300
 110925455.662 8  86435425.78645  21108410.258                    21108413.910
        48.800          34.600
 120627708.281 7  93995654.40244  22954694.938                    22954697.531
        45.000          29.900
 18  3 15  9 50 39.0000000  0 15R07R15R16R06R23R24G30G21G07G08G27G15
                                G20G13G28
                  82555568.829 7  19828381.195                    19828384.129
                        42.500
                  91836669.387 5  22096264.922                    22096265.750
                        34.500
                  81264846.791 6  19559506.859                    19559508.188
                        40.000
                                  21945385.016

                  93447462.483 6  22460165.641                    22460170.250
                        40.500
                  86616982.549 5  20825758.984                    20825758.738
                        32.100
 111679461.622 8  87022951.27946  21251886.289                    21251891.891
        52.900          39.000
 124811422.794 7  97255664.25345  23750822.773                    23750825.352
        45.300          31.500
 117693411.330 7  91709134.73345  22396310.055                    22396313.895
        47.500          34.200
 119330635.784 7  92985039.30345  22707891.734                    22707898.203
        47.600          32.500
 118429124.836 7  92282446.34345  22536312.406                    22536316.648
        47.000          33.500
 117569234.746 7  91612439.80644  22372689.727                    22372693.285
        46.400          29.200
 114401088.156 7  89143758.55244  21769812.227                    21769815.613
        44.200          29.300
 110924695.231 8  86434833.23945  21108265.641                    21108268.824
        48.600          34.900
 120625244.972 7  93993734.96045  22954225.898                    22954228.586
        45.400          30.400
 18  3 15  9 50 40.0000000  0 15R07R15R16R06R23R24G30G21G07G08G27G15
                                G20G13G28
                  82556097.093 7  19828509.391                    19828510.762
                        42.600
                  91839981.934 6  22097059.945                    22097062.867
                        36.700
                  81264632.193 6  19559455.273                    19559456.949
                        40.400
                                  21946196.406

                  93450567.445 6  22460910.977                    22460916.473
                        40.000
                  86617406.018 5  20825860.805                    20825860.133
                        32.200
 111680831.617 8  87024018.81246  21252147.133                    21252152.891
        52.800          38.800
 124813024.443 7  97256912.28345  23751128.227                    23751130.043
        46.000          31.100
 117696249.282 7  91711346.12145  22396851.469                    22396854.102
        47.500          33.900
 119329405.455 8  92984080.63845  22707657.586                    22707663.918
        48.000          34.100
 118430660.503 7  92283642.96445  22536604.867                    22536608.578
        47.200          32.700
 117566941.522 7  91610652.87244  22372253.109                    22372257.207
        45.900          27.400
 114401731.746 7  89144260.04544  21769934.523                    21769938.133
        44.400          28.600
 110923935.366 8  86434241.14045  21108121.297                    21108123.797
        48.700          34.900
 120622781.962 7  93991815.75645  22953757.180                    22953760.316
        46.500          31.400
 18  3 15  9 50 41.0000000  0 16R07R15R16R06R23R24G30R17G21G07G08G27
                                G15G20G13G28
                  82556625.974 7  19828636.203                    19828637.672
                        42.800
                  91843294.663 6  22097856.031                    22097860.434
                        38.200
                  81264418.184 6  19559403.734                    19559405.145
                        40.700
                                  21947007.234

                  93453672.754 6  22461657.484                    22461664.387
                        39.900
                  86617830.148 5  20825962.141                    20825962.430
                        33.100
 111682202.134 8  87025086.74546  21252407.969                    21252413.023
        53.000          39.000
                  92293370.02316  22174995.367                    22174997.215
                        41.400
 124814626.421 7  97258160.58245  23751433.125                    23751435.207
        45.900          30.800
 117699087.577 7  91713557.78545  22397390.820                    22397393.824
        47.200          33.800
 119328175.658 7  92983122.39245  22707423.656                    22707430.250
        47.800          33.700
 118432196.759 7  92284840.05045  22536896.906                    22536900.828
        47.100          34.200
 117564648.689 7  91608866.23444  22371815.734                    22371820.277
        44.900          28.900
 114402375.950 7  89144762.01144  21770057.219                    21770060.555
        43.900          28.600
 110923176.074 8  86433649.48745  21107976.461                    21107979.703
        48.900          34.600
 120620319.220 7  93989896.75345  22953288.586                    22953292.246
        46.600          31.600
 18  3 15  9 50 42.0000000  0 16R07R15R16R06R23R24G30R17G21G07G08G27
                                G15G20G13G28
                  82557155.479 7  19828763.578                    19828764.516
                        42.400
                  91846607.601 6  22098651.445                    22098658.457
                        38.600
                  81264204.795 6  19559352.555                    19559353.883
                        40.200
                                  21947817.859

                  93456778.407 6  22462404.352                    22462410.313
                        39.600
                  86618255.033 5  20826064.906                    20826064.406
                        32.800
 111683573.180 8  87026155.09046  21252668.766                    21252674.313
        52.800          39.200
                  92290844.869 7  22174389.383                    22174392.008
                        42.100
 124816228.841 7  97259409.22045  23751738.102                    23751740.004
        45.700          30.800
 117701926.231 7  91715769.72845  22397931.141                    22397934.320
        47.200          34.000
 119326946.373 7  92982164.53145  22707189.563                    22707196.223
        47.400          33.500
 118433733.616 7  92286037.60545  22537189.109                    22537193.582
        47.500          33.400
 117562356.307 7  91607079.95444  22371380.578                    22371384.230
        45.500          29.300
