     2.11           OBSERVATION DATA    M (MIXED)           RINEX VERSION / TYPE
teqc  2018Mar15                         20180319 14:17:34UTCPGM / RUN BY / DATE
Linux 2.6.32-573.12.1.x86_64|x86_64|gcc -static|Linux 64|=+ COMMENT
END OF STATIC MODE OBSERVATION                              COMMENT
BIT 2 OF LLI FLAGS DATA COLLECTED UNDER A/S CONDITION       COMMENT
-Unknown-                                                   MARKER NAME
4625                                                        MARKER NUMBER
-Unknown-           -Unknown-                               OBSERVER / AGENCY
5127468778          TRIMBLE             4.63                REC # / TYPE / VERS
47477114                            NONE                    ANT # / TYPE
  5440561.7196        0.0000 -3317640.7097                  APPROX POSITION XYZ
        0.0000        0.0000        0.0000                  ANTENNA: DELTA H/E/N
     1     1                                                WAVELENGTH FACT L1/2
     7    L1    L2    C1    P1    P2    S1    S2            # / TYPES OF OBSERV
    18                                                      LEAP SECONDS
 SNR is mapped to RINEX snr flag value [0-9]                COMMENT
  L1 & L2: min(max(int(snr_dBHz/6), 0), 9)                  COMMENT
  2018     3    15    13    41   43.0000000     GPS         TIME OF FIRST OBS
                                                            END OF HEADER
 18  3 15 13 41 43.0000000  0 12R02G12R10R11R18G17G01G10R19G24G32G19
                  84767385.776 6  20424050.258                    20424052.582
                        39.300
 116541091.661 7  90811135.31343  22177003.063                    22177007.031
        43.500          23.200
                  81405468.980 6  19634733.445                    19634736.617
                        38.100
                  84972084.664 6  20444614.273                    20444616.629
                        39.600
                                  22537997.031

 114747288.664 7  89413489.92744  21835693.461                    21835696.902
        47.000          29.600
 118990170.140 6  92719633.75642  22643076.469                    22643083.758
        37.700          14.800
 126731670.476 5                  24116242.578
        33.900
                  83970704.287 6  20182421.789                    20182421.855
                        37.100
 111267328.383 8  86701833.87645  21173468.141                    21173474.391
        49.000          34.200
 117512509.243 7  91568201.75843  22361887.781                    22361893.988
        44.100          22.200
 113602852.961 7  88521660.66243  21617904.672                    21617905.176
        42.500          22.500
 18  3 15 13 41 44.0000000  0 11R02G12R10R11G17G01G10R19G24G32G19
                  84767272.551 6  20424022.563                    20424025.418
                        40.900
 116538305.155 7  90808964.01744  22176472.195                    22176476.547
        43.400          24.300
                  81407061.619 6  19635118.188                    19635120.984
                        40.000
                  84970184.878 6  20444157.344                    20444159.547
                        41.000
 114747664.786 7  89413783.00645  21835765.031                    21835768.730
        47.400          30.100
 118991981.125 6  92721044.91542  22643421.625                    22643428.605
        37.600          15.600
 126735270.601 5                  24116927.906
        34.800
                  83971262.762 6  20182556.211                    20182555.891
                        38.700
 111269007.256 8  86703142.09145  21173788.586                    21173793.965
        49.400          35.300
 117511355.114 6                  22361669.063
        41.700
 113601603.593 6  88520687.13043  21617666.633                    21617667.551
        41.700          22.900
 18  3 15 13 41 45.0000000  0 11R02G12R10R11G17G01G10R19G24G32G19
                  84767160.032 6  20423995.641                    20423998.477
                        41.500
 116535519.037 7  90806793.00644  22175943.156                    22175946.461
        43.900          25.700
                  81408654.853 6  19635502.203                    19635505.766
                        40.200
                  84968285.562 6  20443700.188                    20443702.379
                        40.900
 114748041.501 7  89414076.55044  21835836.711                    21835840.297
        47.300          29.800
 118993792.819 6  92722456.59042  22643766.758                    22643773.504
        38.300          16.300
 126738871.139 5                  24117613.234
        31.500
                  83971821.968 6  20182691.031                    20182690.383
                        39.100
 111270686.733 8  86704450.76945  21174108.500                    21174113.723
        49.800          34.700
 117510201.396 7  91566403.52353  22361448.852                    22361455.355
        42.300          23.300
 113600354.878 6  88519714.10343  21617427.570                    21617430.012
        40.800          22.800
 18  3 15 13 41 46.0000000  0 12R02G12R10R11G17G01G10R19G24G32R03G19
                  84767048.297 6  20423968.773                    20423971.391
                        41.200
 116532733.394 7  90804622.37844  22175412.320                    22175416.453
        43.500          25.500
                  81410248.722 6  19635886.484                    19635890.250
                        40.200
                  84966386.707 6  20443243.586                    20443245.676
                        40.700
 114748418.865 7  89414370.59644  21835908.453                    21835911.918
        46.700          29.100
 118995605.184 6  92723868.84142  22644110.836                    22644118.316
        36.300          16.300
 126742472.045 5                  24118298.789
        32.900
                  83972381.895 6  20182825.867                    20182825.383
                        38.700
 111272366.874 8  86705759.96845  21174427.719                    21174433.566
        49.500          35.500
 117509048.266 6  91565504.98943  22361229.195                    22361235.965
        41.700          21.700
                  95353179.40414  22902137.328                    22902140.867
                        26.300
 113599106.901 7  88518741.67343  21617191.344                    21617192.348
        42.000          22.800
 18  3 15 13 41 47.0000000  0 13R02G12R10R11R18G17G01G10R19G24G32R03
                                G19
                  84766937.321 7  20423942.414                    20423944.707
                        42.000
 116529948.177 7  90802452.06744  22174882.164                    22174886.105
        43.600          25.700
                  81411843.200 6  19636271.141                    19636274.809
                        39.800
                  84964488.403 6  20442787.031                    20442788.980
                        41.500
                                  22541280.125

 114748796.883 7  89414665.15344  21835980.594                    21835984.449
        47.200          29.200
 118997418.161 6  92725281.48742  22644455.250                    22644463.129
        37.100          15.600
 126746073.218 5                  24118983.297
        34.800
                  83972942.566 6  20182959.625                    20182959.465
                        38.600
 111274047.641 8  86707069.65845  21174747.617                    21174753.508
        49.300          35.000
 117507895.818 7  91564606.97343  22361010.414                    22361016.410
        44.600          21.500
                  95350367.513 4  22901462.781                    22901465.734
                        26.800
 113597859.639 6  88517769.79144  21616954.758                    21616955.473
        41.600          24.800
 18  3 15 13 41 48.0000000  0 13R02G12R10R11R18G17G01G10R19G24G32R03
                                G19
                  84766827.083 6  20423915.875                    20423918.414
                        37.200
 116527163.338 7  90800282.07344  22174352.281                    22174356.336
        42.900          24.700
                  81413438.279 6  19636655.555                    19636659.680
                        40.000
                  84962590.540 6  20442330.492                    20442332.164
                        40.500
                                  22542101.688

 114749175.529 7  89414960.19744  21836052.938                    21836056.160
        47.000          29.400
 118999231.798 6  92726694.65242  22644800.813                    22644808.012
        37.200          14.800
 126749675.20316                  24119668.273
        37.200
                  83973503.976 6  20183094.531                    20183094.551
                        38.700
 111275728.973 8  86708379.78145  21175068.102                    21175073.410
        49.600          35.200
 117506744.136 6                  22360791.078
        39.600
                  95347555.910 4  22900788.516                    22900789.707
                        24.300
 113596613.036 6  88516798.39943  21616716.281                    21616718.211
        41.100          23.000
 18  3 15 13 41 49.0000000  0 12R02G12R10R11R18G17G01G10R19G24G32G19
                  84766717.590 6  20423889.492                    20423892.156
                        36.600
 116524378.944 7  90798112.43544  22173822.813                    22173826.402
        42.800          25.700
                  81415033.988 6  19637040.617                    19637044.543
                        39.800
                  84960693.146 6  20441873.406                    20441875.922
                        40.900
                                  22542923.828

 114749554.801 7  89415255.74044  21836124.930                    21836128.367
        46.700          29.100
 119001046.171 6  92728108.42842  22645146.508                    22645153.707
        39.700          15.600
 126753276.473 5                  24120353.883
        33.800
                  83974066.108 6  20183229.828                    20183229.500
                        37.500
 111277410.961 8  86709690.42545  21175387.258                    21175393.609
        49.600          34.300
 117505592.739 7                  22360571.531
        43.100
 113595367.118 6  88515827.55243  21616479.023                    21616480.984
        40.600          22.900
 18  3 15 13 41 50.0000000  0 11R02G12R10R11G17G01G10R19G24G32G19
                  84766608.857 5  20423862.859                    20423866.094
                        35.400
 116521594.988 7  90795943.10244  22173292.773                    22173296.773
        43.800          25.300
                  81416630.271 6  19637425.938                    19637429.566
                        39.700
                  84958796.229 6  20441417.773                    20441419.559
                        41.400
 114749934.716 7  89415551.76244  21836196.813                    21836200.605
        45.900          27.700
 119002861.350 6  92729522.88342  22645492.055                    22645499.195
        40.300          17.400
 126756878.755 5                  24121038.516
        34.900
                  83974628.972 6  20183366.664                    20183365.016
                        36.000
 111279093.567 8  86711001.53945  21175707.891                    21175713.375
        49.800          34.000
 117504442.325 6                  22360352.930
        40.800
 113594121.883 6  88514857.24843  21616242.102                    21616243.598
        41.300          22.600
 18  3 15 13 41 51.0000000  0 10R02G12R10R11G17G01R19G24G32G19
                  84766500.519 6  20423837.156                    20423839.484
                        41.100
 116518811.50116                  22172763.789
        40.300
                  81418227.187 6  19637810.570                    19637814.246
                        40.200
                  84956899.979 5  20440961.313                    20440962.840
                        31.600
 114750315.302 7  89415848.30744  21836269.688                    21836272.754
        46.000          26.500
 119004676.996 6  92730937.70942  22645837.711                    22645844.715
        38.700          17.400
                  83975192.550 6  20183500.609                    20183500.754
                        36.900
 111280776.771 8  86712313.12945  21176027.813                    21176033.527
        50.700          35.700
 117503292.294 6                  22360133.844
        41.800
 113592877.428 6  88513887.55843  21616006.695                    21616006.945
        40.500          21.800
 18  3 15 13 41 52.0000000  0 11R02G12R10R11G17G01G10R19G24G32G19
                  84766393.253 6  20423811.055                    20423813.645
                        41.300
 116516028.15216                  22172234.156
        38.100
                  81419824.764 6  19638196.602                    19638199.777
                        38.700
                  84955003.906 6  20440505.141                    20440507.121
                        39.200
 114750696.550 7  89416145.38644  21836341.898                    21836345.441
        46.900          29.100
 119006493.428 6  92732353.13742  22646183.477                    22646190.305
        36.900          15.600
 126764084.68215                  24122411.016
        33.100
                  83975756.992 6  20183636.414                    20183636.020
                        38.100
 111282460.823 7  86713625.35443  21176348.914                    21176353.852
        46.000          23.500
 117502143.004 7                  22359915.844
        45.800
 113591633.619 7  88512918.34744  21615769.367                    21615770.441
        43.000          24.300
 18  3 15 13 41 53.0000000  0 11R02G12R10R11G17G01G10R19G24G32G19
                  84766286.643 7  20423785.156                    20423787.922
                        42.000
 116513244.838 7  90789436.26553  22171704.625                    22171707.422
        43.300          20.900
                  81421422.915 6  19638581.820                    19638585.375
                        39.400
                  84953108.486 6  20440049.461                    20440050.918
                        40.900
 114751078.403 7  89416442.95944  21836414.680                    21836418.191
        47.000          29.800
 119008310.575 6  92733768.93442  22646528.469                    22646536.270
        36.300          15.600
 126767687.318 5                  24123095.984
        34.300
                  83976322.112 6  20183772.625                    20183772.051
                        38.600
 111284145.336 8  86714937.97245  21176669.234                    21176674.758
        50.300          34.700
 117500994.344 7                  22359696.734
        46.000
 113590390.566 6  88511949.71643  21615532.008                    21615533.934
        41.200          22.800
 18  3 15 13 41 54.0000000  0 11R02G12R10R11G17G01G10R19G24G32G19
                  84766180.741 6  20423760.031                    20423762.059
                        41.800
 116510462.990 6  90787268.53743  22171175.219                    22171178.590
        40.400          20.600
                  81423021.642 6  19638966.953                    19638970.758
                        39.300
                  84951213.498 6  20439593.117                    20439594.516
                        41.400
 114751460.891 7  89416741.01745  21836487.633                    21836491.262
        47.500          30.200
 119010128.336 5                  22646874.750
        35.800
 126771290.816 5                  24123781.797
        35.100
                  83976887.963 6  20183908.797                    20183907.816
                        39.100
 111285830.498 7  86716251.10444  21176989.945                    21176995.660
        47.300          29.000
 117499846.316 7                  22359478.719
        45.800
 113589148.095 6  88510981.56144  21615296.219                    21615297.270
        41.600          24.200
 18  3 15 13 41 55.0000000  0 13R02G12R10R11G14R18G17G01G10R19G24G32
                                G19
                  84766075.569 6  20423734.414                    20423736.957
                        41.600
 116507681.61314                  22170644.906
        29.600
                  81424620.998 6  19639353.219                    19639356.492
                        39.600
                  84949318.957 6  20439137.391                    20439139.191
                        39.900
 125176651.11415                  23820353.930
        32.400
                                  22547850.969

 114751843.993 7  89417039.55044  21836560.125                    21836563.828
        47.400          29.900
 119011946.723 6                  22647220.898
        37.400
 126774894.696 5                  24124467.313
        35.400
                  83977454.595 6  20184045.281                    20184044.059
                        37.800
 111287516.264 8  86717564.67745  21177310.023                    21177315.918
        51.000          35.700
 117498698.868 7                  22359260.430
        45.700
 113587906.406 6  88510014.02543  21615059.375                    21615061.270
        41.100          23.200
 18  3 15 13 41 56.0000000  0 12R02R10R11G14R18G17G01G10R19G24G32G19
                  84765971.105 6  20423709.273                    20423711.684
                        41.200
                  81426220.947 6  19639738.875                    19639742.375
                        40.200
                  84947424.938 6  20438681.750                    20438683.215
                        40.500
 125174084.183 4                  23819865.047
        26.800
                                  22548674.031

 114752227.747 7  89417338.56344  21836633.555                    21836636.895
        47.300          29.200
 119013765.915 6                  22647567.172
        36.700
 126778498.929 5                  24125152.703
        33.300
                  83978021.944 6  20184181.234                    20184180.223
                        38.700
 111289202.692 8  86718878.77145  21177632.234                    21177637.047
        50.600          34.600
 117497552.048 7  91556499.83154  22359041.539                    22359037.066
        44.600          29.900
 113586665.434 6  88509047.04843  21614823.773                    21614825.102
        41.800          22.200
 18  3 15 13 41 57.0000000  0 13R02G12R10R11G14R18G17G01G10R19G24G32
                                G19
                  84765867.364 6  20423684.266                    20423686.570
                        41.100
 116502119.69314                  22169585.992
        29.400
                  81427821.497 6  19640124.844                    19640128.582
                        39.100
                  84945531.396 5  20438225.930                    20438227.906
                        35.800
 125171518.44315                  23819378.102
        30.700
                                  22549494.953

 114752612.186 7  89417638.12344  21836706.078                    21836709.984
        46.600          29.600
 119015585.665 5                  22647912.508
        34.000
 126782103.371 6                  24125839.477
        36.500
                  83978590.028 6  20184317.531                    20184316.945
                        39.700
 111290889.792 8  86720193.39445  21177952.484                    21177958.449
        49.900          34.900
 117496405.851 7  91555606.67144  22358823.805                    22358824.805
        44.900          29.100
 113585425.134 6  88508080.59544  21614586.945                    21614589.113
        39.700          25.000
 18  3 15 13 41 58.0000000  0 13R02G12R10R11G14R18G17G01G10R19G24G32
                                G19
                  84765764.338 6  20423659.859                    20423662.000
                        41.200
 116499339.65315                  22169058.523
        31.300
                  81429422.658 6  19640511.273                    19640515.109
                        39.100
                  84943638.353 6  20437770.289                    20437772.496
                        41.800
 125168952.35414                  23818888.883
        26.800
                                  22550315.945

 114752997.204 7  89417938.13245  21836779.320                    21836783.180
        47.800          30.200
 119017406.047 6                  22648259.055
        37.900
 126785708.284 5                  24126526.555
        34.500
                  83979158.824 6  20184454.500                    20184453.480
                        39.300
 111292577.486 6  86721508.45543  21178273.547                    21178279.492
        40.900          21.300
 117495260.290 7  91554714.02145  22358605.531                    22358609.746
        45.400          30.700
 113584185.397 6  88507114.56443  21614350.367                    21614352.992
        39.700          23.900
 18  3 15 13 41 59.0000000  0 13R02G12R10R11G14R18G17G01G10R19G24G32
                                G19
                  84765662.050 6  20423635.508                    20423637.797
                        38.900
 116496559.187 5                  22168528.797
        31.500
                  81431024.438 6  19640897.539                    19640900.816
                        37.400
                  84941745.765 6  20437315.578                    20437316.938
                        38.300
 125166386.66915                  23818400.313
        32.000
                                  22551139.945

 114753382.834 7  89418238.62544  21836853.438                    21836856.766
        46.800          27.600
 119019227.218 6                  22648606.086
        37.600
 126789313.374 5                  24127211.016
        34.600
                  83979728.391 5  20184590.867                    20184590.176
                        34.900
 111294265.763 7                  21178594.539
        43.600
 117494115.338 7  91553821.86944  22358388.023                    22358392.328
        45.200          26.100
 113582946.523 7  88506149.23243  21614116.586                    21614116.984
        42.900          22.600
 18  3 15 13 42  0.0000000  0 12R02G12R10R11G14G17G01G10R19G24G32G19
                  84765560.559 6  20423610.805                    20423612.684
                        41.300
 116493779.69015                  22167999.461
        30.500
                  81432626.853 6  19641283.984                    19641287.617
                        39.700
                  84939853.675 6  20436859.594                    20436861.563
                        38.900
 125163821.48815                  23817911.500
        33.500
 114753769.230 7  89418539.72045  21836926.852                    21836930.664
        47.700          30.100
 119021049.066 6                  22648953.461
        37.800
 126792918.944 5                  24127897.023
        35.500
                  83980298.694 6  20184728.008                    20184728.035
                        39.000
 111295954.747 8  86724133.08556  21178916.680                    21178920.383
        50.900          40.400
 117492971.044 7  91552930.21644  22358170.188                    22358175.645
        46.000          29.300
 113581708.391 7  88505184.44643  21613880.805                    21613881.402
        42.300          22.800
 18  3 15 13 42  1.0000000  0 12R02G12R10R11G14G17G01G10R19G24G32G19
                  84765459.798 6  20423586.297                    20423588.602
                        41.200
 116491000.138 5                  22167470.883
        32.800
                  81434229.885 6  19641670.906                    19641674.418
                        39.700
                  84937962.145 6  20436405.484                    20436406.789
                        37.400
 125161255.975 4                  23817423.992
        28.300
 114754156.232 7  89418841.27945  21837000.297                    21837003.910
        46.300          30.600
 119022871.541 6                  22649299.625
        37.300
 126796524.745 5                  24128584.117
        32.400
                  83980869.757 6  20184865.047                    20184864.883
                        38.500
 111297644.402 8  86725449.75046  21179238.266                    21179243.152
        51.800          40.000
 117491827.371 7  91552039.03744  22357953.016                    22357957.664
        45.600          28.800
 113580470.929 6  88504220.17543  21613644.719                    21613646.238
        40.400          21.800
 18  3 15 13 42  2.0000000  0 11R02G12R10R11G14G17G01R19G24G32G19
                  84765359.723 6  20423563.125                    20423564.465
                        38.200
 116488221.91717                  22166941.992
        45.300
                  81435833.525 6  19642057.383                    19642061.027
                        39.200
                  84936071.158 6  20435950.719                    20435950.410
                        36.600
 125158692.14515                  23816937.852
        30.100
 114754543.818 7  89419143.29044  21837074.148                    21837077.750
        46.400          29.100
 119024694.801 5                  22649646.977
        35.400
                  83981441.612 6  20185003.125                    20185003.125
                        39.300
 111299334.683 8  86726766.85445  21179559.586                    21179565.160
        49.000          35.000
 117490684.293 6  91551148.36643  22357734.758                    22357740.301
        40.500          21.100
 113579234.056 6  88503256.39143  21613408.594                    21613410.852
        40.900          22.300
 18  3 15 13 42  3.0000000  0 11R02G12R10R11G17G01G10R19G24G32G19
                  84765260.548 6  20423539.398                    20423540.266
                        38.200
 116485443.54817                  22166413.773
        43.500
                  81437437.795 6  19642443.797                    19642447.492
                        39.700
                  84934180.528 6  20435495.031                    20435496.496
                        41.700
 114754932.165 7  89419445.89844  21837147.781                    21837151.324
        46.900          28.900
 119026518.744 6                  22649994.328
        38.300
 126803738.73415                  24129956.766
        34.900
                  83982014.227 6  20185140.688                    20185140.004
                        37.100
 111301025.610 8  86728084.44045  21179881.055                    21179886.707
        49.500          35.900
 117489541.74815                  22357518.188
        34.100
 113577998.058 6  88502293.27743  21613174.500                    21613175.480
        41.700          23.400
 18  3 15 13 42  4.0000000  0 11R02G12R10R11G17G01G10R19G24G32G19
                  84765161.784 6  20423514.430                    20423516.828
                        40.700
 116482665.65817                  22165884.352
        43.200
                  81439042.653 6  19642831.695                    19642835.277
                        40.000
                  84932290.398 6  20435040.211                    20435041.957
                        41.600
 114755321.082 7  89419748.94644  21837222.039                    21837225.734
        46.700          29.700
 119028343.193 6                  22650340.695
        39.000
 126807345.50515                  24130643.078
        32.400
                  83982587.521 6  20185277.867                    20185277.652
                        38.700
 111302717.092 8  86729402.48545  21180203.516                    21180209.012
        49.900          35.300
 117488400.19317                  22357300.227
        43.200
 113576762.703 6  88501330.64543  21612939.219                    21612940.020
        41.400          22.900
 18  3 15 13 42  5.0000000  0 12R01R02G12R10R11G17G01G10R19G24G32G19
                                  22192526.500

                  84765063.899 6  20423490.938                    20423492.867
                        40.700
 116479888.22417                  22165356.320
        43.700
                  81440648.158 6  19643218.703                    19643222.484
                        37.900
                  84930400.738 6  20434585.508                    20434586.988
                        40.000
 114755710.682 7  89420052.53144  21837296.109                    21837300.055
        47.100          27.100
 119030168.442 6                  22650688.203
        38.700
 126810952.84915                  24131330.008
        32.000
                  83983161.582 6  20185414.969                    20185415.438
                        37.700
 111304409.293 8  86730721.07845  21180525.539                    21180531.016
        50.000          34.800
 117487259.02117                  22357083.227
        45.800
 113575528.022 6  88500368.56443  21612703.547                    21612705.398
        41.200          22.600
 18  3 15 13 42  6.0000000  0 12R01R02G12R10R11G17G01G10R19G24G32G19
                                  22193326.609

                  84764966.736 6  20423468.086                    20423470.063
                        41.700
 116477111.25117                  22164827.484
        43.900
                  81442254.253 6  19643606.102                    19643609.602
                        39.600
                  84928511.629 6  20434131.063                    20434132.824
                        41.100
 114756100.927 7  89420356.62344  21837370.430                    21837373.980
        47.300          28.500
 119031994.424 6                  22651035.305
        36.900
 126814560.42015                  24132015.727
        32.200
                  83983736.380 6  20185553.742                    20185553.656
                        38.200
 111306102.116 8  86732040.16445  21180847.125                    21180853.016
        49.500          35.300
 117486118.49817                  22356865.867
        44.900
 113574294.117 6  88499407.06243  21612469.258                    21612470.375
        40.700          22.000
 18  3 15 13 42  7.0000000  0 12R01R02G12R10R11G17G01G10R19G24G32G19
                                  22194127.805

                  84764870.334 6  20423444.234                    20423447.199
                        41.900
 116474334.186 7                  22164299.344
        43.900
                  81443860.979 6  19643993.797                    19643997.434
                        39.400
                  84926623.012 6  20433677.141                    20433678.402
                        41.300
 114756491.816 7  89420661.20844  21837444.805                    21837448.504
        47.200          28.200
 119033821.091 6                  22651382.852
        37.700
 126818168.418 5                  24132701.516
        31.000
                  83984311.909 6  20185691.422                    20185692.082
                        38.200
 111307795.606 8  86733359.77145  21181169.781                    21181175.293
        49.900          35.400
 117484978.622 7  91546702.36754  22356649.398                    22356654.656
        45.500          29.200
 113573060.863 6  88498446.09143  21612235.023                    21612235.613
        41.600          22.900
 18  3 15 13 42  8.0000000  0 12R01R02G12R10R11G17G01G10R19G24G32G19
                                  22194927.313

                  84764774.654 6  20423420.789                    20423423.668
                        41.400
 116471558.073 7  90756946.30054  22163771.219                    22163773.938
        44.100          25.600
                  81445468.325 6  19644381.156                    19644384.906
                        39.600
                  84924734.833 6  20433222.867                    20433223.828
                        41.200
 114756883.333 7  89420966.28344  21837518.852                    21837522.625
        47.400          27.800
 119035648.394 6  92755070.26852  22651731.125                    22651736.402
        36.800          17.400
 126821776.635 5                  24133388.344
        32.300
                  83984888.182 6  20185830.820                    20185830.063
                        38.300
 111309489.702 8  86734679.84845  21181491.758                    21181497.824
        49.300          34.900
 117483839.386 7  91545814.63544  22356432.344                    22356437.680
        45.000          28.400
 113571828.294 6  88497485.63243  21612000.109                    21612001.043
        40.800          22.800
 18  3 15 13 42  9.0000000  0 13R01R02G12R10R11R18G17G01G10R19G24G32
                                G19
                                  22195729.289

                  84764679.765 6  20423398.453                    20423400.824
                        40.400
 116468782.396 7  90754783.41944  22163243.070                    22163245.742
        44.500          25.600
                  81447076.305 6  19644768.938                    19644773.281
                        39.600
                  84922847.147 6  20432768.320                    20432769.738
                        40.900
                                  22559362.859

 114757275.504 7  89421271.87244  21837594.000                    21837597.391
        47.300          28.600
 119037476.392 6  92756494.67642  22652079.477                    22652084.539
        36.100          15.600
 126825385.228 5                  24134075.602
        32.800
                  83985465.232 6  20185970.016                    20185969.301
                        38.200
 111311184.483 8  86736000.45445  21181814.297                    21181820.098
        49.600          35.400
 117482700.816 7  91544927.44944  22356215.969                    22356221.293
        43.400          26.800
 113570596.493 6  88496525.79343  21611765.070                    21611766.793
        40.400          22.300
 18  3 15 13 42 10.0000000  0 13R01R02G12R10R11R18G17G01G10R19G24G32
                                G19
                                  22196530.844

                  84764585.590 6  20423375.766                    20423378.199
                        41.000
 116466007.130 7  90752620.89144  22162714.664                    22162717.848
        44.200          24.500
                  81448684.880 6  19645156.828                    19645160.691
                        39.700
                  84920959.960 6  20432314.211                    20432315.719
                        41.200
                                  22560185.703

 114757668.303 7  89421577.95244  21837668.430                    21837672.418
        47.200          28.400
 119039305.028 5  92757919.56142  22652427.063                    22652432.449
        35.900          15.600
 126828994.207 5                  24134761.781
        32.900
                  83986042.988 6  20186108.086                    20186108.305
                        38.300
 111312879.845 8  86737321.52145  21182137.008                    21182143.227
        49.300          35.300
 117481562.804 7  91544040.68744  22355999.305                    22356004.539
        45.400          29.600
 113569365.349 6  88495566.46144  21611530.852                    21611532.813
        41.700          25.000
 18  3 15 13 42 11.0000000  0 13R01R02G12R10R11R18G17G01G10R19G24G32
                                G19
                                  22197331.977

                  84764492.123 6  20423353.328                    20423355.691
                        40.900
 116463232.327 7  90750458.72744  22162186.500                    22162189.957
        44.200          24.800
                  81450294.080 6  19645545.148                    19645548.598
                        39.200
                  84919073.287 6  20431860.289                    20431861.590
                        41.200
                                  22561008.391

 114758061.792 7  89421884.57144  21837743.102                    21837746.742
        47.300          28.100
 119041134.348 6  92759345.00142  22652774.070                    22652780.613
        37.100          14.800
 126832603.522 5                  24135448.414
        32.900
                  83986621.513 6  20186247.109                    20186247.430
                        38.900
 111314575.854 8  86738643.08045  21182459.695                    21182465.695
        49.300          35.200
 117480425.452 7  91543154.44945  22355782.500                    22355788.063
        46.000          30.400
 113568134.924 7  88494607.70844  21611297.219                    21611298.309
        42.500          24.600
 18  3 15 13 42 12.0000000  0 13R01R02G12R10R11R18G17G01G10R19G24G32
                                G19
                                  22198133.453

                  84764399.379 6  20423331.250                    20423333.367
                        41.000
 116460457.912 7  90748296.86343  22161658.977                    22161661.711
        43.900          23.300
                  81451903.893 6  19645933.234                    19645936.762
                        39.300
                  84917187.068 6  20431406.484                    20431407.906
                        41.100
                                  22561831.328

 114758455.866 7  89422191.63644  21837818.680                    21837821.883
        47.400          28.300
 119042964.390 6  92760771.06642  22653122.805                    22653128.566
        36.400          14.800
 126836213.160 5                  24136135.633
        31.300
                  83987200.766 6  20186386.516                    20186386.238
                        38.600
 111316272.498 8  86739965.13245  21182783.008                    21182788.598
        49.500          34.900
 117479288.668 7  91542268.61844  22355566.570                    22355572.020
        45.900          26.500
 113566905.232 7  88493649.51644  21611064.008                    21611064.594
        42.600          24.800
 18  3 15 13 42 13.0000000  0 13R01R02G12R10R11R18G17G01G10R19G24G32
                                G19
                                  22198934.758

                  84764307.320 6  20423308.781                    20423311.273
                        41.100
 116457683.996 7  90746135.37944  22161131.438                    22161134.309
        43.800          24.400
                  81453514.314 6  19646321.945                    19646325.480
                        39.500
                  84915301.313 6  20430952.531                    20430954.055
                        41.200
                                  22562655.664

 114758850.637 7  89422499.24444  21837893.570                    21837897.285
        47.200          29.000
 119044795.083 6  92762197.55842  22653471.727                    22653477.359
        36.800          14.800
 126839823.200 4                  24136822.477
        29.600
                  83987780.795 6  20186525.977                    20186525.980
                        38.700
 111317969.790 8  86741287.68945  21183106.188                    21183111.910
        49.500          35.400
 117478152.655 7  91541383.42244  22355350.063                    22355355.570
        43.800          26.100
 113565676.203 7  88492691.82944  21610828.945                    21610830.664
        42.300          25.000
 18  3 15 13 42 14.0000000  0 13R01R02G12R10R11R18G17G01G10R19G24G32
                                G19
                                  22199736.898

                  84764216.029 6  20423286.195                    20423289.047
                        41.300
 116454910.450 7  90743974.17344  22160603.609                    22160606.137
        44.700          24.000
                  81455125.325 6  19646710.961                    19646714.059
                        39.600
                  84913416.077 6  20430499.047                    20430500.898
                        41.400
                                  22563478.875

 114759246.028 7  89422807.33944  21837969.234                    21837972.332
        46.700          28.400
 119046626.451 6  92763624.59142  22653820.555                    22653825.469
        37.100          15.600
 126843433.39715                  24137510.297
        31.000
                  83988361.562 6  20186665.523                    20186665.348
                        38.900
 111319667.715 8  86742610.75345  21183428.523                    21183434.531
        49.500          35.500
 117477017.071 7  91540498.56544  22355134.203                    22355139.684
        43.400          25.100
 113564447.918 7  88491734.72644  21610595.469                    21610597.320
        43.700          27.300
 18  3 15 13 42 15.0000000  0 13R01R02G12R10R11R18G17G01G10R19G24G32
                                G19
                                  22200537.461

                  84764125.460 6  20423264.461                    20423267.207
                        41.800
 116452137.368 7  90741813.32244  22160076.391                    22160078.797
        44.900          25.400
                  81456736.927 6  19647099.359                    19647102.699
                        39.700
                  84911531.342 6  20430045.688                    20430047.070
                        41.200
                                  22564301.000

 114759642.050 7  89423115.93744  21838043.664                    21838047.875
        46.300          28.900
 119048458.524 6  92765052.14642  22654169.117                    22654174.004
        36.900          14.800
 126847043.991 5                  24138196.805
        31.600
                  83988943.110 6  20186804.344                    20186805.266
                        39.100
 111321366.265 8  86743934.29545  21183752.477                    21183757.605
        49.700          35.400
 117475882.262 7  91539614.29044  22354918.102                    22354923.414
        46.000          28.800
 113563220.319 7  88490778.15044  21610362.352                    21610363.438
        43.500          27.700
 18  3 15 13 42 16.0000000  0 13R01R02G12R10R11R18G17G01G10R19G24G32
                                G19
                  92305809.50814  22201337.727                    22201342.191
                        27.700
                  84764035.629 6  20423243.227                    20423245.809
                        41.100
 116449364.743 7  90739652.82244  22159547.563                    22159551.043
        43.800          24.800
                  81458349.174 6  19647488.898                    19647491.652
                        39.800
                  84909647.113 6  20429592.406                    20429593.352
                        41.300
                                  22565124.000

 114760038.755 7  89423425.06044  21838119.609                    21838123.324
        45.900          28.300
 119050291.264 6  92766480.24642  22654517.633                    22654523.094
        37.000          15.600
 126850655.233 5                  24138883.734
        32.800
                  83989525.390 6  20186945.539                    20186944.918
                        39.300
 111323065.457 8  86745258.34345  21184075.516                    21184081.629
        49.800          35.700
 117474748.045 7  91538730.45944  22354702.563                    22354708.094
        45.400          27.900
 113561993.466 7  88489822.16344  21610128.977                    21610129.922
        43.600          27.300
 18  3 15 13 42 17.0000000  0 13R01R02G12R10R11R18G17G01G10R19G24G32
                                G19
                  92309142.59014  22202140.992                    22202144.781
                        26.600
                  84763946.581 6  20423222.273                    20423224.715
                        41.600
 116446592.579 7  90737492.69444  22159020.125                    22159023.566
        44.200          25.800
                  81459962.041 6  19647876.656                    19647880.895
                        40.200
                  84907763.354 6  20429138.539                    20429140.719
                        41.100
                                  22565948.234

 114760436.104 7  89423734.69344  21838195.117                    21838198.512
        46.000          28.000
 119052124.716 6  92767908.89442  22654865.922                    22654871.938
        36.300          14.800
 126854266.42714                  24139570.828
        28.900
                  83990108.421 6  20187084.695                    20187085.238
                        39.700
 111324765.304 8  86746582.90445  21184398.891                    21184404.738
        49.500          35.300
 117473614.478 7  91537847.13544  22354486.953                    22354492.496
        44.500          24.800
 113560767.297 7  88488866.71244  21609894.680                    21609896.688
        43.400          27.500
 18  3 15 13 42 18.0000000  0 13R01R02G12R10R11R18G17G01G10R19G24G32
                                G19
                  92312476.581 4  22202941.586                    22202946.691
                        25.700
                  84763858.292 6  20423200.141                    20423203.250
                        41.100
 116443820.855 7  90735332.91144  22158493.180                    22158496.270
        44.200          26.400
                  81461575.519 6  19648266.086                    19648269.645
                        40.200
                  84905880.101 6  20428685.992                    20428687.602
                        41.300
                                  22566773.422

 114760834.132 7  89424044.83644  21838271.094                    21838274.324
        46.400          29.100
 119053958.826 6  92769338.10742  22655214.156                    22655220.988
        36.300          13.900
 126857878.21815                  24140258.867
        30.700
                  83990692.197 6  20187225.180                    20187226.078
                        39.600
 111326465.800 8  86747907.95945  21184722.672                    21184728.602
        49.600          35.000
 117472481.570 7  91536964.33944  22354270.992                    22354276.809
        44.700          26.200
 113559541.866 7  88487911.84244  21609661.758                    21609663.207
        43.100          27.300
 18  3 15 13 42 19.0000000  0 13R01R02G12R10R11R18G17G01G10R19G24G32
                                G19
                  92315810.884 4  22203743.313                    22203748.406
                        25.100
                  84763770.748 6  20423179.000                    20423181.871
                        41.800
 116441049.565 7  90733173.46944  22157965.758                    22157968.910
        43.900          24.600
                  81463189.621 6  19648655.570                    19648659.617
                        39.900
                  84903997.323 6  20428232.727                    20428234.359
                        41.400
                                  22567597.031

 114761232.787 7  89424355.47844  21838346.453                    21838350.016
        46.400          28.600
 119055793.669 6  92770767.89742  22655563.734                    22655570.359
        36.800          14.800
 126861490.049 4                  24140945.781
        29.600
                  83991276.696 6  20187366.086                    20187366.086
                        39.800
 111328166.943 8  86749233.52645  21185046.570                    21185052.230
        49.500          35.200
 117471349.314 7  91536082.06444  22354055.242                    22354060.918
        45.400          29.300
 113558317.121 7  88486957.49444  21609428.570                    21609430.492
        42.400          27.700
 18  3 15 13 42 20.0000000  0 13R01R02G12R10R11R18G17G01G10R19G24G32
                                G19
                  92319145.530 4  22204546.109                    22204550.727
                        24.900
                  84763683.890 6  20423158.563                    20423160.949
                        41.500
 116438278.716 7  90731014.37344  22157438.484                    22157441.500
        43.700          25.200
                  81464804.329 6  19649045.164                    19649048.754
                        39.700
                  84902115.047 6  20427779.781                    20427781.688
                        41.400
                                  22568420.406

 114761632.081 7  89424666.60944  21838422.906                    21838426.695
        46.500          28.300
 119057629.247 6  92772198.19342  22655913.844                    22655919.406
        36.100          14.800
 126865102.49514                  24141633.977
        28.900
                  83991861.971 6  20187506.695                    20187506.414
                        39.700
 111329868.713 8  86750559.57845  21185369.930                    21185375.996
        49.000          35.100
 117470217.675 7  91535200.26645  22353840.367                    22353845.852
        45.400          30.200
 113557093.055 7  88486003.67644  21609196.180                    21609197.410
        42.700          26.600
 18  3 15 13 42 21.0000000  0 14R01R02G12R10R11G14R18G17G01G10R19G24
                                G32G19
                  92322480.582 3  22205349.953                    22205352.754
                        22.300
                  84763597.799 6  20423138.109                    20423140.406
                        41.600
 116435508.268 7  90728855.59644  22156911.086                    22156914.492
        43.800          26.100
                  81466419.660 6  19649434.406                    19649438.727
                        39.900
                  84900233.300 6  20427327.195                    20427328.867
                        41.000
 125110147.31515                  23807677.984
        31.900
                                  22569244.320

 114762032.022 7  89424978.24244  21838499.031                    21838502.422
        46.800          29.000
 119059465.419 6  92773628.95742  22656262.805                    22656268.918
        36.800          14.800
 126868715.196 5                  24142320.266
        32.800
                  83992447.961 6  20187648.203                    20187647.199
                        38.700
 111331571.130 8  86751886.13745  21185694.266                    21185700.246
        49.400          35.300
 117469086.688 7  91534318.98744  22353625.438                    22353630.684
        45.500          28.700
 113555869.747 6  88485050.45244  21608963.625                    21608964.980
        41.700          24.400
 18  3 15 13 42 22.0000000  0 14R01R02G12R10R11G14R18G17G01G10R19G24
                                G32G19
                  92325816.017 3  22206151.313                    22206154.680
                        22.500
                  84763512.416 6  20423117.391                    20423120.219
                        41.100
 116432738.296 7  90726697.18544  22156384.016                    22156387.625
        43.500          25.800
                  81468035.598 6  19649823.992                    19649827.785
                        39.700
                  84898351.983 6  20426874.539                    20426876.355
                        40.700
 125107590.03215                  23807192.039
        31.300
                                  22570067.461

 114762432.605 7  89425290.38044  21838575.109                    21838578.496
        47.100          28.500
 119061302.238 6  92775060.20742  22656614.461                    22656618.449
        36.700          14.800
 126872328.137 4                  24143008.250
        26.800
                  83993034.701 6  20187789.211                    20187788.766
                        38.500
 111333274.144 8  86753213.15745  21186017.859                    21186024.035
        49.600          35.400
 117467956.242 7  91533438.13744  22353409.898                    22353415.746
        44.600          27.400
 113554647.110 6  88484097.73543  21608730.320                    21608732.094
        41.100          23.800
 18  3 15 13 42 23.0000000  0 14R01R02G12R10R11G14R18G17G01G10R19G24
                                G32G19
                  92329151.765 4  22206952.969                    22206957.605
                        26.600
                  84763427.733 6  20423096.547                    20423099.418
                        41.100
 116429968.729 7  90724539.07244  22155857.000                    22155860.574
        44.100          25.800
                  81469652.122 6  19650214.383                    19650218.031
                        39.600
                  84896471.137 6  20426421.688                    20426423.332
                        40.600
 125105033.04615                  23806705.656
        30.100
                                  22570892.094

 114762833.788 7  89425602.98844  21838651.625                    21838655.094
        46.600          28.900
 119063139.729 6  92776491.94642  22656963.688                    22656968.105
        37.100          14.800
 126875941.47913                  24143695.797
        23.800
                  83993622.159 6  20187930.539                    20187929.762
                        38.900
 111334977.783 8  86754540.67045  21186342.805                    21186348.363
        49.700          35.400
 117466826.461 7  91532557.81144  22353195.000                    22353200.742
        45.200          28.100
 113553425.144 7  88483145.55643  21608497.914                    21608499.484
        42.100          23.900
 18  3 15 13 42 24.0000000  0 13R02G12R10R11G14R18G17G01G10R19G24G32
                                G19
                  84763343.766 6  20423076.867                    20423079.168
                        41.700
 116427199.570 7  90722381.27144  22155330.344                    22155333.465
        44.100          26.400
                  81471269.242 6  19650604.539                    19650607.508
                        39.700
                  84894590.774 6  20425969.469                    20425970.684
                        41.300
 125102476.58615                  23806218.977
        30.800
                                  22571715.383

 114763235.638 7  89425916.11844  21838727.898                    21838731.566
        47.300          28.500
 119064977.959 5  92777924.44142  22657312.125                    22657318.516
        35.800          14.800
 126879555.23514                  24144383.586
        24.600
                  83994210.383 6  20188071.609                    20188071.180
                        40.000
 111336682.048 8  86755868.66645  21186666.922                    21186672.508
        49.700          35.000
 117465697.273 7  91531677.92744  22352980.148                    22352985.832
        44.400          27.200
 113552203.906 7  88482193.94944  21608265.969                    21608267.059
        42.700          26.500
 18  3 15 13 42 25.0000000  0 12R02G12R10R11G14R18G17G01R19G24G32G19
                  84763260.559 6  20423057.039                    20423059.305
                        41.600
 116424430.864 7  90720223.82544  22154803.359                    22154806.270
        43.700          24.700
                  81472887.005 6  19650994.680                    19650998.270
                        39.900
                  84892710.911 6  20425516.734                    20425518.559
                        41.400
 125099919.850 5                  23805731.063
        31.000
                                  22572541.148

 114763638.135 7  89426229.74644  21838803.820                    21838807.789
        47.000          28.900
 119066816.795 5  92779357.26942  22657661.992                    22657667.602
        35.900          15.600
                  83994799.339 6  20188213.367                    20188213.043
                        39.300
 111338386.961 8  86757197.16245  21186991.047                    21186996.656
        49.500          34.800
 117464568.761 7  91530798.57044  22352765.469                    22352770.754
        44.600          27.000
 113550983.379 7  88481242.89544  21608033.305                    21608034.965
        42.100          26.100
 18  3 15 13 42 26.0000000  0 12R02G12R10R11G14R18G17G01R19G24G32G19
                  84763178.073 6  20423036.680                    20423038.895
                        41.800
 116421662.603 7  90718066.73744  22154276.523                    22154279.699
        44.400          26.200
                  81474505.361 6  19651385.164                    19651388.469
                        39.700
                  84890831.533 6  20425064.945                    20425066.906
                        40.400
 125097364.082 5                  23805245.086
        31.000
                                  22573363.344

 114764041.282 7  89426543.89644  21838881.031                    21838884.918
        47.100          29.400
 119068656.372 6  92780790.75442  22658012.727                    22658018.430
        36.000          14.800
                  83995389.047 6  20188355.234                    20188354.496
                        39.100
 111340092.530 8  86758526.17945  21187315.547                    21187321.367
        49.600          34.200
 117463440.858 7  91529919.66844  22352550.672                    22352556.250
        44.300          27.000
 113549763.544 7  88480292.38344  21607800.633                    21607802.953
        42.100          26.300
 18  3 15 13 42 27.0000000  0 13R01R02G12R10R11G14R18G17G01R19G24G32
                                G19
                  92342498.44714  22210162.820                    22210167.664
                        29.300
                  84763096.334 6  20423017.344                    20423019.398
                        41.800
 116418894.798 7  90715910.02744  22153750.133                    22153753.230
        44.100          26.700
                  81476124.360 6  19651775.914                    19651779.051
                        39.300
                  84888952.697 6  20424612.656                    20424614.762
                        40.800
 125094808.637 5                  23804759.977
        30.300
                                  22574187.609

 114764445.084 7  89426858.53944  21838958.297                    21838961.742
        46.600          29.300
 119070496.589 5  92782224.69542  22658361.430                    22658368.609
        35.200          14.800
                  83995979.543 6  20188496.797                    20188496.434
                        39.200
 111341798.763 8  86759855.71145  21187640.734                    21187646.234
        49.700          35.300
 117462313.617 7  91529041.27644  22352336.461                    22352341.617
        44.400          28.600
 113548544.423 7  88479342.41544  21607569.531                    21607571.012
        42.500          25.300
 18  3 15 13 42 28.0000000  0 13R01R02G12R10R11G14R18G17G01R19G24G32
                                G19
                  92345835.971 4  22210966.266                    22210970.566
                        25.100
                  84763015.302 6  20422998.016                    20422999.359
                        41.900
 116416127.425 7  90713753.64244  22153223.250                    22153226.563
        43.900          25.300
                  81477743.970 6  19652166.320                    19652169.801
                        39.300
                  84887074.325 6  20424160.617                    20424162.664
                        40.400
