     2.11           OBSERVATION DATA    M (MIXED)           RINEX VERSION / TYPE
teqc  2018Mar15                         20180319 14:17:33UTCPGM / RUN BY / DATE
Linux 2.6.32-573.12.1.x86_64|x86_64|gcc -static|Linux 64|=+ COMMENT
END OF STATIC MODE OBSERVATION                              COMMENT
BIT 2 OF LLI FLAGS DATA COLLECTED UNDER A/S CONDITION       COMMENT
-Unknown-                                                   MARKER NAME
4625                                                        MARKER NUMBER
-Unknown-           -Unknown-                               OBSERVER / AGENCY
5127468778          TRIMBLE             4.63                REC # / TYPE / VERS
47477114                            NONE                    ANT # / TYPE
   291190.2956   433171.6172 -6335431.6580                  APPROX POSITION XYZ
        0.0000        0.0000        0.0000                  ANTENNA: DELTA H/E/N
     1     1                                                WAVELENGTH FACT L1/2
     7    L1    L2    C1    P1    P2    S1    S2            # / TYPES OF OBSERV
    18                                                      LEAP SECONDS
 SNR is mapped to RINEX snr flag value [0-9]                COMMENT
  L1 & L2: min(max(int(snr_dBHz/6), 0), 9)                  COMMENT
  2018     3    15    10    48   19.0000000     GPS         TIME OF FIRST OBS
                                                            END OF HEADER
 18  3 15 10 48 19.0000000  0 16G20R07R09G21R01R24R16R17R18G07G08G11
                                G30G28G15G13
 120067441.781 6  93559092.77444  22848080.219                    22848084.824
        39.400          27.100
                  87922229.200 6  21117363.063                    21117362.801
                        38.800
                  84010272.326 6  20227405.766                    20227405.059
                        38.500
 132467405.104 6 103221397.97943  25207716.523                    25207719.371
        37.100          19.300
                  94269913.669 5  22673748.672                    22673752.215
                        32.500
                  91916270.784 4  22099892.727                    22099893.148
                        25.300
                  84139239.776 5  20251342.508                    20251343.906
                        35.800
                  86588263.580 6  20804254.156                    20804256.566
                        38.800
                  94419736.685 6  22741714.328                    22741716.734
                        36.400
 129118677.679 8 100611987.42544  24570472.000                    24570475.969
        49.300          27.800
 118656255.880 7  92459435.35345  22579534.359                    22579541.352
        47.500          35.400
 130425724.307 6 101630447.43143  24819190.711                    24819194.016
        39.000          22.000
 119286984.402 7  92950914.43045  22699558.508                    22699564.418
        45.900          31.700
 114360948.351 7  89112439.36145  21762165.570                    21762168.785
        46.000          30.600
 112670743.408 8  87795398.64746  21440529.750                    21440533.152
        51.100          36.900
 111910818.451 7  87203238.76645  21295918.727                    21295922.301
        47.800          30.300
 18  3 15 10 48 20.0000000  0 16G20R07R09G21R01R24R16R17R18G07G08G11
                                G30G28G15G13
 120070341.619 6  93561352.40244  22848632.195                    22848636.242
        37.900          27.100
                  87924987.872 6  21118025.125                    21118026.727
                        39.300
                  84008695.649 6  20227024.719                    20227025.332
                        38.400
 132470477.610 6 103223792.13343  25208301.469                    25208303.453
        37.900          19.000
                  94267035.416 5  22673056.867                    22673060.488
                        32.900
                  91919068.521 4  22100564.938                    22100566.055
                        25.100
                  84141343.791 5  20251849.656                    20251849.906
                        35.700
                  86587966.392 6  20804182.289                    20804184.898
                        38.500
                  94416837.249 5  22741017.641                    22741018.527
                        34.800
 129122673.175 8 100615100.79544  24571232.313                    24571236.152
        48.800          26.100
 118657508.351 7  92460411.30445  22579773.031                    22579779.672
        47.100          35.300
 130422593.039 6 101628007.48843  24818594.773                    24818597.914
        38.800          21.800
 119290266.672 7  92953472.04345  22700182.758                    22700189.078
        45.800          31.500
 114360291.220 7  89111927.30945  21762040.164                    21762043.410
        46.000          31.300
 112670702.798 8  87795367.00246  21440521.547                    21440525.273
        50.900          36.400
 111912529.093 8  87204571.73045  21296244.523                    21296247.887
        48.100          31.300
 18  3 15 10 48 21.0000000  0 16G20R07R09G21R01R24R16R17R18G07G08G11
                                G30G28G15G13
 120073241.920 6  93563612.32644  22849187.688                    22849188.012
        41.700          27.300
                  87927747.061 6  21118687.047                    21118690.414
                        38.900
                  84007119.585 6  20226645.688                    20226646.008
                        38.800
 132473550.481 6 103226186.58443  25208887.117                    25208888.129
        38.600          19.600
                  94264157.520 5  22672363.828                    22672367.293
                        33.600
                  91921866.879 3  22101238.305                    22101239.227
                        23.800
                  84143448.447 6  20252354.844                    20252356.453
                        36.000
                  86587670.021 6  20804111.586                    20804114.020
                        39.100
                  94413938.210 5  22740320.344                    22740320.250
                        34.800
 129126668.890 8 100618214.33944  24571993.117                    24571997.086
        48.500          26.400
 118658761.600 7  92461387.86245  22580011.430                    22580018.500
        47.100          35.500
 130419462.132 6 101625567.81643  24817998.273                    24818002.191
        38.700          22.200
 119293549.436 7  92956030.04245  22700807.508                    22700813.852
        46.000          31.700
 114359634.739 7  89111415.77145  21761915.297                    21761918.766
        46.000          31.300
 112670662.963 8  87795335.95946  21440514.125                    21440518.160
        51.000          36.500
 111914240.467 8  87205905.26345  21296570.086                    21296573.484
        48.200          31.500
 18  3 15 10 48 22.0000000  0 16G20R07R09G21R01R24R16R17R18G07G08G11
                                G30G28G15G13
 120076142.762 7  93565872.69444  22849740.477                    22849740.281
        44.500          26.900
                  87930506.762 6  21119349.625                    21119352.527
                        38.100
                  84005544.139 6  20226267.742                    20226266.977
                        39.100
 132476623.663 6 103228581.28643  25209471.289                    25209473.090
        37.200          19.900
                  94261279.964 5  22671672.695                    22671675.539
                        32.900
                  91924665.770 4  22101911.703                    22101912.508
                        25.400
                  84145553.678 6  20252861.922                    20252862.805
                        36.100
                  86587374.435 6  20804040.469                    20804042.699
                        38.900
                  94411039.487 5  22739621.313                    22739621.594
                        35.200
 129130664.823 8 100621328.04744  24572753.422                    24572757.000
        48.400          27.500
 118660015.575 7  92462364.98445  22580250.773                    22580256.469
        46.800          35.200
 130416331.617 6 101623128.45243  24817402.867                    24817406.738
        39.000          22.500
 119296832.651 7  92958588.39445  22701431.977                    22701438.605
        46.100          31.700
 114358978.882 7  89110904.71745  21761791.031                    21761793.633
        46.100          31.300
 112670623.882 8  87795305.50646  21440506.703                    21440510.172
        51.600          36.900
 111915952.562 7  87207239.36145  21296895.922                    21296899.180
        47.900          30.700
 18  3 15 10 48 23.0000000  0 16G20R07R09G21R01R24R16R17R18G07G08G11
                                G30G28G15G13
 120079044.072 7  93568133.47544  22850291.305                    22850292.777
        43.200          27.400
                  87933267.000 6  21120012.109                    21120014.883
                        37.700
                  84003969.243 6  20225887.531                    20225888.035
                        39.100
 132479697.121 6 103230976.19743  25210055.914                    25210057.977
        38.100          20.600
                  94258402.731 5  22670980.523                    22670983.879
                        32.900
                  91927465.167 3  22102584.617                    22102585.043
                        23.900
                  84147659.479 6  20253368.758                    20253369.707
                        36.400
                  86587079.585 6  20803969.313                    20803971.523
                        39.000
                  94408141.075 6  22738921.313                    22738923.730
                        36.000
 129134660.947 8 100624441.89944  24573513.914                    24573517.621
        48.500          27.200
 118661270.241 7  92463342.64445  22580489.977                    22580495.371
        46.600          35.300
 130413201.390 6 101620689.30543  24816807.484                    24816811.063
        38.900          22.600
 119300116.262 7  92961147.05145  22702057.492                    22702063.379
        46.600          31.000
 114358323.638 7  89110394.13545  21761666.719                    21761669.008
        46.300          30.800
 112670585.478 8  87795275.57546  21440499.758                    21440502.930
        51.400          36.400
 111917665.299 8  87208573.95245  21297222.266                    21297224.988
        48.100          30.500
 18  3 15 10 48 24.0000000  0 16G20R07R09G21R01R24R16R17R18G07G08G11
                                G30G28G15G13
 120081945.938 6  93570394.72444  22850840.539                    22850845.473
        40.100          27.100
                  87936027.775 6  21120675.117                    21120677.043
                        37.700
                  84002394.906 6  20225508.313                    20225508.398
                        38.900
 132482770.865 6 103233371.33643  25210640.258                    25210642.984
        38.700          20.900
                  94255525.791 5  22670287.961                    22670291.965
                        33.000
                  91930265.127 3  22103257.789                    22103258.125
                        22.300
                  84149765.849 6  20253875.984                    20253877.102
                        36.100
                  86586785.451 6  20803898.844                    20803901.398
                        38.600
                  94405243.072 6  22738224.102                    22738226.016
                        36.300
 129138657.238 8 100627555.89744  24574274.273                    24574278.406
        48.500          25.800
 118662525.618 7  92464320.85645  22580729.109                    22580734.281
        46.700          35.900
 130410071.496 6 101618250.44543  24816212.078                    24816215.371
        38.300          22.800
 119303400.287 7  92963706.03645  22702682.328                    22702688.570
        45.400          30.300
 114357668.972 7  89109884.00345  21761541.883                    21761544.879
        46.000          30.600
 112670547.789 8  87795246.20946  21440492.859                    21440495.883
        51.100          36.900
 111919378.706 8  87209909.06445  21297548.672                    21297551.266
        48.200          30.800
 18  3 15 10 48 25.0000000  0 16G20R07R09G21R01R24R16R17R18G07G08G11
                                G30G28G15G13
 120084848.460 6  93572656.44444  22851391.375                    22851397.203
        37.400          26.500
                  87938789.079 6  21121339.664                    21121340.652
                        39.000
                  84000821.174 6  20225130.211                    20225129.594
                        39.000
 132485844.908 6 103235766.68243  25211225.242                    25211227.727
        38.900          21.800
                  94252649.201 5  22669597.258                    22669600.000
                        32.900
                  91933065.629 3  22103931.961                    22103931.559
                        23.000
                  84151872.792 6  20254382.766                    20254383.918
                        36.500
                  86586492.099 6  20803828.078                    20803830.734
                        38.900
                  94402345.449 5  22737527.805                    22737528.270
                        35.800
 129142653.733 7 100630670.04544  24575034.836                    24575038.652
        47.900          25.800
 118663781.692 7  92465299.61845  22580968.875                    22580972.973
        47.300          35.400
 130406941.928 6 101615811.82643  24815616.555                    24815619.973
        38.300          22.200
 119306684.760 7  92966265.36645  22703306.984                    22703313.211
        45.400          30.800
 114357014.904 7  89109374.33645  21761417.203                    21761420.168
        45.600          30.700
 112670510.846 8  87795217.41746  21440485.727                    21440488.965
        51.200          37.400
 111921092.797 8  87211244.71945  21297875.203                    21297877.688
        48.300          30.400
 18  3 15 10 48 26.0000000  0 16G20R07R09G21R01R24R16R17R18G07G08G11
                                G30G28G15G13
 120087751.483 6  93574918.49744  22851947.594                    22851949.535
        40.400          27.200
                  87941550.860 6  21122004.938                    21122005.238
                        39.300
                  83999248.007 6  20224750.703                    20224750.984
                        38.900
 132488919.258 6 103238162.27643  25211810.414                    25211812.996
        38.000          21.300
                  94249772.957 5  22668905.539                    22668908.586
                        32.600
                  91935866.647 3  22104603.953                    22104604.504
                        22.300
                  84153980.309 6  20254890.617                    20254891.156
                        36.700
                  86586199.529 6  20803758.680                    20803760.395
                        38.900
                  94399448.189 5  22736829.430                    22736830.523
                        34.300
 129146650.451 8 100633784.36944  24575795.469                    24575798.754
        48.200          25.900
 118665038.460 8  92466278.91945  22581208.117                    22581212.406
        48.500          35.400
 130403812.704 6 101613373.46843  24815021.055                    24815024.547
        39.100          22.600
 119309969.645 7  92968825.01445  22703932.508                    22703938.445
        45.700          30.800
 114356361.454 7  89108865.15245  21761292.352                    21761295.230
        45.800          30.800
 112670474.646 8  87795189.21446  21440478.664                    21440482.043
        51.200          36.700
 111922807.575 8  87212580.91944  21298200.945                    21298203.492
        48.200          29.900
 18  3 15 10 48 27.0000000  0 16G20R07R09G21R01R24R16R17R18G07G08G11
                                G30G28G15G13
 120090655.024 7  93577180.96044  22852501.391                    22852501.898
        43.500          27.100
                  87944313.177 6  21122668.469                    21122669.664
                        39.200
                  83997675.510 6  20224371.578                    20224372.242
                        38.600
 132491994.012 6 103240558.20143  25212394.234                    25212398.113
        36.800          21.300
                  94246897.107 5  22668213.555                    22668216.824
                        32.400
                  91938668.279 4  22105276.664                    22105278.176
                        24.300
                  84156088.490 6  20255397.633                    20255398.758
                        36.700
                  86585907.801 6  20803688.109                    20803689.984
                        38.500
                  94396551.316 5  22736130.273                    22736132.855
                        33.900
 129150647.450 8 100636898.91444  24576556.070                    24576559.523
        48.400          26.800
 118666296.026 8  92467258.83745  22581447.609                    22581451.594
        49.000          34.900
 130400683.947 6 101610935.47843  24814424.898                    24814428.797
        39.700          22.500
 119313255.078 7  92971385.08945  22704557.273                    22704563.645
        45.400          31.800
 114355708.733 7  89108356.53445  21761168.609                    21761171.496
        45.700          30.500
 112670439.268 8  87795161.65046  21440471.727                    21440475.227
        51.200          37.400
 111924523.173 7  87213917.75944  21298527.016                    21298530.324
        47.800          29.400
 18  3 15 10 48 28.0000000  0 17G20R07R09G21R01R24R08R16R17R18G07G08
                                G11G30G28G15G13
 120093559.106 7  93579443.89244  22853052.398                    22853054.805
        43.600          27.400
                  87947076.044 6  21123331.773                    21123334.203
                        38.300
                  83996103.609 6  20223994.039                    20223993.047
                        38.900
 132495069.068 6 103242954.35343  25212978.844                    25212983.199
        36.300          20.900
                  94244021.604 5  22667521.641                    22667525.168
                        33.000
                  91941470.449 4  22105950.336                    22105952.203
                        25.100
                  84132684.91117  20200098.227                    20200098.652
                        42.700
                  84158197.272 6  20255905.234                    20255906.180
                        36.400
                  86585616.855 6  20803618.469                    20803620.387
                        39.200
                  94393654.816 5  22735432.188                    22735434.215
                        35.200
 129154644.673 8 100640013.62844  24577316.461                    24577320.078
        48.800          26.400
 118667554.326 8  92468239.33545  22581686.578                    22581691.211
        49.600          35.400
 130397555.536 6 101608497.74843  24813830.750                    24813833.406
        39.400          22.000
 119316540.961 7  92973945.51945  22705182.297                    22705189.203
        45.300          31.500
 114355056.611 7  89107848.39645  21761044.406                    21761047.230
        45.300          30.400
 112670404.626 8  87795134.66146  21440465.313                    21440468.602
        51.000          37.500
 111926239.455 7  87215255.12844  21298853.695                    21298856.879
        47.600          29.600
 18  3 15 10 48 29.0000000  0 17G20R07R09G21R01R24R08R16R17R18G07G08
                                G11G30G28G15G13
 120096463.746 6  93581707.28144  22853603.398                    22853607.863
        40.800          26.900
                  87949839.464 6  21123992.750                    21123997.750
                        37.400
                  83994532.254 6  20223614.625                    20223615.500
                        38.900
 132498144.397 5 103245350.70243  25213564.563                    25213568.613
        34.800          21.800
                  94241146.424 5  22666830.383                    22666833.113
                        32.300
                  91944273.175 4  22106624.875                    22106625.781
                        26.000
                  84132219.318 7  20199986.336                    20199986.855
                        42.700
                  84160306.630 6  20256412.445                    20256413.992
                        36.400
                  86585326.685 6  20803549.117                    20803550.766
                        39.100
                  94390758.706 6  22734736.047                    22734737.344
                        36.100
 129158642.086 8 100643128.50344  24578077.320                    24578081.051
        48.400          26.300
 118668813.326 8  92469220.38745  22581925.695                    22581930.879
        49.900          34.400
 130394427.460 6 101606060.27843  24813235.227                    24813238.270
        40.000          22.800
 119319827.281 7  92976506.29245  22705808.289                    22705813.863
        45.500          31.300
 114354405.129 7  89107340.75445  21760920.922                    21760923.152
        45.700          30.200
 112670370.715 8  87795108.23146  21440458.984                    21440462.137
        50.800          37.100
 111927956.423 8  87216593.01244  21299180.852                    21299183.617
        48.200          29.300
 18  3 15 10 48 30.0000000  0 17G20R07R09G21R01R24R08R16R17R18G07G08
                                G11G30G28G15G13
 120099368.998 6  93583971.15344  22854155.195                    22854160.613
        37.300          26.900
                  87952603.458 6  21124653.992                    21124659.703
                        37.300
                  83992961.523 6  20223237.609                    20223237.336
                        39.100
 132501220.077 5 103247747.30743  25214149.516                    25214153.871
        33.200          20.900
                  94238271.590 5  22666138.586                    22666141.734
                        33.100
                  91947076.415 4  22107298.195                    22107300.156
                        25.700
                  84131754.434 7  20199874.328                    20199875.438
                        42.800
                  84162416.590 6  20256920.594                    20256921.902
                        36.300
                  86585037.274 6  20803479.898                    20803480.988
                        38.800
                  94387862.956 6  22734040.398                    22734040.234
                        36.400
 129162639.716 8 100646243.53244  24578838.258                    24578842.086
        48.500          24.900
 118670073.060 8  92470202.01745  22582165.203                    22582170.516
        50.500          35.700
 130391299.688 6 101603623.05843  24812640.148                    24812642.910
        39.900          23.400
 119323113.996 7  92979067.36845  22706434.359                    22706439.688
        46.400          31.300
 114353754.235 7  89106833.56145  21760796.383                    21760799.438
        45.500          30.900
 112670337.541 8  87795082.38346  21440452.469                    21440455.918
        51.100          37.100
 111929674.077 8  87217931.43245  21299508.000                    21299510.363
        48.300          30.000
 18  3 15 10 48 31.0000000  0 17G20R07R09G21R01R24R08R16R17R18G07G08
                                G11G30G28G15G13
 120102274.814 6  93586235.38644  22854709.734                    22854713.023
        39.500          26.300
                  87955368.010 6  21125320.969                    21125321.598
                        37.700
                  83991391.352 6  20222859.031                    20222859.109
                        38.900
 132504296.102 5 103250144.17143  25214735.266                    25214739.633
        32.800          20.100
                  94235397.079 5  22665446.539                    22665450.523
                        33.300
                  91949880.179 4  22107972.438                    22107974.438
                        25.100
                  84131290.264 7  20199763.969                    20199764.102
                        42.700
                  84164527.080 6  20257428.906                    20257429.676
                        36.800
                  86584748.624 6  20803410.813                    20803411.641
                        38.900
                  94384967.565 5  22733341.922                    22733343.328
                        35.300
 129166637.520 8 100649358.70044  24579598.836                    24579602.273
        48.300          25.600
 118671333.505 8  92471184.20045  22582404.633                    22582410.633
        50.100          35.300
 130388172.276 6 101601186.12843  24812044.953                    24812047.957
        40.000          23.200
 119326401.150 7  92981628.79245  22707058.922                    22707065.125
        45.600          31.800
 114353103.937 7  89106326.82745  21760673.109                    21760676.102
        45.300          31.300
 112670305.120 8  87795057.12246  21440445.844                    21440449.797
        51.000          37.100
 111931392.386 8  87219270.38044  21299835.203                    21299837.672
        48.800          29.100
 18  3 15 10 48 32.0000000  0 17G20R07R09G21R01R24R08R16R17R18G07G08
                                G11G30G28G15G13
 120105181.073 7  93588499.94344  22855265.820                    22855266.313
        43.200          26.800
                  87958132.979 6  21125989.633                    21125986.016
                        38.300
                  83989821.769 6  20222481.375                    20222481.000
                        39.100
 132507372.399 5 103252541.24743  25215321.727                    25215325.090
        34.300          20.400
                  94232522.936 5  22664755.094                    22664759.539
                        33.700
                  91952684.464 4  22108646.938                    22108648.715
                        24.600
                  84130826.831 7  20199652.578                    20199652.895
                        42.800
                  84166638.180 6  20257936.375                    20257937.828
                        36.700
                  86584460.740 6  20803341.695                    20803342.199
                        38.900
                  94382072.543 5  22732642.234                    22732645.762
                        34.500
 129170635.539 8 100652474.04344  24580359.648                    24580363.609
        48.400          24.900
 118672594.686 8  92472166.95545  22582644.523                    22582650.500
        50.400          34.700
 130385045.211 6 101598749.44943  24811449.477                    24811452.434
        40.400          22.900
 119329688.757 7  92984190.56345  22707684.102                    22707690.691
        45.600          31.400
 114352454.271 7  89105820.58845  21760549.336                    21760552.035
        45.900          31.500
 112670273.429 8  87795032.42946  21440439.852                    21440443.582
        50.700          37.000
 111933111.426 8  87220609.89545  21300161.430                    21300164.602
        48.300          30.000
 18  3 15 10 48 33.0000000  0 17G20R07R09G21R01R24R08R16R17R18G07G08
                                G11G30G28G15G13
 120108087.815 7  93590764.93144  22855818.938                    22855819.754
        43.400          27.600
                  87960898.439 6  21126652.992                    21126651.348
                        38.900
                  83988252.781 6  20222104.180                    20222103.941
                        39.100
 132510448.961 5 103254938.51743  25215907.195                    25215910.559
        34.100          19.900
                  94229649.078 5  22664064.914                    22664067.801
                        33.700
                  91955489.255 4  22109321.633                    22109322.699
                        26.300
                  84130364.121 7  20199541.188                    20199541.410
                        42.800
                  84168749.847 6  20258444.430                    20258446.305
                        36.900
                  86584173.609 6  20803272.406                    20803273.828
                        38.900
                  94379177.900 5  22731945.609                    22731947.723
                        35.100
 129174633.777 8 100655589.54644  24581120.367                    24581124.023
        48.800          24.600
 118673856.557 8  92473150.24945  22582884.484                    22582890.594
        50.000          35.300
 130381918.516 6 101596313.06543  24810854.766                    24810857.910
        40.500          23.600
 119332976.783 7  92986752.65245  22708310.508                    22708316.434
        46.000          31.600
 114351805.225 7  89105314.83945  21760425.672                    21760428.660
        45.700          30.500
 112670242.453 8  87795008.29346  21440434.547                    21440437.465
        50.700          37.200
 111934831.143 8  87221949.93845  21300488.516                    21300491.543
        48.200          30.400
 18  3 15 10 48 34.0000000  0 17G20R07R09G21R01R24R08R16R17R18G07G08
                                G11G30G28G15G13
 120110995.064 6  93593030.35744  22856370.000                    22856373.340
        41.700          26.500
                  87963664.407 6  21127314.617                    21127317.094
                        39.100
                  83986684.294 6  20221725.102                    20221726.125
                        38.800
 132513525.831 6 103257336.03543  25216493.344                    25216495.672
        36.700          20.600
                  94226775.546 5  22663373.438                    22663376.672
                        33.600
                  91958294.568 4  22109996.719                    22109997.230
                        24.900
                  84129902.104 7  20199430.086                    20199430.539
                        42.600
                  84170862.050 6  20258954.133                    20258954.898
                        36.700
                  86583887.217 6  20803203.547                    20803204.797
                        39.100
                  94376283.605 5  22731249.922                    22731250.473
                        35.300
 129178632.157 8 100658705.16444  24581881.500                    24581885.066
        48.600          24.600
 118675119.096 8  92474134.05645  22583124.250                    22583130.695
        49.300          35.000
 130378792.071 6 101593876.87343  24810259.813                    24810263.227
        40.600          22.000
 119336265.160 7  92989315.02245  22708936.531                    22708942.559
        45.900          31.900
 114351156.691 7  89104809.49245  21760302.609                    21760305.664
        45.600          31.200
 112670212.148 8  87794984.67946  21440428.773                    21440431.695
        51.000          37.300
 111936551.494 7  87223290.46745  21300816.102                    21300819.215
        47.900          30.200
 18  3 15 10 48 35.0000000  0 17G20R07R09G21R01R24R08R16R17R18G07G08
                                G11G30G28G15G13
 120113902.944 6  93595296.28044  22856920.352                    22856926.828
        38.700          26.700
                  87966430.964 6  21127976.641                    21127982.156
                        38.500
                  83985116.461 6  20221348.984                    20221348.758
                        38.500
 132516603.003 6 103259733.83243  25217079.836                    25217081.930
        36.900          20.400
                  94223902.351 5  22662682.977                    22662686.008
                        33.500
                  91961100.453 4  22110672.180                    22110671.852
                        25.000
                  84129440.818 7  20199319.570                    20199319.770
                        42.700
                  84172974.909 6  20259461.680                    20259463.113
                        36.400
                  86583601.650 6  20803134.523                    20803136.156
                        39.300
                  94373389.676 6  22730553.250                    22730553.766
                        36.600
 129182630.777 8 100661820.97343  24582642.023                    24582645.504
        48.300          22.900
 118676382.417 8  92475118.46745  22583364.461                    22583371.367
        49.000          34.900
 130375666.040 6 101591440.99543  24809665.000                    24809667.855
        40.500          23.000
 119339554.073 7  92991877.81645  22709561.555                    22709568.348
        45.500          31.400
 114350508.831 7  89104304.66045  21760178.969                    21760181.719
        45.700          31.200
 112670182.626 8  87794961.67646  21440423.133                    21440426.098
        51.100          37.300
 111938272.575 8  87224631.56945  21301143.891                    21301146.824
        48.200          30.700
 18  3 15 10 48 36.0000000  0 17G20R07R09G21R01R24R08R16R17R18G07G08
                                G11G30G28G15G13
 120116811.424 6  93597562.61644  22857475.281                    22857479.762
        39.200          26.500
                  87969198.086 6  21128641.414                    21128646.242
                        38.000
                  83983549.226 6  20220970.430                    20220971.168
                        38.300
 132519680.539 6 103262131.92843  25217664.797                    25217667.598
        36.800          19.600
                  94221029.521 5  22661991.625                    22661995.031
                        33.200
                  91963906.875 4  22111344.820                    22111346.336
                        24.200
                  84128980.291 7  20199208.688                    20199209.535
                        42.900
                  84175088.364 6  20259970.867                    20259972.109
                        36.400
                  86583316.874 6  20803065.453                    20803067.621
                        39.100
                  94370496.094 5  22729854.906                    22729857.523
                        35.600
 129186629.629 8 100664936.96144  24583403.133                    24583406.656
        48.300          24.400
 118677646.453 8  92476103.43545  22583604.445                    22583611.438
        48.300          34.500
 130372540.365 6 101589005.39543  24809070.414                    24809073.270
        40.300          22.800
 119342843.381 7  92994440.91245  22710188.469                    22710194.012
        46.000          30.900
 114349861.632 7  89103800.35745  21760055.938                    21760058.621
        46.100          30.700
 112670153.878 8  87794939.27746  21440417.414                    21440420.340
        51.100          37.100
 111939994.379 8  87225973.23744  21301471.563                    21301474.699
        48.200          29.800
 18  3 15 10 48 37.0000000  0 17G20R07R09G21R01R24R08R16R17R18G07G08
                                G11G30G28G15G13
 120119720.379 7  93599829.29844  22858031.289                    22858033.109
        42.100          26.500
                  87971965.648 6  21129308.617                    21129309.820
                        37.900
                  83981982.577 6  20220593.992                    20220593.809
                        38.400
 132522758.367 6 103264530.26343  25218250.328                    25218253.012
        37.600          19.600
                  94218157.034 5  22661301.039                    22661303.984
                        34.100
                  91966713.864 4  22112020.273                    22112021.789
                        24.400
                  84128520.473 7  20199098.453                    20199099.523
                        42.700
                  84177202.399 6  20260479.453                    20260480.949
                        36.900
                  86583032.828 6  20802998.375                    20802999.723
                        38.700
                  94367602.914 5  22729157.820                    22729160.609
                        35.300
 129190628.689 8 100668053.12743  24584164.336                    24584167.668
        48.300          22.500
 118678911.228 7  92477088.97745  22583844.875                    22583852.230
        47.900          34.000
 130369415.028 6 101586570.06143  24808475.313                    24808478.566
        39.800          22.800
 119346133.173 7  92997004.38445  22710814.078                    22710820.008
        46.400          31.200
 114349215.022 7  89103296.50945  21759932.945                    21759935.836
        46.500          30.600
 112670125.854 8  87794917.43746  21440412.117                    21440415.492
        51.100          37.300
 111941716.867 7  87227315.44145  21301799.102                    21301802.379
        47.900          30.500
 18  3 15 10 48 38.0000000  0 17G20R07R09G21R01R24R08R16R17R18G07G08
                                G11G30G28G15G13
 120122629.838 7  93602096.40044  22858584.695                    22858587.477
        42.200          26.000
                  87974733.725 6  21129972.766                    21129974.129
                        38.100
                  83980416.541 6  20220217.109                    20220217.059
                        38.600
 132525836.470 6 103266928.79143  25218835.445                    25218838.973
        37.900          19.600
                  94215284.878 5  22660610.109                    22660613.125
                        32.900
                  91969521.424 3  22112696.414                    22112697.207
                        22.800
                  84128061.392 7  20198987.789                    20198988.895
                        42.600
                  84179316.995 6  20260988.398                    20260989.621
                        36.700
                  86582749.571 6  20802929.484                    20802931.238
                        38.700
                  94364710.132 5  22728461.813                    22728462.910
                        34.300
 129194627.958 7 100671169.44343  24584925.141                    24584928.938
        47.500          22.600
 118680176.710 7  92478075.06445  22584085.945                    22584093.215
        47.200          34.000
 130366290.039 6 101584134.99643  24807881.656                    24807884.027
        39.900          23.600
 119349423.387 7  92999568.18345  22711440.102                    22711446.250
        46.000          31.700
 114348569.044 7  89102793.15145  21759810.055                    21759812.938
        46.400          30.600
 112670098.572 8  87794896.16946  21440407.008                    21440410.410
        51.200          37.000
 111943440.064 7  87228658.19745  21302126.078                    21302130.367
        47.500          30.400
 18  3 15 10 48 39.0000000  0 16G20R07R09G21R01R24R16R17R18G07G08G11
                                G30G28G15G13
 120125539.909 6  93604364.01344  22859136.055                    22859141.148
        40.000          27.600
                  87977502.359 6  21130637.047                    21130639.141
                        38.600
                  83978851.034 6  20219838.461                    20219840.090
                        38.300
 132528914.938 6 103269327.62543  25219420.547                    25219424.148
        36.700          19.000
                  94212413.086 5  22659918.859                    22659922.523
                        33.100
                  91972329.503 4  22113370.164                    22113372.082
                        24.300
                  84181432.186 6  20261497.453                    20261498.840
                        36.400
                  86582467.097 6  20802861.867                    20802863.547
                        38.800
                  94361817.705 5  22727766.180                    22727766.465
                        35.500
 129198627.436 7 100674285.91343  24585686.188                    24585689.789
        47.500          23.900
 118681442.937 7  92479061.72645  22584327.234                    22584334.020
        46.900          34.200
 130363165.420 6 101581700.23443  24807286.805                    24807289.477
        40.300          23.200
 119352714.028 7  93002132.31345  22712066.406                    22712072.570
        45.400          30.800
 114347923.701 7  89102290.28645  21759687.102                    21759690.152
        46.600          30.900
 112670072.029 8  87794875.48346  21440401.977                    21440405.098
        51.400          37.000
 111945163.955 7  87230001.48245  21302454.906                    21302458.035
        47.900          31.400
 18  3 15 10 48 40.0000000  0 16G20R07R09G21R01R24R16R17R18G07G08G11
                                G30G28G15G13
 120128450.521 6  93606632.02244  22859689.734                    22859694.625
        38.300          26.700
                  87980271.553 6  21131301.883                    21131304.523
                        38.900
                  83977286.145 6  20219463.008                    20219463.105
                        38.200
 132531993.646 6 103271726.64643  25220006.102                    25220009.973
        36.600          18.600
                  94209541.623 5  22659228.492                    22659231.609
                        32.900
                  91975138.148 4  22114046.031                    22114047.348
                        25.200
                  84183547.936 6  20262006.367                    20262008.148
                        37.000
                  86582185.405 6  20802794.063                    20802796.242
                        38.900
                  94358925.601 6  22727070.164                    22727070.059
                        36.400
 129202627.129 7 100677402.55943  24586447.297                    24586450.805
        47.200          22.600
 118682709.885 7  92480048.94945  22584568.789                    22584575.055
        46.900          34.100
 130360041.145 6 101579265.75643  24806691.805                    24806694.906
        40.800          23.400
 119356005.132 7  93004696.80645  22712692.641                    22712698.695
        45.500          31.100
 114347278.977 7  89101787.89845  21759563.969                    21759567.102
        46.000          30.300
 112670046.232 8  87794855.38046  21440397.180                    21440400.227
        51.000          37.100
 111946888.545 8  87231345.29745  21302783.586                    21302786.188
        48.000          30.400
 18  3 15 10 48 41.0000000  0 16G20R07R09G21R01R24R16R17R18G07G08G11
                                G30G28G15G13
 120131361.654 6  93608900.41744  22860245.875                    22860248.469
        40.500          26.700
                  87983041.254 6  21131969.320                    21131969.469
                        38.300
                  83975721.881 6  20219087.672                    20219086.234
                        38.600
 132535072.694 6 103274125.91743  25220592.586                    25220596.133
        36.700          18.600
                  94206670.524 5  22658537.961                    22658541.629
                        33.400
                  91977947.288 4  22114720.797                    22114722.246
                        25.100
                  84185664.259 6  20262515.563                    20262517.102
                        36.800
                  86581904.466 6  20802725.781                    20802728.586
                        39.300
                  94356033.854 6  22726370.953                    22726374.016
                        36.700
 129206627.016 7 100680519.34143  24587208.664                    24587212.016
        47.600          22.300
 118683977.569 7  92481036.75345  22584810.391                    22584816.168
        47.300          34.800
 130356917.206 6 101576831.51043  24806097.602                    24806100.590
        40.500          23.900
 119359296.657 7  93007261.63245  22713319.477                    22713325.582
        46.100          31.200
 114346634.854 7  89101285.98545  21759441.938                    21759444.609
        45.900          30.600
 112670021.149 8  87794835.83346  21440392.250                    21440395.660
        50.700          37.000
 111948613.819 8  87232689.66145  21303112.266                    21303114.418
        49.000          30.000
 18  3 15 10 48 42.0000000  0 16G20R07R09G21R01R24R16R17R18G07G08G11
                                G30G28G15G13
 120134273.297 6  93611169.21944  22860800.313                    22860802.348
        41.400          27.900
                  87985811.498 6  21132634.984                    21132635.617
                        38.500
                  83974158.161 6  20218709.438                    20218709.586
                        38.500
 132538152.082 6 103276525.44843  25221178.477                    25221181.984
        37.300          19.000
                  94203799.724 5  22657848.031                    22657850.746
                        33.300
                  91980756.962 4  22115396.875                    22115398.125
                        25.700
                  84187781.186 6  20263026.195                    20263027.199
                        36.300
                  86581624.324 6  20802658.398                    20802661.273
                        39.000
                  94353142.559 6  22725674.750                    22725677.668
                        36.400
 129210627.129 7 100683636.30043  24587969.672                    24587973.117
        47.600          22.800
 118685245.954 7  92482025.10445  22585052.273                    22585057.645
        47.000          34.700
 130353793.645 6 101574397.56543  24805502.977                    24805506.055
        40.100          22.200
 119362588.647 7  93009826.82645  22713944.891                    22713951.172
        46.000          31.600
 114345991.352 7  89100784.55245  21759319.453                    21759322.215
        46.200          30.400
 112669996.827 8  87794816.88346  21440387.516                    21440390.988
        50.800          37.100
 111950339.782 8  87234034.57045  21303440.641                    21303442.832
        48.700          30.200
 18  3 15 10 48 43.0000000  0 16G20R07R09G21R01R24R16R17R18G07G08G11
                                G30G28G15G13
 120137185.496 6  93613438.47144  22861354.000                    22861356.879
        41.600          28.400
                  87988582.212 6  21133299.492                    21133301.074
                        38.000
                  83972595.039 6  20218333.844                    20218333.305
                        38.400
 132541231.746 6 103278925.18043  25221764.102                    25221767.703
        37.000          18.600
                  94200929.275 5  22657157.336                    22657160.270
                        33.500
                  91983567.168 4  22116072.750                    22116073.262
                        26.800
                  84189898.686 6  20263535.422                    20263536.668
                        36.200
                  86581344.935 6  20802591.367                    20802593.586
                        39.000
                  94350251.635 5  22724980.398                    22724981.555
                        34.800
 129214627.434 7 100686753.42043  24588731.047                    24588734.359
        47.300          23.400
 118686515.070 7  92483014.02145  22585294.188                    22585299.352
        47.300          34.600
 130350670.411 6 101571963.86943  24804909.156                    24804911.949
        40.400          22.900
 119365881.040 7  93012392.33245  22714571.844                    22714578.648
        45.500          30.900
 114345348.474 7  89100283.60245  21759197.234                    21759200.039
        46.400          30.500
 112669973.235 8  87794798.50046  21440383.055                    21440386.035
        50.800          36.600
 111952066.435 8  87235380.01644  21303769.047                    21303771.863
        48.600          29.700
 18  3 15 10 48 44.0000000  0 16G20R07R09G21R01R24R16R17R18G07G08G11
                                G30G28G15G13
 120140098.241 6  93615708.15644  22861907.125                    22861910.945
        40.600          27.200
                  87991353.514 6  21133963.766                    21133966.605
                        38.300
                  83971032.541 6  20217958.352                    20217957.723
                        38.200
 132544311.732 6 103281325.16743  25222350.086                    25222353.973
        36.500          19.000
                  94198059.153 5  22656466.602                    22656470.445
                        33.200
                  91986377.922 4  22116749.438                    22116749.453
                        25.700
                  84192016.797 6  20264045.531                    20264046.914
                        36.100
                  86581066.327 6  20802524.414                    20802527.113
                        39.100
                  94347361.037 5  22724284.102                    22724285.504
                        34.500
 129218627.935 7 100689870.69243  24589492.383                    24589495.617
        47.800          22.000
 118687784.905 8  92484003.50645  22585535.906                    22585541.234
        48.400          34.900
 130347547.556 6 101569530.46143  24804314.531                    24804317.582
        40.500          22.900
 119369173.895 7  93014958.19145  22715198.281                    22715204.645
        45.100          31.100
 114344706.230 7  89099783.15045  21759074.875                    21759077.539
        45.800          30.200
 112669950.403 8  87794780.70546  21440379.016                    21440382.246
        50.800          36.800
 111953793.797 8  87236726.02145  21304097.281                    21304100.191
        48.200          30.700
 18  3 15 10 48 45.0000000  0 16G20R07R09G21R01R24R16R17R18G07G08G11
                                G30G28G15G13
 120143011.515 6  93617978.25544  22862461.016                    22862465.344
        40.200          27.900
                  87994125.314 6  21134628.352                    21134631.898
                        38.600
                  83969470.571 6  20217580.391                    20217580.855
                        38.500
 132547391.976 6 103283725.35643  25222936.188                    25222939.934
        37.500          19.300
                  94195189.358 5  22655776.836                    22655780.359
                        33.200
                  91989189.216 4  22117425.672                    22117425.539
                        26.800
                  84194135.475 6  20264554.766                    20264556.113
                        36.400
                  86580788.457 6  20802457.836                    20802460.078
                        39.300
                  94344470.749 5  22723586.680                    22723588.719
                        35.800
 129222628.636 7 100692988.12843  24590253.523                    24590257.285
        47.900          21.700
 118689055.439 8  92484993.54845  22585777.766                    22585783.000
        49.100          35.100
 130344424.996 6 101567097.31143  24803720.141                    24803723.289
        40.600          22.000
 119372467.151 7  93017524.36145  22715825.063                    22715831.117
        45.500          31.500
 114344064.552 7  89099283.14645  21758953.000                    21758955.254
        45.400          30.400
 112669928.264 8  87794763.45446  21440374.711                    21440377.934
        51.100          36.700
 111955521.844 8  87238072.56145  21304426.219                    21304429.574
        48.100          30.100
 18  3 15 10 48 46.0000000  0 16G20R07R09G21R01R24R16R17R18G07G08G11
                                G30G28G15G13
 120145925.303 6  93620248.73744  22863016.055                    22863020.043
        39.900          28.000
                  87996897.623 6  21135295.727                    21135297.832
                        38.900
                  83967909.177 6  20217205.008                    20217204.867
                        38.500
 132550472.614 6 103286125.85543  25223522.656                    25223526.449
        36.800          20.100
                  94192319.884 5  22655086.297                    22655089.672
                        32.700
                  91992001.036 4  22118101.836                    22118101.465
                        25.400
                  84196254.711 6  20265065.547                    20265066.480
                        36.500
                  86580511.377 6  20802391.125                    20802393.395
                        39.400
                  94341580.813 6  22722890.023                    22722892.789
                        36.700
 129226629.551 8 100696105.72543  24591014.711                    24591018.215
        48.000          21.700
 118690326.666 8  92485984.12645  22586019.633                    22586024.742
        49.800          34.800
 130341302.753 6 101564664.39643  24803126.031                    24803129.273
        40.200          22.600
 119375760.832 7  93020090.86645  22716451.648                    22716458.301
        45.700          32.300
 114343423.486 7  89098783.61045  21758830.875                    21758833.609
        45.100          30.400
 112669906.862 8  87794746.78446  21440370.484                    21440373.910
        50.900          36.200
 111957250.539 7  87239419.59444  21304754.695                    21304758.336
        47.600          29.800
 18  3 15 10 48 47.0000000  0 16G20R07R09G21R01R24R16R17R18G07G08G11
                                G30G28G15G13
 120148839.638 6  93622519.62644  22863571.164                    22863574.340
        41.500          26.900
                  87999670.416 6  21135961.695                    21135964.445
                        39.000
                  83966348.423 6  20216831.086                    20216829.348
                        38.900
 132553553.479 5 103288526.52643  25224108.742                    25224112.281
        35.000          20.100
                  94189450.770 5  22654396.219                    22654399.598
                        33.100
                  91994813.367 4  22118777.125                    22118778.266
                        24.800
                  84198374.537 6  20265574.695                    20265577.359
                        36.800
                  86580235.064 6  20802324.930                    20802327.176
                        39.400
                  94338691.299 6  22722195.828                    22722196.949
                        37.100
 129230630.686 8 100699223.48843  24591775.969                    24591779.828
        48.200          21.700
 118691598.595 8  92486975.24545  22586261.266                    22586266.730
        49.600          34.900
 130338180.898 6 101562231.78743  24802532.281                    24802535.035
        39.500          22.800
 119379054.938 7  93022657.69945  22717079.281                    22717084.977
        45.700          32.000
 114342783.031 7  89098284.55345  21758709.172                    21758711.383
        45.500          30.500
 112669886.190 8  87794730.67346  21440366.773                    21440369.934
        51.100          36.400
 111958979.957 7  87240767.19244  21305083.750                    21305087.234
        47.800          29.400
 18  3 15 10 48 48.0000000  0 16G20R07R09G21R01R24R16R17R18G07G08G11
                                G30G28G15G13
 120151754.507 7  93624790.94344  22864126.250                    22864129.273
        42.700          27.600
                  88002443.736 6  21136628.234                    21136630.582
                        38.600
                  83964788.212 6  20216453.266                    20216453.957
                        38.900
 132556634.620 5 103290927.40043  25224695.953                    25224698.836
        35.900          20.900
                  94186582.021 5  22653706.469                    22653709.410
                        33.300
                  91997626.243 3  22119453.313                    22119454.184
                        23.900
                  84200494.936 6  20266085.922                    20266087.512
                        36.500
                  86579959.527 6  20802259.117                    20802260.836
                        39.100
                  94335802.177 5  22721500.648                    22721501.887
                        35.900
 129234632.032 8 100702341.40643  24592537.867                    24592541.156
        48.100          21.700
 118692871.244 8  92487966.92745  22586503.203                    22586508.746
        49.900          34.800
 130335059.396 6 101559799.46243  24801937.750                    24801941.051
        39.300          22.500
 119382349.506 7  93025224.89645  22717705.859                    22717712.301
        46.000          31.600
 114342143.202 7  89097785.98145  21758587.070                    21758590.031
        45.800          30.800
 112669866.293 8  87794715.17246  21440362.867                    21440366.020
        51.400          36.800
 111960710.076 8  87242115.32144  21305413.680                    21305416.270
        48.000          29.700
 18  3 15 10 48 49.0000000  0 16G20R07R09G21R01R24R16R17R18G07G08G11
                                G30G28G15G13
 120154669.865 7  93627062.65644  22864680.945                    22864684.371
        42.600          26.800
                  88005217.564 6  21137294.398                    21137297.094
                        38.600
                  83963228.575 6  20216077.695                    20216078.230
                        38.400
 132559716.140 5 103293328.56343  25225282.063                    25225285.555
        35.900          20.600
                  94183713.600 5  22653016.813                    22653020.039
                        34.100
                  92000439.677 4  22120129.055                    22120130.961
                        24.600
                  84202615.923 6  20266596.367                    20266597.379
                        36.800
                  86579684.742 6  20802193.461                    20802194.844
                        38.800
                  94332913.410 5  22720803.430                    22720806.082
                        35.000
