% program   : RTKPOST ver.2.4.2
% inp file  : Z:\home\linda\Documents\Spring18\GitHub_Unis\data\processed_data\4625074G.obs
% inp file  : Z:\home\linda\Documents\Spring18\GitHub_Unis\data\base_station_data\lyrs0740.18o
% inp file  : Z:\home\linda\Documents\Spring18\GitHub_Unis\data\processed_data\4625074G.nav
% obs start : 2018/03/15 13:14:46.0 GPST (week1992 393286.0s)
% obs end   : 2018/03/15 13:30:27.0 GPST (week1992 394227.0s)
% pos mode  : static
% freqs     : L1+L2
% solution  : forward
% elev mask : 15.0 deg
% dynamics  : on
% tidecorr  : off
% ionos opt : iono-free
% tropo opt : saastamoinen
% ephemeris : broadcast
% navi sys  : gps glonass galileo qzss sbas
% amb res   : fix and hold
% amb glo   : on
% val thres : 3.0
% antenna1  :                       ( 0.0000  0.0000  0.0000)
% antenna2  :                       ( 0.0000  0.0000  0.0000)
% ref pos   : 78.228825638   15.397310064   495.6816
%
% (lat/lon/height=WGS84/ellipsoidal,Q=1:fix,2:float,3:sbas,4:dgps,5:single,6:ppp,ns=# of satellites)
%  GPST                  latitude(deg) longitude(deg)  height(m)   Q  ns   sdn(m)   sde(m)   sdu(m)  sdne(m)  sdeu(m)  sdun(m) age(s)  ratio
2018/03/15 13:14:46.000   78.256779549   16.230359566   394.4299   2   9   1.1162   0.9437   3.6275  -0.2133  -0.5632   1.4178   0.00    1.2
2018/03/15 13:14:47.000   78.256783220   16.230323379   396.0442   2   9   0.7908   0.6681   2.5760  -0.1514  -0.4001   1.0073   0.00    1.3
2018/03/15 13:14:48.000   78.256782536   16.230324261   396.0976   2   9   0.6461   0.5457   2.1055  -0.1237  -0.3272   0.8234   0.00    1.3
2018/03/15 13:14:49.000   78.256784514   16.230317470   395.9665   2   9   0.5595   0.4726   1.8236  -0.1071  -0.2836   0.7131   0.00    1.3
2018/03/15 13:14:50.000   78.256788080   16.230320061   396.2535   2   9   0.5004   0.4228   1.6304  -0.0958  -0.2537   0.6375   0.00    1.2
2018/03/15 13:14:51.000   78.256787918   16.230320597   396.5739   2   9   0.4567   0.3859   1.4873  -0.0873  -0.2316   0.5814   0.00    1.1
2018/03/15 13:14:52.000   78.256787138   16.230319469   396.7805   2   9   0.4226   0.3573   1.3756  -0.0807  -0.2144   0.5377   0.00    1.1
2018/03/15 13:14:53.000   78.256787082   16.230316098   397.2615   2   9   0.3951   0.3342   1.2852  -0.0754  -0.2005   0.5022   0.00    1.0
2018/03/15 13:14:54.000   78.256786566   16.230315722   397.4416   2   9   0.3723   0.3151   1.2099  -0.0709  -0.1889   0.4726   0.00    1.0
2018/03/15 13:14:55.000   78.256785168   16.230316102   397.1192   2   9   0.3529   0.2989   1.1459  -0.0671  -0.1790   0.4475   0.00    1.0
2018/03/15 13:14:56.000   78.256784480   16.230318041   396.8612   2   9   0.3362   0.2850   1.0906  -0.0638  -0.1705   0.4257   0.00    1.1
2018/03/15 13:14:57.000   78.256783507   16.230316638   397.0015   2   9   0.3217   0.2728   1.0420  -0.0609  -0.1631   0.4065   0.00    1.0
2018/03/15 13:14:58.000   78.256782035   16.230315902   397.2181   2   9   0.3087   0.2621   0.9989  -0.0583  -0.1565   0.3895   0.00    1.0
2018/03/15 13:14:59.000   78.256781066   16.230313800   397.6368   2   9   0.2972   0.2525   0.9602  -0.0560  -0.1506   0.3742   0.00    1.1
2018/03/15 13:15:00.000   78.256780024   16.230317810   397.8183   2   9   0.2868   0.2439   0.9253  -0.0538  -0.1452   0.3604   0.00    1.1
2018/03/15 13:15:01.000   78.256779679   16.230319438   397.9541   2   9   0.2774   0.2361   0.8934  -0.0519  -0.1404   0.3478   0.00    1.2
2018/03/15 13:15:02.000   78.256779425   16.230322046   397.7388   2   9   0.2688   0.2290   0.8642  -0.0501  -0.1359   0.3362   0.00    1.2
2018/03/15 13:15:03.000   78.256779384   16.230322409   397.6499   2   9   0.2609   0.2225   0.8373  -0.0484  -0.1318   0.3255   0.00    1.2
2018/03/15 13:15:04.000   78.256779085   16.230321203   397.6697   2   9   0.2536   0.2165   0.8123  -0.0469  -0.1280   0.3155   0.00    1.2
2018/03/15 13:15:05.000   78.256778994   16.230320887   397.7118   2   9   0.2468   0.2110   0.7890  -0.0454  -0.1245   0.3063   0.00    1.3
2018/03/15 13:15:06.000   78.256779077   16.230318417   397.7128   2   9   0.2405   0.2058   0.7673  -0.0440  -0.1212   0.2976   0.00    1.3
2018/03/15 13:15:07.000   78.256778744   16.230320937   397.5860   2   9   0.2346   0.2011   0.7469  -0.0427  -0.1181   0.2894   0.00    1.3
2018/03/15 13:15:08.000   78.256778430   16.230325223   397.4763   2   9   0.2291   0.1966   0.7276  -0.0415  -0.1152   0.2817   0.00    1.3
2018/03/15 13:15:09.000   78.256778490   16.230327986   397.4593   2   9   0.2239   0.1924   0.7095  -0.0403  -0.1125   0.2744   0.00    1.3
2018/03/15 13:15:10.000   78.256778560   16.230329155   397.6451   2   9   0.2190   0.1884   0.6923  -0.0392  -0.1099   0.2675   0.00    1.4
2018/03/15 13:15:11.000   78.256778598   16.230329103   397.7301   2   9   0.2144   0.1847   0.6760  -0.0381  -0.1075   0.2609   0.00    1.4
2018/03/15 13:15:12.000   78.256778480   16.230327146   397.9095   2   9   0.2100   0.1812   0.6604  -0.0371  -0.1051   0.2546   0.00    1.4
2018/03/15 13:15:13.000   78.256778139   16.230327728   397.6934   2   9   0.2058   0.1779   0.6456  -0.0361  -0.1029   0.2487   0.00    1.4
2018/03/15 13:15:14.000   78.256777870   16.230328078   397.4765   2   9   0.2018   0.1747   0.6315  -0.0352  -0.1008   0.2429   0.00    1.4
2018/03/15 13:15:15.000   78.256777709   16.230328740   397.3110   2   9   0.1981   0.1717   0.6179  -0.0342  -0.0988   0.2374   0.00    1.3
2018/03/15 13:15:16.000   78.256777650   16.230328501   397.3851   2   9   0.1945   0.1689   0.6049  -0.0333  -0.0968   0.2321   0.00    1.4
2018/03/15 13:15:17.000   78.256777993   16.230327278   397.3447   2   9   0.1910   0.1661   0.5924  -0.0325  -0.0950   0.2271   0.00    1.4
2018/03/15 13:15:18.000   78.256778194   16.230326354   397.4062   2   9   0.1877   0.1635   0.5804  -0.0316  -0.0932   0.2222   0.00    1.4
2018/03/15 13:15:19.000   78.256778312   16.230326371   397.4954   2   9   0.1846   0.1610   0.5689  -0.0308  -0.0915   0.2175   0.00    1.4
2018/03/15 13:15:20.000   78.256778136   16.230326717   397.5299   2   9   0.1815   0.1586   0.5578  -0.0300  -0.0898   0.2129   0.00    1.4
2018/03/15 13:15:21.000   78.256777956   16.230328065   397.5220   2   9   0.1786   0.1564   0.5470  -0.0292  -0.0883   0.2085   0.00    1.4
2018/03/15 13:15:22.000   78.256778195   16.230329703   397.5778   2   9   0.1758   0.1542   0.5367  -0.0284  -0.0867   0.2042   0.00    1.4
2018/03/15 13:15:23.000   78.256778668   16.230330661   397.6163   2   9   0.1731   0.1520   0.5266  -0.0277  -0.0852   0.2001   0.00    1.4
2018/03/15 13:15:24.000   78.256778919   16.230331941   397.7017   2   9   0.1705   0.1500   0.5169  -0.0269  -0.0838   0.1961   0.00    1.5
2018/03/15 13:15:25.000   78.256779067   16.230332604   397.6817   2   9   0.1679   0.1481   0.5075  -0.0262  -0.0824   0.1923   0.00    1.4
2018/03/15 13:15:26.000   78.256779342   16.230333399   397.6329   2   9   0.1655   0.1462   0.4984  -0.0255  -0.0811   0.1885   0.00    1.4
2018/03/15 13:15:27.000   78.256779458   16.230334385   397.5682   2   9   0.1632   0.1443   0.4896  -0.0248  -0.0798   0.1848   0.00    1.4
2018/03/15 13:15:28.000   78.256779413   16.230335366   397.6002   2   9   0.1609   0.1426   0.4811  -0.0241  -0.0786   0.1813   0.00    1.4
2018/03/15 13:15:29.000   78.256779735   16.230335681   397.7616   2   9   0.1587   0.1409   0.4727  -0.0234  -0.0773   0.1778   0.00    1.4
2018/03/15 13:15:30.000   78.256779868   16.230335738   397.8957   2   9   0.1565   0.1392   0.4647  -0.0228  -0.0762   0.1745   0.00    1.4
2018/03/15 13:15:31.000   78.256779864   16.230335669   397.9572   2   9   0.1545   0.1376   0.4568  -0.0221  -0.0750   0.1712   0.00    1.4
2018/03/15 13:15:32.000   78.256779673   16.230335660   397.8838   2   9   0.1525   0.1361   0.4492  -0.0214  -0.0739   0.1680   0.00    1.4
2018/03/15 13:15:33.000   78.256779851   16.230335131   397.8215   2   9   0.1505   0.1346   0.4417  -0.0208  -0.0728   0.1649   0.00    1.4
2018/03/15 13:15:34.000   78.256779745   16.230334097   397.7787   2   9   0.1486   0.1331   0.4345  -0.0201  -0.0718   0.1619   0.00    1.4
2018/03/15 13:15:35.000   78.256779670   16.230333694   397.7994   2   9   0.1468   0.1317   0.4275  -0.0195  -0.0708   0.1590   0.00    1.3
2018/03/15 13:15:36.000   78.256779894   16.230332674   397.8190   2   9   0.1450   0.1303   0.4206  -0.0188  -0.0698   0.1561   0.00    1.3
2018/03/15 13:15:37.000   78.256779960   16.230334173   397.7597   2   9   0.1432   0.1290   0.4139  -0.0182  -0.0688   0.1533   0.00    1.3
2018/03/15 13:15:38.000   78.256779880   16.230335585   397.6535   2   9   0.1415   0.1277   0.4074  -0.0176  -0.0679   0.1505   0.00    1.3
2018/03/15 13:15:39.000   78.256779989   16.230335846   397.5623   2   9   0.1399   0.1264   0.4010  -0.0169  -0.0669   0.1479   0.00    1.3
2018/03/15 13:15:40.000   78.256780031   16.230334943   397.5466   2   9   0.1383   0.1251   0.3948  -0.0163  -0.0660   0.1453   0.00    1.3
2018/03/15 13:15:41.000   78.256780169   16.230334933   397.5902   2   9   0.1367   0.1239   0.3888  -0.0156  -0.0652   0.1427   0.00    1.3
2018/03/15 13:15:42.000   78.256780437   16.230335026   397.6251   2   9   0.1352   0.1228   0.3829  -0.0150  -0.0643   0.1402   0.00    1.3
2018/03/15 13:15:43.000   78.256780646   16.230335056   397.6510   2   9   0.1337   0.1216   0.3771  -0.0143  -0.0635   0.1378   0.00    1.3
2018/03/15 13:15:44.000   78.256780776   16.230335417   397.6381   2   9   0.1322   0.1205   0.3715  -0.0137  -0.0627   0.1354   0.00    1.3
2018/03/15 13:15:45.000   78.256780982   16.230336995   397.6499   2   9   0.1308   0.1194   0.3660  -0.0130  -0.0619   0.1331   0.00    1.3
2018/03/15 13:15:46.000   78.256781234   16.230337444   397.7615   2   9   0.1294   0.1183   0.3606  -0.0123  -0.0611   0.1308   0.00    1.3
2018/03/15 13:15:47.000   78.256781358   16.230336739   397.8414   2   9   0.1281   0.1173   0.3553  -0.0116  -0.0604   0.1285   0.00    1.3
2018/03/15 13:15:48.000   78.256781420   16.230336360   397.9003   2   9   0.1267   0.1163   0.3502  -0.0109  -0.0597   0.1264   0.00    1.3
2018/03/15 13:15:49.000   78.256781504   16.230336056   397.9133   2   9   0.1254   0.1153   0.3452  -0.0101  -0.0590   0.1242   0.00    1.3
2018/03/15 13:15:50.000   78.256781628   16.230335837   397.9041   2   9   0.1242   0.1143   0.3403  -0.0093  -0.0583   0.1221   0.00    1.3
2018/03/15 13:15:51.000   78.256781770   16.230335587   397.9009   2   9   0.1229   0.1133   0.3355  -0.0085  -0.0576   0.1201   0.00    1.3
2018/03/15 13:15:52.000   78.256782134   16.230334853   397.9373   2   9   0.1217   0.1124   0.3308  -0.0076  -0.0569   0.1181   0.00    1.3
2018/03/15 13:15:53.000   78.256782359   16.230334199   397.9612   2   9   0.1205   0.1115   0.3262  -0.0066  -0.0563   0.1161   0.00    1.2
2018/03/15 13:15:54.000   78.256782611   16.230334410   397.9772   2   9   0.1194   0.1106   0.3217  -0.0055  -0.0556   0.1142   0.00    1.2
2018/03/15 13:15:55.000   78.256782613   16.230334550   397.9463   2   9   0.1183   0.1097   0.3173  -0.0042  -0.0550   0.1123   0.00    1.2
2018/03/15 13:15:56.000   78.256782487   16.230334619   397.8982   2   9   0.1171   0.1089   0.3130  -0.0022  -0.0544   0.1105   0.00    1.2
2018/03/15 13:15:57.000   78.256782318   16.230334051   397.8790   2   9   0.1160   0.1080   0.3087   0.0027  -0.0538   0.1087   0.00    1.2
2018/03/15 13:15:58.000   78.256782199   16.230333894   397.8512   2   9   0.1150   0.1072   0.3046   0.0044  -0.0533   0.1069   0.00    1.2
2018/03/15 13:15:59.000   78.256782200   16.230334184   397.8989   2   9   0.1139   0.1064   0.3006   0.0055  -0.0527   0.1051   0.00    1.2
2018/03/15 13:16:00.000   78.256782277   16.230334103   397.9343   2   9   0.1129   0.1056   0.2966   0.0065  -0.0521   0.1034   0.00    1.1
2018/03/15 13:16:01.000   78.256782496   16.230334691   397.9795   2   9   0.1119   0.1048   0.2927   0.0072  -0.0516   0.1018   0.00    1.1
2018/03/15 13:16:02.000   78.256782724   16.230334889   398.0144   2   9   0.1109   0.1040   0.2889   0.0079  -0.0511   0.1001   0.00    1.1
2018/03/15 13:16:03.000   78.256782763   16.230335430   398.0430   2   9   0.1100   0.1032   0.2852   0.0086  -0.0506   0.0985   0.00    1.1
2018/03/15 13:16:04.000   78.256782867   16.230335243   398.0727   2   9   0.1090   0.1025   0.2816   0.0091  -0.0501   0.0970   0.00    1.1
2018/03/15 13:16:05.000   78.256782905   16.230334614   398.0706   2   9   0.1081   0.1018   0.2780   0.0096  -0.0496   0.0954   0.00    1.1
2018/03/15 13:16:06.000   78.256783029   16.230333878   398.0660   2   9   0.1072   0.1011   0.2745   0.0101  -0.0491   0.0939   0.00    1.1
2018/03/15 13:16:07.000   78.256783130   16.230333456   398.0440   2   9   0.1063   0.1003   0.2710   0.0105  -0.0486   0.0924   0.00    1.1
2018/03/15 13:16:08.000   78.256783258   16.230333071   398.0256   2   9   0.1054   0.0997   0.2677   0.0109  -0.0482   0.0909   0.00    1.0
2018/03/15 13:16:09.000   78.256783410   16.230333226   398.0112   2   9   0.1045   0.0990   0.2644   0.0113  -0.0477   0.0895   0.00    1.0
2018/03/15 13:16:10.000   78.256783594   16.230333388   398.0548   2   9   0.1037   0.0983   0.2611   0.0117  -0.0473   0.0881   0.00    1.0
2018/03/15 13:16:11.000   78.256783742   16.230333517   398.1025   2   9   0.1028   0.0976   0.2579   0.0120  -0.0468   0.0867   0.00    1.0
2018/03/15 13:16:12.000   78.256783807   16.230333733   398.1547   2   9   0.1020   0.0970   0.2548   0.0123  -0.0464   0.0854   0.00    1.0
2018/03/15 13:16:13.000   78.256783832   16.230333520   398.1576   2   9   0.1012   0.0963   0.2518   0.0126  -0.0460   0.0840   0.00    1.0
2018/03/15 13:16:14.000   78.256783855   16.230333691   398.1410   2   9   0.1004   0.0957   0.2488   0.0129  -0.0456   0.0827   0.00    1.0
2018/03/15 13:16:15.000   78.256784011   16.230333858   398.1310   2   9   0.0996   0.0951   0.2458   0.0132  -0.0452   0.0814   0.00    1.0
2018/03/15 13:16:16.000   78.256784069   16.230333883   398.1097   2   9   0.0989   0.0945   0.2429   0.0135  -0.0448   0.0802   0.00    1.1
2018/03/15 13:16:17.000   78.256784231   16.230333713   398.0981   2   9   0.0981   0.0939   0.2401   0.0137  -0.0444   0.0789   0.00    1.1
2018/03/15 13:16:18.000   78.256784343   16.230333221   398.0893   2   9   0.0974   0.0933   0.2373   0.0140  -0.0440   0.0777   0.00    1.1
2018/03/15 13:16:19.000   78.256784541   16.230333418   398.0628   2   9   0.0966   0.0927   0.2346   0.0142  -0.0437   0.0765   0.00    1.1
2018/03/15 13:16:20.000   78.256784732   16.230333365   398.0572   2   9   0.0959   0.0921   0.2319   0.0144  -0.0433   0.0754   0.00    1.1
2018/03/15 13:16:21.000   78.256784836   16.230333323   398.0535   2   9   0.0952   0.0915   0.2293   0.0146  -0.0429   0.0742   0.00    1.1
2018/03/15 13:16:22.000   78.256784859   16.230333606   398.0692   2   9   0.0945   0.0910   0.2267   0.0148  -0.0426   0.0731   0.00    1.1
2018/03/15 13:16:23.000   78.256784981   16.230333695   398.0944   2   9   0.0938   0.0904   0.2242   0.0150  -0.0423   0.0720   0.00    1.2
2018/03/15 13:16:24.000   78.256785142   16.230333959   398.1218   2   9   0.0932   0.0899   0.2217   0.0152  -0.0419   0.0709   0.00    1.2
2018/03/15 13:16:25.000   78.256785222   16.230333896   398.1643   2   9   0.0925   0.0893   0.2192   0.0153  -0.0416   0.0698   0.00    1.2
2018/03/15 13:16:26.000   78.256785379   16.230334382   398.1777   2   9   0.0919   0.0888   0.2168   0.0155  -0.0413   0.0687   0.00    1.2
2018/03/15 13:16:27.000   78.256785473   16.230334432   398.1713   2   9   0.0912   0.0883   0.2144   0.0157  -0.0410   0.0677   0.00    1.2
2018/03/15 13:16:28.000   78.256785641   16.230334427   398.1611   2   9   0.0906   0.0878   0.2121   0.0158  -0.0407   0.0667   0.00    1.2
2018/03/15 13:16:29.000   78.256785694   16.230334369   398.1319   2   9   0.0899   0.0873   0.2098   0.0160  -0.0404   0.0657   0.00    1.2
2018/03/15 13:16:30.000   78.256785709   16.230333769   398.1270   2   9   0.0893   0.0867   0.2076   0.0161  -0.0401   0.0647   0.00    1.2
2018/03/15 13:16:31.000   78.256785705   16.230333008   398.1267   2   9   0.0887   0.0862   0.2054   0.0163  -0.0398   0.0637   0.00    1.2
2018/03/15 13:16:32.000   78.256785770   16.230332492   398.1336   2   9   0.0881   0.0858   0.2032   0.0164  -0.0395   0.0628   0.00    1.1
2018/03/15 13:16:33.000   78.256785762   16.230332546   398.1537   2   9   0.0875   0.0853   0.2011   0.0165  -0.0392   0.0618   0.00    1.1
2018/03/15 13:16:34.000   78.256785809   16.230331806   398.1842   2   9   0.0870   0.0848   0.1990   0.0166  -0.0389   0.0609   0.00    1.1
2018/03/15 13:16:35.000   78.256785828   16.230331593   398.1979   2   9   0.0864   0.0843   0.1970   0.0168  -0.0387   0.0600   0.00    1.1
2018/03/15 13:16:36.000   78.256785756   16.230331705   398.1830   2   9   0.0858   0.0839   0.1949   0.0169  -0.0384   0.0591   0.00    1.1
2018/03/15 13:16:37.000   78.256785743   16.230331561   398.1641   2   9   0.0853   0.0834   0.1929   0.0170  -0.0381   0.0582   0.00    1.1
2018/03/15 13:16:38.000   78.256785703   16.230331112   398.1522   2   9   0.0847   0.0829   0.1910   0.0171  -0.0379   0.0573   0.00    1.1
2018/03/15 13:16:39.000   78.256785644   16.230330843   398.1542   2   9   0.0842   0.0825   0.1891   0.0172  -0.0376   0.0565   0.00    1.1
2018/03/15 13:16:40.000   78.256785620   16.230330798   398.1610   2   9   0.0836   0.0820   0.1872   0.0173  -0.0374   0.0556   0.00    1.1
2018/03/15 13:16:41.000   78.256785633   16.230330346   398.1585   2   9   0.0831   0.0816   0.1853   0.0174  -0.0371   0.0548   0.00    1.1
2018/03/15 13:16:42.000   78.256785664   16.230329970   398.1388   2   9   0.0826   0.0812   0.1835   0.0175  -0.0369   0.0540   0.00    1.1
2018/03/15 13:16:43.000   78.256785635   16.230329968   398.1222   2   9   0.0821   0.0807   0.1817   0.0175  -0.0367   0.0532   0.00    1.1
2018/03/15 13:16:44.000   78.256785595   16.230329676   398.1081   2   9   0.0816   0.0803   0.1799   0.0176  -0.0364   0.0524   0.00    1.1
2018/03/15 13:16:45.000   78.256785500   16.230329384   398.0920   2   9   0.0811   0.0799   0.1782   0.0177  -0.0362   0.0516   0.00    1.1
2018/03/15 13:16:46.000   78.256785313   16.230329422   398.0963   2   9   0.0806   0.0795   0.1765   0.0178  -0.0360   0.0508   0.00    1.1
2018/03/15 13:16:47.000   78.256785189   16.230329013   398.1054   2   9   0.0801   0.0791   0.1748   0.0179  -0.0358   0.0501   0.00    1.1
2018/03/15 13:16:48.000   78.256785088   16.230328699   398.1167   2   9   0.0796   0.0786   0.1731   0.0179  -0.0356   0.0493   0.00    1.1
2018/03/15 13:16:49.000   78.256785008   16.230328830   398.1046   2   9   0.0791   0.0782   0.1715   0.0180  -0.0353   0.0486   0.00    1.1
2018/03/15 13:16:50.000   78.256784937   16.230329191   398.0862   2   9   0.0787   0.0778   0.1699   0.0181  -0.0351   0.0479   0.00    1.1
2018/03/15 13:16:51.000   78.256784884   16.230329165   398.0639   2   9   0.0782   0.0775   0.1683   0.0181  -0.0349   0.0472   0.00    1.0
2018/03/15 13:16:52.000   78.256784749   16.230328855   398.0426   2   9   0.0778   0.0771   0.1667   0.0182  -0.0347   0.0465   0.00    1.0
2018/03/15 13:16:53.000   78.256784655   16.230328595   398.0276   2   9   0.0773   0.0767   0.1652   0.0183  -0.0345   0.0458   0.00    1.0
2018/03/15 13:16:54.000   78.256784549   16.230327982   398.0306   2   9   0.0769   0.0763   0.1637   0.0183  -0.0343   0.0451   0.00    1.0
2018/03/15 13:16:55.000   78.256784477   16.230327637   398.0348   2   9   0.0764   0.0759   0.1622   0.0184  -0.0341   0.0444   0.00    1.0
2018/03/15 13:16:56.000   78.256784466   16.230327705   398.0542   2   9   0.0760   0.0755   0.1607   0.0184  -0.0340   0.0438   0.00    1.0
2018/03/15 13:16:57.000   78.256784491   16.230327823   398.0605   2   9   0.0755   0.0752   0.1593   0.0185  -0.0338   0.0431   0.00    1.0
2018/03/15 13:16:58.000   78.256784490   16.230328112   398.0569   2   9   0.0751   0.0748   0.1579   0.0185  -0.0336   0.0425   0.00    1.0
2018/03/15 13:16:59.000   78.256784429   16.230328175   398.0513   2   9   0.0747   0.0744   0.1565   0.0186  -0.0334   0.0418   0.00    1.0
2018/03/15 13:17:00.000   78.256784359   16.230327958   398.0373   2   9   0.0743   0.0741   0.1551   0.0186  -0.0332   0.0412   0.00    1.0
2018/03/15 13:17:01.000   78.256784242   16.230327591   398.0113   2   9   0.0739   0.0737   0.1537   0.0187  -0.0331   0.0406   0.00    1.0
2018/03/15 13:17:02.000   78.256784129   16.230327125   397.9865   2   9   0.0735   0.0734   0.1524   0.0187  -0.0329   0.0400   0.00    1.0
2018/03/15 13:17:03.000   78.256784077   16.230326874   397.9638   2   9   0.0731   0.0730   0.1511   0.0187  -0.0327   0.0394   0.00    1.0
2018/03/15 13:17:04.000   78.256784119   16.230326988   397.9583   2   9   0.0727   0.0727   0.1498   0.0188  -0.0326   0.0388   0.00    1.0
2018/03/15 13:17:05.000   78.256784143   16.230327214   397.9604   2   9   0.0723   0.0723   0.1485   0.0188  -0.0324   0.0382   0.00    1.0
2018/03/15 13:17:06.000   78.256784085   16.230327737   397.9614   2   9   0.0719   0.0720   0.1472   0.0188  -0.0322   0.0376   0.00    1.0
2018/03/15 13:17:07.000   78.256784037   16.230327997   397.9601   2   9   0.0715   0.0717   0.1460   0.0189  -0.0321   0.0371   0.00    1.0
2018/03/15 13:17:08.000   78.256783947   16.230328128   397.9438   2   9   0.0711   0.0713   0.1448   0.0189  -0.0319   0.0365   0.00    1.1
2018/03/15 13:17:09.000   78.256783943   16.230328125   397.9211   2   9   0.0707   0.0710   0.1436   0.0189  -0.0318   0.0359   0.00    1.1
2018/03/15 13:17:10.000   78.256783928   16.230327733   397.8910   2   9   0.0704   0.0707   0.1424   0.0190  -0.0316   0.0354   0.00    1.1
2018/03/15 13:17:11.000   78.256783935   16.230327440   397.8582   2   9   0.0700   0.0704   0.1412   0.0190  -0.0315   0.0349   0.00    1.1
2018/03/15 13:17:12.000   78.256783968   16.230327497   397.8451   2   9   0.0696   0.0701   0.1400   0.0190  -0.0313   0.0343   0.00    1.1
2018/03/15 13:17:13.000   78.256783991   16.230327393   397.8586   2   9   0.0693   0.0697   0.1389   0.0190  -0.0312   0.0338   0.00    1.1
2018/03/15 13:17:14.000   78.256784005   16.230327494   397.8681   2   9   0.0689   0.0694   0.1378   0.0191  -0.0310   0.0333   0.00    1.1
2018/03/15 13:17:15.000   78.256783960   16.230327602   397.8808   2   9   0.0686   0.0691   0.1367   0.0191  -0.0309   0.0328   0.00    1.1
2018/03/15 13:17:16.000   78.256783906   16.230327944   397.8892   2   9   0.0682   0.0688   0.1356   0.0191  -0.0307   0.0323   0.00    1.1
2018/03/15 13:17:17.000   78.256783907   16.230327774   397.8931   2   9   0.0679   0.0685   0.1345   0.0191  -0.0306   0.0317   0.00    1.1
2018/03/15 13:17:18.000   78.256783937   16.230327877   397.9002   2   9   0.0675   0.0682   0.1334   0.0191  -0.0305   0.0313   0.00    1.1
2018/03/15 13:17:19.000   78.256783959   16.230327908   397.9061   2   9   0.0672   0.0679   0.1324   0.0192  -0.0303   0.0308   0.00    1.1
2018/03/15 13:17:20.000   78.256784015   16.230327818   397.9095   2   9   0.0669   0.0676   0.1313   0.0192  -0.0302   0.0303   0.00    1.1
2018/03/15 13:17:21.000   78.256784039   16.230327889   397.9057   2   9   0.0665   0.0673   0.1303   0.0192  -0.0301   0.0298   0.00    1.1
2018/03/15 13:17:22.000   78.256784087   16.230327747   397.8950   2   9   0.0662   0.0670   0.1293   0.0192  -0.0299   0.0293   0.00    1.1
2018/03/15 13:17:23.000   78.256784122   16.230327615   397.8707   2   9   0.0659   0.0667   0.1283   0.0192  -0.0298   0.0289   0.00    1.1
2018/03/15 13:17:24.000   78.256784137   16.230327513   397.8464   2   9   0.0656   0.0665   0.1273   0.0192  -0.0297   0.0284   0.00    1.1
2018/03/15 13:17:25.000   78.256784100   16.230327290   397.8265   2   9   0.0652   0.0662   0.1263   0.0192  -0.0295   0.0279   0.00    1.1
2018/03/15 13:17:26.000   78.256784041   16.230327057   397.8143   2   9   0.0649   0.0659   0.1254   0.0193  -0.0294   0.0275   0.00    1.1
2018/03/15 13:17:27.000   78.256783994   16.230326932   397.8032   2   9   0.0646   0.0656   0.1244   0.0193  -0.0293   0.0270   0.00    1.1
2018/03/15 13:17:28.000   78.256783998   16.230326956   397.7890   2   9   0.0643   0.0653   0.1235   0.0193  -0.0292   0.0266   0.00    1.1
2018/03/15 13:17:29.000   78.256784031   16.230326929   397.7835   2   9   0.0640   0.0651   0.1226   0.0193  -0.0291   0.0262   0.00    1.1
2018/03/15 13:17:30.000   78.256784064   16.230327201   397.7530   2   9   0.0637   0.0648   0.1217   0.0193  -0.0289   0.0257   0.00    1.1
2018/03/15 13:17:31.000   78.256784130   16.230327310   397.7162   2   9   0.0634   0.0645   0.1208   0.0193  -0.0288   0.0253   0.00    1.1
2018/03/15 13:17:32.000   78.256784173   16.230327361   397.6860   2   9   0.0631   0.0643   0.1199   0.0193  -0.0287   0.0249   0.00    1.1
2018/03/15 13:17:33.000   78.256784144   16.230327267   397.6740   2   9   0.0628   0.0640   0.1190   0.0193  -0.0286   0.0244   0.00    1.1
2018/03/15 13:17:34.000   78.256784152   16.230327040   397.6679   2   9   0.0625   0.0637   0.1182   0.0193  -0.0285   0.0240   0.00    1.1
2018/03/15 13:17:35.000   78.256784216   16.230326872   397.6656   2   9   0.0622   0.0635   0.1173   0.0193  -0.0284   0.0236   0.00    1.1
2018/03/15 13:17:36.000   78.256784299   16.230326820   397.6678   2   9   0.0619   0.0632   0.1165   0.0193  -0.0283   0.0232   0.00    1.1
2018/03/15 13:17:37.000   78.256784361   16.230326744   397.6665   2   9   0.0617   0.0630   0.1157   0.0193  -0.0282   0.0228   0.00    1.1
2018/03/15 13:17:38.000   78.256784458   16.230326813   397.6734   2   9   0.0614   0.0627   0.1148   0.0193  -0.0281   0.0224   0.00    1.1
2018/03/15 13:17:39.000   78.256784531   16.230326641   397.6707   2   9   0.0611   0.0625   0.1140   0.0193  -0.0279   0.0220   0.00    1.1
2018/03/15 13:17:40.000   78.256784516   16.230326553   397.6595   2   9   0.0608   0.0622   0.1132   0.0193  -0.0278   0.0216   0.00    1.1
2018/03/15 13:17:41.000   78.256784520   16.230326368   397.6421   2   9   0.0606   0.0620   0.1124   0.0193  -0.0277   0.0212   0.00    1.1
2018/03/15 13:17:42.000   78.256784529   16.230326215   397.6290   2   9   0.0603   0.0617   0.1117   0.0193  -0.0276   0.0208   0.00    1.1
2018/03/15 13:17:43.000   78.256784560   16.230326208   397.6250   2   9   0.0600   0.0615   0.1109   0.0193  -0.0275   0.0204   0.00    1.1
2018/03/15 13:17:44.000   78.256784607   16.230326355   397.6213   2   9   0.0598   0.0612   0.1101   0.0193  -0.0274   0.0200   0.00    1.1
2018/03/15 13:17:45.000   78.256784647   16.230326439   397.6269   2   9   0.0595   0.0610   0.1094   0.0193  -0.0273   0.0197   0.00    1.1
2018/03/15 13:17:46.000   78.256784683   16.230326612   397.6308   2   9   0.0592   0.0607   0.1086   0.0193  -0.0272   0.0193   0.00    1.1
2018/03/15 13:17:47.000   78.256784665   16.230326806   397.6300   2   9   0.0590   0.0605   0.1079   0.0193  -0.0271   0.0189   0.00    1.1
2018/03/15 13:17:48.000   78.256784605   16.230326899   397.6181   2   9   0.0587   0.0603   0.1072   0.0193  -0.0270   0.0185   0.00    1.1
2018/03/15 13:17:49.000   78.256784549   16.230326762   397.5931   2   9   0.0585   0.0600   0.1065   0.0192  -0.0269   0.0182   0.00    1.1
2018/03/15 13:17:50.000   78.256784481   16.230326751   397.5786   2   9   0.0582   0.0598   0.1058   0.0192  -0.0269   0.0178   0.00    1.2
2018/03/15 13:17:51.000   78.256784469   16.230326864   397.5713   2   9   0.0580   0.0596   0.1051   0.0192  -0.0268   0.0174   0.00    1.2
2018/03/15 13:17:52.000   78.256784487   16.230326920   397.5743   2   9   0.0577   0.0594   0.1044   0.0192  -0.0267   0.0171   0.00    1.2
2018/03/15 13:17:53.000   78.256784415   16.230326942   397.5963   2   9   0.0575   0.0591   0.1037   0.0192  -0.0266   0.0167   0.00    1.2
2018/03/15 13:17:54.000   78.256784345   16.230326910   397.6132   2   9   0.0572   0.0589   0.1030   0.0192  -0.0265   0.0163   0.00    1.2
2018/03/15 13:17:55.000   78.256784268   16.230326974   397.6237   2   9   0.0570   0.0587   0.1024   0.0192  -0.0264   0.0160   0.00    1.2
2018/03/15 13:17:56.000   78.256784187   16.230327175   397.6251   2   9   0.0567   0.0585   0.1017   0.0192  -0.0263   0.0156   0.00    1.2
2018/03/15 13:17:57.000   78.256784114   16.230327408   397.6206   2   9   0.0565   0.0583   0.1010   0.0192  -0.0262   0.0153   0.00    1.2
2018/03/15 13:17:58.000   78.256784070   16.230327235   397.6147   2   9   0.0563   0.0580   0.1004   0.0192  -0.0261   0.0149   0.00    1.2
2018/03/15 13:17:59.000   78.256784064   16.230327038   397.6160   2   9   0.0560   0.0578   0.0998   0.0191  -0.0260   0.0146   0.00    1.2
2018/03/15 13:18:00.000   78.256784053   16.230327051   397.6214   2   9   0.0558   0.0576   0.0991   0.0191  -0.0260   0.0142   0.00    1.2
2018/03/15 13:18:01.000   78.256784082   16.230327273   397.6277   2   9   0.0556   0.0574   0.0985   0.0191  -0.0259   0.0139   0.00    1.2
2018/03/15 13:18:02.000   78.256784066   16.230327566   397.6296   2   9   0.0553   0.0572   0.0979   0.0191  -0.0258   0.0135   0.00    1.2
2018/03/15 13:18:03.000   78.256784034   16.230327750   397.6266   2   9   0.0551   0.0570   0.0973   0.0191  -0.0257   0.0131   0.00    1.2
2018/03/15 13:18:04.000   78.256784011   16.230327899   397.6157   2   9   0.0549   0.0568   0.0967   0.0191  -0.0256   0.0128   0.00    1.2
2018/03/15 13:18:05.000   78.256784017   16.230327918   397.6121   2   9   0.0547   0.0566   0.0961   0.0191  -0.0255   0.0124   0.00    1.2
2018/03/15 13:18:06.000   78.256784027   16.230328001   397.6080   2   9   0.0545   0.0564   0.0955   0.0190  -0.0255   0.0121   0.00    1.2
2018/03/15 13:18:07.000   78.256783995   16.230328216   397.6173   2   9   0.0542   0.0562   0.0949   0.0190  -0.0254   0.0117   0.00    1.2
2018/03/15 13:18:08.000   78.256783988   16.230328343   397.6272   2   9   0.0540   0.0560   0.0944   0.0190  -0.0253   0.0114   0.00    1.2
2018/03/15 13:18:09.000   78.256783981   16.230328519   397.6272   2   9   0.0538   0.0558   0.0938   0.0190  -0.0252   0.0110   0.00    1.2
2018/03/15 13:18:10.000   78.256783979   16.230328809   397.6172   2   9   0.0536   0.0556   0.0932   0.0190  -0.0252   0.0106   0.00    1.2
2018/03/15 13:18:11.000   78.256783999   16.230328853   397.6083   2   9   0.0534   0.0554   0.0927   0.0190  -0.0251   0.0103   0.00    1.2
2018/03/15 13:18:12.000   78.256783992   16.230328610   397.6004   2   9   0.0532   0.0552   0.0921   0.0189  -0.0250   0.0099   0.00    1.2
2018/03/15 13:18:13.000   78.256783983   16.230328195   397.5979   2   9   0.0530   0.0550   0.0916   0.0189  -0.0249   0.0095   0.00    1.2
2018/03/15 13:18:14.000   78.256783995   16.230327958   397.5987   2   9   0.0528   0.0548   0.0910   0.0189  -0.0248   0.0092   0.00    1.1
2018/03/15 13:18:15.000   78.256784025   16.230327863   397.5999   2   9   0.0526   0.0546   0.0905   0.0189  -0.0248   0.0088   0.00    1.1
2018/03/15 13:18:16.000   78.256784006   16.230327904   397.6040   2   9   0.0524   0.0544   0.0900   0.0189  -0.0247   0.0084   0.00    1.1
2018/03/15 13:18:17.000   78.256783988   16.230328149   397.6017   2   9   0.0522   0.0542   0.0895   0.0189  -0.0246   0.0080   0.00    1.1
2018/03/15 13:18:18.000   78.256783991   16.230328040   397.6008   2   9   0.0520   0.0540   0.0889   0.0188  -0.0245   0.0076   0.00    1.1
2018/03/15 13:18:19.000   78.256783991   16.230327865   397.5977   2   9   0.0518   0.0539   0.0884   0.0188  -0.0245   0.0071   0.00    1.1
2018/03/15 13:18:20.000   78.256784007   16.230327687   397.5852   2   9   0.0516   0.0537   0.0879   0.0188  -0.0244   0.0067   0.00    1.1
2018/03/15 13:18:21.000   78.256784016   16.230327537   397.5793   2   9   0.0514   0.0535   0.0874   0.0188  -0.0243   0.0063   0.00    1.1
2018/03/15 13:18:22.000   78.256784042   16.230327528   397.5776   2   9   0.0512   0.0533   0.0869   0.0188  -0.0243   0.0058   0.00    1.1
2018/03/15 13:18:23.000   78.256784060   16.230327793   397.5774   2   9   0.0510   0.0531   0.0864   0.0187  -0.0242   0.0053   0.00    1.1
2018/03/15 13:18:24.000   78.256784064   16.230327994   397.5807   2   9   0.0508   0.0530   0.0860   0.0187  -0.0241   0.0047   0.00    1.1
2018/03/15 13:18:25.000   78.256784097   16.230328104   397.5855   2   9   0.0506   0.0528   0.0855   0.0187  -0.0241   0.0041   0.00    1.1
2018/03/15 13:18:26.000   78.256784138   16.230328263   397.5872   2   9   0.0504   0.0526   0.0850   0.0187  -0.0240   0.0034   0.00    1.1
2018/03/15 13:18:27.000   78.256784202   16.230328261   397.5865   2   9   0.0502   0.0524   0.0845   0.0187  -0.0239   0.0026   0.00    1.1
2018/03/15 13:18:28.000   78.256784189   16.230328141   397.5904   2   9   0.0500   0.0523   0.0841   0.0186  -0.0238   0.0014   0.00    1.1
2018/03/15 13:18:29.000   78.256784185   16.230328106   397.5927   2   9   0.0499   0.0521   0.0836   0.0186  -0.0238  -0.0017   0.00    1.1
2018/03/15 13:18:30.000   78.256784163   16.230328034   397.5981   2   9   0.0497   0.0519   0.0832   0.0186  -0.0237  -0.0028   0.00    1.1
2018/03/15 13:18:31.000   78.256784142   16.230327923   397.6040   2   9   0.0495   0.0517   0.0827   0.0186  -0.0236  -0.0035   0.00    1.0
2018/03/15 13:18:32.000   78.256784138   16.230327764   397.6102   2   9   0.0493   0.0516   0.0823   0.0185  -0.0236  -0.0041   0.00    1.0
2018/03/15 13:18:33.000   78.256784162   16.230327517   397.6145   2   9   0.0491   0.0514   0.0818   0.0185  -0.0235  -0.0046   0.00    1.0
2018/03/15 13:18:34.000   78.256784193   16.230327323   397.6133   2   9   0.0490   0.0512   0.0814   0.0185  -0.0235  -0.0050   0.00    1.0
2018/03/15 13:18:35.000   78.256784209   16.230327058   397.6060   2   9   0.0488   0.0511   0.0809   0.0185  -0.0234  -0.0054   0.00    1.0
2018/03/15 13:18:36.000   78.256784225   16.230326899   397.5945   2   9   0.0486   0.0509   0.0805   0.0185  -0.0233  -0.0058   0.00    1.0
2018/03/15 13:18:37.000   78.256784233   16.230326783   397.5870   2   9   0.0484   0.0507   0.0801   0.0184  -0.0233  -0.0061   0.00    1.0
2018/03/15 13:18:38.000   78.256784262   16.230326652   397.5816   2   9   0.0483   0.0506   0.0797   0.0184  -0.0232  -0.0064   0.00    1.0
2018/03/15 13:18:39.000   78.256784295   16.230326654   397.5801   2   9   0.0481   0.0504   0.0793   0.0184  -0.0231  -0.0067   0.00    1.0
2018/03/15 13:18:40.000   78.256784323   16.230326505   397.5806   2   9   0.0479   0.0503   0.0788   0.0184  -0.0231  -0.0069   0.00    1.0
2018/03/15 13:18:41.000   78.256784340   16.230326399   397.5805   2   9   0.0478   0.0501   0.0784   0.0183  -0.0230  -0.0072   0.00    1.0
2018/03/15 13:18:42.000   78.256784348   16.230326411   397.5778   2   9   0.0476   0.0499   0.0780   0.0183  -0.0230  -0.0074   0.00    1.0
2018/03/15 13:18:43.000   78.256784375   16.230326438   397.5689   2   9   0.0474   0.0498   0.0776   0.0183  -0.0229  -0.0076   0.00    1.0
2018/03/15 13:18:44.000   78.256784387   16.230326494   397.5615   2   9   0.0473   0.0496   0.0772   0.0183  -0.0228  -0.0078   0.00    1.0
2018/03/15 13:18:45.000   78.256784405   16.230326587   397.5575   2   9   0.0471   0.0495   0.0768   0.0182  -0.0228  -0.0080   0.00    1.0
2018/03/15 13:18:46.000   78.256784428   16.230326671   397.5550   2   9   0.0469   0.0493   0.0765   0.0182  -0.0227  -0.0082   0.00    1.0
2018/03/15 13:18:47.000   78.256784465   16.230326581   397.5507   2   9   0.0468   0.0492   0.0761   0.0182  -0.0227  -0.0084   0.00    1.0
2018/03/15 13:18:48.000   78.256784498   16.230326388   397.5495   2   9   0.0466   0.0490   0.0757   0.0182  -0.0226  -0.0086   0.00    1.0
2018/03/15 13:18:49.000   78.256784510   16.230326158   397.5464   2   9   0.0464   0.0489   0.0753   0.0181  -0.0225  -0.0087   0.00    1.1
2018/03/15 13:18:50.000   78.256784512   16.230325981   397.5419   2   9   0.0463   0.0487   0.0749   0.0181  -0.0225  -0.0089   0.00    1.1
2018/03/15 13:18:51.000   78.256784516   16.230326004   397.5406   2   9   0.0461   0.0486   0.0746   0.0181  -0.0224  -0.0090   0.00    1.1
2018/03/15 13:18:52.000   78.256784488   16.230326100   397.5407   2   9   0.0460   0.0484   0.0742   0.0181  -0.0224  -0.0092   0.00    1.1
2018/03/15 13:18:53.000   78.256784478   16.230326026   397.5444   2   9   0.0458   0.0483   0.0738   0.0180  -0.0223  -0.0093   0.00    1.1
2018/03/15 13:18:54.000   78.256784483   16.230325945   397.5517   2   9   0.0457   0.0481   0.0735   0.0180  -0.0223  -0.0094   0.00    1.1
2018/03/15 13:18:55.000   78.256784485   16.230325848   397.5563   2   9   0.0455   0.0480   0.0731   0.0180  -0.0222  -0.0096   0.00    1.1
2018/03/15 13:18:56.000   78.256784462   16.230325778   397.5584   2   9   0.0454   0.0478   0.0728   0.0180  -0.0221  -0.0097   0.00    1.1
2018/03/15 13:18:57.000   78.256784441   16.230325920   397.5566   2   9   0.0452   0.0477   0.0724   0.0179  -0.0221  -0.0098   0.00    1.1
2018/03/15 13:18:58.000   78.256784403   16.230326091   397.5526   2   9   0.0451   0.0476   0.0721   0.0179  -0.0220  -0.0099   0.00    1.1
2018/03/15 13:18:59.000   78.256784412   16.230326218   397.5491   2   9   0.0449   0.0474   0.0717   0.0179  -0.0220  -0.0100   0.00    1.1
2018/03/15 13:19:00.000   78.256784441   16.230326361   397.5473   2   9   0.0448   0.0473   0.0714   0.0179  -0.0219  -0.0101   0.00    1.1
2018/03/15 13:19:01.000   78.256784471   16.230326662   397.5455   2   9   0.0446   0.0471   0.0710   0.0178  -0.0219  -0.0102   0.00    1.1
2018/03/15 13:19:02.000   78.256784493   16.230326797   397.5426   2   9   0.0445   0.0470   0.0707   0.0178  -0.0218  -0.0103   0.00    1.1
2018/03/15 13:19:03.000   78.256784491   16.230326899   397.5386   2   9   0.0443   0.0469   0.0704   0.0178  -0.0218  -0.0104   0.00    1.1
2018/03/15 13:19:04.000   78.256784461   16.230327032   397.5332   2   9   0.0442   0.0467   0.0700   0.0178  -0.0217  -0.0105   0.00    1.1
2018/03/15 13:19:05.000   78.256784443   16.230327050   397.5289   2   9   0.0441   0.0466   0.0697   0.0177  -0.0217  -0.0106   0.00    1.1
2018/03/15 13:19:06.000   78.256784420   16.230327139   397.5229   2   9   0.0439   0.0465   0.0694   0.0177  -0.0216  -0.0107   0.00    1.1
2018/03/15 13:19:07.000   78.256784404   16.230327211   397.5165   2   9   0.0438   0.0463   0.0691   0.0177  -0.0215  -0.0108   0.00    1.1
2018/03/15 13:19:08.000   78.256784396   16.230327246   397.5156   2   9   0.0436   0.0462   0.0688   0.0177  -0.0215  -0.0108   0.00    1.2
2018/03/15 13:19:09.000   78.256784397   16.230327136   397.5179   2   9   0.0435   0.0461   0.0684   0.0176  -0.0214  -0.0109   0.00    1.2
2018/03/15 13:19:10.000   78.256784381   16.230327120   397.5193   2   9   0.0434   0.0459   0.0681   0.0176  -0.0214  -0.0110   0.00    1.2
2018/03/15 13:19:11.000   78.256784355   16.230327145   397.5235   2   9   0.0432   0.0458   0.0678   0.0176  -0.0213  -0.0110   0.00    1.2
2018/03/15 13:19:12.000   78.256784352   16.230327177   397.5234   2   9   0.0431   0.0457   0.0675   0.0175  -0.0213  -0.0111   0.00    1.2
2018/03/15 13:19:13.000   78.256784333   16.230327156   397.5218   2   9   0.0429   0.0455   0.0672   0.0175  -0.0212  -0.0112   0.00    1.2
2018/03/15 13:19:14.000   78.256784340   16.230327195   397.5194   2   9   0.0428   0.0454   0.0669   0.0175  -0.0212  -0.0112   0.00    1.2
2018/03/15 13:19:15.000   78.256784342   16.230327033   397.5230   2   9   0.0427   0.0453   0.0666   0.0175  -0.0211  -0.0113   0.00    1.2
2018/03/15 13:19:16.000   78.256784323   16.230326968   397.5266   2   9   0.0425   0.0451   0.0663   0.0174  -0.0211  -0.0113   0.00    1.2
2018/03/15 13:19:17.000   78.256784314   16.230326982   397.5304   2   9   0.0424   0.0450   0.0660   0.0174  -0.0210  -0.0114   0.00    1.2
2018/03/15 13:19:18.000   78.256784301   16.230326982   397.5328   2   9   0.0423   0.0449   0.0657   0.0174  -0.0210  -0.0115   0.00    1.2
2018/03/15 13:19:19.000   78.256784306   16.230327025   397.5306   2   9   0.0422   0.0448   0.0654   0.0174  -0.0209  -0.0115   0.00    1.2
2018/03/15 13:19:20.000   78.256784287   16.230327082   397.5233   2   9   0.0420   0.0446   0.0652   0.0173  -0.0209  -0.0116   0.00    1.2
2018/03/15 13:19:21.000   78.256784271   16.230327063   397.5138   2   9   0.0419   0.0445   0.0649   0.0173  -0.0209  -0.0116   0.00    1.2
2018/03/15 13:19:22.000   78.256784272   16.230326935   397.5053   2   9   0.0418   0.0444   0.0646   0.0173  -0.0208  -0.0116   0.00    1.2
2018/03/15 13:19:23.000   78.256784288   16.230326903   397.5000   2   9   0.0416   0.0443   0.0643   0.0173  -0.0208  -0.0117   0.00    1.2
2018/03/15 13:19:24.000   78.256784306   16.230326737   397.4957   2   9   0.0415   0.0442   0.0640   0.0172  -0.0207  -0.0117   0.00    1.2
2018/03/15 13:19:25.000   78.256784319   16.230326579   397.4951   2   9   0.0414   0.0440   0.0638   0.0172  -0.0207  -0.0118   0.00    1.2
2018/03/15 13:19:26.000   78.256784297   16.230326487   397.4946   2   9   0.0413   0.0439   0.0635   0.0172  -0.0206  -0.0118   0.00    1.2
2018/03/15 13:19:27.000   78.256784259   16.230326340   397.4919   2   9   0.0411   0.0438   0.0632   0.0171  -0.0206  -0.0119   0.00    1.2
2018/03/15 13:19:28.000   78.256784196   16.230326173   397.4879   2   9   0.0410   0.0437   0.0630   0.0171  -0.0205  -0.0119   0.00    1.2
2018/03/15 13:19:29.000   78.256784165   16.230326002   397.4847   2   9   0.0409   0.0436   0.0627   0.0171  -0.0205  -0.0119   0.00    1.2
2018/03/15 13:19:30.000   78.256784158   16.230325904   397.4868   2   9   0.0408   0.0434   0.0624   0.0171  -0.0204  -0.0120   0.00    1.2
2018/03/15 13:19:31.000   78.256784167   16.230325889   397.4873   2   9   0.0407   0.0433   0.0622   0.0170  -0.0204  -0.0120   0.00    1.2
2018/03/15 13:19:32.000   78.256784202   16.230325862   397.4860   2   9   0.0405   0.0432   0.0619   0.0170  -0.0203  -0.0120   0.00    1.2
2018/03/15 13:19:33.000   78.256784225   16.230325849   397.4833   2   9   0.0404   0.0431   0.0616   0.0170  -0.0203  -0.0121   0.00    1.3
2018/03/15 13:19:34.000   78.256784235   16.230325816   397.4777   2   9   0.0403   0.0430   0.0614   0.0170  -0.0203  -0.0121   0.00    1.3
2018/03/15 13:19:35.000   78.256784245   16.230325743   397.4702   2   9   0.0402   0.0429   0.0611   0.0169  -0.0202  -0.0121   0.00    1.3
2018/03/15 13:19:36.000   78.256784254   16.230325671   397.4625   2   9   0.0401   0.0428   0.0609   0.0169  -0.0202  -0.0121   0.00    1.3
2018/03/15 13:19:37.000   78.256784261   16.230325577   397.4542   2   9   0.0400   0.0426   0.0606   0.0169  -0.0201  -0.0122   0.00    1.3
2018/03/15 13:19:38.000   78.256784265   16.230325464   397.4497   2   9   0.0398   0.0425   0.0604   0.0169  -0.0201  -0.0122   0.00    1.3
2018/03/15 13:19:39.000   78.256784252   16.230325454   397.4476   2   9   0.0397   0.0424   0.0602   0.0168  -0.0200  -0.0122   0.00    1.3
2018/03/15 13:19:40.000   78.256784231   16.230325459   397.4481   2   9   0.0396   0.0423   0.0599   0.0168  -0.0200  -0.0122   0.00    1.3
2018/03/15 13:19:41.000   78.256784207   16.230325445   397.4485   2   9   0.0395   0.0422   0.0597   0.0168  -0.0199  -0.0123   0.00    1.3
2018/03/15 13:19:42.000   78.256784191   16.230325537   397.4426   2   9   0.0394   0.0421   0.0594   0.0167  -0.0199  -0.0123   0.00    1.3
2018/03/15 13:19:43.000   78.256784198   16.230325559   397.4339   2   9   0.0393   0.0420   0.0592   0.0167  -0.0199  -0.0123   0.00    1.3
2018/03/15 13:19:44.000   78.256784206   16.230325629   397.4282   2   9   0.0392   0.0419   0.0590   0.0167  -0.0198  -0.0123   0.00    1.3
2018/03/15 13:19:45.000   78.256784237   16.230325489   397.4250   2   9   0.0391   0.0418   0.0587   0.0167  -0.0198  -0.0123   0.00    1.3
2018/03/15 13:19:46.000   78.256784248   16.230325304   397.4266   2   9   0.0389   0.0417   0.0585   0.0166  -0.0197  -0.0124   0.00    1.3
2018/03/15 13:19:47.000   78.256784247   16.230325174   397.4282   2   9   0.0388   0.0416   0.0583   0.0166  -0.0197  -0.0124   0.00    1.3
2018/03/15 13:19:48.000   78.256784219   16.230325142   397.4309   2   9   0.0387   0.0415   0.0580   0.0166  -0.0196  -0.0124   0.00    1.3
2018/03/15 13:19:49.000   78.256784203   16.230325214   397.4294   2   9   0.0386   0.0414   0.0578   0.0166  -0.0196  -0.0124   0.00    1.3
2018/03/15 13:19:50.000   78.256784191   16.230325234   397.4257   2   9   0.0385   0.0412   0.0576   0.0165  -0.0196  -0.0124   0.00    1.3
2018/03/15 13:19:51.000   78.256784181   16.230325161   397.4204   2   9   0.0384   0.0411   0.0574   0.0165  -0.0195  -0.0124   0.00    1.3
2018/03/15 13:19:52.000   78.256784175   16.230325053   397.4168   2   9   0.0383   0.0410   0.0571   0.0165  -0.0195  -0.0124   0.00    1.3
2018/03/15 13:19:53.000   78.256784162   16.230325044   397.4155   2   9   0.0382   0.0409   0.0569   0.0164  -0.0194  -0.0125   0.00    1.3
2018/03/15 13:19:54.000   78.256784155   16.230324934   397.4147   2   9   0.0381   0.0408   0.0567   0.0164  -0.0194  -0.0125   0.00    1.3
2018/03/15 13:19:55.000   78.256784160   16.230324931   397.4102   2   9   0.0380   0.0407   0.0565   0.0164  -0.0194  -0.0125   0.00    1.3
2018/03/15 13:19:56.000   78.256784174   16.230325024   397.4016   2   9   0.0379   0.0406   0.0563   0.0164  -0.0193  -0.0125   0.00    1.3
2018/03/15 13:19:57.000   78.256784212   16.230325238   397.3875   2   9   0.0378   0.0405   0.0561   0.0163  -0.0193  -0.0125   0.00    1.3
2018/03/15 13:19:58.000   78.256784270   16.230325415   397.3718   2   9   0.0377   0.0404   0.0559   0.0163  -0.0192  -0.0125   0.00    1.3
2018/03/15 13:19:59.000   78.256784311   16.230325412   397.3596   2   9   0.0376   0.0403   0.0556   0.0163  -0.0192  -0.0125   0.00    1.3
2018/03/15 13:20:00.000   78.256784334   16.230325349   397.3517   2   9   0.0375   0.0402   0.0554   0.0163  -0.0192  -0.0125   0.00    1.3
2018/03/15 13:20:01.000   78.256784332   16.230325331   397.3470   2   9   0.0374   0.0401   0.0552   0.0162  -0.0191  -0.0125   0.00    1.3
2018/03/15 13:20:02.000   78.256784326   16.230325320   397.3454   2   9   0.0373   0.0400   0.0550   0.0162  -0.0191  -0.0125   0.00    1.3
2018/03/15 13:20:03.000   78.256784319   16.230325389   397.3434   2   9   0.0372   0.0399   0.0548   0.0162  -0.0190  -0.0125   0.00    1.3
2018/03/15 13:20:04.000   78.256784329   16.230325530   397.3409   2   9   0.0371   0.0399   0.0546   0.0162  -0.0190  -0.0126   0.00    1.3
2018/03/15 13:20:05.000   78.256784338   16.230325559   397.3393   2   9   0.0370   0.0398   0.0544   0.0161  -0.0190  -0.0126   0.00    1.3
2018/03/15 13:20:06.000   78.256784353   16.230325637   397.3380   2   9   0.0369   0.0397   0.0542   0.0161  -0.0189  -0.0126   0.00    1.3
2018/03/15 13:20:07.000   78.256784362   16.230325611   397.3371   2   9   0.0368   0.0396   0.0540   0.0161  -0.0189  -0.0126   0.00    1.3
2018/03/15 13:20:08.000   78.256784368   16.230325561   397.3358   2   9   0.0367   0.0395   0.0538   0.0160  -0.0189  -0.0126   0.00    1.3
2018/03/15 13:20:09.000   78.256784383   16.230325610   397.3335   2   9   0.0366   0.0394   0.0536   0.0160  -0.0188  -0.0126   0.00    1.3
2018/03/15 13:20:10.000   78.256784427   16.230325715   397.3288   2   9   0.0365   0.0393   0.0534   0.0160  -0.0188  -0.0126   0.00    1.3
2018/03/15 13:20:11.000   78.256784457   16.230325734   397.3228   2   9   0.0364   0.0392   0.0533   0.0160  -0.0187  -0.0126   0.00    1.3
2018/03/15 13:20:12.000   78.256784484   16.230325737   397.3166   2   9   0.0363   0.0391   0.0531   0.0159  -0.0187  -0.0126   0.00    1.3
2018/03/15 13:20:13.000   78.256784496   16.230325819   397.3137   2   9   0.0362   0.0390   0.0529   0.0159  -0.0187  -0.0126   0.00    1.3
2018/03/15 13:20:14.000   78.256784496   16.230325867   397.3132   2   9   0.0361   0.0389   0.0527   0.0159  -0.0186  -0.0126   0.00    1.3
2018/03/15 13:20:15.000   78.256784482   16.230325865   397.3113   2   9   0.0360   0.0388   0.0525   0.0159  -0.0186  -0.0126   0.00    1.3
2018/03/15 13:20:16.000   78.256784495   16.230325864   397.3080   2   9   0.0359   0.0387   0.0523   0.0158  -0.0186  -0.0126   0.00    1.3
2018/03/15 13:20:17.000   78.256784518   16.230325862   397.3044   2   9   0.0358   0.0386   0.0521   0.0158  -0.0185  -0.0126   0.00    1.3
2018/03/15 13:20:18.000   78.256784541   16.230326009   397.2989   2   9   0.0358   0.0386   0.0520   0.0158  -0.0185  -0.0126   0.00    1.3
2018/03/15 13:20:19.000   78.256784565   16.230326136   397.2924   2   9   0.0357   0.0385   0.0518   0.0158  -0.0185  -0.0126   0.00    1.3
2018/03/15 13:20:20.000   78.256784575   16.230326250   397.2890   2   9   0.0356   0.0384   0.0516   0.0157  -0.0184  -0.0126   0.00    1.3
2018/03/15 13:20:21.000   78.256784582   16.230326278   397.2884   2   9   0.0355   0.0383   0.0514   0.0157  -0.0184  -0.0126   0.00    1.3
2018/03/15 13:20:22.000   78.256784572   16.230326166   397.2887   2   9   0.0354   0.0382   0.0512   0.0157  -0.0183  -0.0126   0.00    1.3
2018/03/15 13:20:23.000   78.256784589   16.230326151   397.2860   2   9   0.0353   0.0381   0.0511   0.0157  -0.0183  -0.0126   0.00    1.3
2018/03/15 13:20:24.000   78.256784598   16.230326121   397.2865   2   9   0.0352   0.0380   0.0509   0.0156  -0.0183  -0.0126   0.00    1.3
2018/03/15 13:20:25.000   78.256784605   16.230326144   397.2859   2   9   0.0351   0.0379   0.0507   0.0156  -0.0182  -0.0126   0.00    1.3
2018/03/15 13:20:26.000   78.256784608   16.230326249   397.2832   2   9   0.0350   0.0379   0.0505   0.0156  -0.0182  -0.0126   0.00    1.3
2018/03/15 13:20:27.000   78.256784620   16.230326299   397.2793   2   9   0.0350   0.0378   0.0504   0.0156  -0.0182  -0.0126   0.00    1.3
2018/03/15 13:20:28.000   78.256784622   16.230326337   397.2738   2   9   0.0349   0.0377   0.0502   0.0155  -0.0181  -0.0126   0.00    1.3
2018/03/15 13:20:29.000   78.256784634   16.230326320   397.2701   2   9   0.0348   0.0376   0.0500   0.0155  -0.0181  -0.0126   0.00    1.3
2018/03/15 13:20:30.000   78.256784659   16.230326294   397.2674   2   9   0.0347   0.0375   0.0499   0.0155  -0.0181  -0.0126   0.00    1.3
2018/03/15 13:20:31.000   78.256784686   16.230326208   397.2660   2   9   0.0346   0.0374   0.0497   0.0155  -0.0180  -0.0126   0.00    1.3
2018/03/15 13:20:32.000   78.256784708   16.230326106   397.2660   2   9   0.0345   0.0374   0.0495   0.0154  -0.0180  -0.0126   0.00    1.3
2018/03/15 13:20:33.000   78.256784722   16.230326181   397.2637   2   9   0.0344   0.0373   0.0494   0.0154  -0.0180  -0.0126   0.00    1.3
2018/03/15 13:20:34.000   78.256784740   16.230326277   397.2569   2   9   0.0344   0.0372   0.0492   0.0154  -0.0179  -0.0125   0.00    1.3
2018/03/15 13:20:35.000   78.256784760   16.230326307   397.2496   2   9   0.0343   0.0371   0.0490   0.0154  -0.0179  -0.0125   0.00    1.3
2018/03/15 13:20:36.000   78.256784765   16.230326219   397.2423   2   9   0.0342   0.0370   0.0489   0.0153  -0.0179  -0.0125   0.00    1.3
2018/03/15 13:20:37.000   78.256784755   16.230326011   397.2392   2   9   0.0341   0.0369   0.0487   0.0153  -0.0178  -0.0125   0.00    1.3
2018/03/15 13:20:38.000   78.256784748   16.230325904   397.2388   2   9   0.0340   0.0369   0.0486   0.0153  -0.0178  -0.0125   0.00    1.3
2018/03/15 13:20:39.000   78.256784752   16.230325931   397.2392   2   9   0.0340   0.0368   0.0484   0.0153  -0.0178  -0.0125   0.00    1.3
2018/03/15 13:20:40.000   78.256784754   16.230326072   397.2381   2   9   0.0339   0.0367   0.0483   0.0152  -0.0177  -0.0125   0.00    1.3
2018/03/15 13:20:41.000   78.256784787   16.230326246   397.2338   2   9   0.0338   0.0366   0.0481   0.0152  -0.0177  -0.0125   0.00    1.3
2018/03/15 13:20:42.000   78.256784817   16.230326284   397.2291   2   9   0.0337   0.0366   0.0479   0.0152  -0.0177  -0.0125   0.00    1.3
2018/03/15 13:20:43.000   78.256784844   16.230326120   397.2224   2   9   0.0336   0.0365   0.0478   0.0152  -0.0176  -0.0125   0.00    1.3
2018/03/15 13:20:44.000   78.256784876   16.230325933   397.2172   2   9   0.0336   0.0364   0.0476   0.0151  -0.0176  -0.0125   0.00    1.3
2018/03/15 13:20:45.000   78.256784886   16.230325810   397.2132   2   9   0.0335   0.0363   0.0475   0.0151  -0.0176  -0.0125   0.00    1.3
2018/03/15 13:20:46.000   78.256784875   16.230325724   397.2143   2   9   0.0334   0.0362   0.0473   0.0151  -0.0175  -0.0125   0.00    1.3
2018/03/15 13:20:47.000   78.256784871   16.230325755   397.2138   2   9   0.0333   0.0362   0.0472   0.0151  -0.0175  -0.0125   0.00    1.3
2018/03/15 13:20:48.000   78.256784872   16.230325738   397.2132   2   9   0.0332   0.0361   0.0470   0.0150  -0.0175  -0.0125   0.00    1.3
2018/03/15 13:20:49.000   78.256784878   16.230325712   397.2109   2   9   0.0332   0.0360   0.0469   0.0150  -0.0174  -0.0124   0.00    1.3
2018/03/15 13:20:50.000   78.256784884   16.230325669   397.2084   2   9   0.0331   0.0359   0.0467   0.0150  -0.0174  -0.0124   0.00    1.3
2018/03/15 13:20:51.000   78.256784877   16.230325634   397.2102   2   9   0.0330   0.0359   0.0466   0.0150  -0.0174  -0.0124   0.00    1.3
2018/03/15 13:20:52.000   78.256784869   16.230325644   397.2123   2   9   0.0329   0.0358   0.0465   0.0149  -0.0174  -0.0124   0.00    1.3
2018/03/15 13:20:53.000   78.256784869   16.230325748   397.2120   2   9   0.0329   0.0357   0.0463   0.0149  -0.0173  -0.0124   0.00    1.3
2018/03/15 13:20:54.000   78.256784889   16.230325994   397.2082   2   9   0.0328   0.0356   0.0462   0.0149  -0.0173  -0.0124   0.00    1.3
2018/03/15 13:20:55.000   78.256784934   16.230326187   397.2009   2   9   0.0327   0.0356   0.0460   0.0149  -0.0173  -0.0124   0.00    1.3
2018/03/15 13:20:56.000   78.256784977   16.230326263   397.1918   2   9   0.0326   0.0355   0.0459   0.0148  -0.0172  -0.0124   0.00    1.3
2018/03/15 13:20:57.000   78.256785003   16.230326229   397.1863   2   9   0.0326   0.0354   0.0458   0.0148  -0.0172  -0.0124   0.00    1.3
2018/03/15 13:20:58.000   78.256784995   16.230326112   397.1896   2   9   0.0325   0.0353   0.0456   0.0148  -0.0172  -0.0124   0.00    1.3
2018/03/15 13:20:59.000   78.256784969   16.230326074   397.1949   2   9   0.0324   0.0353   0.0455   0.0148  -0.0171  -0.0124   0.00    1.3
2018/03/15 13:21:00.000   78.256784948   16.230326077   397.2002   2   9   0.0323   0.0352   0.0453   0.0147  -0.0171  -0.0124   0.00    1.3
2018/03/15 13:21:01.000   78.256784950   16.230326062   397.2037   2   9   0.0323   0.0351   0.0452   0.0147  -0.0171  -0.0123   0.00    1.3
2018/03/15 13:21:02.000   78.256784951   16.230326067   397.2037   2   9   0.0322   0.0351   0.0451   0.0147  -0.0171  -0.0123   0.00    1.3
2018/03/15 13:21:03.000   78.256784949   16.230326047   397.2002   2   9   0.0321   0.0350   0.0449   0.0147  -0.0170  -0.0123   0.00    1.3
2018/03/15 13:21:04.000   78.256784953   16.230325990   397.1973   2   9   0.0321   0.0349   0.0448   0.0147  -0.0170  -0.0123   0.00    1.3
2018/03/15 13:21:05.000   78.256784951   16.230325997   397.1965   2   9   0.0320   0.0348   0.0447   0.0146  -0.0170  -0.0123   0.00    1.3
2018/03/15 13:21:06.000   78.256784956   16.230326083   397.1977   2   9   0.0319   0.0348   0.0445   0.0146  -0.0169  -0.0123   0.00    1.3
2018/03/15 13:21:07.000   78.256784971   16.230326229   397.1990   2   9   0.0318   0.0347   0.0444   0.0146  -0.0169  -0.0123   0.00    1.3
2018/03/15 13:21:08.000   78.256784992   16.230326297   397.1987   2   9   0.0318   0.0346   0.0443   0.0146  -0.0169  -0.0123   0.00    1.3
2018/03/15 13:21:09.000   78.256785015   16.230326375   397.1948   2   9   0.0317   0.0346   0.0441   0.0145  -0.0168  -0.0123   0.00    1.3
2018/03/15 13:21:10.000   78.256785034   16.230326357   397.1894   2   9   0.0316   0.0345   0.0440   0.0145  -0.0168  -0.0123   0.00    1.3
2018/03/15 13:21:11.000   78.256785045   16.230326316   397.1867   2   9   0.0316   0.0344   0.0439   0.0145  -0.0168  -0.0122   0.00    1.3
2018/03/15 13:21:12.000   78.256785050   16.230326417   397.1852   2   9   0.0315   0.0344   0.0438   0.0145  -0.0168  -0.0122   0.00    1.3
2018/03/15 13:21:13.000   78.256785070   16.230326596   397.1830   2   9   0.0314   0.0343   0.0436   0.0144  -0.0167  -0.0122   0.00    1.3
2018/03/15 13:21:14.000   78.256785092   16.230326704   397.1828   2   9   0.0314   0.0342   0.0435   0.0144  -0.0167  -0.0122   0.00    1.3
2018/03/15 13:21:15.000   78.256785111   16.230326745   397.1838   2   9   0.0313   0.0342   0.0434   0.0144  -0.0167  -0.0122   0.00    1.3
2018/03/15 13:21:16.000   78.256785118   16.230326774   397.1839   2   9   0.0312   0.0341   0.0433   0.0144  -0.0167  -0.0122   0.00    1.3
2018/03/15 13:21:17.000   78.256785094   16.230326636   397.1866   2   9   0.0312   0.0340   0.0431   0.0144  -0.0166  -0.0122   0.00    1.3
2018/03/15 13:21:18.000   78.256785085   16.230326568   397.1886   2   9   0.0311   0.0340   0.0430   0.0143  -0.0166  -0.0122   0.00    1.3
2018/03/15 13:21:19.000   78.256785078   16.230326525   397.1896   2   9   0.0310   0.0339   0.0429   0.0143  -0.0166  -0.0122   0.00    1.3
2018/03/15 13:21:20.000   78.256785079   16.230326478   397.1908   2   9   0.0310   0.0338   0.0428   0.0143  -0.0165  -0.0121   0.00    1.3
2018/03/15 13:21:21.000   78.256785101   16.230326439   397.1912   2   9   0.0309   0.0338   0.0427   0.0143  -0.0165  -0.0121   0.00    1.3
2018/03/15 13:21:22.000   78.256785114   16.230326356   397.1912   2   9   0.0308   0.0337   0.0425   0.0142  -0.0165  -0.0121   0.00    1.3
2018/03/15 13:21:23.000   78.256785125   16.230326267   397.1913   2   9   0.0308   0.0336   0.0424   0.0142  -0.0165  -0.0121   0.00    1.3
2018/03/15 13:21:24.000   78.256785131   16.230326179   397.1902   2   9   0.0307   0.0336   0.0423   0.0142  -0.0164  -0.0121   0.00    1.3
2018/03/15 13:21:25.000   78.256785133   16.230326129   397.1919   2   9   0.0306   0.0335   0.0422   0.0142  -0.0164  -0.0121   0.00    1.3
2018/03/15 13:21:26.000   78.256785152   16.230326149   397.1927   2   9   0.0306   0.0334   0.0421   0.0142  -0.0164  -0.0121   0.00    1.3
2018/03/15 13:21:27.000   78.256785170   16.230326189   397.1935   2   9   0.0305   0.0334   0.0419   0.0141  -0.0163  -0.0121   0.00    1.3
2018/03/15 13:21:28.000   78.256785174   16.230326245   397.1933   2   9   0.0305   0.0333   0.0418   0.0141  -0.0163  -0.0120   0.00    1.3
2018/03/15 13:21:29.000   78.256785179   16.230326307   397.1923   2   9   0.0304   0.0333   0.0417   0.0141  -0.0163  -0.0120   0.00    1.3
2018/03/15 13:21:30.000   78.256785187   16.230326306   397.1888   2   9   0.0303   0.0332   0.0416   0.0141  -0.0163  -0.0120   0.00    1.3
2018/03/15 13:21:31.000   78.256785181   16.230326292   397.1875   2   9   0.0303   0.0331   0.0415   0.0140  -0.0162  -0.0120   0.00    1.3
2018/03/15 13:21:32.000   78.256785182   16.230326293   397.1876   2   9   0.0302   0.0331   0.0414   0.0140  -0.0162  -0.0120   0.00    1.3
2018/03/15 13:21:33.000   78.256785192   16.230326345   397.1893   2   9   0.0301   0.0330   0.0413   0.0140  -0.0162  -0.0120   0.00    1.3
2018/03/15 13:21:34.000   78.256785201   16.230326429   397.1904   2   9   0.0301   0.0329   0.0412   0.0140  -0.0162  -0.0120   0.00    1.3
2018/03/15 13:21:35.000   78.256785228   16.230326511   397.1911   2   9   0.0300   0.0329   0.0410   0.0140  -0.0161  -0.0120   0.00    1.3
2018/03/15 13:21:36.000   78.256785248   16.230326500   397.1913   2   9   0.0300   0.0328   0.0409   0.0139  -0.0161  -0.0120   0.00    1.3
2018/03/15 13:21:37.000   78.256785235   16.230326397   397.1931   2   9   0.0299   0.0328   0.0408   0.0139  -0.0161  -0.0119   0.00    1.3
2018/03/15 13:21:38.000   78.256785228   16.230326267   397.1947   2   9   0.0298   0.0327   0.0407   0.0139  -0.0161  -0.0119   0.00    1.3
2018/03/15 13:21:39.000   78.256785220   16.230326113   397.1982   2   9   0.0298   0.0326   0.0406   0.0139  -0.0160  -0.0119   0.00    1.3
