% program   : RTKPOST ver.2.4.2
% inp file  : Z:\home\linda\Documents\Spring18\GitHub_Unis\data\processed_data\46250727.obs
% inp file  : Z:\home\linda\Documents\Spring18\GitHub_Unis\data\base_station_data\lyrs0720.18o
% inp file  : Z:\home\linda\Documents\Spring18\GitHub_Unis\data\processed_data\46250727.nav
% obs start : 2018/03/13 14:41:01.0 GPST (week1992 225661.0s)
% obs end   : 2018/03/13 14:56:01.0 GPST (week1992 226561.0s)
% pos mode  : static
% freqs     : L1+L2
% solution  : forward
% elev mask : 15.0 deg
% dynamics  : on
% tidecorr  : off
% ionos opt : estimation
% tropo opt : saastamoinen
% ephemeris : broadcast
% navi sys  : gps glonass galileo qzss sbas
% amb res   : fix and hold
% amb glo   : on
% val thres : 3.0
% antenna1  :                       ( 0.0000  0.0000  0.0000)
% antenna2  :                       ( 0.0000  0.0000  0.0000)
% ref pos   : 78.228825638   15.397310064   495.6816
%
% (lat/lon/height=WGS84/ellipsoidal,Q=1:fix,2:float,3:sbas,4:dgps,5:single,6:ppp,ns=# of satellites)
%  GPST                  latitude(deg) longitude(deg)  height(m)   Q  ns   sdn(m)   sde(m)   sdu(m)  sdne(m)  sdeu(m)  sdun(m) age(s)  ratio
2018/03/13 14:41:01.000   78.256790118   16.230309060   398.2346   2  11   0.3858   0.3416   1.3982  -0.0795  -0.0694   0.4660   0.00    1.2
2018/03/13 14:41:02.000   78.256788616   16.230307694   397.9395   2  11   0.2794   0.2471   1.0117  -0.0579  -0.0512   0.3377   0.00    1.1
2018/03/13 14:41:03.000   78.256787437   16.230304982   397.4492   2  11   0.2325   0.2056   0.8411  -0.0482  -0.0422   0.2811   0.00    1.1
2018/03/13 14:41:04.000   78.256786972   16.230305379   397.3529   2  11   0.2049   0.1812   0.7404  -0.0425  -0.0366   0.2477   0.00    1.1
2018/03/13 14:41:05.000   78.256786330   16.230305676   397.4038   2  11   0.1863   0.1648   0.6724  -0.0386  -0.0327   0.2251   0.00    1.1
2018/03/13 14:41:06.000   78.256786101   16.230308028   397.4060   2  11   0.1728   0.1528   0.6229  -0.0358  -0.0297   0.2086   0.00    1.1
2018/03/13 14:41:07.000   78.256786562   16.230309231   397.5863   2  11   0.1624   0.1436   0.5848  -0.0336  -0.0274   0.1960   0.00    1.1
2018/03/13 14:41:08.000   78.256786826   16.230310052   397.7533   2  11   0.1541   0.1363   0.5545  -0.0319  -0.0255   0.1859   0.00    1.1
2018/03/13 14:41:09.000   78.256786922   16.230310497   397.9841   2  11   0.1473   0.1303   0.5296  -0.0305  -0.0239   0.1777   0.00    1.1
2018/03/13 14:41:10.000   78.256787081   16.230311457   398.0776   2  11   0.1417   0.1254   0.5088  -0.0293  -0.0226   0.1708   0.00    1.2
2018/03/13 14:41:11.000   78.256787283   16.230311654   398.1824   2  11   0.1368   0.1211   0.4911  -0.0283  -0.0214   0.1649   0.00    1.2
2018/03/13 14:41:12.000   78.256787428   16.230311924   398.2465   2  11   0.1327   0.1174   0.4757  -0.0274  -0.0204   0.1598   0.00    1.2
2018/03/13 14:41:13.000   78.256787512   16.230311716   398.2430   2  11   0.1290   0.1142   0.4623  -0.0266  -0.0194   0.1554   0.00    1.2
2018/03/13 14:41:14.000   78.256787343   16.230311983   398.1760   2  11   0.1258   0.1114   0.4505  -0.0260  -0.0186   0.1515   0.00    1.1
2018/03/13 14:41:15.000   78.256787422   16.230311599   398.2094   2  11   0.1230   0.1089   0.4399  -0.0254  -0.0178   0.1480   0.00    1.1
2018/03/13 14:41:16.000   78.256787477   16.230311354   398.2293   2  11   0.1204   0.1066   0.4304  -0.0248  -0.0171   0.1448   0.00    1.0
2018/03/13 14:41:17.000   78.256787411   16.230311634   398.2392   2  11   0.1181   0.1046   0.4218  -0.0243  -0.0165   0.1420   0.00    1.0
2018/03/13 14:41:18.000   78.256787429   16.230312194   398.2260   2  11   0.1160   0.1028   0.4140  -0.0239  -0.0159   0.1394   0.00    1.0
2018/03/13 14:41:19.000   78.256787504   16.230312555   398.2130   2  11   0.1141   0.1011   0.4068  -0.0235  -0.0153   0.1370   0.00    1.0
2018/03/13 14:41:20.000   78.256787513   16.230312792   398.2004   2  11   0.1123   0.0995   0.4002  -0.0231  -0.0148   0.1348   0.00    1.0
2018/03/13 14:41:21.000   78.256787744   16.230312988   398.2204   2  11   0.1106   0.0981   0.3940  -0.0226  -0.0133   0.1327   0.00    1.0
2018/03/13 14:41:22.000   78.256787940   16.230313248   398.2777   2  11   0.1091   0.0967   0.3882  -0.0222  -0.0119   0.1307   0.00    1.0
2018/03/13 14:41:23.000   78.256788067   16.230313607   398.3017   2  11   0.1077   0.0955   0.3829  -0.0218  -0.0107   0.1289   0.00    1.1
2018/03/13 14:41:24.000   78.256788152   16.230313683   398.3106   2  11   0.1064   0.0943   0.3779  -0.0215  -0.0095   0.1272   0.00    1.1
2018/03/13 14:41:25.000   78.256788140   16.230314244   398.2894   2  11   0.1051   0.0932   0.3732  -0.0211  -0.0083   0.1256   0.00    1.1
2018/03/13 14:41:26.000   78.256788196   16.230314381   398.2554   2  11   0.1040   0.0922   0.3688  -0.0209  -0.0072   0.1241   0.00    1.0
2018/03/13 14:41:27.000   78.256788250   16.230314396   398.1848   2  11   0.1029   0.0913   0.3648  -0.0206  -0.0069   0.1228   0.00    1.0
2018/03/13 14:41:28.000   78.256788301   16.230314102   398.1184   2  11   0.1019   0.0904   0.3609  -0.0204  -0.0065   0.1215   0.00    1.0
2018/03/13 14:41:29.000   78.256788321   16.230314535   398.0679   2  11   0.1009   0.0896   0.3572  -0.0203  -0.0062   0.1203   0.00    1.0
2018/03/13 14:41:30.000   78.256788344   16.230314852   398.0023   2  11   0.1000   0.0888   0.3537  -0.0201  -0.0059   0.1191   0.00    1.0
2018/03/13 14:41:31.000   78.256788340   16.230315373   397.9386   2  11   0.0992   0.0880   0.3504  -0.0199  -0.0055   0.1180   0.00    1.0
2018/03/13 14:41:32.000   78.256788414   16.230316159   397.9062   2  11   0.0983   0.0873   0.3472  -0.0198  -0.0052   0.1170   0.00    1.0
2018/03/13 14:41:33.000   78.256788489   16.230316370   397.8707   2  11   0.0976   0.0866   0.3442  -0.0196  -0.0049   0.1160   0.00    1.0
2018/03/13 14:41:34.000   78.256788584   16.230316475   397.8439   2  11   0.0968   0.0860   0.3413  -0.0195  -0.0047   0.1150   0.00    1.0
2018/03/13 14:41:35.000   78.256788652   16.230316520   397.8031   2  11   0.0961   0.0854   0.3385  -0.0194  -0.0044   0.1140   0.00    1.0
2018/03/13 14:41:36.000   78.256788745   16.230316569   397.7908   2  11   0.0954   0.0848   0.3358  -0.0192  -0.0041   0.1131   0.00    1.0
2018/03/13 14:41:37.000   78.256788770   16.230316498   397.7619   2  11   0.0948   0.0842   0.3332  -0.0191  -0.0038   0.1123   0.00    1.0
2018/03/13 14:41:38.000   78.256788730   16.230316765   397.7315   2  11   0.0941   0.0837   0.3306  -0.0190  -0.0036   0.1114   0.00    1.0
2018/03/13 14:41:39.000   78.256788663   16.230317277   397.6852   2  11   0.0935   0.0832   0.3282  -0.0189  -0.0034   0.1106   0.00    1.0
2018/03/13 14:41:40.000   78.256788574   16.230317229   397.6418   2  11   0.0929   0.0827   0.3258  -0.0188  -0.0031   0.1098   0.00    1.0
2018/03/13 14:41:41.000   78.256788555   16.230317165   397.6604   2  11   0.0924   0.0822   0.3235  -0.0187  -0.0029   0.1090   0.00    1.1
2018/03/13 14:41:42.000   78.256788650   16.230317391   397.7060   2  11   0.0918   0.0817   0.3213  -0.0186  -0.0027   0.1083   0.00    1.0
2018/03/13 14:41:43.000   78.256788717   16.230317729   397.7168   2  11   0.0913   0.0813   0.3191  -0.0185  -0.0025   0.1076   0.00    1.0
2018/03/13 14:41:44.000   78.256788852   16.230317988   397.7473   2  11   0.0908   0.0808   0.3170  -0.0184  -0.0024   0.1069   0.00    1.0
2018/03/13 14:41:45.000   78.256788914   16.230318078   397.7696   2  11   0.0903   0.0804   0.3149  -0.0184  -0.0022   0.1062   0.00    1.0
2018/03/13 14:41:46.000   78.256788970   16.230318105   397.7935   2  11   0.0898   0.0800   0.3129  -0.0183  -0.0020   0.1055   0.00    1.0
2018/03/13 14:41:47.000   78.256788978   16.230318479   397.7941   2  11   0.0894   0.0796   0.3109  -0.0182  -0.0019   0.1048   0.00    1.0
2018/03/13 14:41:48.000   78.256788944   16.230318651   397.7980   2  11   0.0889   0.0793   0.3090  -0.0181  -0.0018   0.1042   0.00    1.0
2018/03/13 14:41:49.000   78.256788917   16.230318762   397.7897   2  11   0.0885   0.0789   0.3071  -0.0181  -0.0017   0.1035   0.00    1.1
2018/03/13 14:41:50.000   78.256788914   16.230318560   397.7663   2  11   0.0880   0.0785   0.3052  -0.0180  -0.0017   0.1029   0.00    1.1
2018/03/13 14:41:51.000   78.256788972   16.230318291   397.7792   2  11   0.0876   0.0782   0.3034  -0.0180  -0.0017   0.1023   0.00    1.1
2018/03/13 14:41:52.000   78.256788956   16.230318032   397.7884   2  11   0.0872   0.0779   0.3016  -0.0179  -0.0017   0.1016   0.00    1.1
2018/03/13 14:41:53.000   78.256788964   16.230318294   397.7975   2  11   0.0868   0.0775   0.2998  -0.0178  -0.0017   0.1010   0.00    1.1
2018/03/13 14:41:54.000   78.256788973   16.230318521   397.8298   2  11   0.0864   0.0772   0.2981  -0.0178  -0.0018   0.1005   0.00    1.1
2018/03/13 14:41:55.000   78.256789051   16.230318645   397.8651   2  11   0.0860   0.0769   0.2964  -0.0177  -0.0018   0.0999   0.00    1.1
2018/03/13 14:41:56.000   78.256789179   16.230318634   397.9213   2  11   0.0857   0.0766   0.2947  -0.0177  -0.0019   0.0993   0.00    1.1
2018/03/13 14:41:57.000   78.256789308   16.230318574   397.9652   2  11   0.0853   0.0763   0.2930  -0.0176  -0.0020   0.0987   0.00    1.1
2018/03/13 14:41:58.000   78.256789454   16.230318496   398.0104   2  11   0.0850   0.0760   0.2914  -0.0176  -0.0021   0.0981   0.00    1.1
2018/03/13 14:41:59.000   78.256789506   16.230318587   398.0273   2  11   0.0846   0.0757   0.2897  -0.0176  -0.0023   0.0976   0.00    1.0
2018/03/13 14:42:00.000   78.256789512   16.230318727   398.0148   2  11   0.0843   0.0754   0.2881  -0.0175  -0.0024   0.0970   0.00    1.0
2018/03/13 14:42:01.000   78.256789454   16.230318960   397.9812   2  11   0.0839   0.0752   0.2865  -0.0175  -0.0025   0.0965   0.00    1.1
2018/03/13 14:42:02.000   78.256789337   16.230318919   397.9424   2  11   0.0836   0.0749   0.2849  -0.0174  -0.0027   0.0959   0.00    1.0
2018/03/13 14:42:03.000   78.256789300   16.230318796   397.9318   2  11   0.0833   0.0747   0.2834  -0.0174  -0.0028   0.0954   0.00    1.0
2018/03/13 14:42:04.000   78.256789267   16.230318736   397.9273   2  11   0.0829   0.0744   0.2818  -0.0174  -0.0030   0.0949   0.00    1.0
2018/03/13 14:42:05.000   78.256789318   16.230318673   397.9295   2  11   0.0826   0.0742   0.2803  -0.0173  -0.0031   0.0943   0.00    1.0
2018/03/13 14:42:06.000   78.256789362   16.230318607   397.9406   2  11   0.0823   0.0739   0.2787  -0.0173  -0.0032   0.0938   0.00    1.0
2018/03/13 14:42:07.000   78.256789391   16.230318881   397.9439   2  11   0.0820   0.0737   0.2772  -0.0173  -0.0034   0.0933   0.00    1.0
2018/03/13 14:42:08.000   78.256789474   16.230318729   397.9566   2  11   0.0817   0.0734   0.2757  -0.0173  -0.0035   0.0928   0.00    1.0
2018/03/13 14:42:09.000   78.256789503   16.230318729   397.9389   2  11   0.0814   0.0732   0.2742  -0.0172  -0.0037   0.0922   0.00    1.0
2018/03/13 14:42:10.000   78.256789478   16.230318823   397.9172   2  11   0.0811   0.0730   0.2727  -0.0172  -0.0038   0.0917   0.00    1.0
2018/03/13 14:42:11.000   78.256789436   16.230319011   397.8946   2  11   0.0808   0.0728   0.2712  -0.0172  -0.0040   0.0912   0.00    1.1
2018/03/13 14:42:12.000   78.256789384   16.230319085   397.8701   2  11   0.0806   0.0725   0.2698  -0.0172  -0.0041   0.0907   0.00    1.1
2018/03/13 14:42:13.000   78.256789343   16.230319105   397.8366   2  11   0.0803   0.0723   0.2683  -0.0171  -0.0043   0.0902   0.00    1.1
2018/03/13 14:42:14.000   78.256789303   16.230319171   397.7993   2  11   0.0800   0.0721   0.2669  -0.0171  -0.0044   0.0897   0.00    1.1
2018/03/13 14:42:15.000   78.256789278   16.230319324   397.7666   2  11   0.0797   0.0719   0.2654  -0.0171  -0.0045   0.0892   0.00    1.1
2018/03/13 14:42:16.000   78.256789243   16.230319343   397.7354   2  11   0.0795   0.0717   0.2640  -0.0171  -0.0047   0.0887   0.00    1.1
2018/03/13 14:42:17.000   78.256789250   16.230319283   397.7357   2  11   0.0792   0.0715   0.2625  -0.0171  -0.0048   0.0882   0.00    1.1
2018/03/13 14:42:18.000   78.256789266   16.230319368   397.7423   2  11   0.0789   0.0713   0.2611  -0.0171  -0.0049   0.0877   0.00    1.1
2018/03/13 14:42:19.000   78.256789307   16.230319448   397.7612   2  11   0.0787   0.0711   0.2597  -0.0170  -0.0051   0.0872   0.00    1.1
2018/03/13 14:42:20.000   78.256789340   16.230319408   397.7724   2  11   0.0784   0.0709   0.2583  -0.0170  -0.0052   0.0867   0.00    1.0
2018/03/13 14:42:21.000   78.256789406   16.230319535   397.7802   2  11   0.0782   0.0707   0.2569  -0.0170  -0.0053   0.0862   0.00    1.0
2018/03/13 14:42:22.000   78.256789423   16.230319639   397.7608   2  11   0.0779   0.0705   0.2555  -0.0170  -0.0055   0.0857   0.00    1.0
2018/03/13 14:42:23.000   78.256789406   16.230319765   397.7394   2  11   0.0777   0.0703   0.2541  -0.0170  -0.0056   0.0852   0.00    1.0
2018/03/13 14:42:24.000   78.256789344   16.230319785   397.7092   2  11   0.0774   0.0701   0.2527  -0.0170  -0.0057   0.0848   0.00    1.0
2018/03/13 14:42:25.000   78.256789346   16.230319846   397.6863   2  11   0.0772   0.0700   0.2513  -0.0170  -0.0059   0.0843   0.00    1.0
2018/03/13 14:42:26.000   78.256789302   16.230319983   397.6692   2  11   0.0769   0.0698   0.2499  -0.0170  -0.0060   0.0838   0.00    1.0
2018/03/13 14:42:27.000   78.256789259   16.230319885   397.6563   2  11   0.0767   0.0696   0.2486  -0.0170  -0.0061   0.0833   0.00    1.1
2018/03/13 14:42:28.000   78.256789205   16.230319715   397.6486   2  11   0.0764   0.0694   0.2472  -0.0170  -0.0062   0.0828   0.00    1.1
2018/03/13 14:42:29.000   78.256789159   16.230319793   397.6660   2  11   0.0762   0.0693   0.2458  -0.0169  -0.0063   0.0823   0.00    1.1
2018/03/13 14:42:30.000   78.256789154   16.230319860   397.6788   2  11   0.0760   0.0691   0.2445  -0.0169  -0.0065   0.0819   0.00    1.1
2018/03/13 14:42:31.000   78.256789179   16.230319884   397.6958   2  11   0.0757   0.0689   0.2431  -0.0169  -0.0066   0.0814   0.00    1.1
2018/03/13 14:42:32.000   78.256789213   16.230319796   397.7050   2  11   0.0755   0.0687   0.2418  -0.0169  -0.0067   0.0809   0.00    1.0
2018/03/13 14:42:33.000   78.256789249   16.230319717   397.7209   2  11   0.0753   0.0686   0.2404  -0.0169  -0.0068   0.0804   0.00    1.0
2018/03/13 14:42:34.000   78.256789220   16.230319591   397.7119   2  11   0.0750   0.0684   0.2391  -0.0169  -0.0069   0.0800   0.00    1.0
2018/03/13 14:42:35.000   78.256789172   16.230319525   397.6988   2  11   0.0748   0.0683   0.2377  -0.0169  -0.0070   0.0795   0.00    1.0
2018/03/13 14:42:36.000   78.256789105   16.230319575   397.6821   2  11   0.0746   0.0681   0.2364  -0.0169  -0.0071   0.0790   0.00    1.1
2018/03/13 14:42:37.000   78.256789067   16.230319522   397.6652   2  11   0.0744   0.0679   0.2351  -0.0169  -0.0072   0.0786   0.00    1.1
2018/03/13 14:42:38.000   78.256789031   16.230319416   397.6514   2  11   0.0741   0.0678   0.2338  -0.0169  -0.0073   0.0781   0.00    1.1
2018/03/13 14:42:39.000   78.256789002   16.230319237   397.6493   2  11   0.0739   0.0676   0.2324  -0.0169  -0.0074   0.0776   0.00    1.1
2018/03/13 14:42:40.000   78.256788989   16.230319097   397.6570   2  11   0.0737   0.0675   0.2311  -0.0169  -0.0075   0.0772   0.00    1.1
2018/03/13 14:42:41.000   78.256788956   16.230319083   397.6516   2  11   0.0735   0.0673   0.2298  -0.0169  -0.0076   0.0767   0.00    1.1
2018/03/13 14:42:42.000   78.256788966   16.230319065   397.6600   2  11   0.0733   0.0671   0.2285  -0.0169  -0.0077   0.0762   0.00    1.0
2018/03/13 14:42:43.000   78.256788971   16.230318928   397.6588   2  11   0.0731   0.0670   0.2272  -0.0169  -0.0078   0.0758   0.00    1.0
2018/03/13 14:42:44.000   78.256788961   16.230318820   397.6528   2  11   0.0728   0.0668   0.2259  -0.0169  -0.0079   0.0753   0.00    1.0
2018/03/13 14:42:45.000   78.256788952   16.230318740   397.6441   2  11   0.0726   0.0667   0.2246  -0.0169  -0.0080   0.0749   0.00    1.0
2018/03/13 14:42:46.000   78.256788901   16.230318812   397.6353   2  11   0.0724   0.0665   0.2233  -0.0169  -0.0081   0.0744   0.00    1.0
2018/03/13 14:42:47.000   78.256788879   16.230318767   397.6373   2  11   0.0722   0.0664   0.2221  -0.0169  -0.0082   0.0740   0.00    1.0
2018/03/13 14:42:48.000   78.256788838   16.230318583   397.6345   2  11   0.0720   0.0662   0.2208  -0.0169  -0.0083   0.0735   0.00    1.0
2018/03/13 14:42:49.000   78.256788799   16.230318411   397.6369   2  11   0.0718   0.0661   0.2195  -0.0169  -0.0084   0.0731   0.00    1.0
2018/03/13 14:42:50.000   78.256788737   16.230318293   397.6298   2  11   0.0716   0.0660   0.2183  -0.0170  -0.0084   0.0726   0.00    1.0
2018/03/13 14:42:51.000   78.256788729   16.230318292   397.6312   2  11   0.0714   0.0658   0.2170  -0.0170  -0.0085   0.0722   0.00    1.0
2018/03/13 14:42:52.000   78.256788681   16.230318341   397.6321   2  11   0.0712   0.0657   0.2157  -0.0170  -0.0086   0.0717   0.00    1.0
2018/03/13 14:42:53.000   78.256788697   16.230318465   397.6422   2  11   0.0710   0.0655   0.2145  -0.0170  -0.0087   0.0713   0.00    1.0
2018/03/13 14:42:54.000   78.256788694   16.230318598   397.6463   2  11   0.0708   0.0654   0.2132  -0.0170  -0.0088   0.0708   0.00    1.0
2018/03/13 14:42:55.000   78.256788727   16.230318620   397.6654   2  11   0.0706   0.0652   0.2120  -0.0170  -0.0089   0.0704   0.00    1.0
2018/03/13 14:42:56.000   78.256788726   16.230318532   397.6721   2  11   0.0704   0.0651   0.2108  -0.0170  -0.0089   0.0699   0.00    1.0
2018/03/13 14:42:57.000   78.256788738   16.230318526   397.6732   2  11   0.0702   0.0650   0.2095  -0.0170  -0.0090   0.0695   0.00    1.0
2018/03/13 14:42:58.000   78.256788719   16.230318529   397.6612   2  11   0.0700   0.0648   0.2083  -0.0170  -0.0091   0.0691   0.00    1.0
2018/03/13 14:42:59.000   78.256788664   16.230318539   397.6423   2  11   0.0698   0.0647   0.2071  -0.0170  -0.0091   0.0686   0.00    1.0
2018/03/13 14:43:00.000   78.256788632   16.230318582   397.6365   2  11   0.0696   0.0645   0.2059  -0.0170  -0.0092   0.0682   0.00    1.0
2018/03/13 14:43:01.000   78.256788589   16.230318541   397.6239   2  11   0.0694   0.0644   0.2047  -0.0170  -0.0093   0.0678   0.00    1.0
2018/03/13 14:43:02.000   78.256788605   16.230318560   397.6201   2  11   0.0692   0.0643   0.2035  -0.0170  -0.0094   0.0673   0.00    1.0
2018/03/13 14:43:03.000   78.256788579   16.230318663   397.6084   2  11   0.0690   0.0641   0.2023  -0.0170  -0.0094   0.0669   0.00    1.0
2018/03/13 14:43:04.000   78.256788563   16.230318719   397.6110   2  11   0.0688   0.0640   0.2011  -0.0170  -0.0095   0.0665   0.00    1.0
2018/03/13 14:43:05.000   78.256788576   16.230318942   397.6120   2  11   0.0686   0.0639   0.2000  -0.0170  -0.0094   0.0661   0.00    1.0
2018/03/13 14:43:06.000   78.256788570   16.230318957   397.6140   2  11   0.0684   0.0637   0.1989  -0.0170  -0.0094   0.0657   0.00    1.0
2018/03/13 14:43:07.000   78.256788628   16.230318941   397.6316   2  11   0.0682   0.0636   0.1978  -0.0170  -0.0094   0.0653   0.00    1.0
2018/03/13 14:43:08.000   78.256788667   16.230318872   397.6544   2  11   0.0680   0.0635   0.1967  -0.0170  -0.0093   0.0649   0.00    1.0
2018/03/13 14:43:09.000   78.256788720   16.230318896   397.6687   2  11   0.0678   0.0633   0.1956  -0.0170  -0.0093   0.0645   0.00    1.0
2018/03/13 14:43:10.000   78.256788720   16.230318851   397.6668   2  11   0.0677   0.0632   0.1945  -0.0170  -0.0092   0.0641   0.00    1.0
2018/03/13 14:43:11.000   78.256788703   16.230318852   397.6580   2  11   0.0675   0.0631   0.1934  -0.0170  -0.0092   0.0637   0.00    1.0
2018/03/13 14:43:12.000   78.256788652   16.230318797   397.6406   2  11   0.0673   0.0630   0.1923  -0.0170  -0.0091   0.0633   0.00    1.0
2018/03/13 14:43:13.000   78.256788629   16.230318812   397.6208   2  11   0.0671   0.0628   0.1912  -0.0170  -0.0091   0.0629   0.00    1.0
2018/03/13 14:43:14.000   78.256788583   16.230318774   397.6071   2  11   0.0669   0.0627   0.1902  -0.0170  -0.0091   0.0625   0.00    1.0
2018/03/13 14:43:15.000   78.256788531   16.230318764   397.6047   2  11   0.0667   0.0626   0.1891  -0.0171  -0.0090   0.0622   0.00    1.0
2018/03/13 14:43:16.000   78.256788503   16.230318670   397.6095   2  11   0.0666   0.0625   0.1880  -0.0171  -0.0090   0.0618   0.00    1.0
2018/03/13 14:43:17.000   78.256788502   16.230318652   397.6221   2  11   0.0664   0.0623   0.1870  -0.0171  -0.0089   0.0614   0.00    1.0
2018/03/13 14:43:18.000   78.256788524   16.230318705   397.6437   2  11   0.0662   0.0622   0.1859  -0.0171  -0.0089   0.0610   0.00    1.0
2018/03/13 14:43:19.000   78.256788565   16.230318805   397.6616   2  11   0.0660   0.0621   0.1849  -0.0171  -0.0089   0.0606   0.00    1.0
2018/03/13 14:43:20.000   78.256788597   16.230318881   397.6711   2  11   0.0658   0.0620   0.1838  -0.0171  -0.0088   0.0602   0.00    1.0
2018/03/13 14:43:21.000   78.256788643   16.230318941   397.6798   2  11   0.0657   0.0618   0.1828  -0.0171  -0.0088   0.0599   0.00    1.0
2018/03/13 14:43:22.000   78.256788673   16.230318853   397.6872   2  11   0.0655   0.0617   0.1818  -0.0171  -0.0087   0.0595   0.00    1.0
2018/03/13 14:43:23.000   78.256788713   16.230318759   397.6957   2  11   0.0653   0.0616   0.1807  -0.0171  -0.0087   0.0591   0.00    1.0
2018/03/13 14:43:24.000   78.256788729   16.230318623   397.6922   2  11   0.0651   0.0615   0.1797  -0.0171  -0.0087   0.0587   0.00    1.0
2018/03/13 14:43:25.000   78.256788689   16.230318646   397.6825   2  11   0.0650   0.0613   0.1787  -0.0171  -0.0086   0.0584   0.00    1.0
2018/03/13 14:43:26.000   78.256788623   16.230318660   397.6788   2  11   0.0648   0.0612   0.1777  -0.0171  -0.0086   0.0580   0.00    1.0
2018/03/13 14:43:27.000   78.256788588   16.230318795   397.6801   2  11   0.0646   0.0611   0.1767  -0.0171  -0.0085   0.0576   0.00    1.0
2018/03/13 14:43:28.000   78.256788580   16.230318818   397.6900   2  11   0.0644   0.0610   0.1757  -0.0171  -0.0085   0.0573   0.00    1.0
2018/03/13 14:43:29.000   78.256788602   16.230318908   397.6975   2  11   0.0643   0.0608   0.1747  -0.0172  -0.0085   0.0569   0.00    1.0
2018/03/13 14:43:30.000   78.256788630   16.230318944   397.7083   2  11   0.0641   0.0607   0.1737  -0.0172  -0.0084   0.0565   0.00    1.0
2018/03/13 14:43:31.000   78.256788671   16.230318961   397.7192   2  11   0.0639   0.0606   0.1727  -0.0172  -0.0084   0.0562   0.00    1.0
2018/03/13 14:43:32.000   78.256788690   16.230318898   397.7260   2  11   0.0638   0.0605   0.1717  -0.0172  -0.0084   0.0558   0.00    1.0
2018/03/13 14:43:33.000   78.256788702   16.230318895   397.7222   2  11   0.0636   0.0604   0.1708  -0.0172  -0.0083   0.0555   0.00    1.0
2018/03/13 14:43:34.000   78.256788701   16.230318996   397.7215   2  11   0.0634   0.0602   0.1698  -0.0172  -0.0083   0.0551   0.00    1.0
2018/03/13 14:43:35.000   78.256788699   16.230319017   397.7186   2  11   0.0632   0.0601   0.1688  -0.0172  -0.0083   0.0548   0.00    1.0
2018/03/13 14:43:36.000   78.256788683   16.230318958   397.7119   2  11   0.0631   0.0600   0.1679  -0.0172  -0.0082   0.0544   0.00    1.1
2018/03/13 14:43:37.000   78.256788684   16.230318908   397.7065   2  11   0.0629   0.0599   0.1669  -0.0172  -0.0082   0.0541   0.00    1.1
2018/03/13 14:43:38.000   78.256788662   16.230318887   397.6996   2  11   0.0627   0.0598   0.1660  -0.0172  -0.0082   0.0537   0.00    1.1
2018/03/13 14:43:39.000   78.256788657   16.230318946   397.6939   2  11   0.0626   0.0597   0.1650  -0.0172  -0.0082   0.0534   0.00    1.1
2018/03/13 14:43:40.000   78.256788650   16.230319026   397.6899   2  11   0.0624   0.0595   0.1641  -0.0172  -0.0081   0.0530   0.00    1.1
2018/03/13 14:43:41.000   78.256788620   16.230319112   397.6906   2  11   0.0622   0.0594   0.1632  -0.0173  -0.0081   0.0527   0.00    1.1
2018/03/13 14:43:42.000   78.256788586   16.230319158   397.6907   2  11   0.0621   0.0593   0.1623  -0.0173  -0.0081   0.0524   0.00    1.0
2018/03/13 14:43:43.000   78.256788584   16.230319283   397.6977   2  11   0.0619   0.0592   0.1613  -0.0173  -0.0080   0.0520   0.00    1.0
2018/03/13 14:43:44.000   78.256788619   16.230319336   397.7058   2  11   0.0618   0.0591   0.1604  -0.0173  -0.0080   0.0517   0.00    1.0
2018/03/13 14:43:45.000   78.256788647   16.230319368   397.7085   2  11   0.0616   0.0590   0.1595  -0.0173  -0.0080   0.0514   0.00    1.0
2018/03/13 14:43:46.000   78.256788654   16.230319432   397.7057   2  11   0.0614   0.0588   0.1586  -0.0173  -0.0080   0.0510   0.00    1.0
2018/03/13 14:43:47.000   78.256788640   16.230319429   397.6972   2  11   0.0613   0.0587   0.1577  -0.0173  -0.0079   0.0507   0.00    1.1
2018/03/13 14:43:48.000   78.256788624   16.230319454   397.6852   2  11   0.0611   0.0586   0.1568  -0.0173  -0.0079   0.0504   0.00    1.1
2018/03/13 14:43:49.000   78.256788596   16.230319508   397.6746   2  11   0.0609   0.0585   0.1559  -0.0173  -0.0079   0.0500   0.00    1.1
2018/03/13 14:43:50.000   78.256788574   16.230319727   397.6691   2  11   0.0608   0.0584   0.1551  -0.0173  -0.0078   0.0497   0.00    1.1
2018/03/13 14:43:51.000   78.256788591   16.230319769   397.6690   2  11   0.0606   0.0583   0.1542  -0.0173  -0.0078   0.0494   0.00    1.1
2018/03/13 14:43:52.000   78.256788624   16.230319808   397.6796   2  11   0.0605   0.0581   0.1533  -0.0173  -0.0078   0.0491   0.00    1.1
2018/03/13 14:43:53.000   78.256788649   16.230319759   397.6920   2  11   0.0603   0.0580   0.1525  -0.0174  -0.0078   0.0488   0.00    1.1
2018/03/13 14:43:54.000   78.256788691   16.230319870   397.6990   2  11   0.0601   0.0579   0.1516  -0.0174  -0.0077   0.0485   0.00    1.1
2018/03/13 14:43:55.000   78.256788694   16.230319906   397.6968   2  11   0.0600   0.0578   0.1508  -0.0174  -0.0077   0.0481   0.00    1.2
2018/03/13 14:43:56.000   78.256788717   16.230319951   397.6948   2  11   0.0598   0.0577   0.1499  -0.0174  -0.0077   0.0478   0.00    1.2
2018/03/13 14:43:57.000   78.256788726   16.230320024   397.6900   2  11   0.0597   0.0576   0.1491  -0.0174  -0.0077   0.0475   0.00    1.2
2018/03/13 14:43:58.000   78.256788733   16.230320132   397.6871   2  11   0.0595   0.0575   0.1482  -0.0174  -0.0077   0.0472   0.00    1.2
2018/03/13 14:43:59.000   78.256788741   16.230320184   397.6907   2  11   0.0594   0.0574   0.1474  -0.0174  -0.0076   0.0469   0.00    1.2
2018/03/13 14:44:00.000   78.256788761   16.230320188   397.6971   2  11   0.0592   0.0572   0.1466  -0.0174  -0.0076   0.0466   0.00    1.2
2018/03/13 14:44:01.000   78.256788772   16.230320214   397.7066   2  11   0.0590   0.0571   0.1458  -0.0174  -0.0076   0.0463   0.00    1.2
2018/03/13 14:44:02.000   78.256788799   16.230320234   397.7162   2  11   0.0589   0.0570   0.1449  -0.0174  -0.0076   0.0460   0.00    1.2
2018/03/13 14:44:03.000   78.256788817   16.230320309   397.7212   2  11   0.0587   0.0569   0.1441  -0.0174  -0.0075   0.0457   0.00    1.2
2018/03/13 14:44:04.000   78.256788849   16.230320379   397.7189   2  11   0.0586   0.0568   0.1433  -0.0174  -0.0075   0.0454   0.00    1.2
2018/03/13 14:44:05.000   78.256788854   16.230320521   397.7123   2  11   0.0584   0.0567   0.1425  -0.0174  -0.0075   0.0451   0.00    1.2
2018/03/13 14:44:06.000   78.256788855   16.230320575   397.7090   2  11   0.0583   0.0566   0.1418  -0.0175  -0.0075   0.0449   0.00    1.2
2018/03/13 14:44:07.000   78.256788867   16.230320478   397.7074   2  11   0.0581   0.0565   0.1410  -0.0175  -0.0075   0.0446   0.00    1.2
2018/03/13 14:44:08.000   78.256788889   16.230320339   397.7085   2  11   0.0580   0.0563   0.1402  -0.0175  -0.0074   0.0443   0.00    1.2
2018/03/13 14:44:09.000   78.256788920   16.230320271   397.7197   2  11   0.0578   0.0562   0.1394  -0.0175  -0.0074   0.0440   0.00    1.2
2018/03/13 14:44:10.000   78.256788957   16.230320247   397.7364   2  11   0.0577   0.0561   0.1386  -0.0175  -0.0074   0.0437   0.00    1.2
2018/03/13 14:44:11.000   78.256788988   16.230320111   397.7494   2  11   0.0575   0.0560   0.1379  -0.0175  -0.0074   0.0434   0.00    1.2
2018/03/13 14:44:12.000   78.256789020   16.230320089   397.7621   2  11   0.0574   0.0559   0.1371  -0.0175  -0.0074   0.0432   0.00    1.2
2018/03/13 14:44:13.000   78.256789065   16.230320107   397.7708   2  11   0.0572   0.0558   0.1364  -0.0175  -0.0073   0.0429   0.00    1.2
2018/03/13 14:44:14.000   78.256789072   16.230320177   397.7725   2  11   0.0571   0.0557   0.1356  -0.0175  -0.0073   0.0426   0.00    1.2
2018/03/13 14:44:15.000   78.256789071   16.230320199   397.7712   2  11   0.0569   0.0556   0.1349  -0.0175  -0.0073   0.0423   0.00    1.2
2018/03/13 14:44:16.000   78.256789071   16.230320184   397.7695   2  11   0.0568   0.0555   0.1341  -0.0175  -0.0073   0.0421   0.00    1.2
2018/03/13 14:44:17.000   78.256789061   16.230320077   397.7695   2  11   0.0566   0.0553   0.1334  -0.0175  -0.0073   0.0418   0.00    1.1
2018/03/13 14:44:18.000   78.256789066   16.230319954   397.7812   2  11   0.0565   0.0552   0.1327  -0.0175  -0.0072   0.0415   0.00    1.1
2018/03/13 14:44:19.000   78.256789078   16.230319941   397.7923   2  11   0.0563   0.0551   0.1320  -0.0175  -0.0072   0.0413   0.00    1.1
2018/03/13 14:44:20.000   78.256789102   16.230319909   397.8003   2  11   0.0562   0.0550   0.1312  -0.0175  -0.0072   0.0410   0.00    1.1
2018/03/13 14:44:21.000   78.256789105   16.230319820   397.8085   2  11   0.0560   0.0549   0.1305  -0.0176  -0.0072   0.0408   0.00    1.1
2018/03/13 14:44:22.000   78.256789102   16.230319683   397.8152   2  11   0.0559   0.0548   0.1298  -0.0176  -0.0072   0.0405   0.00    1.1
2018/03/13 14:44:23.000   78.256789118   16.230319597   397.8228   2  11   0.0557   0.0547   0.1291  -0.0176  -0.0072   0.0402   0.00    1.1
2018/03/13 14:44:24.000   78.256789134   16.230319559   397.8305   2  11   0.0556   0.0546   0.1284  -0.0176  -0.0071   0.0400   0.00    1.1
2018/03/13 14:44:25.000   78.256789163   16.230319451   397.8412   2  11   0.0554   0.0545   0.1277  -0.0176  -0.0071   0.0397   0.00    1.1
2018/03/13 14:44:26.000   78.256789188   16.230319346   397.8475   2  11   0.0553   0.0544   0.1270  -0.0176  -0.0071   0.0395   0.00    1.1
2018/03/13 14:44:27.000   78.256789202   16.230319259   397.8510   2  11   0.0552   0.0543   0.1264  -0.0176  -0.0071   0.0392   0.00    1.1
2018/03/13 14:44:28.000   78.256789203   16.230319250   397.8526   2  11   0.0550   0.0541   0.1257  -0.0176  -0.0071   0.0390   0.00    1.1
2018/03/13 14:44:29.000   78.256789198   16.230319173   397.8516   2  11   0.0549   0.0540   0.1250  -0.0176  -0.0071   0.0387   0.00    1.1
2018/03/13 14:44:30.000   78.256789187   16.230319218   397.8504   2  11   0.0547   0.0539   0.1243  -0.0176  -0.0070   0.0385   0.00    1.1
2018/03/13 14:44:31.000   78.256789173   16.230319219   397.8517   2  11   0.0546   0.0538   0.1237  -0.0176  -0.0070   0.0383   0.00    1.1
2018/03/13 14:44:32.000   78.256789158   16.230319270   397.8553   2  11   0.0544   0.0537   0.1230  -0.0176  -0.0070   0.0380   0.00    1.1
2018/03/13 14:44:33.000   78.256789157   16.230319192   397.8626   2  11   0.0543   0.0536   0.1224  -0.0176  -0.0070   0.0378   0.00    1.1
2018/03/13 14:44:34.000   78.256789183   16.230319121   397.8667   2  11   0.0542   0.0535   0.1217  -0.0176  -0.0070   0.0375   0.00    1.1
2018/03/13 14:44:35.000   78.256789194   16.230319009   397.8687   2  11   0.0540   0.0534   0.1211  -0.0176  -0.0070   0.0373   0.00    1.1
2018/03/13 14:44:36.000   78.256789217   16.230318960   397.8742   2  11   0.0539   0.0533   0.1204  -0.0176  -0.0069   0.0371   0.00    1.0
2018/03/13 14:44:37.000   78.256789228   16.230318873   397.8796   2  11   0.0537   0.0532   0.1198  -0.0176  -0.0069   0.0369   0.00    1.0
2018/03/13 14:44:38.000   78.256789230   16.230318942   397.8881   2  11   0.0536   0.0531   0.1192  -0.0176  -0.0069   0.0366   0.00    1.0
2018/03/13 14:44:39.000   78.256789249   16.230318952   397.8928   2  11   0.0535   0.0530   0.1185  -0.0176  -0.0069   0.0364   0.00    1.0
2018/03/13 14:44:40.000   78.256789262   16.230319046   397.8924   2  11   0.0533   0.0529   0.1179  -0.0176  -0.0069   0.0362   0.00    1.0
2018/03/13 14:44:41.000   78.256789254   16.230318994   397.8866   2  11   0.0532   0.0528   0.1173  -0.0176  -0.0069   0.0359   0.00    1.0
2018/03/13 14:44:42.000   78.256789227   16.230319010   397.8785   2  11   0.0530   0.0526   0.1167  -0.0176  -0.0068   0.0357   0.00    1.0
2018/03/13 14:44:43.000   78.256789203   16.230318952   397.8747   2  11   0.0529   0.0525   0.1161  -0.0176  -0.0068   0.0355   0.00    1.0
2018/03/13 14:44:44.000   78.256789187   16.230318890   397.8693   2  11   0.0528   0.0524   0.1155  -0.0176  -0.0068   0.0353   0.00    1.0
2018/03/13 14:44:45.000   78.256789193   16.230318781   397.8676   2  11   0.0526   0.0523   0.1149  -0.0176  -0.0068   0.0351   0.00    1.0
2018/03/13 14:44:46.000   78.256789229   16.230318720   397.8695   2  11   0.0525   0.0522   0.1143  -0.0176  -0.0068   0.0348   0.00    1.0
2018/03/13 14:44:47.000   78.256789247   16.230318617   397.8700   2  11   0.0524   0.0521   0.1137  -0.0176  -0.0068   0.0346   0.00    1.0
2018/03/13 14:44:48.000   78.256789241   16.230318634   397.8722   2  11   0.0522   0.0520   0.1131  -0.0176  -0.0068   0.0344   0.00    1.0
2018/03/13 14:44:49.000   78.256789222   16.230318681   397.8736   2  11   0.0521   0.0519   0.1125  -0.0176  -0.0067   0.0342   0.00    1.0
2018/03/13 14:44:50.000   78.256789225   16.230318771   397.8735   2  11   0.0520   0.0518   0.1119  -0.0176  -0.0067   0.0340   0.00    1.0
2018/03/13 14:44:51.000   78.256789233   16.230318827   397.8721   2  11   0.0518   0.0517   0.1114  -0.0176  -0.0067   0.0338   0.00    1.0
2018/03/13 14:44:52.000   78.256789248   16.230318780   397.8691   2  11   0.0517   0.0516   0.1108  -0.0176  -0.0067   0.0336   0.00    1.0
2018/03/13 14:44:53.000   78.256789251   16.230318672   397.8670   2  11   0.0516   0.0515   0.1102  -0.0176  -0.0067   0.0334   0.00    1.0
2018/03/13 14:44:54.000   78.256789258   16.230318497   397.8642   2  11   0.0514   0.0514   0.1097  -0.0176  -0.0067   0.0332   0.00    1.0
2018/03/13 14:44:55.000   78.256789244   16.230318345   397.8625   2  11   0.0513   0.0513   0.1091  -0.0176  -0.0067   0.0330   0.00    1.0
2018/03/13 14:44:56.000   78.256789232   16.230318348   397.8603   2  11   0.0512   0.0512   0.1086  -0.0176  -0.0066   0.0328   0.00    1.0
2018/03/13 14:44:57.000   78.256789220   16.230318341   397.8626   2  11   0.0510   0.0511   0.1080  -0.0176  -0.0066   0.0326   0.00    1.0
2018/03/13 14:44:58.000   78.256789217   16.230318382   397.8633   2  11   0.0509   0.0510   0.1075  -0.0176  -0.0066   0.0324   0.00    1.0
2018/03/13 14:44:59.000   78.256789232   16.230318401   397.8670   2  11   0.0508   0.0509   0.1069  -0.0176  -0.0066   0.0322   0.00    1.0
2018/03/13 14:45:00.000   78.256789238   16.230318408   397.8708   2  11   0.0506   0.0508   0.1064  -0.0176  -0.0066   0.0320   0.00    1.0
2018/03/13 14:45:01.000   78.256789246   16.230318405   397.8739   2  11   0.0505   0.0507   0.1059  -0.0176  -0.0066   0.0318   0.00    1.0
2018/03/13 14:45:02.000   78.256789251   16.230318395   397.8754   2  11   0.0504   0.0506   0.1053  -0.0176  -0.0066   0.0316   0.00    1.0
2018/03/13 14:45:03.000   78.256789251   16.230318307   397.8746   2  11   0.0502   0.0504   0.1048  -0.0176  -0.0065   0.0314   0.00    1.1
2018/03/13 14:45:04.000   78.256789249   16.230318242   397.8714   2  11   0.0501   0.0503   0.1043  -0.0176  -0.0065   0.0312   0.00    1.1
2018/03/13 14:45:05.000   78.256789245   16.230318051   397.8684   2  11   0.0500   0.0502   0.1038  -0.0176  -0.0065   0.0310   0.00    1.1
2018/03/13 14:45:06.000   78.256789242   16.230317958   397.8655   2  11   0.0499   0.0501   0.1032  -0.0176  -0.0065   0.0309   0.00    1.1
2018/03/13 14:45:07.000   78.256789237   16.230317893   397.8666   2  11   0.0497   0.0500   0.1027  -0.0176  -0.0065   0.0307   0.00    1.1
2018/03/13 14:45:08.000   78.256789227   16.230317895   397.8696   2  11   0.0496   0.0499   0.1022  -0.0176  -0.0065   0.0305   0.00    1.1
2018/03/13 14:45:09.000   78.256789239   16.230317834   397.8764   2  11   0.0495   0.0498   0.1017  -0.0176  -0.0065   0.0303   0.00    1.1
2018/03/13 14:45:10.000   78.256789253   16.230317778   397.8851   2  11   0.0493   0.0497   0.1012  -0.0176  -0.0065   0.0301   0.00    1.1
2018/03/13 14:45:11.000   78.256789277   16.230317637   397.8881   2  11   0.0492   0.0496   0.1007  -0.0176  -0.0064   0.0300   0.00    1.1
2018/03/13 14:45:12.000   78.256789295   16.230317544   397.8876   2  11   0.0491   0.0495   0.1002  -0.0176  -0.0064   0.0298   0.00    1.0
2018/03/13 14:45:13.000   78.256789300   16.230317436   397.8844   2  11   0.0490   0.0494   0.0998  -0.0176  -0.0064   0.0296   0.00    1.0
2018/03/13 14:45:14.000   78.256789291   16.230317316   397.8801   2  11   0.0488   0.0493   0.0993  -0.0176  -0.0064   0.0294   0.00    1.0
2018/03/13 14:45:15.000   78.256789270   16.230317184   397.8730   2  11   0.0487   0.0492   0.0988  -0.0176  -0.0064   0.0293   0.00    1.0
2018/03/13 14:45:16.000   78.256789242   16.230317101   397.8676   2  11   0.0486   0.0491   0.0983  -0.0176  -0.0064   0.0291   0.00    1.1
2018/03/13 14:45:17.000   78.256789212   16.230317070   397.8633   2  11   0.0485   0.0490   0.0978  -0.0176  -0.0064   0.0289   0.00    1.1
2018/03/13 14:45:18.000   78.256789210   16.230317090   397.8602   2  11   0.0483   0.0489   0.0974  -0.0176  -0.0063   0.0287   0.00    1.1
2018/03/13 14:45:19.000   78.256789228   16.230317038   397.8587   2  11   0.0482   0.0488   0.0969  -0.0176  -0.0063   0.0286   0.00    1.0
2018/03/13 14:45:20.000   78.256789250   16.230316942   397.8584   2  11   0.0481   0.0487   0.0964  -0.0176  -0.0063   0.0284   0.00    1.0
2018/03/13 14:45:21.000   78.256789262   16.230316849   397.8596   2  11   0.0480   0.0486   0.0960  -0.0176  -0.0063   0.0282   0.00    1.0
2018/03/13 14:45:22.000   78.256789278   16.230316710   397.8627   2  11   0.0479   0.0485   0.0955  -0.0176  -0.0063   0.0281   0.00    1.0
2018/03/13 14:45:23.000   78.256789279   16.230316581   397.8683   2  11   0.0477   0.0484   0.0951  -0.0176  -0.0063   0.0279   0.00    1.0
2018/03/13 14:45:24.000   78.256789269   16.230316462   397.8673   2  11   0.0476   0.0483   0.0946  -0.0176  -0.0063   0.0278   0.00    1.0
2018/03/13 14:45:25.000   78.256789264   16.230316407   397.8679   2  11   0.0475   0.0482   0.0942  -0.0176  -0.0063   0.0276   0.00    1.0
2018/03/13 14:45:26.000   78.256789259   16.230316343   397.8648   2  11   0.0474   0.0481   0.0937  -0.0176  -0.0062   0.0274   0.00    1.0
2018/03/13 14:45:27.000   78.256789269   16.230316271   397.8586   2  11   0.0472   0.0480   0.0933  -0.0175  -0.0062   0.0273   0.00    1.0
2018/03/13 14:45:28.000   78.256789276   16.230316249   397.8526   2  11   0.0471   0.0479   0.0928  -0.0175  -0.0062   0.0271   0.00    1.0
2018/03/13 14:45:29.000   78.256789282   16.230316217   397.8481   2  11   0.0470   0.0478   0.0924  -0.0175  -0.0062   0.0270   0.00    1.0
2018/03/13 14:45:30.000   78.256789278   16.230316169   397.8441   2  11   0.0469   0.0477   0.0920  -0.0175  -0.0062   0.0268   0.00    1.0
2018/03/13 14:45:31.000   78.256789260   16.230316160   397.8416   2  11   0.0468   0.0476   0.0915  -0.0175  -0.0062   0.0267   0.00    1.0
2018/03/13 14:45:32.000   78.256789253   16.230316154   397.8418   2  11   0.0467   0.0475   0.0911  -0.0175  -0.0062   0.0265   0.00    1.0
2018/03/13 14:45:33.000   78.256789253   16.230316129   397.8433   2  11   0.0465   0.0474   0.0907  -0.0175  -0.0062   0.0264   0.00    1.0
2018/03/13 14:45:34.000   78.256789260   16.230316074   397.8467   2  11   0.0464   0.0473   0.0903  -0.0175  -0.0061   0.0262   0.00    1.0
2018/03/13 14:45:35.000   78.256789269   16.230316015   397.8479   2  11   0.0463   0.0472   0.0898  -0.0175  -0.0061   0.0261   0.00    1.0
2018/03/13 14:45:36.000   78.256789267   16.230316013   397.8491   2  11   0.0462   0.0471   0.0894  -0.0175  -0.0061   0.0259   0.00    1.0
2018/03/13 14:45:37.000   78.256789267   16.230315970   397.8492   2  11   0.0461   0.0470   0.0890  -0.0175  -0.0061   0.0258   0.00    1.0
2018/03/13 14:45:38.000   78.256789280   16.230315983   397.8442   2  11   0.0459   0.0469   0.0886  -0.0175  -0.0061   0.0256   0.00    1.0
2018/03/13 14:45:39.000   78.256789282   16.230315946   397.8378   2  11   0.0458   0.0468   0.0882  -0.0175  -0.0061   0.0255   0.00    1.0
2018/03/13 14:45:40.000   78.256789282   16.230315952   397.8320   2  11   0.0457   0.0467   0.0878  -0.0175  -0.0061   0.0253   0.00    1.0
2018/03/13 14:45:41.000   78.256789275   16.230315931   397.8260   2  11   0.0456   0.0467   0.0874  -0.0174  -0.0061   0.0252   0.00    1.0
2018/03/13 14:45:42.000   78.256789259   16.230315950   397.8209   2  11   0.0455   0.0466   0.0870  -0.0174  -0.0060   0.0251   0.00    1.0
2018/03/13 14:45:43.000   78.256789253   16.230316023   397.8192   2  11   0.0454   0.0465   0.0866  -0.0174  -0.0060   0.0249   0.00    1.0
2018/03/13 14:45:44.000   78.256789238   16.230316080   397.8185   2  11   0.0453   0.0464   0.0862  -0.0174  -0.0060   0.0248   0.00    1.0
2018/03/13 14:45:45.000   78.256789240   16.230316141   397.8189   2  11   0.0451   0.0463   0.0858  -0.0174  -0.0060   0.0246   0.00    1.0
2018/03/13 14:45:46.000   78.256789260   16.230316105   397.8220   2  11   0.0450   0.0462   0.0854  -0.0174  -0.0060   0.0245   0.00    1.0
2018/03/13 14:45:47.000   78.256789288   16.230316089   397.8230   2  11   0.0449   0.0461   0.0851  -0.0174  -0.0060   0.0244   0.00    1.0
2018/03/13 14:45:48.000   78.256789315   16.230316012   397.8250   2  11   0.0448   0.0460   0.0847  -0.0174  -0.0060   0.0242   0.00    1.0
2018/03/13 14:45:49.000   78.256789322   16.230315945   397.8227   2  11   0.0447   0.0459   0.0843  -0.0174  -0.0060   0.0241   0.00    1.0
2018/03/13 14:45:50.000   78.256789324   16.230315880   397.8198   2  11   0.0446   0.0458   0.0839  -0.0174  -0.0059   0.0240   0.00    1.0
2018/03/13 14:45:51.000   78.256789310   16.230315891   397.8140   2  11   0.0445   0.0457   0.0836  -0.0174  -0.0059   0.0238   0.00    1.0
2018/03/13 14:45:52.000   78.256789305   16.230315873   397.8119   2  11   0.0444   0.0456   0.0832  -0.0173  -0.0059   0.0237   0.00    1.0
2018/03/13 14:45:53.000   78.256789290   16.230315896   397.8115   2  11   0.0442   0.0455   0.0828  -0.0173  -0.0059   0.0236   0.00    1.0
2018/03/13 14:45:54.000   78.256789284   16.230315939   397.8111   2  11   0.0441   0.0454   0.0825  -0.0173  -0.0059   0.0234   0.00    1.0
2018/03/13 14:45:55.000   78.256789276   16.230315920   397.8111   2  11   0.0440   0.0453   0.0821  -0.0173  -0.0059   0.0233   0.00    1.0
2018/03/13 14:45:56.000   78.256789279   16.230315858   397.8135   2  11   0.0439   0.0452   0.0817  -0.0173  -0.0059   0.0232   0.00    1.0
2018/03/13 14:45:57.000   78.256789286   16.230315795   397.8151   2  11   0.0438   0.0451   0.0814  -0.0173  -0.0059   0.0231   0.00    1.0
2018/03/13 14:45:58.000   78.256789291   16.230315677   397.8133   2  11   0.0437   0.0450   0.0810  -0.0173  -0.0058   0.0229   0.00    1.0
2018/03/13 14:45:59.000   78.256789293   16.230315500   397.8112   2  11   0.0436   0.0449   0.0807  -0.0173  -0.0058   0.0228   0.00    1.0
2018/03/13 14:46:00.000   78.256789293   16.230315326   397.8115   2  11   0.0435   0.0448   0.0803  -0.0173  -0.0058   0.0227   0.00    1.0
2018/03/13 14:46:01.000   78.256789303   16.230315259   397.8127   2  11   0.0434   0.0448   0.0800  -0.0173  -0.0058   0.0226   0.00    1.0
2018/03/13 14:46:02.000   78.256789311   16.230315110   397.8178   2  11   0.0433   0.0447   0.0796  -0.0172  -0.0058   0.0224   0.00    1.0
2018/03/13 14:46:03.000   78.256789314   16.230315013   397.8219   2  11   0.0431   0.0446   0.0793  -0.0172  -0.0058   0.0223   0.00    1.0
2018/03/13 14:46:04.000   78.256789315   16.230314921   397.8233   2  11   0.0430   0.0445   0.0789  -0.0172  -0.0058   0.0222   0.00    1.0
2018/03/13 14:46:05.000   78.256789321   16.230314863   397.8238   2  11   0.0429   0.0444   0.0786  -0.0172  -0.0058   0.0221   0.00    1.0
2018/03/13 14:46:06.000   78.256789314   16.230314757   397.8215   2  11   0.0428   0.0443   0.0783  -0.0172  -0.0058   0.0220   0.00    1.0
2018/03/13 14:46:07.000   78.256789305   16.230314721   397.8191   2  11   0.0427   0.0442   0.0779  -0.0172  -0.0057   0.0219   0.00    1.0
2018/03/13 14:46:08.000   78.256789292   16.230314691   397.8181   2  11   0.0426   0.0441   0.0776  -0.0172  -0.0057   0.0217   0.00    1.0
2018/03/13 14:46:09.000   78.256789286   16.230314667   397.8177   2  11   0.0425   0.0440   0.0773  -0.0172  -0.0057   0.0216   0.00    1.0
2018/03/13 14:46:10.000   78.256789288   16.230314626   397.8161   2  11   0.0424   0.0439   0.0769  -0.0171  -0.0057   0.0215   0.00    1.0
2018/03/13 14:46:11.000   78.256789293   16.230314581   397.8155   2  11   0.0423   0.0438   0.0766  -0.0171  -0.0057   0.0214   0.00    1.0
2018/03/13 14:46:12.000   78.256789291   16.230314588   397.8163   2  11   0.0422   0.0437   0.0763  -0.0171  -0.0057   0.0213   0.00    1.0
2018/03/13 14:46:13.000   78.256789296   16.230314558   397.8159   2  11   0.0421   0.0436   0.0760  -0.0171  -0.0057   0.0212   0.00    1.0
2018/03/13 14:46:14.000   78.256789295   16.230314523   397.8158   2  11   0.0420   0.0436   0.0757  -0.0171  -0.0057   0.0211   0.00    1.0
2018/03/13 14:46:15.000   78.256789287   16.230314468   397.8132   2  11   0.0419   0.0435   0.0753  -0.0171  -0.0056   0.0210   0.00    1.0
2018/03/13 14:46:16.000   78.256789271   16.230314501   397.8085   2  11   0.0418   0.0434   0.0750  -0.0171  -0.0056   0.0208   0.00    1.0
2018/03/13 14:46:17.000   78.256789256   16.230314568   397.8026   2  11   0.0417   0.0433   0.0747  -0.0171  -0.0056   0.0207   0.00    1.0
2018/03/13 14:46:18.000   78.256789242   16.230314636   397.7977   2  11   0.0416   0.0432   0.0744  -0.0170  -0.0056   0.0206   0.00    1.0
2018/03/13 14:46:19.000   78.256789248   16.230314657   397.7962   2  11   0.0415   0.0431   0.0741  -0.0170  -0.0056   0.0205   0.00    1.0
2018/03/13 14:46:20.000   78.256789258   16.230314629   397.7956   2  11   0.0414   0.0430   0.0738  -0.0170  -0.0056   0.0204   0.00    1.0
2018/03/13 14:46:21.000   78.256789270   16.230314632   397.7952   2  11   0.0413   0.0429   0.0735  -0.0170  -0.0056   0.0203   0.00    1.0
2018/03/13 14:46:22.000   78.256789282   16.230314587   397.7929   2  10   0.0412   0.0428   0.0732  -0.0170  -0.0055   0.0202   0.00    1.0
2018/03/13 14:46:23.000   78.256789284   16.230314628   397.7897   2  10   0.0411   0.0427   0.0729  -0.0170  -0.0055   0.0201   0.00    1.0
2018/03/13 14:46:24.000   78.256789268   16.230314646   397.7834   2  10   0.0410   0.0427   0.0726  -0.0170  -0.0054   0.0200   0.00    1.0
2018/03/13 14:46:25.000   78.256789250   16.230314729   397.7772   2  10   0.0409   0.0426   0.0723  -0.0169  -0.0054   0.0199   0.00    1.0
2018/03/13 14:46:26.000   78.256789231   16.230314762   397.7704   2  10   0.0408   0.0425   0.0720  -0.0169  -0.0054   0.0198   0.00    1.0
2018/03/13 14:46:27.000   78.256789220   16.230314856   397.7661   2  10   0.0407   0.0424   0.0718  -0.0169  -0.0053   0.0197   0.00    1.1
2018/03/13 14:46:28.000   78.256789212   16.230314942   397.7603   2  10   0.0406   0.0423   0.0715  -0.0169  -0.0053   0.0196   0.00    1.1
2018/03/13 14:46:29.000   78.256789206   16.230315004   397.7557   2  10   0.0405   0.0422   0.0712  -0.0169  -0.0052   0.0195   0.00    1.1
2018/03/13 14:46:30.000   78.256789204   16.230315073   397.7518   2  10   0.0404   0.0421   0.0709  -0.0169  -0.0052   0.0194   0.00    1.1
2018/03/13 14:46:31.000   78.256789203   16.230315117   397.7463   2  10   0.0403   0.0420   0.0706  -0.0169  -0.0052   0.0193   0.00    1.1
2018/03/13 14:46:32.000   78.256789193   16.230315121   397.7405   2  10   0.0402   0.0420   0.0704  -0.0169  -0.0051   0.0192   0.00    1.1
2018/03/13 14:46:33.000   78.256789183   16.230315150   397.7366   2  10   0.0401   0.0419   0.0701  -0.0168  -0.0051   0.0191   0.00    1.1
2018/03/13 14:46:34.000   78.256789170   16.230315206   397.7335   2  10   0.0400   0.0418   0.0698  -0.0168  -0.0050   0.0190   0.00    1.1
2018/03/13 14:46:35.000   78.256789172   16.230315285   397.7326   2  10   0.0399   0.0417   0.0695  -0.0168  -0.0050   0.0189   0.00    1.0
2018/03/13 14:46:36.000   78.256789182   16.230315364   397.7321   2  10   0.0398   0.0416   0.0693  -0.0168  -0.0050   0.0188   0.00    1.0
2018/03/13 14:46:37.000   78.256789196   16.230315452   397.7300   2  10   0.0397   0.0415   0.0690  -0.0168  -0.0049   0.0187   0.00    1.0
2018/03/13 14:46:38.000   78.256789212   16.230315477   397.7266   2  10   0.0396   0.0414   0.0687  -0.0168  -0.0049   0.0186   0.00    1.0
2018/03/13 14:46:39.000   78.256789215   16.230315503   397.7235   2  10   0.0395   0.0414   0.0685  -0.0168  -0.0048   0.0185   0.00    1.0
2018/03/13 14:46:40.000   78.256789211   16.230315559   397.7198   2  10   0.0394   0.0413   0.0682  -0.0167  -0.0048   0.0184   0.00    1.0
2018/03/13 14:46:41.000   78.256789201   16.230315701   397.7157   2  10   0.0393   0.0412   0.0680  -0.0167  -0.0048   0.0183   0.00    1.0
2018/03/13 14:46:42.000   78.256789194   16.230315767   397.7110   2  10   0.0392   0.0411   0.0677  -0.0167  -0.0047   0.0182   0.00    1.0
2018/03/13 14:46:43.000   78.256789173   16.230315824   397.7040   2  10   0.0391   0.0410   0.0674  -0.0167  -0.0047   0.0181   0.00    1.0
2018/03/13 14:46:44.000   78.256789152   16.230315846   397.6949   2  10   0.0390   0.0409   0.0672  -0.0167  -0.0047   0.0180   0.00    1.0
2018/03/13 14:46:45.000   78.256789148   16.230315864   397.6881   2  10   0.0389   0.0408   0.0669  -0.0167  -0.0046   0.0179   0.00    1.0
2018/03/13 14:46:46.000   78.256789141   16.230315910   397.6841   2  10   0.0388   0.0408   0.0667  -0.0166  -0.0046   0.0178   0.00    1.0
2018/03/13 14:46:47.000   78.256789138   16.230315957   397.6810   2  10   0.0388   0.0407   0.0664  -0.0166  -0.0045   0.0177   0.00    1.0
2018/03/13 14:46:48.000   78.256789139   16.230315986   397.6786   2  10   0.0387   0.0406   0.0662  -0.0166  -0.0045   0.0176   0.00    1.0
2018/03/13 14:46:49.000   78.256789136   16.230316000   397.6757   2  10   0.0386   0.0405   0.0659  -0.0166  -0.0045   0.0176   0.00    1.0
2018/03/13 14:46:50.000   78.256789130   16.230315965   397.6736   2  10   0.0385   0.0404   0.0657  -0.0166  -0.0044   0.0175   0.00    1.0
2018/03/13 14:46:51.000   78.256789136   16.230315958   397.6709   2  10   0.0384   0.0403   0.0655  -0.0166  -0.0044   0.0174   0.00    1.0
2018/03/13 14:46:52.000   78.256789138   16.230315918   397.6689   2  10   0.0383   0.0403   0.0652  -0.0166  -0.0044   0.0173   0.00    1.0
2018/03/13 14:46:53.000   78.256789134   16.230315905   397.6668   2  10   0.0382   0.0402   0.0650  -0.0165  -0.0043   0.0172   0.00    1.0
2018/03/13 14:46:54.000   78.256789132   16.230315892   397.6640   2  10   0.0381   0.0401   0.0647  -0.0165  -0.0043   0.0171   0.00    1.0
2018/03/13 14:46:55.000   78.256789134   16.230315860   397.6628   2  10   0.0380   0.0400   0.0645  -0.0165  -0.0042   0.0170   0.00    1.0
2018/03/13 14:46:56.000   78.256789132   16.230315854   397.6632   2  10   0.0379   0.0399   0.0642  -0.0165  -0.0042   0.0170   0.00    1.0
2018/03/13 14:46:57.000   78.256789140   16.230315866   397.6610   2  10   0.0378   0.0399   0.0640  -0.0165  -0.0042   0.0169   0.00    1.0
2018/03/13 14:46:58.000   78.256789141   16.230315910   397.6594   2  10   0.0378   0.0398   0.0638  -0.0165  -0.0041   0.0168   0.00    1.0
2018/03/13 14:46:59.000   78.256789137   16.230315949   397.6578   2  10   0.0377   0.0397   0.0635  -0.0164  -0.0041   0.0167   0.00    1.0
2018/03/13 14:47:00.000   78.256789146   16.230315966   397.6569   2  10   0.0376   0.0396   0.0633  -0.0164  -0.0041   0.0166   0.00    1.0
2018/03/13 14:47:01.000   78.256789164   16.230315904   397.6577   2  10   0.0375   0.0395   0.0631  -0.0164  -0.0040   0.0165   0.00    1.0
2018/03/13 14:47:02.000   78.256789184   16.230315761   397.6615   2  10   0.0374   0.0394   0.0629  -0.0164  -0.0040   0.0165   0.00    1.0
2018/03/13 14:47:03.000   78.256789202   16.230315668   397.6647   2  10   0.0373   0.0394   0.0626  -0.0164  -0.0040   0.0164   0.00    1.0
2018/03/13 14:47:04.000   78.256789206   16.230315577   397.6673   2  10   0.0372   0.0393   0.0624  -0.0164  -0.0039   0.0163   0.00    1.0
2018/03/13 14:47:05.000   78.256789212   16.230315524   397.6676   2  10   0.0371   0.0392   0.0622  -0.0163  -0.0039   0.0162   0.00    1.0
2018/03/13 14:47:06.000   78.256789209   16.230315489   397.6678   2  10   0.0370   0.0391   0.0620  -0.0163  -0.0038   0.0161   0.00    1.1
2018/03/13 14:47:07.000   78.256789211   16.230315446   397.6657   2  10   0.0370   0.0390   0.0617  -0.0163  -0.0038   0.0161   0.00    1.1
2018/03/13 14:47:08.000   78.256789209   16.230315428   397.6646   2  10   0.0369   0.0390   0.0615  -0.0163  -0.0038   0.0160   0.00    1.1
2018/03/13 14:47:09.000   78.256789213   16.230315415   397.6650   2  10   0.0368   0.0389   0.0613  -0.0163  -0.0037   0.0159   0.00    1.1
2018/03/13 14:47:10.000   78.256789223   16.230315442   397.6657   2  10   0.0367   0.0388   0.0611  -0.0163  -0.0037   0.0158   0.00    1.1
2018/03/13 14:47:11.000   78.256789245   16.230315452   397.6661   2  10   0.0366   0.0387   0.0609  -0.0162  -0.0037   0.0157   0.00    1.1
2018/03/13 14:47:12.000   78.256789260   16.230315389   397.6669   2  10   0.0365   0.0386   0.0606  -0.0162  -0.0036   0.0157   0.00    1.1
2018/03/13 14:47:13.000   78.256789272   16.230315296   397.6666   2  10   0.0364   0.0386   0.0604  -0.0162  -0.0036   0.0156   0.00    1.1
2018/03/13 14:47:14.000   78.256789285   16.230315222   397.6667   2  10   0.0364   0.0385   0.0602  -0.0162  -0.0036   0.0155   0.00    1.1
2018/03/13 14:47:15.000   78.256789280   16.230315177   397.6672   2  10   0.0363   0.0384   0.0600  -0.0162  -0.0035   0.0154   0.00    1.1
2018/03/13 14:47:16.000   78.256789277   16.230315191   397.6673   2  10   0.0362   0.0383   0.0598  -0.0162  -0.0035   0.0154   0.00    1.1
2018/03/13 14:47:17.000   78.256789273   16.230315232   397.6659   2  10   0.0361   0.0383   0.0596  -0.0161  -0.0035   0.0153   0.00    1.1
2018/03/13 14:47:18.000   78.256789278   16.230315273   397.6644   2  10   0.0360   0.0382   0.0594  -0.0161  -0.0034   0.0152   0.00    1.1
2018/03/13 14:47:19.000   78.256789278   16.230315294   397.6633   2  10   0.0359   0.0381   0.0592  -0.0161  -0.0034   0.0151   0.00    1.1
2018/03/13 14:47:20.000   78.256789276   16.230315308   397.6629   2  10   0.0359   0.0380   0.0590  -0.0161  -0.0034   0.0151   0.00    1.1
2018/03/13 14:47:21.000   78.256789276   16.230315285   397.6605   2  10   0.0358   0.0379   0.0588  -0.0161  -0.0033   0.0150   0.00    1.1
2018/03/13 14:47:22.000   78.256789278   16.230315323   397.6594   2  10   0.0357   0.0379   0.0586  -0.0160  -0.0033   0.0149   0.00    1.1
2018/03/13 14:47:23.000   78.256789280   16.230315309   397.6586   2  10   0.0356   0.0378   0.0584  -0.0160  -0.0033   0.0149   0.00    1.1
2018/03/13 14:47:24.000   78.256789276   16.230315340   397.6582   2  10   0.0355   0.0377   0.0581  -0.0160  -0.0032   0.0148   0.00    1.1
2018/03/13 14:47:25.000   78.256789272   16.230315353   397.6586   2  10   0.0354   0.0376   0.0579  -0.0160  -0.0032   0.0147   0.00    1.1
2018/03/13 14:47:26.000   78.256789267   16.230315396   397.6572   2  10   0.0354   0.0376   0.0578  -0.0160  -0.0032   0.0146   0.00    1.1
2018/03/13 14:47:27.000   78.256789268   16.230315384   397.6552   2  10   0.0353   0.0375   0.0576  -0.0160  -0.0031   0.0146   0.00    1.1
2018/03/13 14:47:28.000   78.256789262   16.230315486   397.6524   2  10   0.0352   0.0374   0.0574  -0.0159  -0.0031   0.0145   0.00    1.1
2018/03/13 14:47:29.000   78.256789258   16.230315565   397.6500   2  10   0.0351   0.0373   0.0572  -0.0159  -0.0031   0.0144   0.00    1.1
2018/03/13 14:47:30.000   78.256789251   16.230315543   397.6474   2  10   0.0350   0.0373   0.0570  -0.0159  -0.0030   0.0144   0.00    1.1
2018/03/13 14:47:31.000   78.256789249   16.230315574   397.6444   2  10   0.0350   0.0372   0.0568  -0.0159  -0.0030   0.0143   0.00    1.1
2018/03/13 14:47:32.000   78.256789245   16.230315615   397.6425   2  10   0.0349   0.0371   0.0566  -0.0159  -0.0030   0.0142   0.00    1.1
2018/03/13 14:47:33.000   78.256789239   16.230315656   397.6402   2  10   0.0348   0.0370   0.0564  -0.0159  -0.0029   0.0142   0.00    1.1
2018/03/13 14:47:34.000   78.256789232   16.230315739   397.6376   2  10   0.0347   0.0370   0.0562  -0.0158  -0.0029   0.0141   0.00    1.1
2018/03/13 14:47:35.000   78.256789220   16.230315892   397.6356   2  10   0.0346   0.0369   0.0560  -0.0158  -0.0028   0.0140   0.00    1.1
2018/03/13 14:47:36.000   78.256789216   16.230315955   397.6347   2  10   0.0346   0.0368   0.0558  -0.0158  -0.0028   0.0140   0.00    1.1
2018/03/13 14:47:37.000   78.256789222   16.230315990   397.6343   2  10   0.0345   0.0367   0.0556  -0.0158  -0.0028   0.0139   0.00    1.1
2018/03/13 14:47:38.000   78.256789229   16.230316033   397.6335   2  10   0.0344   0.0367   0.0555  -0.0158  -0.0027   0.0138   0.00    1.1
2018/03/13 14:47:39.000   78.256789227   16.230316099   397.6321   2  10   0.0343   0.0366   0.0553  -0.0157  -0.0027   0.0138   0.00    1.1
2018/03/13 14:47:40.000   78.256789226   16.230316098   397.6283   2  10   0.0343   0.0365   0.0551  -0.0157  -0.0027   0.0137   0.00    1.1
2018/03/13 14:47:41.000   78.256789221   16.230316101   397.6256   2  10   0.0342   0.0364   0.0549  -0.0157  -0.0026   0.0137   0.00    1.1
2018/03/13 14:47:42.000   78.256789216   16.230316141   397.6225   2  10   0.0341   0.0364   0.0547  -0.0157  -0.0026   0.0136   0.00    1.1
2018/03/13 14:47:43.000   78.256789207   16.230316267   397.6208   2  10   0.0340   0.0363   0.0545  -0.0157  -0.0026   0.0135   0.00    1.0
2018/03/13 14:47:44.000   78.256789201   16.230316368   397.6187   2  10   0.0339   0.0362   0.0544  -0.0156  -0.0025   0.0135   0.00    1.0
2018/03/13 14:47:45.000   78.256789200   16.230316456   397.6173   2  10   0.0339   0.0361   0.0542  -0.0156  -0.0025   0.0134   0.00    1.0
2018/03/13 14:47:46.000   78.256789195   16.230316547   397.6161   2  10   0.0338   0.0361   0.0540  -0.0156  -0.0025   0.0133   0.00    1.0
2018/03/13 14:47:47.000   78.256789202   16.230316595   397.6172   2  10   0.0337   0.0360   0.0538  -0.0156  -0.0024   0.0133   0.00    1.0
2018/03/13 14:47:48.000   78.256789209   16.230316611   397.6172   2  10   0.0336   0.0359   0.0537  -0.0156  -0.0024   0.0132   0.00    1.0
2018/03/13 14:47:49.000   78.256789217   16.230316613   397.6161   2  10   0.0336   0.0359   0.0535  -0.0156  -0.0024   0.0132   0.00    1.0
2018/03/13 14:47:50.000   78.256789223   16.230316584   397.6151   2  10   0.0335   0.0358   0.0533  -0.0155  -0.0023   0.0131   0.00    1.0
2018/03/13 14:47:51.000   78.256789223   16.230316593   397.6142   2  10   0.0334   0.0357   0.0531  -0.0155  -0.0023   0.0130   0.00    1.0
2018/03/13 14:47:52.000   78.256789230   16.230316610   397.6137   2  10   0.0333   0.0356   0.0530  -0.0155  -0.0023   0.0130   0.00    1.0
2018/03/13 14:47:53.000   78.256789239   16.230316638   397.6145   2  10   0.0333   0.0356   0.0528  -0.0155  -0.0022   0.0129   0.00    1.0
2018/03/13 14:47:54.000   78.256789252   16.230316694   397.6163   2  10   0.0332   0.0355   0.0526  -0.0155  -0.0022   0.0129   0.00    1.0
