% program   : RTKPOST ver.2.4.2
% inp file  : Z:\home\linda\Documents\Spring18\GitHub_Unis\data\processed_data\46250725.obs
% inp file  : Z:\home\linda\Documents\Spring18\GitHub_Unis\data\base_station_data\lyrs0720.18o
% inp file  : Z:\home\linda\Documents\Spring18\GitHub_Unis\data\processed_data\46250725.nav
% obs start : 2018/03/13 13:24:36.0 GPST (week1992 221076.0s)
% obs end   : 2018/03/13 13:59:19.0 GPST (week1992 223159.0s)
% pos mode  : static
% freqs     : L1+L2
% solution  : forward
% elev mask : 15.0 deg
% dynamics  : on
% tidecorr  : off
% ionos opt : broadcast
% tropo opt : saastamoinen
% ephemeris : broadcast
% navi sys  : gps glonass galileo qzss sbas
% amb res   : fix and hold
% amb glo   : on
% val thres : 3.0
% antenna1  :                       ( 0.0000  0.0000  0.0000)
% antenna2  :                       ( 0.0000  0.0000  0.0000)
% ref pos   : 78.228825638   15.397310064   495.6816
%
% (lat/lon/height=WGS84/ellipsoidal,Q=1:fix,2:float,3:sbas,4:dgps,5:single,6:ppp,ns=# of satellites)
%  GPST                  latitude(deg) longitude(deg)  height(m)   Q  ns   sdn(m)   sde(m)   sdu(m)  sdne(m)  sdeu(m)  sdun(m) age(s)  ratio
2018/03/13 13:24:36.000   78.250520109   16.137583171   618.8933   2   9   0.4527   0.3834   1.4791  -0.0985  -0.2558   0.5792   0.00    1.1
2018/03/13 13:24:37.000   78.250518261   16.137588350   617.9226   2   9   0.3221   0.2728   1.0521  -0.0696  -0.1819   0.4126   0.00    1.2
2018/03/13 13:24:38.000   78.250518598   16.137589292   617.3931   2   9   0.2635   0.2232   0.8605  -0.0567  -0.1488   0.3376   0.00    1.1
2018/03/13 13:24:39.000   78.250519624   16.137584290   617.6636   2   9   0.2284   0.1935   0.7455  -0.0491  -0.1290   0.2925   0.00    1.0
2018/03/13 13:24:40.000   78.250520019   16.137581303   617.7206   2   9   0.2043   0.1732   0.6666  -0.0439  -0.1154   0.2616   0.00    1.2
2018/03/13 13:24:41.000   78.250520138   16.137582635   617.7673   2   9   0.1865   0.1581   0.6082  -0.0400  -0.1053   0.2386   0.00    1.2
2018/03/13 13:24:42.000   78.250520704   16.137582092   617.7921   2   9   0.1727   0.1464   0.5626  -0.0370  -0.0975   0.2207   0.00    1.2
2018/03/13 13:24:43.000   78.250520964   16.137581620   617.8005   2   9   0.1614   0.1370   0.5256  -0.0345  -0.0911   0.2061   0.00    1.2
2018/03/13 13:24:44.000   78.250521280   16.137581422   617.8507   2   9   0.1521   0.1292   0.4949  -0.0324  -0.0858   0.1940   0.00    1.2
2018/03/13 13:24:45.000   78.250521525   16.137581831   617.8693   2   9   0.1442   0.1226   0.4687  -0.0307  -0.0814   0.1837   0.00    1.1
2018/03/13 13:24:46.000   78.250521769   16.137581245   617.8542   2   9   0.1374   0.1169   0.4461  -0.0292  -0.0775   0.1748   0.00    1.1
2018/03/13 13:24:47.000   78.250521709   16.137581724   617.7883   2   9   0.1315   0.1119   0.4262  -0.0279  -0.0741   0.1669   0.00    1.1
2018/03/13 13:24:48.000   78.250521626   16.137582068   617.6784   2   9   0.1262   0.1075   0.4086  -0.0267  -0.0711   0.1599   0.00    1.1
2018/03/13 13:24:49.000   78.250521777   16.137581524   617.6395   2   9   0.1215   0.1036   0.3928  -0.0256  -0.0684   0.1537   0.00    1.1
2018/03/13 13:24:50.000   78.250521770   16.137581301   617.6367   2   9   0.1172   0.1000   0.3785  -0.0246  -0.0659   0.1480   0.00    1.1
2018/03/13 13:24:51.000   78.250521717   16.137582629   617.6059   2   9   0.1134   0.0968   0.3655  -0.0237  -0.0637   0.1428   0.00    1.1
2018/03/13 13:24:52.000   78.250521696   16.137582871   617.5363   2   9   0.1099   0.0939   0.3536  -0.0229  -0.0617   0.1381   0.00    1.1
2018/03/13 13:24:53.000   78.250521474   16.137582671   617.4728   2   9   0.1066   0.0913   0.3425  -0.0222  -0.0598   0.1337   0.00    1.0
2018/03/13 13:24:54.000   78.250521223   16.137583513   617.3694   2   9   0.1037   0.0888   0.3323  -0.0215  -0.0581   0.1296   0.00    1.0
2018/03/13 13:24:55.000   78.250520980   16.137584211   617.2497   2   9   0.1009   0.0865   0.3228  -0.0208  -0.0565   0.1258   0.00    1.0
2018/03/13 13:24:56.000   78.250520846   16.137584017   617.1593   2   9   0.0983   0.0844   0.3139  -0.0202  -0.0549   0.1222   0.00    1.1
2018/03/13 13:24:57.000   78.250520752   16.137583860   617.0476   2   9   0.0959   0.0825   0.3056  -0.0196  -0.0535   0.1188   0.00    1.1
2018/03/13 13:24:58.000   78.250520807   16.137584426   616.9537   2   9   0.0936   0.0806   0.2977  -0.0190  -0.0522   0.1157   0.00    1.0
2018/03/13 13:24:59.000   78.250520821   16.137584669   616.7906   2   9   0.0915   0.0789   0.2903  -0.0185  -0.0509   0.1127   0.00    1.1
2018/03/13 13:25:00.000   78.250520814   16.137584738   616.6722   2   9   0.0895   0.0773   0.2832  -0.0180  -0.0498   0.1098   0.00    1.1
2018/03/13 13:25:01.000   78.250520680   16.137585048   616.5384   2   9   0.0876   0.0758   0.2766  -0.0175  -0.0486   0.1071   0.00    1.1
2018/03/13 13:25:02.000   78.250520545   16.137585902   616.4168   2   9   0.0858   0.0743   0.2702  -0.0170  -0.0476   0.1046   0.00    1.2
2018/03/13 13:25:03.000   78.250520299   16.137587044   616.2770   2   9   0.0841   0.0730   0.2641  -0.0166  -0.0465   0.1021   0.00    1.2
2018/03/13 13:25:04.000   78.250520085   16.137587812   616.1310   2   9   0.0825   0.0717   0.2583  -0.0161  -0.0456   0.0997   0.00    1.2
2018/03/13 13:25:05.000   78.250519951   16.137588241   616.0025   2   9   0.0809   0.0704   0.2528  -0.0157  -0.0446   0.0975   0.00    1.2
2018/03/13 13:25:06.000   78.250519843   16.137588718   615.9010   2   9   0.0795   0.0693   0.2475  -0.0153  -0.0437   0.0953   0.00    1.2
2018/03/13 13:25:07.000   78.250519732   16.137589219   615.8053   2   9   0.0781   0.0682   0.2424  -0.0149  -0.0429   0.0932   0.00    1.2
2018/03/13 13:25:08.000   78.250519668   16.137589554   615.7102   2   9   0.0767   0.0671   0.2374  -0.0146  -0.0421   0.0912   0.00    1.2
2018/03/13 13:25:09.000   78.250519744   16.137589605   615.6942   2   9   0.0754   0.0661   0.2327  -0.0142  -0.0413   0.0893   0.00    1.2
2018/03/13 13:25:10.000   78.250519838   16.137589111   615.7290   2   9   0.0742   0.0651   0.2282  -0.0138  -0.0405   0.0874   0.00    1.2
2018/03/13 13:25:11.000   78.250519974   16.137588572   615.8071   2   9   0.0730   0.0641   0.2238  -0.0135  -0.0398   0.0856   0.00    1.1
2018/03/13 13:25:12.000   78.250520192   16.137588598   615.9310   2   9   0.0718   0.0632   0.2195  -0.0131  -0.0391   0.0838   0.00    1.1
2018/03/13 13:25:13.000   78.250520471   16.137588318   616.1073   2   9   0.0707   0.0624   0.2154  -0.0128  -0.0384   0.0821   0.00    1.0
2018/03/13 13:25:14.000   78.250520743   16.137588339   616.2935   2   9   0.0696   0.0615   0.2114  -0.0125  -0.0377   0.0805   0.00    1.0
2018/03/13 13:25:15.000   78.250521128   16.137588019   616.4812   2   9   0.0686   0.0607   0.2076  -0.0121  -0.0371   0.0789   0.00    1.0
2018/03/13 13:25:16.000   78.250521428   16.137587905   616.6608   2   9   0.0676   0.0600   0.2039  -0.0118  -0.0365   0.0773   0.00    1.0
2018/03/13 13:25:17.000   78.250521713   16.137587800   616.8409   2   9   0.0666   0.0592   0.2002  -0.0115  -0.0359   0.0758   0.00    1.0
2018/03/13 13:25:18.000   78.250522028   16.137587424   617.0073   2   9   0.0657   0.0585   0.1967  -0.0112  -0.0353   0.0744   0.00    1.0
2018/03/13 13:25:19.000   78.250522257   16.137587017   617.1458   2   9   0.0648   0.0578   0.1933  -0.0109  -0.0347   0.0729   0.00    1.0
2018/03/13 13:25:20.000   78.250522481   16.137586646   617.2752   2   9   0.0639   0.0571   0.1900  -0.0106  -0.0342   0.0716   0.00    1.0
2018/03/13 13:25:21.000   78.250522571   16.137586469   617.3680   2   9   0.0631   0.0564   0.1868  -0.0103  -0.0337   0.0702   0.00    1.0
2018/03/13 13:25:22.000   78.250522777   16.137586172   617.4882   2   9   0.0622   0.0558   0.1836  -0.0100  -0.0331   0.0689   0.00    1.0
2018/03/13 13:25:23.000   78.250522829   16.137585987   617.5741   2   9   0.0614   0.0552   0.1806  -0.0098  -0.0326   0.0676   0.00    1.0
2018/03/13 13:25:24.000   78.250522932   16.137586082   617.6491   2   9   0.0607   0.0546   0.1776  -0.0095  -0.0321   0.0664   0.00    1.0
2018/03/13 13:25:25.000   78.250523051   16.137586105   617.7357   2   9   0.0599   0.0540   0.1747  -0.0092  -0.0317   0.0652   0.00    1.1
2018/03/13 13:25:26.000   78.250523216   16.137585774   617.8159   2   9   0.0592   0.0534   0.1719  -0.0089  -0.0312   0.0640   0.00    1.1
2018/03/13 13:25:27.000   78.250523342   16.137585503   617.8855   2   9   0.0585   0.0529   0.1692  -0.0086  -0.0308   0.0628   0.00    1.2
2018/03/13 13:25:28.000   78.250523487   16.137585166   617.9655   2   9   0.0578   0.0523   0.1665  -0.0084  -0.0303   0.0617   0.00    1.2
2018/03/13 13:25:29.000   78.250523596   16.137584815   618.0343   2   9   0.0571   0.0518   0.1639  -0.0081  -0.0299   0.0606   0.00    1.3
2018/03/13 13:25:30.000   78.250523650   16.137584640   618.0932   2   9   0.0564   0.0513   0.1613  -0.0078  -0.0295   0.0595   0.00    1.3
2018/03/13 13:25:31.000   78.250523734   16.137584261   618.1835   2   9   0.0558   0.0508   0.1588  -0.0075  -0.0291   0.0584   0.00    1.4
2018/03/13 13:25:32.000   78.250523752   16.137584089   618.2460   2   9   0.0551   0.0503   0.1564  -0.0073  -0.0287   0.0574   0.00    1.5
2018/03/13 13:25:33.000   78.250523771   16.137583989   618.3211   2   9   0.0545   0.0499   0.1540  -0.0070  -0.0283   0.0564   0.00    1.5
2018/03/13 13:25:34.000   78.250523745   16.137583766   618.3777   2   9   0.0539   0.0494   0.1517  -0.0067  -0.0279   0.0554   0.00    1.6
2018/03/13 13:25:35.000   78.250523753   16.137583606   618.4264   2   9   0.0533   0.0490   0.1495  -0.0064  -0.0275   0.0544   0.00    1.6
2018/03/13 13:25:36.000   78.250523742   16.137583508   618.4736   2   9   0.0528   0.0485   0.1473  -0.0062  -0.0272   0.0535   0.00    1.7
2018/03/13 13:25:37.000   78.250523737   16.137583386   618.5229   2   9   0.0522   0.0481   0.1451  -0.0059  -0.0268   0.0526   0.00    1.8
2018/03/13 13:25:38.000   78.250523750   16.137583141   618.5790   2   9   0.0517   0.0477   0.1430  -0.0056  -0.0265   0.0517   0.00    1.8
2018/03/13 13:25:39.000   78.250523752   16.137582864   618.6248   2   9   0.0511   0.0473   0.1409  -0.0053  -0.0262   0.0508   0.00    1.9
2018/03/13 13:25:40.000   78.250523758   16.137582503   618.6555   2   9   0.0506   0.0469   0.1389  -0.0050  -0.0258   0.0499   0.00    2.0
2018/03/13 13:25:41.000   78.250523773   16.137582085   618.6891   2   9   0.0501   0.0465   0.1369  -0.0047  -0.0255   0.0491   0.00    2.1
2018/03/13 13:25:42.000   78.250523746   16.137581669   618.7055   2   9   0.0496   0.0461   0.1350  -0.0044  -0.0252   0.0482   0.00    2.2
2018/03/13 13:25:43.000   78.250523683   16.137581430   618.6994   2   9   0.0491   0.0457   0.1331  -0.0040  -0.0249   0.0474   0.00    2.3
2018/03/13 13:25:44.000   78.250523604   16.137581105   618.6937   2   9   0.0486   0.0453   0.1313  -0.0037  -0.0246   0.0466   0.00    2.3
2018/03/13 13:25:45.000   78.250523533   16.137580724   618.6873   2   9   0.0482   0.0450   0.1294  -0.0033  -0.0243   0.0458   0.00    2.4
2018/03/13 13:25:46.000   78.250523436   16.137580327   618.6577   2   9   0.0477   0.0446   0.1277  -0.0029  -0.0240   0.0451   0.00    2.5
2018/03/13 13:25:47.000   78.250523346   16.137579812   618.6429   2   9   0.0473   0.0443   0.1259  -0.0024  -0.0237   0.0443   0.00    2.5
2018/03/13 13:25:48.000   78.250523266   16.137579222   618.6277   2   9   0.0468   0.0439   0.1242  -0.0019  -0.0235   0.0436   0.00    2.5
2018/03/13 13:25:49.000   78.250523252   16.137578785   618.6216   2   9   0.0464   0.0436   0.1226  -0.0011  -0.0232   0.0429   0.00    2.5
2018/03/13 13:25:50.000   78.250523295   16.137578210   618.6316   2   9   0.0460   0.0433   0.1209   0.0011  -0.0229   0.0422   0.00    2.5
2018/03/13 13:25:51.000   78.250523425   16.137577795   618.6836   2   9   0.0456   0.0429   0.1193   0.0018  -0.0227   0.0415   0.00    2.6
2018/03/13 13:25:52.000   78.250523604   16.137577492   618.7506   2   9   0.0452   0.0426   0.1178   0.0023  -0.0224   0.0408   0.00    2.6
2018/03/13 13:25:53.000   78.250523849   16.137577333   618.8429   2   9   0.0448   0.0423   0.1162   0.0027  -0.0222   0.0401   0.00    2.6
2018/03/13 13:25:54.000   78.250524129   16.137577220   618.9567   2   9   0.0444   0.0420   0.1147   0.0031  -0.0220   0.0394   0.00    2.7
2018/03/13 13:25:55.000   78.250524429   16.137577139   619.0780   2   9   0.0440   0.0417   0.1132   0.0034  -0.0217   0.0388   0.00    2.7
2018/03/13 13:25:56.000   78.250524752   16.137577114   619.2122   2   9   0.0436   0.0414   0.1118   0.0037  -0.0215   0.0382   0.00    2.8
2018/03/13 13:25:57.000   78.250525113   16.137577122   619.3723   2   9   0.0432   0.0411   0.1104   0.0039  -0.0213   0.0376   0.00    2.8
2018/03/13 13:25:58.000   78.250525522   16.137577119   619.5527   2   9   0.0429   0.0408   0.1090   0.0041  -0.0211   0.0369   0.00    2.9
2018/03/13 13:25:59.000   78.250525940   16.137577131   619.7485   2   9   0.0425   0.0405   0.1076   0.0043  -0.0208   0.0363   0.00    2.9
2018/03/13 13:26:00.000   78.250520023   16.137586157   618.0201   1   9   0.0005   0.0004   0.0016  -0.0001  -0.0003   0.0006   0.00    3.0
2018/03/13 13:26:01.000   78.250520024   16.137586181   618.0220   1   9   0.0005   0.0004   0.0016  -0.0001  -0.0003   0.0006   0.00    3.1
2018/03/13 13:26:02.000   78.250520024   16.137586208   618.0240   1   9   0.0005   0.0004   0.0016  -0.0001  -0.0003   0.0006   0.00    3.2
2018/03/13 13:26:03.000   78.250520025   16.137586240   618.0262   1   9   0.0005   0.0004   0.0016  -0.0001  -0.0003   0.0006   0.00    3.2
2018/03/13 13:26:04.000   78.250520025   16.137586276   618.0284   1   9   0.0005   0.0004   0.0016  -0.0001  -0.0003   0.0006   0.00    3.1
2018/03/13 13:26:05.000   78.250528774   16.137580213   621.3493   2   9   0.0405   0.0389   0.1000   0.0053  -0.0196   0.0330   0.00    2.8
2018/03/13 13:26:06.000   78.250529290   16.137581028   621.6572   2   9   0.0402   0.0387   0.0988   0.0054  -0.0195   0.0324   0.00    2.5
2018/03/13 13:26:07.000   78.250529824   16.137581834   621.9769   2   9   0.0399   0.0384   0.0976   0.0055  -0.0193   0.0319   0.00    2.2
2018/03/13 13:26:08.000   78.250530393   16.137582749   622.2903   2   9   0.0396   0.0382   0.0965   0.0057  -0.0191   0.0314   0.00    1.9
2018/03/13 13:26:09.000   78.250530914   16.137583515   622.5986   2   9   0.0392   0.0379   0.0953   0.0058  -0.0189   0.0309   0.00    1.6
2018/03/13 13:26:10.000   78.250531416   16.137584225   622.8956   2   9   0.0390   0.0377   0.0942   0.0059  -0.0187   0.0304   0.00    1.5
2018/03/13 13:26:11.000   78.250531886   16.137584805   623.1713   2   9   0.0387   0.0375   0.0931   0.0060  -0.0186   0.0299   0.00    1.3
2018/03/13 13:26:12.000   78.250532295   16.137585592   623.4214   2   9   0.0384   0.0372   0.0921   0.0061  -0.0184   0.0295   0.00    1.2
2018/03/13 13:26:13.000   78.250532644   16.137586385   623.6328   2   9   0.0381   0.0370   0.0910   0.0062  -0.0182   0.0290   0.00    1.1
2018/03/13 13:26:14.000   78.250532937   16.137587165   623.8124   2   9   0.0378   0.0368   0.0900   0.0063  -0.0181   0.0285   0.00    1.1
2018/03/13 13:26:15.000   78.250533181   16.137587777   623.9712   2   9   0.0375   0.0365   0.0890   0.0064  -0.0179   0.0281   0.00    1.1
2018/03/13 13:26:16.000   78.250533369   16.137588383   624.0908   2   9   0.0373   0.0363   0.0880   0.0064  -0.0178   0.0276   0.00    1.2
2018/03/13 13:26:17.000   78.250533510   16.137588818   624.1897   2   9   0.0370   0.0361   0.0870   0.0065  -0.0176   0.0272   0.00    1.2
2018/03/13 13:26:18.000   78.250533604   16.137588930   624.2472   2   9   0.0367   0.0359   0.0860   0.0066  -0.0175   0.0268   0.00    1.2
2018/03/13 13:26:19.000   78.250533632   16.137589000   624.2724   2   9   0.0365   0.0357   0.0851   0.0067  -0.0173   0.0264   0.00    1.2
2018/03/13 13:26:20.000   78.250533565   16.137589165   624.2578   2   9   0.0362   0.0355   0.0842   0.0067  -0.0172   0.0259   0.00    1.3
2018/03/13 13:26:21.000   78.250533418   16.137589187   624.2037   2   9   0.0360   0.0353   0.0833   0.0068  -0.0171   0.0255   0.00    1.3
2018/03/13 13:26:22.000   78.250533203   16.137589187   624.1048   2   9   0.0357   0.0350   0.0824   0.0069  -0.0169   0.0251   0.00    1.3
2018/03/13 13:26:23.000   78.250532911   16.137589026   623.9675   2   9   0.0355   0.0348   0.0815   0.0069  -0.0168   0.0247   0.00    1.3
2018/03/13 13:26:24.000   78.250532543   16.137588784   623.7975   2   9   0.0352   0.0346   0.0806   0.0070  -0.0167   0.0243   0.00    1.2
2018/03/13 13:26:25.000   78.250532135   16.137588408   623.6015   2   9   0.0350   0.0345   0.0798   0.0071  -0.0165   0.0239   0.00    1.2
2018/03/13 13:26:26.000   78.250531656   16.137588029   623.3761   2   9   0.0348   0.0343   0.0789   0.0071  -0.0164   0.0236   0.00    1.2
2018/03/13 13:26:27.000   78.250531165   16.137587399   623.1232   2   9   0.0345   0.0341   0.0781   0.0072  -0.0163   0.0232   0.00    1.2
2018/03/13 13:26:28.000   78.250530637   16.137586675   622.8432   2   9   0.0343   0.0339   0.0773   0.0072  -0.0161   0.0228   0.00    1.1
2018/03/13 13:26:29.000   78.250530097   16.137585828   622.5579   2   9   0.0341   0.0337   0.0765   0.0073  -0.0160   0.0225   0.00    1.1
2018/03/13 13:26:30.000   78.250529527   16.137585140   622.2727   2   9   0.0338   0.0335   0.0757   0.0073  -0.0159   0.0221   0.00    1.2
2018/03/13 13:26:31.000   78.250528947   16.137584584   621.9741   2   9   0.0336   0.0333   0.0749   0.0074  -0.0158   0.0218   0.00    1.3
2018/03/13 13:26:32.000   78.250528351   16.137583953   621.6687   2   9   0.0334   0.0331   0.0742   0.0074  -0.0157   0.0214   0.00    1.5
2018/03/13 13:26:33.000   78.250527766   16.137583399   621.3645   2   9   0.0332   0.0329   0.0734   0.0074  -0.0156   0.0211   0.00    1.7
2018/03/13 13:26:34.000   78.250527185   16.137582700   621.0632   2   9   0.0330   0.0328   0.0727   0.0075  -0.0155   0.0207   0.00    1.9
2018/03/13 13:26:35.000   78.250526613   16.137582059   620.7641   2   9   0.0328   0.0326   0.0720   0.0075  -0.0153   0.0204   0.00    2.3
2018/03/13 13:26:36.000   78.250526067   16.137581327   620.4783   2   9   0.0326   0.0324   0.0713   0.0076  -0.0152   0.0201   0.00    2.5
2018/03/13 13:26:37.000   78.250525548   16.137580618   620.2078   2   9   0.0324   0.0322   0.0706   0.0076  -0.0151   0.0198   0.00    2.8
2018/03/13 13:26:38.000   78.250520029   16.137586440   618.0408   1   9   0.0004   0.0004   0.0014  -0.0001  -0.0003   0.0005   0.00    3.1
2018/03/13 13:26:39.000   78.250520029   16.137586417   618.0395   1   9   0.0004   0.0004   0.0014  -0.0001  -0.0003   0.0005   0.00    3.5
2018/03/13 13:26:40.000   78.250520029   16.137586397   618.0381   1   9   0.0004   0.0004   0.0014  -0.0001  -0.0003   0.0005   0.00    3.8
2018/03/13 13:26:41.000   78.250520028   16.137586381   618.0370   1   9   0.0004   0.0004   0.0014  -0.0001  -0.0003   0.0005   0.00    4.1
2018/03/13 13:26:42.000   78.250520028   16.137586366   618.0358   1   9   0.0004   0.0004   0.0014  -0.0001  -0.0002   0.0005   0.00    4.4
2018/03/13 13:26:43.000   78.250520027   16.137586354   618.0349   1   9   0.0004   0.0003   0.0013  -0.0001  -0.0002   0.0005   0.00    4.6
2018/03/13 13:26:44.000   78.250520027   16.137586345   618.0340   1   9   0.0004   0.0003   0.0013  -0.0001  -0.0002   0.0005   0.00    4.7
2018/03/13 13:26:45.000   78.250520026   16.137586337   618.0333   1   9   0.0004   0.0003   0.0013  -0.0001  -0.0002   0.0005   0.00    4.8
2018/03/13 13:26:46.000   78.250520026   16.137586330   618.0325   1   9   0.0004   0.0003   0.0013  -0.0001  -0.0002   0.0005   0.00    4.8
2018/03/13 13:26:47.000   78.250520026   16.137586325   618.0320   1   9   0.0004   0.0003   0.0013  -0.0001  -0.0002   0.0005   0.00    4.8
2018/03/13 13:26:48.000   78.250520026   16.137586319   618.0316   1   9   0.0004   0.0003   0.0013  -0.0001  -0.0002   0.0005   0.00    8.8
2018/03/13 13:26:49.000   78.250520025   16.137586317   618.0313   1   9   0.0004   0.0003   0.0013  -0.0001  -0.0002   0.0005   0.00    9.4
2018/03/13 13:26:50.000   78.250520025   16.137586318   618.0311   1   9   0.0004   0.0003   0.0013  -0.0001  -0.0002   0.0005   0.00   10.0
2018/03/13 13:26:51.000   78.250520024   16.137586321   618.0309   1   9   0.0004   0.0003   0.0013  -0.0001  -0.0002   0.0005   0.00   10.6
2018/03/13 13:26:52.000   78.250520023   16.137586325   618.0308   1   9   0.0004   0.0003   0.0013  -0.0001  -0.0002   0.0005   0.00   11.2
2018/03/13 13:26:53.000   78.250520023   16.137586332   618.0308   1   9   0.0004   0.0003   0.0013  -0.0001  -0.0002   0.0005   0.00   11.8
2018/03/13 13:26:54.000   78.250520022   16.137586340   618.0309   1   9   0.0004   0.0003   0.0013  -0.0001  -0.0002   0.0005   0.00   12.4
2018/03/13 13:26:55.000   78.250520022   16.137586349   618.0311   1   9   0.0004   0.0003   0.0013  -0.0001  -0.0002   0.0005   0.00   13.1
2018/03/13 13:26:56.000   78.250520022   16.137586360   618.0315   1   9   0.0004   0.0003   0.0013  -0.0001  -0.0002   0.0005   0.00   13.8
2018/03/13 13:26:57.000   78.250520021   16.137586372   618.0319   1   9   0.0004   0.0003   0.0013  -0.0001  -0.0002   0.0005   0.00   14.6
2018/03/13 13:26:58.000   78.250520022   16.137586384   618.0325   1   9   0.0004   0.0003   0.0013  -0.0001  -0.0002   0.0005   0.00   15.3
2018/03/13 13:26:59.000   78.250520022   16.137586397   618.0330   1   9   0.0004   0.0003   0.0013  -0.0001  -0.0002   0.0005   0.00   16.1
2018/03/13 13:27:00.000   78.250520022   16.137586412   618.0337   1   9   0.0004   0.0003   0.0013  -0.0001  -0.0002   0.0005   0.00   16.9
2018/03/13 13:27:01.000   78.250520023   16.137586429   618.0343   1   9   0.0004   0.0003   0.0013  -0.0001  -0.0002   0.0005   0.00   17.6
2018/03/13 13:27:02.000   78.250520023   16.137586446   618.0352   1   9   0.0004   0.0003   0.0013  -0.0001  -0.0002   0.0005   0.00   18.5
2018/03/13 13:27:03.000   78.250520024   16.137586466   618.0360   1   9   0.0004   0.0003   0.0013  -0.0001  -0.0002   0.0005   0.00   19.2
2018/03/13 13:27:04.000   78.250520024   16.137586487   618.0370   1   9   0.0004   0.0003   0.0013  -0.0001  -0.0002   0.0005   0.00   19.9
2018/03/13 13:27:05.000   78.250520025   16.137586509   618.0381   1   9   0.0004   0.0003   0.0013  -0.0001  -0.0002   0.0005   0.00   20.5
2018/03/13 13:27:06.000   78.250520025   16.137586535   618.0393   1   9   0.0004   0.0003   0.0013  -0.0001  -0.0002   0.0005   0.00   20.9
2018/03/13 13:27:07.000   78.250520026   16.137586564   618.0407   1   9   0.0004   0.0003   0.0012  -0.0001  -0.0002   0.0005   0.00   21.1
2018/03/13 13:27:08.000   78.250520026   16.137586595   618.0422   1   9   0.0004   0.0003   0.0012  -0.0001  -0.0002   0.0005   0.00   21.1
2018/03/13 13:27:09.000   78.250520027   16.137586628   618.0438   1   9   0.0004   0.0003   0.0012  -0.0001  -0.0002   0.0005   0.00   20.9
2018/03/13 13:27:10.000   78.250520028   16.137586665   618.0456   1   9   0.0004   0.0003   0.0012  -0.0001  -0.0002   0.0005   0.00   20.4
2018/03/13 13:27:11.000   78.250520028   16.137586704   618.0476   1   9   0.0004   0.0003   0.0012  -0.0001  -0.0002   0.0005   0.00   19.5
2018/03/13 13:27:12.000   78.250520029   16.137586746   618.0497   1   9   0.0004   0.0003   0.0012  -0.0001  -0.0002   0.0005   0.00   18.4
2018/03/13 13:27:13.000   78.250520030   16.137586791   618.0520   1   9   0.0004   0.0003   0.0012  -0.0001  -0.0002   0.0005   0.00   17.1
2018/03/13 13:27:14.000   78.250520031   16.137586838   618.0544   1   9   0.0004   0.0003   0.0012  -0.0001  -0.0002   0.0005   0.00   15.7
2018/03/13 13:27:15.000   78.250520032   16.137586886   618.0570   1   9   0.0004   0.0003   0.0012  -0.0001  -0.0002   0.0005   0.00   14.3
2018/03/13 13:27:16.000   78.250520033   16.137586937   618.0597   1   9   0.0004   0.0003   0.0012  -0.0001  -0.0002   0.0005   0.00   13.0
2018/03/13 13:27:17.000   78.250520033   16.137586981   618.0618   1   9   0.0004   0.0003   0.0012  -0.0001  -0.0002   0.0005   0.00   11.8
2018/03/13 13:27:18.000   78.250520076   16.137587021   618.0859   2   9   0.0006   0.0006   0.0022  -0.0003  -0.0005   0.0007   0.00    1.0
2018/03/13 13:27:19.000   78.250520077   16.137587074   618.0890   2   9   0.0006   0.0006   0.0022  -0.0003  -0.0005   0.0007   0.00    1.0
2018/03/13 13:27:20.000   78.250520079   16.137587124   618.0919   2   9   0.0006   0.0006   0.0022  -0.0003  -0.0005   0.0007   0.00    1.0
2018/03/13 13:27:21.000   78.250520080   16.137587170   618.0946   2   9   0.0006   0.0006   0.0022  -0.0003  -0.0005   0.0007   0.00    1.0
2018/03/13 13:27:22.000   78.250520082   16.137587212   618.0971   2   9   0.0006   0.0006   0.0022  -0.0003  -0.0005   0.0007   0.00    1.0
2018/03/13 13:27:23.000   78.250520084   16.137587248   618.0993   2   9   0.0006   0.0006   0.0022  -0.0003  -0.0005   0.0007   0.00    1.0
2018/03/13 13:27:24.000   78.250520086   16.137587279   618.1013   2   9   0.0006   0.0006   0.0022  -0.0003  -0.0005   0.0007   0.00    1.0
2018/03/13 13:27:25.000   78.250520087   16.137587307   618.1030   2   9   0.0006   0.0006   0.0022  -0.0003  -0.0005   0.0007   0.00    1.0
2018/03/13 13:27:26.000   78.250520087   16.137587330   618.1043   2   9   0.0006   0.0006   0.0022  -0.0003  -0.0005   0.0007   0.00    1.0
2018/03/13 13:27:27.000   78.250520088   16.137587349   618.1053   2   9   0.0006   0.0006   0.0022  -0.0003  -0.0005   0.0007   0.00    1.0
2018/03/13 13:27:28.000   78.250520088   16.137587362   618.1060   2   9   0.0006   0.0006   0.0022  -0.0003  -0.0005   0.0007   0.00    1.0
2018/03/13 13:27:29.000   78.250520088   16.137587373   618.1063   2   9   0.0006   0.0006   0.0022  -0.0003  -0.0005   0.0007   0.00    1.1
2018/03/13 13:27:30.000   78.250520088   16.137587378   618.1063   2   9   0.0006   0.0006   0.0022  -0.0003  -0.0005   0.0007   0.00    1.1
2018/03/13 13:27:31.000   78.250520087   16.137587380   618.1061   2   9   0.0006   0.0006   0.0022  -0.0003  -0.0005   0.0007   0.00    1.1
2018/03/13 13:27:32.000   78.250520087   16.137587380   618.1056   2   9   0.0005   0.0006   0.0022  -0.0003  -0.0005   0.0007   0.00    1.1
2018/03/13 13:27:33.000   78.250520087   16.137587376   618.1050   2   9   0.0005   0.0006   0.0022  -0.0003  -0.0005   0.0007   0.00    1.1
2018/03/13 13:27:34.000   78.250520086   16.137587370   618.1041   2   9   0.0005   0.0006   0.0022  -0.0003  -0.0005   0.0007   0.00    1.1
2018/03/13 13:27:35.000   78.250520085   16.137587360   618.1032   2   9   0.0005   0.0006   0.0022  -0.0003  -0.0005   0.0007   0.00    1.2
2018/03/13 13:27:36.000   78.250520084   16.137587349   618.1019   2   9   0.0005   0.0006   0.0022  -0.0003  -0.0005   0.0007   0.00    1.2
2018/03/13 13:27:37.000   78.250520083   16.137587337   618.1005   2   9   0.0005   0.0006   0.0022  -0.0003  -0.0005   0.0007   0.00    1.2
2018/03/13 13:27:38.000   78.250520082   16.137587325   618.0991   2   9   0.0005   0.0006   0.0022  -0.0003  -0.0005   0.0007   0.00    1.3
2018/03/13 13:27:39.000   78.250520081   16.137587313   618.0977   2   9   0.0005   0.0006   0.0022  -0.0003  -0.0005   0.0007   0.00    1.3
2018/03/13 13:27:40.000   78.250520079   16.137587300   618.0963   2   9   0.0005   0.0006   0.0022  -0.0003  -0.0005   0.0007   0.00    1.3
2018/03/13 13:27:41.000   78.250520078   16.137587287   618.0951   2   9   0.0005   0.0006   0.0022  -0.0003  -0.0005   0.0007   0.00    1.4
2018/03/13 13:27:42.000   78.250520077   16.137587276   618.0939   2   9   0.0005   0.0006   0.0022  -0.0003  -0.0005   0.0007   0.00    1.5
2018/03/13 13:27:43.000   78.250520075   16.137587264   618.0927   2   9   0.0005   0.0006   0.0022  -0.0003  -0.0005   0.0007   0.00    1.5
2018/03/13 13:27:44.000   78.250520074   16.137587250   618.0916   2   9   0.0005   0.0006   0.0022  -0.0003  -0.0005   0.0007   0.00    1.6
2018/03/13 13:27:45.000   78.250520072   16.137587238   618.0904   2   9   0.0005   0.0006   0.0022  -0.0003  -0.0005   0.0007   0.00    1.7
2018/03/13 13:27:46.000   78.250520070   16.137587227   618.0892   2   9   0.0005   0.0006   0.0022  -0.0003  -0.0005   0.0007   0.00    1.0
2018/03/13 13:27:47.000   78.250520068   16.137587216   618.0880   2   9   0.0005   0.0006   0.0022  -0.0003  -0.0005   0.0007   0.00    1.1
2018/03/13 13:27:48.000   78.250520067   16.137587204   618.0869   2   9   0.0005   0.0006   0.0022  -0.0003  -0.0005   0.0007   0.00    1.1
2018/03/13 13:27:49.000   78.250520065   16.137587192   618.0858   2   9   0.0005   0.0006   0.0022  -0.0003  -0.0005   0.0006   0.00    1.2
2018/03/13 13:27:50.000   78.250520063   16.137587179   618.0847   2   9   0.0005   0.0006   0.0022  -0.0003  -0.0005   0.0006   0.00    1.3
2018/03/13 13:27:51.000   78.250520060   16.137587168   618.0836   2   9   0.0005   0.0006   0.0022  -0.0003  -0.0005   0.0006   0.00    1.4
2018/03/13 13:27:52.000   78.250520058   16.137587159   618.0826   2   9   0.0005   0.0006   0.0022  -0.0003  -0.0005   0.0006   0.00    1.6
2018/03/13 13:27:53.000   78.250520056   16.137587149   618.0816   2   9   0.0005   0.0006   0.0022  -0.0003  -0.0005   0.0006   0.00    1.7
2018/03/13 13:27:54.000   78.250520053   16.137587140   618.0807   2   9   0.0005   0.0006   0.0022  -0.0003  -0.0005   0.0006   0.00    1.8
2018/03/13 13:27:55.000   78.250520051   16.137587130   618.0798   2   9   0.0005   0.0006   0.0022  -0.0003  -0.0005   0.0006   0.00    2.0
2018/03/13 13:27:56.000   78.250520048   16.137587121   618.0790   2   9   0.0005   0.0006   0.0022  -0.0003  -0.0005   0.0006   0.00    2.1
2018/03/13 13:27:57.000   78.250520047   16.137587112   618.0783   2   9   0.0005   0.0006   0.0022  -0.0003  -0.0005   0.0006   0.00    2.3
2018/03/13 13:27:58.000   78.250520045   16.137587102   618.0778   2   9   0.0005   0.0006   0.0022  -0.0003  -0.0005   0.0006   0.00    2.4
2018/03/13 13:27:59.000   78.250520044   16.137587093   618.0773   2   9   0.0005   0.0006   0.0022  -0.0003  -0.0005   0.0006   0.00    2.6
2018/03/13 13:28:00.000   78.250520042   16.137587083   618.0768   2   9   0.0005   0.0006   0.0022  -0.0003  -0.0005   0.0006   0.00    2.7
2018/03/13 13:28:01.000   78.250520041   16.137587074   618.0764   2   9   0.0005   0.0006   0.0022  -0.0003  -0.0005   0.0006   0.00    2.9
2018/03/13 13:28:02.000   78.250520040   16.137587064   618.0761   2   9   0.0005   0.0006   0.0022  -0.0003  -0.0005   0.0006   0.00    3.0
2018/03/13 13:28:03.000   78.250520095   16.137587042   618.0831   1   9   0.0004   0.0003   0.0012  -0.0001  -0.0002   0.0006   0.00    3.1
2018/03/13 13:28:04.000   78.250520095   16.137587033   618.0828   1   9   0.0004   0.0003   0.0012  -0.0001  -0.0002   0.0006   0.00    3.3
2018/03/13 13:28:05.000   78.250520095   16.137587024   618.0827   1   9   0.0004   0.0003   0.0012  -0.0001  -0.0002   0.0006   0.00    3.4
2018/03/13 13:28:06.000   78.250520095   16.137587016   618.0826   1   9   0.0004   0.0003   0.0012  -0.0001  -0.0002   0.0006   0.00    3.5
2018/03/13 13:28:07.000   78.250520096   16.137587008   618.0825   1   9   0.0004   0.0003   0.0012  -0.0001  -0.0002   0.0006   0.00    3.6
2018/03/13 13:28:08.000   78.250520097   16.137587000   618.0826   1   9   0.0004   0.0003   0.0012  -0.0001  -0.0002   0.0006   0.00    3.6
2018/03/13 13:28:09.000   78.250520098   16.137586992   618.0826   1   9   0.0004   0.0003   0.0012  -0.0001  -0.0002   0.0006   0.00    3.7
2018/03/13 13:28:10.000   78.250520098   16.137586985   618.0826   1   9   0.0004   0.0003   0.0012  -0.0001  -0.0002   0.0005   0.00    3.7
2018/03/13 13:28:11.000   78.250520099   16.137586978   618.0825   1   9   0.0004   0.0003   0.0012  -0.0001  -0.0002   0.0005   0.00    3.8
2018/03/13 13:28:12.000   78.250520100   16.137586972   618.0825   1   9   0.0004   0.0003   0.0012  -0.0001  -0.0002   0.0005   0.00    3.8
2018/03/13 13:28:13.000   78.250520100   16.137586966   618.0824   1   9   0.0004   0.0003   0.0012  -0.0001  -0.0002   0.0005   0.00    4.2
2018/03/13 13:28:14.000   78.250520101   16.137586960   618.0824   1   9   0.0004   0.0003   0.0012  -0.0001  -0.0002   0.0005   0.00    4.6
2018/03/13 13:28:15.000   78.250520102   16.137586952   618.0823   1   9   0.0004   0.0003   0.0012  -0.0001  -0.0002   0.0005   0.00    5.0
2018/03/13 13:28:16.000   78.250520103   16.137586944   618.0823   1   9   0.0004   0.0003   0.0012  -0.0001  -0.0002   0.0005   0.00    5.4
2018/03/13 13:28:17.000   78.250520040   16.137586948   618.0731   2   9   0.0005   0.0005   0.0020  -0.0003  -0.0005   0.0006   0.00    1.0
2018/03/13 13:28:18.000   78.250520041   16.137586946   618.0726   2   9   0.0005   0.0005   0.0020  -0.0003  -0.0005   0.0006   0.00    1.1
2018/03/13 13:28:19.000   78.250520043   16.137586944   618.0720   2   9   0.0005   0.0005   0.0020  -0.0003  -0.0005   0.0006   0.00    1.1
2018/03/13 13:28:20.000   78.250520044   16.137586942   618.0713   2   9   0.0005   0.0005   0.0020  -0.0003  -0.0005   0.0006   0.00    1.2
2018/03/13 13:28:21.000   78.250520046   16.137586940   618.0708   2   9   0.0005   0.0005   0.0020  -0.0003  -0.0005   0.0006   0.00    1.2
2018/03/13 13:28:22.000   78.250520047   16.137586940   618.0702   2   9   0.0005   0.0005   0.0020  -0.0003  -0.0005   0.0006   0.00    1.2
2018/03/13 13:28:23.000   78.250520049   16.137586939   618.0697   2   9   0.0005   0.0005   0.0020  -0.0003  -0.0005   0.0006   0.00    1.3
2018/03/13 13:28:24.000   78.250520050   16.137586939   618.0693   2   9   0.0005   0.0005   0.0020  -0.0003  -0.0005   0.0006   0.00    1.3
2018/03/13 13:28:25.000   78.250520051   16.137586939   618.0690   2   9   0.0005   0.0005   0.0020  -0.0003  -0.0005   0.0006   0.00    1.3
2018/03/13 13:28:26.000   78.250520053   16.137586939   618.0686   2   9   0.0005   0.0005   0.0020  -0.0003  -0.0005   0.0006   0.00    1.3
2018/03/13 13:28:27.000   78.250520054   16.137586940   618.0684   2   9   0.0005   0.0005   0.0020  -0.0003  -0.0005   0.0006   0.00    1.2
2018/03/13 13:28:28.000   78.250520056   16.137586942   618.0681   2   9   0.0005   0.0005   0.0020  -0.0003  -0.0005   0.0006   0.00    1.2
2018/03/13 13:28:29.000   78.250520057   16.137586944   618.0679   2   9   0.0005   0.0005   0.0020  -0.0003  -0.0005   0.0006   0.00    1.2
2018/03/13 13:28:30.000   78.250520058   16.137586947   618.0677   2   9   0.0005   0.0005   0.0020  -0.0003  -0.0005   0.0006   0.00    1.1
2018/03/13 13:28:31.000   78.250520060   16.137586950   618.0675   2   9   0.0005   0.0005   0.0020  -0.0003  -0.0005   0.0006   0.00    1.1
2018/03/13 13:28:32.000   78.250520061   16.137586953   618.0672   2   9   0.0005   0.0005   0.0020  -0.0003  -0.0005   0.0006   0.00    1.0
2018/03/13 13:28:33.000   78.250520062   16.137586955   618.0671   2   9   0.0005   0.0005   0.0020  -0.0003  -0.0005   0.0006   0.00    1.0
2018/03/13 13:28:34.000   78.250520064   16.137586958   618.0669   2   9   0.0005   0.0005   0.0020  -0.0003  -0.0005   0.0006   0.00    1.0
2018/03/13 13:28:35.000   78.250520065   16.137586962   618.0669   2   9   0.0005   0.0005   0.0020  -0.0003  -0.0005   0.0006   0.00    1.1
2018/03/13 13:28:36.000   78.250520067   16.137586965   618.0668   2   9   0.0005   0.0005   0.0020  -0.0003  -0.0005   0.0006   0.00    1.0
2018/03/13 13:28:37.000   78.250520068   16.137586969   618.0667   2   9   0.0005   0.0005   0.0020  -0.0003  -0.0005   0.0006   0.00    1.0
2018/03/13 13:28:38.000   78.250520069   16.137586971   618.0665   2   9   0.0005   0.0005   0.0020  -0.0003  -0.0005   0.0006   0.00    1.0
2018/03/13 13:28:39.000   78.250520070   16.137586974   618.0663   2   9   0.0005   0.0005   0.0020  -0.0003  -0.0005   0.0006   0.00    1.0
2018/03/13 13:28:40.000   78.250520072   16.137586975   618.0660   2   9   0.0005   0.0005   0.0020  -0.0003  -0.0005   0.0006   0.00    1.0
2018/03/13 13:28:41.000   78.250520073   16.137586976   618.0657   2   9   0.0005   0.0005   0.0020  -0.0003  -0.0005   0.0006   0.00    1.0
2018/03/13 13:28:42.000   78.250520074   16.137586977   618.0654   2   9   0.0005   0.0005   0.0020  -0.0003  -0.0005   0.0006   0.00    1.0
2018/03/13 13:28:43.000   78.250520075   16.137586977   618.0651   2   9   0.0005   0.0005   0.0020  -0.0003  -0.0005   0.0006   0.00    1.0
2018/03/13 13:28:44.000   78.250520077   16.137586978   618.0649   2   9   0.0005   0.0005   0.0020  -0.0003  -0.0005   0.0006   0.00    1.0
2018/03/13 13:28:45.000   78.250520078   16.137586980   618.0646   2   9   0.0005   0.0005   0.0020  -0.0003  -0.0005   0.0006   0.00    1.1
2018/03/13 13:28:46.000   78.250520079   16.137586981   618.0644   2   9   0.0005   0.0005   0.0020  -0.0003  -0.0005   0.0006   0.00    1.1
2018/03/13 13:28:47.000   78.250520080   16.137586983   618.0641   2   9   0.0005   0.0005   0.0020  -0.0003  -0.0005   0.0006   0.00    1.1
2018/03/13 13:28:48.000   78.250520082   16.137586985   618.0639   2   9   0.0005   0.0005   0.0020  -0.0003  -0.0005   0.0006   0.00    1.1
2018/03/13 13:28:49.000   78.250520083   16.137586986   618.0637   2   9   0.0005   0.0005   0.0020  -0.0003  -0.0005   0.0006   0.00    1.1
2018/03/13 13:28:50.000   78.250520084   16.137586988   618.0636   2   9   0.0005   0.0005   0.0020  -0.0003  -0.0005   0.0006   0.00    1.1
2018/03/13 13:28:51.000   78.250520086   16.137586990   618.0635   2   9   0.0005   0.0005   0.0020  -0.0003  -0.0005   0.0006   0.00    1.1
2018/03/13 13:28:52.000   78.250520087   16.137586992   618.0634   2   9   0.0005   0.0005   0.0020  -0.0003  -0.0005   0.0006   0.00    1.1
2018/03/13 13:28:53.000   78.250520089   16.137586995   618.0634   2   9   0.0005   0.0005   0.0020  -0.0003  -0.0005   0.0006   0.00    1.1
2018/03/13 13:28:54.000   78.250520090   16.137586998   618.0635   2   9   0.0005   0.0005   0.0020  -0.0003  -0.0005   0.0006   0.00    1.1
2018/03/13 13:28:55.000   78.250520092   16.137587002   618.0636   2   9   0.0005   0.0005   0.0020  -0.0003  -0.0005   0.0006   0.00    1.1
2018/03/13 13:28:56.000   78.250520093   16.137587007   618.0637   2   9   0.0005   0.0005   0.0020  -0.0003  -0.0005   0.0006   0.00    1.0
2018/03/13 13:28:57.000   78.250520095   16.137587013   618.0638   2   9   0.0005   0.0005   0.0020  -0.0003  -0.0005   0.0006   0.00    1.0
2018/03/13 13:28:58.000   78.250520096   16.137587017   618.0639   2   9   0.0005   0.0005   0.0020  -0.0003  -0.0005   0.0006   0.00    1.0
2018/03/13 13:28:59.000   78.250520098   16.137587022   618.0640   2   9   0.0005   0.0005   0.0020  -0.0003  -0.0005   0.0006   0.00    1.0
2018/03/13 13:29:00.000   78.250520099   16.137587026   618.0640   2   9   0.0005   0.0005   0.0020  -0.0003  -0.0005   0.0006   0.00    1.0
2018/03/13 13:29:01.000   78.250520101   16.137587031   618.0640   2   9   0.0005   0.0005   0.0020  -0.0003  -0.0005   0.0006   0.00    1.0
2018/03/13 13:29:02.000   78.250520102   16.137587036   618.0640   2   9   0.0005   0.0005   0.0020  -0.0002  -0.0005   0.0006   0.00    1.0
2018/03/13 13:29:03.000   78.250520103   16.137587040   618.0640   2   9   0.0005   0.0005   0.0020  -0.0002  -0.0005   0.0006   0.00    1.0
2018/03/13 13:29:04.000   78.250520105   16.137587045   618.0640   2   9   0.0005   0.0005   0.0020  -0.0002  -0.0005   0.0006   0.00    1.0
2018/03/13 13:29:05.000   78.250520106   16.137587049   618.0640   2   9   0.0005   0.0005   0.0020  -0.0002  -0.0005   0.0006   0.00    1.0
2018/03/13 13:29:06.000   78.250520107   16.137587054   618.0640   2   9   0.0005   0.0005   0.0020  -0.0002  -0.0005   0.0006   0.00    1.0
2018/03/13 13:29:07.000   78.250520108   16.137587059   618.0640   2   9   0.0005   0.0005   0.0020  -0.0002  -0.0005   0.0006   0.00    1.0
2018/03/13 13:29:08.000   78.250520110   16.137587063   618.0639   2   9   0.0005   0.0005   0.0020  -0.0002  -0.0005   0.0006   0.00    1.0
2018/03/13 13:29:09.000   78.250520111   16.137587067   618.0639   2   9   0.0005   0.0005   0.0020  -0.0002  -0.0005   0.0006   0.00    1.0
2018/03/13 13:29:10.000   78.250520112   16.137587070   618.0638   2   9   0.0005   0.0005   0.0020  -0.0002  -0.0005   0.0006   0.00    1.0
2018/03/13 13:29:11.000   78.250520113   16.137587074   618.0637   2   9   0.0005   0.0005   0.0020  -0.0002  -0.0005   0.0006   0.00    1.0
2018/03/13 13:29:12.000   78.250520114   16.137587077   618.0635   2   9   0.0005   0.0005   0.0020  -0.0002  -0.0005   0.0006   0.00    1.0
2018/03/13 13:29:13.000   78.250520115   16.137587081   618.0634   2   9   0.0005   0.0005   0.0020  -0.0002  -0.0005   0.0006   0.00    1.0
2018/03/13 13:29:14.000   78.250520116   16.137587084   618.0631   2   9   0.0005   0.0005   0.0020  -0.0002  -0.0005   0.0006   0.00    1.0
2018/03/13 13:29:15.000   78.250520117   16.137587087   618.0629   2   9   0.0005   0.0005   0.0020  -0.0002  -0.0005   0.0006   0.00    1.0
2018/03/13 13:29:16.000   78.250520117   16.137587089   618.0627   2   9   0.0005   0.0005   0.0020  -0.0002  -0.0005   0.0006   0.00    1.0
2018/03/13 13:29:17.000   78.250520118   16.137587090   618.0624   2   9   0.0005   0.0005   0.0020  -0.0002  -0.0005   0.0006   0.00    1.0
2018/03/13 13:29:18.000   78.250520119   16.137587091   618.0620   2   9   0.0005   0.0005   0.0020  -0.0002  -0.0005   0.0006   0.00    1.0
2018/03/13 13:29:19.000   78.250520120   16.137587092   618.0616   2   9   0.0005   0.0005   0.0020  -0.0002  -0.0005   0.0006   0.00    1.1
2018/03/13 13:29:20.000   78.250520120   16.137587093   618.0612   2   9   0.0005   0.0005   0.0020  -0.0002  -0.0005   0.0006   0.00    1.1
2018/03/13 13:29:21.000   78.250520121   16.137587094   618.0607   2   9   0.0005   0.0005   0.0020  -0.0002  -0.0005   0.0006   0.00    1.1
2018/03/13 13:29:22.000   78.250520121   16.137587094   618.0603   2   9   0.0005   0.0005   0.0020  -0.0002  -0.0005   0.0006   0.00    1.1
2018/03/13 13:29:23.000   78.250520122   16.137587095   618.0598   2   9   0.0005   0.0005   0.0020  -0.0002  -0.0005   0.0006   0.00    1.1
2018/03/13 13:29:24.000   78.250520122   16.137587096   618.0593   2   9   0.0005   0.0005   0.0020  -0.0002  -0.0005   0.0006   0.00    1.1
2018/03/13 13:29:25.000   78.250520123   16.137587097   618.0588   2   9   0.0005   0.0005   0.0020  -0.0002  -0.0005   0.0006   0.00    1.1
2018/03/13 13:29:26.000   78.250520123   16.137587098   618.0583   2   9   0.0005   0.0005   0.0020  -0.0002  -0.0005   0.0006   0.00    1.0
2018/03/13 13:29:27.000   78.250520123   16.137587100   618.0579   2   9   0.0005   0.0005   0.0020  -0.0002  -0.0005   0.0006   0.00    1.0
2018/03/13 13:29:28.000   78.250520124   16.137587102   618.0575   2   9   0.0005   0.0005   0.0020  -0.0002  -0.0005   0.0006   0.00    1.0
2018/03/13 13:29:29.000   78.250520124   16.137587104   618.0571   2   9   0.0005   0.0005   0.0020  -0.0002  -0.0005   0.0006   0.00    1.0
2018/03/13 13:29:30.000   78.250520125   16.137587107   618.0567   2   9   0.0005   0.0005   0.0020  -0.0002  -0.0005   0.0006   0.00    1.0
2018/03/13 13:29:31.000   78.250520125   16.137587109   618.0562   2   9   0.0005   0.0005   0.0020  -0.0002  -0.0005   0.0006   0.00    1.0
2018/03/13 13:29:32.000   78.250520125   16.137587112   618.0558   2   9   0.0005   0.0005   0.0020  -0.0002  -0.0005   0.0006   0.00    1.0
2018/03/13 13:29:33.000   78.250520125   16.137587115   618.0554   2   9   0.0005   0.0005   0.0020  -0.0002  -0.0005   0.0006   0.00    1.0
2018/03/13 13:29:34.000   78.250520126   16.137587117   618.0550   2   9   0.0005   0.0005   0.0020  -0.0002  -0.0005   0.0006   0.00    1.0
2018/03/13 13:29:35.000   78.250520126   16.137587120   618.0545   2   9   0.0005   0.0005   0.0020  -0.0002  -0.0005   0.0006   0.00    1.0
2018/03/13 13:29:36.000   78.250520126   16.137587122   618.0540   2   9   0.0005   0.0005   0.0020  -0.0002  -0.0005   0.0006   0.00    1.0
2018/03/13 13:29:37.000   78.250520127   16.137587125   618.0535   2   9   0.0005   0.0005   0.0020  -0.0002  -0.0005   0.0006   0.00    1.0
2018/03/13 13:29:38.000   78.250520127   16.137587127   618.0530   2   9   0.0005   0.0005   0.0020  -0.0002  -0.0005   0.0006   0.00    1.0
2018/03/13 13:29:39.000   78.250520127   16.137587129   618.0526   2   9   0.0005   0.0005   0.0020  -0.0002  -0.0005   0.0006   0.00    1.0
2018/03/13 13:29:40.000   78.250520128   16.137587131   618.0521   2   9   0.0005   0.0005   0.0020  -0.0002  -0.0005   0.0006   0.00    1.0
2018/03/13 13:29:41.000   78.250520128   16.137587133   618.0516   2   9   0.0005   0.0005   0.0020  -0.0002  -0.0005   0.0006   0.00    1.0
2018/03/13 13:29:42.000   78.250520128   16.137587134   618.0512   2   9   0.0005   0.0005   0.0020  -0.0002  -0.0005   0.0006   0.00    1.0
2018/03/13 13:29:43.000   78.250520129   16.137587135   618.0508   2   9   0.0005   0.0005   0.0020  -0.0002  -0.0005   0.0006   0.00    1.0
2018/03/13 13:29:44.000   78.250520129   16.137587135   618.0504   2   9   0.0005   0.0005   0.0020  -0.0002  -0.0005   0.0006   0.00    1.0
2018/03/13 13:29:45.000   78.250520129   16.137587136   618.0500   2   9   0.0005   0.0005   0.0020  -0.0002  -0.0005   0.0006   0.00    1.0
2018/03/13 13:29:46.000   78.250520130   16.137587137   618.0496   2   9   0.0005   0.0005   0.0020  -0.0002  -0.0005   0.0006   0.00    1.0
2018/03/13 13:29:47.000   78.250520130   16.137587138   618.0492   2   9   0.0005   0.0005   0.0020  -0.0002  -0.0005   0.0006   0.00    1.0
2018/03/13 13:29:48.000   78.250520131   16.137587138   618.0487   2   9   0.0005   0.0005   0.0020  -0.0002  -0.0005   0.0006   0.00    1.0
2018/03/13 13:29:49.000   78.250520131   16.137587139   618.0483   2   9   0.0005   0.0005   0.0020  -0.0002  -0.0005   0.0006   0.00    1.0
2018/03/13 13:29:50.000   78.250520131   16.137587139   618.0479   2   9   0.0005   0.0005   0.0020  -0.0002  -0.0005   0.0006   0.00    1.0
2018/03/13 13:29:51.000   78.250520132   16.137587139   618.0476   2   9   0.0005   0.0005   0.0020  -0.0002  -0.0005   0.0006   0.00    1.0
2018/03/13 13:29:52.000   78.250520132   16.137587139   618.0472   2   9   0.0005   0.0005   0.0020  -0.0002  -0.0005   0.0006   0.00    1.1
2018/03/13 13:29:53.000   78.250520133   16.137587139   618.0468   2   9   0.0005   0.0005   0.0020  -0.0002  -0.0005   0.0006   0.00    1.1
2018/03/13 13:29:54.000   78.250520133   16.137587139   618.0464   2   9   0.0005   0.0005   0.0020  -0.0002  -0.0005   0.0006   0.00    1.1
2018/03/13 13:29:55.000   78.250520133   16.137587140   618.0461   2   9   0.0005   0.0005   0.0020  -0.0002  -0.0005   0.0006   0.00    1.1
2018/03/13 13:29:56.000   78.250520134   16.137587141   618.0457   2   9   0.0005   0.0005   0.0020  -0.0002  -0.0005   0.0006   0.00    1.0
2018/03/13 13:29:57.000   78.250520134   16.137587142   618.0453   2   9   0.0005   0.0005   0.0020  -0.0002  -0.0005   0.0006   0.00    1.0
2018/03/13 13:29:58.000   78.250520134   16.137587144   618.0449   2   9   0.0005   0.0005   0.0020  -0.0002  -0.0005   0.0006   0.00    1.0
2018/03/13 13:29:59.000   78.250520134   16.137587146   618.0446   2   9   0.0005   0.0005   0.0020  -0.0002  -0.0005   0.0006   0.00    1.0
2018/03/13 13:30:00.000   78.250520135   16.137587148   618.0442   2   9   0.0005   0.0005   0.0020  -0.0002  -0.0005   0.0006   0.00    1.0
2018/03/13 13:30:01.000   78.250520135   16.137587150   618.0439   2   9   0.0005   0.0005   0.0020  -0.0002  -0.0005   0.0006   0.00    1.0
2018/03/13 13:30:02.000   78.250520135   16.137587151   618.0435   2   9   0.0005   0.0005   0.0020  -0.0002  -0.0005   0.0006   0.00    1.1
2018/03/13 13:30:03.000   78.250520135   16.137587153   618.0431   2   9   0.0005   0.0005   0.0020  -0.0002  -0.0005   0.0006   0.00    1.1
2018/03/13 13:30:04.000   78.250520136   16.137587155   618.0428   2   9   0.0005   0.0005   0.0020  -0.0002  -0.0005   0.0006   0.00    1.1
2018/03/13 13:30:05.000   78.250520136   16.137587157   618.0424   2   9   0.0005   0.0005   0.0020  -0.0002  -0.0005   0.0006   0.00    1.1
2018/03/13 13:30:06.000   78.250520136   16.137587160   618.0420   2   9   0.0005   0.0005   0.0020  -0.0002  -0.0005   0.0006   0.00    1.1
2018/03/13 13:30:07.000   78.250520136   16.137587162   618.0417   2   9   0.0005   0.0005   0.0020  -0.0002  -0.0005   0.0006   0.00    1.2
2018/03/13 13:30:08.000   78.250520136   16.137587164   618.0413   2   9   0.0005   0.0005   0.0020  -0.0002  -0.0005   0.0006   0.00    1.2
2018/03/13 13:30:09.000   78.250520136   16.137587166   618.0410   2   9   0.0005   0.0005   0.0020  -0.0002  -0.0005   0.0006   0.00    1.2
2018/03/13 13:30:10.000   78.250520137   16.137587167   618.0406   2   9   0.0005   0.0005   0.0020  -0.0002  -0.0005   0.0006   0.00    1.2
2018/03/13 13:30:11.000   78.250520137   16.137587169   618.0402   2   9   0.0005   0.0005   0.0020  -0.0002  -0.0005   0.0006   0.00    1.2
2018/03/13 13:30:12.000   78.250520137   16.137587171   618.0399   2   9   0.0005   0.0005   0.0020  -0.0002  -0.0005   0.0006   0.00    1.2
2018/03/13 13:30:13.000   78.250520137   16.137587172   618.0395   2   9   0.0005   0.0005   0.0020  -0.0002  -0.0005   0.0006   0.00    1.3
2018/03/13 13:30:14.000   78.250520137   16.137587174   618.0391   2   9   0.0005   0.0005   0.0020  -0.0002  -0.0005   0.0006   0.00    1.3
2018/03/13 13:30:15.000   78.250520137   16.137587176   618.0387   2   9   0.0005   0.0005   0.0020  -0.0002  -0.0005   0.0006   0.00    1.3
2018/03/13 13:30:16.000   78.250520138   16.137587177   618.0383   2   9   0.0005   0.0005   0.0020  -0.0002  -0.0005   0.0006   0.00    1.3
2018/03/13 13:30:17.000   78.250520138   16.137587179   618.0379   2   9   0.0005   0.0005   0.0020  -0.0002  -0.0005   0.0006   0.00    1.3
2018/03/13 13:30:18.000   78.250520138   16.137587180   618.0375   2   9   0.0005   0.0005   0.0020  -0.0002  -0.0005   0.0006   0.00    1.3
2018/03/13 13:30:19.000   78.250520138   16.137587181   618.0371   2   9   0.0005   0.0005   0.0020  -0.0002  -0.0005   0.0006   0.00    1.3
2018/03/13 13:30:20.000   78.250520138   16.137587182   618.0368   2   9   0.0005   0.0005   0.0020  -0.0002  -0.0005   0.0006   0.00    1.3
2018/03/13 13:30:21.000   78.250520138   16.137587184   618.0364   2   9   0.0005   0.0005   0.0020  -0.0002  -0.0005   0.0006   0.00    1.3
2018/03/13 13:30:22.000   78.250520138   16.137587185   618.0360   2   9   0.0005   0.0005   0.0020  -0.0002  -0.0005   0.0006   0.00    1.3
2018/03/13 13:30:23.000   78.250520138   16.137587186   618.0356   2   9   0.0005   0.0005   0.0020  -0.0002  -0.0005   0.0006   0.00    1.2
2018/03/13 13:30:24.000   78.250520138   16.137587188   618.0352   2   9   0.0005   0.0005   0.0020  -0.0002  -0.0005   0.0006   0.00    1.2
2018/03/13 13:30:25.000   78.250520138   16.137587189   618.0349   2   9   0.0005   0.0005   0.0020  -0.0002  -0.0005   0.0006   0.00    1.2
2018/03/13 13:30:26.000   78.250520138   16.137587191   618.0345   2   9   0.0005   0.0005   0.0020  -0.0002  -0.0005   0.0006   0.00    1.1
2018/03/13 13:30:27.000   78.250520138   16.137587193   618.0341   2   9   0.0005   0.0005   0.0020  -0.0002  -0.0005   0.0006   0.00    1.1
2018/03/13 13:30:28.000   78.250520138   16.137587195   618.0337   2   9   0.0005   0.0005   0.0020  -0.0002  -0.0005   0.0006   0.00    1.1
2018/03/13 13:30:29.000   78.250520138   16.137587197   618.0333   2   9   0.0005   0.0005   0.0020  -0.0002  -0.0005   0.0006   0.00    1.0
2018/03/13 13:30:30.000   78.250520138   16.137587199   618.0329   2   9   0.0005   0.0005   0.0020  -0.0002  -0.0005   0.0006   0.00    1.0
2018/03/13 13:30:31.000   78.250520138   16.137587201   618.0325   2   9   0.0005   0.0005   0.0020  -0.0002  -0.0005   0.0006   0.00    1.1
2018/03/13 13:30:32.000   78.250520138   16.137587203   618.0322   2   9   0.0005   0.0005   0.0020  -0.0002  -0.0005   0.0006   0.00    1.1
2018/03/13 13:30:33.000   78.250520138   16.137587205   618.0317   2   9   0.0005   0.0005   0.0020  -0.0002  -0.0005   0.0006   0.00    1.1
2018/03/13 13:30:34.000   78.250520138   16.137587207   618.0313   2   9   0.0005   0.0005   0.0020  -0.0002  -0.0005   0.0006   0.00    1.0
2018/03/13 13:30:35.000   78.250520138   16.137587208   618.0310   2   9   0.0005   0.0005   0.0020  -0.0002  -0.0005   0.0006   0.00    1.0
2018/03/13 13:30:36.000   78.250520138   16.137587210   618.0306   2   9   0.0005   0.0005   0.0020  -0.0002  -0.0005   0.0006   0.00    1.0
2018/03/13 13:30:37.000   78.250520138   16.137587212   618.0302   2   9   0.0005   0.0005   0.0020  -0.0002  -0.0005   0.0006   0.00    1.0
2018/03/13 13:30:38.000   78.250520138   16.137587214   618.0298   2   9   0.0005   0.0005   0.0020  -0.0002  -0.0005   0.0006   0.00    1.0
2018/03/13 13:30:39.000   78.250520137   16.137587216   618.0293   2   9   0.0005   0.0005   0.0020  -0.0002  -0.0005   0.0006   0.00    1.0
2018/03/13 13:30:40.000   78.250520137   16.137587218   618.0289   2   9   0.0005   0.0005   0.0020  -0.0002  -0.0005   0.0006   0.00    1.0
2018/03/13 13:30:41.000   78.250520137   16.137587220   618.0285   2   9   0.0005   0.0005   0.0020  -0.0002  -0.0005   0.0006   0.00    1.1
2018/03/13 13:30:42.000   78.250520137   16.137587222   618.0281   2   9   0.0005   0.0005   0.0020  -0.0002  -0.0005   0.0006   0.00    1.1
2018/03/13 13:30:43.000   78.250520138   16.137587223   618.0278   2   9   0.0005   0.0005   0.0020  -0.0002  -0.0005   0.0006   0.00    1.1
2018/03/13 13:30:44.000   78.250520138   16.137587225   618.0274   2   9   0.0005   0.0005   0.0020  -0.0002  -0.0005   0.0006   0.00    1.1
2018/03/13 13:30:45.000   78.250520138   16.137587226   618.0270   2   9   0.0005   0.0005   0.0020  -0.0002  -0.0005   0.0006   0.00    1.1
2018/03/13 13:30:46.000   78.250520138   16.137587228   618.0267   2   9   0.0005   0.0005   0.0020  -0.0002  -0.0005   0.0006   0.00    1.1
2018/03/13 13:30:47.000   78.250520138   16.137587229   618.0264   2   9   0.0005   0.0005   0.0020  -0.0002  -0.0005   0.0006   0.00    1.1
2018/03/13 13:30:48.000   78.250520138   16.137587231   618.0260   2   9   0.0005   0.0005   0.0020  -0.0002  -0.0005   0.0006   0.00    1.1
2018/03/13 13:30:49.000   78.250520138   16.137587232   618.0257   2   9   0.0005   0.0005   0.0020  -0.0002  -0.0005   0.0006   0.00    1.1
2018/03/13 13:30:50.000   78.250520139   16.137587234   618.0254   2   9   0.0005   0.0005   0.0020  -0.0002  -0.0005   0.0006   0.00    1.1
2018/03/13 13:30:51.000   78.250520139   16.137587235   618.0251   2   9   0.0005   0.0005   0.0020  -0.0002  -0.0005   0.0006   0.00    1.1
2018/03/13 13:30:52.000   78.250520139   16.137587236   618.0249   2   9   0.0005   0.0005   0.0020  -0.0002  -0.0005   0.0006   0.00    1.1
2018/03/13 13:30:53.000   78.250520140   16.137587236   618.0246   2   9   0.0005   0.0005   0.0020  -0.0002  -0.0005   0.0006   0.00    1.1
2018/03/13 13:30:54.000   78.250520140   16.137587237   618.0244   2   9   0.0005   0.0005   0.0020  -0.0002  -0.0005   0.0006   0.00    1.0
2018/03/13 13:30:55.000   78.250520140   16.137587237   618.0242   2   9   0.0005   0.0005   0.0020  -0.0002  -0.0005   0.0006   0.00    1.0
2018/03/13 13:30:56.000   78.250520141   16.137587238   618.0240   2   9   0.0005   0.0005   0.0020  -0.0002  -0.0005   0.0006   0.00    1.0
2018/03/13 13:30:57.000   78.250520141   16.137587239   618.0238   2   9   0.0005   0.0005   0.0020  -0.0002  -0.0005   0.0006   0.00    1.0
2018/03/13 13:30:58.000   78.250520141   16.137587240   618.0236   2   9   0.0005   0.0005   0.0020  -0.0002  -0.0005   0.0006   0.00    1.0
2018/03/13 13:30:59.000   78.250520142   16.137587241   618.0234   2   9   0.0005   0.0005   0.0020  -0.0002  -0.0005   0.0006   0.00    1.0
2018/03/13 13:31:00.000   78.250520142   16.137587242   618.0231   2   9   0.0005   0.0005   0.0020  -0.0002  -0.0005   0.0006   0.00    1.0
2018/03/13 13:31:01.000   78.250520142   16.137587243   618.0230   2   9   0.0005   0.0005   0.0020  -0.0002  -0.0005   0.0006   0.00    1.0
2018/03/13 13:31:02.000   78.250520142   16.137587244   618.0228   2   9   0.0005   0.0005   0.0020  -0.0002  -0.0005   0.0006   0.00    1.1
2018/03/13 13:31:03.000   78.250520143   16.137587245   618.0226   2   9   0.0005   0.0005   0.0020  -0.0002  -0.0005   0.0006   0.00    1.1
2018/03/13 13:31:04.000   78.250520143   16.137587246   618.0223   2   9   0.0005   0.0005   0.0020  -0.0002  -0.0005   0.0006   0.00    1.1
2018/03/13 13:31:05.000   78.250520143   16.137587248   618.0221   2   9   0.0005   0.0005   0.0020  -0.0002  -0.0005   0.0006   0.00    1.0
2018/03/13 13:31:06.000   78.250520143   16.137587249   618.0219   2   9   0.0005   0.0005   0.0020  -0.0002  -0.0005   0.0006   0.00    1.0
2018/03/13 13:31:07.000   78.250520144   16.137587251   618.0217   2   9   0.0005   0.0005   0.0020  -0.0002  -0.0005   0.0006   0.00    1.0
2018/03/13 13:31:08.000   78.250520144   16.137587253   618.0215   2   9   0.0005   0.0005   0.0020  -0.0002  -0.0005   0.0006   0.00    1.1
2018/03/13 13:31:09.000   78.250520144   16.137587255   618.0213   2   9   0.0005   0.0005   0.0020  -0.0002  -0.0005   0.0006   0.00    1.1
2018/03/13 13:31:10.000   78.250520144   16.137587256   618.0211   2   9   0.0005   0.0005   0.0020  -0.0002  -0.0005   0.0006   0.00    1.2
2018/03/13 13:31:11.000   78.250520145   16.137587258   618.0210   2   9   0.0005   0.0005   0.0020  -0.0002  -0.0005   0.0006   0.00    1.2
2018/03/13 13:31:12.000   78.250520145   16.137587260   618.0208   2   9   0.0005   0.0005   0.0020  -0.0002  -0.0005   0.0006   0.00    1.3
2018/03/13 13:31:13.000   78.250520145   16.137587262   618.0206   2   9   0.0005   0.0005   0.0020  -0.0002  -0.0005   0.0006   0.00    1.3
2018/03/13 13:31:14.000   78.250520145   16.137587263   618.0204   2   9   0.0005   0.0005   0.0020  -0.0002  -0.0005   0.0006   0.00    1.4
2018/03/13 13:31:15.000   78.250520145   16.137587265   618.0202   2   9   0.0005   0.0005   0.0020  -0.0002  -0.0005   0.0006   0.00    1.4
2018/03/13 13:31:16.000   78.250520146   16.137587267   618.0200   2   9   0.0005   0.0005   0.0020  -0.0002  -0.0005   0.0006   0.00    1.5
2018/03/13 13:31:17.000   78.250520146   16.137587269   618.0198   2   9   0.0005   0.0005   0.0020  -0.0002  -0.0005   0.0006   0.00    1.5
2018/03/13 13:31:18.000   78.250520146   16.137587271   618.0195   2   9   0.0005   0.0005   0.0020  -0.0002  -0.0005   0.0006   0.00    1.5
2018/03/13 13:31:19.000   78.250520146   16.137587274   618.0193   2   9   0.0005   0.0005   0.0020  -0.0002  -0.0005   0.0006   0.00    1.5
2018/03/13 13:31:20.000   78.250520146   16.137587276   618.0191   2   9   0.0005   0.0005   0.0020  -0.0002  -0.0005   0.0006   0.00    1.6
2018/03/13 13:31:21.000   78.250520147   16.137587278   618.0188   2   9   0.0005   0.0005   0.0020  -0.0002  -0.0005   0.0006   0.00    1.6
2018/03/13 13:31:22.000   78.250520147   16.137587280   618.0186   2   9   0.0005   0.0005   0.0020  -0.0002  -0.0005   0.0006   0.00    1.6
2018/03/13 13:31:23.000   78.250520147   16.137587282   618.0184   2   9   0.0005   0.0005   0.0020  -0.0002  -0.0005   0.0006   0.00    1.6
2018/03/13 13:31:24.000   78.250520147   16.137587285   618.0182   2   9   0.0005   0.0005   0.0020  -0.0002  -0.0005   0.0006   0.00    1.7
2018/03/13 13:31:25.000   78.250520148   16.137587287   618.0180   2   9   0.0005   0.0005   0.0020  -0.0002  -0.0005   0.0006   0.00    1.7
2018/03/13 13:31:26.000   78.250520148   16.137587289   618.0178   2   9   0.0005   0.0005   0.0020  -0.0002  -0.0005   0.0006   0.00    1.7
2018/03/13 13:31:27.000   78.250520148   16.137587291   618.0177   2   9   0.0005   0.0005   0.0020  -0.0002  -0.0005   0.0006   0.00    1.7
2018/03/13 13:31:28.000   78.250520148   16.137587294   618.0176   2   9   0.0005   0.0005   0.0020  -0.0002  -0.0005   0.0006   0.00    1.7
2018/03/13 13:31:29.000   78.250520149   16.137587296   618.0174   2   9   0.0005   0.0005   0.0020  -0.0002  -0.0005   0.0006   0.00    1.7
