% program   : RTKPOST ver.2.4.2
% inp file  : Z:\home\linda\Documents\Spring18\GitHub_Unis\data\processed_data\46250722.obs
% inp file  : Z:\home\linda\Documents\Spring18\GitHub_Unis\data\base_station_data\lyrs0720.18o
% inp file  : Z:\home\linda\Documents\Spring18\GitHub_Unis\data\processed_data\46250722.nav
% obs start : 2018/03/13 12:37:03.0 GPST (week1992 218223.0s)
% obs end   : 2018/03/13 12:52:04.0 GPST (week1992 219124.0s)
% pos mode  : static
% freqs     : L1+L2
% solution  : forward
% elev mask : 15.0 deg
% dynamics  : on
% tidecorr  : off
% ionos opt : broadcast
% tropo opt : saastamoinen
% ephemeris : broadcast
% navi sys  : gps glonass galileo qzss sbas
% amb res   : fix and hold
% amb glo   : on
% val thres : 3.0
% antenna1  :                       ( 0.0000  0.0000  0.0000)
% antenna2  :                       ( 0.0000  0.0000  0.0000)
% ref pos   : 78.228825638   15.397310064   495.6816
%
% (lat/lon/height=WGS84/ellipsoidal,Q=1:fix,2:float,3:sbas,4:dgps,5:single,6:ppp,ns=# of satellites)
%  GPST                  latitude(deg) longitude(deg)  height(m)   Q  ns   sdn(m)   sde(m)   sdu(m)  sdne(m)  sdeu(m)  sdun(m) age(s)  ratio
2018/03/13 12:37:03.000   78.254784151   16.249347364   342.2755   2   8   0.4444   0.4350   2.2732  -0.2145   0.7080  -0.3467   0.00    1.1
2018/03/13 12:37:04.000   78.254782088   16.249353602   343.1104   2   8   0.3161   0.3091   1.6184  -0.1522   0.5036  -0.2432   0.00    1.0
2018/03/13 12:37:05.000   78.254781863   16.249353996   343.1546   2   8   0.2586   0.2527   1.3232  -0.1244   0.4117  -0.1978   0.00    1.0
2018/03/13 12:37:06.000   78.254781863   16.249357624   343.1576   2   8   0.2242   0.2189   1.1455  -0.1077   0.3563  -0.1708   0.00    1.0
2018/03/13 12:37:07.000   78.254781804   16.249357292   343.0243   2   8   0.2006   0.1958   1.0232  -0.0963   0.3182  -0.1524   0.00    1.1
2018/03/13 12:37:08.000   78.254781461   16.249359291   343.0122   2   8   0.1832   0.1787   0.9322  -0.0879   0.2899  -0.1387   0.00    1.1
2018/03/13 12:37:09.000   78.254781641   16.249357408   342.9591   2   8   0.1696   0.1653   0.8608  -0.0813   0.2677  -0.1281   0.00    1.1
2018/03/13 12:37:10.000   78.254781668   16.249355990   342.7744   2   8   0.1586   0.1545   0.8027  -0.0760   0.2496  -0.1195   0.00    1.2
2018/03/13 12:37:11.000   78.254781745   16.249354933   342.4942   2   8   0.1496   0.1455   0.7540  -0.0716   0.2344  -0.1123   0.00    1.2
2018/03/13 12:37:12.000   78.254781681   16.249354180   342.2927   2   8   0.1419   0.1379   0.7124  -0.0678   0.2215  -0.1061   0.00    1.3
2018/03/13 12:37:13.000   78.254781659   16.249354363   342.1423   2   8   0.1353   0.1313   0.6763  -0.0646   0.2102  -0.1008   0.00    1.3
2018/03/13 12:37:14.000   78.254781599   16.249355004   342.1051   2   8   0.1295   0.1256   0.6443  -0.0618   0.2002  -0.0961   0.00    1.4
2018/03/13 12:37:15.000   78.254781520   16.249354822   342.0853   2   8   0.1244   0.1205   0.6158  -0.0593   0.1914  -0.0920   0.00    1.4
2018/03/13 12:37:16.000   78.254781510   16.249355210   342.0680   2   8   0.1198   0.1159   0.5900  -0.0570   0.1833  -0.0882   0.00    1.5
2018/03/13 12:37:17.000   78.254781560   16.249354148   341.9356   2   8   0.1157   0.1118   0.5666  -0.0550   0.1760  -0.0848   0.00    1.6
2018/03/13 12:37:18.000   78.254781335   16.249354173   341.9189   2   8   0.1120   0.1081   0.5452  -0.0532   0.1693  -0.0817   0.00    1.6
2018/03/13 12:37:19.000   78.254781235   16.249353684   341.8267   2   8   0.1087   0.1047   0.5254  -0.0515   0.1631  -0.0789   0.00    1.6
2018/03/13 12:37:20.000   78.254781376   16.249352844   341.6756   2   8   0.1056   0.1015   0.5070  -0.0500   0.1574  -0.0763   0.00    1.6
2018/03/13 12:37:21.000   78.254781463   16.249352240   341.5907   2   8   0.1027   0.0986   0.4899  -0.0485   0.1521  -0.0738   0.00    1.6
2018/03/13 12:37:22.000   78.254781392   16.249352858   341.6247   2   8   0.1001   0.0959   0.4739  -0.0472   0.1471  -0.0716   0.00    1.6
2018/03/13 12:37:23.000   78.254781469   16.249353250   341.7313   2   8   0.0976   0.0934   0.4589  -0.0460   0.1424  -0.0695   0.00    1.6
2018/03/13 12:37:24.000   78.254781552   16.249354020   341.8455   2   8   0.0953   0.0911   0.4447  -0.0448   0.1380  -0.0675   0.00    1.6
2018/03/13 12:37:25.000   78.254781580   16.249354691   341.9484   2   8   0.0932   0.0889   0.4313  -0.0438   0.1338  -0.0656   0.00    1.6
2018/03/13 12:37:26.000   78.254781638   16.249354574   342.0370   2   8   0.0912   0.0868   0.4187  -0.0427   0.1298  -0.0638   0.00    1.6
2018/03/13 12:37:27.000   78.254781647   16.249354893   342.0937   2   8   0.0893   0.0849   0.4066  -0.0418   0.1260  -0.0621   0.00    1.6
2018/03/13 12:37:28.000   78.254781608   16.249355479   342.1660   2   8   0.0875   0.0830   0.3952  -0.0409   0.1225  -0.0605   0.00    1.6
2018/03/13 12:37:29.000   78.254781559   16.249355928   342.2319   2   8   0.0859   0.0813   0.3843  -0.0400   0.1190  -0.0590   0.00    1.6
2018/03/13 12:37:30.000   78.254781617   16.249355959   342.2596   2   8   0.0843   0.0796   0.3739  -0.0392   0.1158  -0.0576   0.00    1.6
2018/03/13 12:37:31.000   78.254781654   16.249356307   342.3033   2   8   0.0828   0.0781   0.3639  -0.0384   0.1127  -0.0562   0.00    1.6
2018/03/13 12:37:32.000   78.254781605   16.249356773   342.3478   2   8   0.0813   0.0766   0.3544  -0.0377   0.1097  -0.0549   0.00    1.6
2018/03/13 12:37:33.000   78.254781592   16.249356843   342.3509   2   8   0.0800   0.0751   0.3452  -0.0370   0.1068  -0.0537   0.00    1.6
2018/03/13 12:37:34.000   78.254781490   16.249357337   342.3933   2   8   0.0787   0.0738   0.3365  -0.0363   0.1040  -0.0525   0.00    1.6
2018/03/13 12:37:35.000   78.254781533   16.249357095   342.4014   2   8   0.0774   0.0725   0.3280  -0.0357   0.1014  -0.0513   0.00    1.6
2018/03/13 12:37:36.000   78.254781571   16.249356973   342.3945   2   8   0.0762   0.0712   0.3199  -0.0351   0.0989  -0.0502   0.00    1.6
2018/03/13 12:37:37.000   78.254781558   16.249357146   342.3741   2   8   0.0751   0.0700   0.3122  -0.0345   0.0964  -0.0492   0.00    1.6
2018/03/13 12:37:38.000   78.254781627   16.249357208   342.3197   2   8   0.0740   0.0689   0.3047  -0.0339   0.0941  -0.0482   0.00    1.6
2018/03/13 12:37:39.000   78.254781722   16.249356945   342.2739   2   8   0.0729   0.0678   0.2974  -0.0333   0.0918  -0.0472   0.00    1.5
2018/03/13 12:37:40.000   78.254781744   16.249356864   342.2325   2   8   0.0719   0.0667   0.2905  -0.0328   0.0896  -0.0463   0.00    1.5
2018/03/13 12:37:41.000   78.254781791   16.249356633   342.1952   2   8   0.0709   0.0657   0.2837  -0.0323   0.0875  -0.0454   0.00    1.5
2018/03/13 12:37:42.000   78.254781868   16.249356665   342.1799   2   8   0.0700   0.0647   0.2772  -0.0318   0.0854  -0.0445   0.00    1.5
2018/03/13 12:37:43.000   78.254781984   16.249356606   342.1379   2   8   0.0691   0.0638   0.2710  -0.0313   0.0835  -0.0437   0.00    1.5
2018/03/13 12:37:44.000   78.254782009   16.249356925   342.1482   2   8   0.0682   0.0629   0.2649  -0.0309   0.0816  -0.0429   0.00    1.4
2018/03/13 12:37:45.000   78.254782072   16.249357112   342.1223   2   8   0.0674   0.0620   0.2591  -0.0304   0.0797  -0.0421   0.00    1.4
2018/03/13 12:37:46.000   78.254782125   16.249357201   342.1318   2   8   0.0665   0.0612   0.2534  -0.0300   0.0779  -0.0413   0.00    1.4
2018/03/13 12:37:47.000   78.254782066   16.249357726   342.1260   2   8   0.0658   0.0603   0.2479  -0.0296   0.0762  -0.0406   0.00    1.4
2018/03/13 12:37:48.000   78.254782022   16.249357069   341.9783   2   8   0.0650   0.0595   0.2426  -0.0292   0.0745  -0.0399   0.00    1.4
2018/03/13 12:37:49.000   78.254781951   16.249356677   341.8918   2   8   0.0642   0.0588   0.2375  -0.0288   0.0729  -0.0392   0.00    1.4
2018/03/13 12:37:50.000   78.254781850   16.249356489   341.8201   2   8   0.0635   0.0580   0.2325  -0.0284   0.0714  -0.0386   0.00    1.4
2018/03/13 12:37:51.000   78.254781790   16.249355936   341.7117   2   8   0.0628   0.0573   0.2277  -0.0280   0.0698  -0.0379   0.00    1.3
2018/03/13 12:37:52.000   78.254781786   16.249355926   341.6767   2   8   0.0621   0.0566   0.2231  -0.0277   0.0684  -0.0373   0.00    1.3
2018/03/13 12:37:53.000   78.254781817   16.249355825   341.6574   2   8   0.0615   0.0559   0.2185  -0.0273   0.0669  -0.0367   0.00    1.3
2018/03/13 12:37:54.000   78.254781819   16.249355653   341.6444   2   8   0.0608   0.0552   0.2142  -0.0270   0.0656  -0.0362   0.00    1.3
2018/03/13 12:37:55.000   78.254781839   16.249355526   341.6405   2   8   0.0602   0.0546   0.2099  -0.0266   0.0642  -0.0356   0.00    1.3
2018/03/13 12:37:56.000   78.254781816   16.249355546   341.6212   2   8   0.0596   0.0540   0.2058  -0.0263   0.0629  -0.0351   0.00    1.2
2018/03/13 12:37:57.000   78.254781828   16.249355464   341.6017   2   8   0.0590   0.0534   0.2018  -0.0260   0.0616  -0.0345   0.00    1.2
2018/03/13 12:37:58.000   78.254781839   16.249355461   341.5730   2   8   0.0584   0.0528   0.1979  -0.0257   0.0604  -0.0340   0.00    1.2
2018/03/13 12:37:59.000   78.254781826   16.249355494   341.5722   2   8   0.0578   0.0522   0.1941  -0.0254   0.0592  -0.0335   0.00    1.2
2018/03/13 12:38:00.000   78.254781849   16.249355730   341.5653   2   8   0.0573   0.0516   0.1905  -0.0251   0.0581  -0.0331   0.00    1.2
2018/03/13 12:38:01.000   78.254781887   16.249355927   341.5543   2   8   0.0567   0.0511   0.1869  -0.0248   0.0569  -0.0326   0.00    1.1
2018/03/13 12:38:02.000   78.254781926   16.249356167   341.5372   2   8   0.0562   0.0506   0.1834  -0.0245   0.0558  -0.0322   0.00    1.1
2018/03/13 12:38:03.000   78.254782007   16.249356577   341.5610   2   8   0.0557   0.0500   0.1801  -0.0242   0.0548  -0.0317   0.00    1.1
2018/03/13 12:38:04.000   78.254782018   16.249356999   341.6025   2   8   0.0552   0.0495   0.1768  -0.0239   0.0537  -0.0313   0.00    1.1
2018/03/13 12:38:05.000   78.254782066   16.249357385   341.6567   2   8   0.0547   0.0490   0.1736  -0.0237   0.0527  -0.0309   0.00    1.1
2018/03/13 12:38:06.000   78.254782157   16.249357782   341.7104   2   8   0.0542   0.0486   0.1705  -0.0234   0.0517  -0.0305   0.00    1.1
2018/03/13 12:38:07.000   78.254782243   16.249358261   341.7460   2   8   0.0537   0.0481   0.1675  -0.0232   0.0508  -0.0301   0.00    1.1
2018/03/13 12:38:08.000   78.254782321   16.249358755   341.7833   2   8   0.0533   0.0476   0.1646  -0.0229   0.0499  -0.0297   0.00    1.1
2018/03/13 12:38:09.000   78.254782410   16.249359120   341.8106   2   8   0.0528   0.0472   0.1617  -0.0227   0.0490  -0.0293   0.00    1.1
2018/03/13 12:38:10.000   78.254782511   16.249359485   341.8550   2   8   0.0524   0.0467   0.1589  -0.0224   0.0481  -0.0290   0.00    1.1
2018/03/13 12:38:11.000   78.254782630   16.249359777   341.8885   2   8   0.0519   0.0463   0.1562  -0.0222   0.0472  -0.0286   0.00    1.1
2018/03/13 12:38:12.000   78.254782774   16.249360004   341.9164   2   8   0.0515   0.0459   0.1536  -0.0220   0.0464  -0.0283   0.00    1.1
2018/03/13 12:38:13.000   78.254782929   16.249360286   341.9477   2   8   0.0511   0.0455   0.1510  -0.0217   0.0456  -0.0279   0.00    1.1
2018/03/13 12:38:14.000   78.254783066   16.249360336   341.9728   2   8   0.0507   0.0451   0.1485  -0.0215   0.0448  -0.0276   0.00    1.1
2018/03/13 12:38:15.000   78.254783191   16.249360448   342.0110   2   8   0.0503   0.0447   0.1461  -0.0213   0.0440  -0.0273   0.00    1.1
2018/03/13 12:38:16.000   78.254783313   16.249360176   342.0374   2   8   0.0499   0.0443   0.1437  -0.0211   0.0432  -0.0270   0.00    1.1
2018/03/13 12:38:17.000   78.254783427   16.249359794   342.0425   2   8   0.0495   0.0439   0.1414  -0.0209   0.0425  -0.0267   0.00    1.1
2018/03/13 12:38:18.000   78.254783519   16.249359565   342.0627   2   8   0.0491   0.0435   0.1392  -0.0206   0.0418  -0.0264   0.00    1.1
2018/03/13 12:38:19.000   78.254783635   16.249359315   342.0789   2   8   0.0487   0.0432   0.1370  -0.0204   0.0411  -0.0261   0.00    1.0
2018/03/13 12:38:20.000   78.254783707   16.249359094   342.0896   2   8   0.0483   0.0428   0.1348  -0.0202   0.0404  -0.0258   0.00    1.0
2018/03/13 12:38:21.000   78.254783780   16.249358922   342.1065   2   8   0.0480   0.0425   0.1327  -0.0200   0.0397  -0.0255   0.00    1.0
2018/03/13 12:38:22.000   78.254783888   16.249358789   342.1354   2   8   0.0476   0.0421   0.1307  -0.0198   0.0391  -0.0253   0.00    1.0
2018/03/13 12:38:23.000   78.254783980   16.249358747   342.1748   2   8   0.0473   0.0418   0.1287  -0.0196   0.0384  -0.0250   0.00    1.0
2018/03/13 12:38:24.000   78.254784085   16.249358510   342.2133   2   8   0.0469   0.0414   0.1267  -0.0195   0.0378  -0.0248   0.00    1.1
2018/03/13 12:38:25.000   78.254784169   16.249358399   342.2467   2   8   0.0466   0.0411   0.1248  -0.0193   0.0372  -0.0245   0.00    1.1
2018/03/13 12:38:26.000   78.254784269   16.249358472   342.2931   2   8   0.0462   0.0408   0.1230  -0.0191   0.0366  -0.0243   0.00    1.1
2018/03/13 12:38:27.000   78.254784350   16.249358480   342.3353   2   8   0.0459   0.0405   0.1212  -0.0189   0.0360  -0.0240   0.00    1.1
2018/03/13 12:38:28.000   78.254784462   16.249358463   342.3662   2   8   0.0456   0.0402   0.1194  -0.0187   0.0355  -0.0238   0.00    1.1
2018/03/13 12:38:29.000   78.254784551   16.249358405   342.3850   2   8   0.0453   0.0399   0.1177  -0.0185   0.0349  -0.0236   0.00    1.1
2018/03/13 12:38:30.000   78.254784631   16.249358324   342.3903   2   8   0.0450   0.0396   0.1160  -0.0184   0.0344  -0.0233   0.00    1.1
2018/03/13 12:38:31.000   78.254784698   16.249358261   342.3847   2   8   0.0446   0.0393   0.1143  -0.0182   0.0338  -0.0231   0.00    1.1
2018/03/13 12:38:32.000   78.254784764   16.249358220   342.3661   2   8   0.0443   0.0390   0.1127  -0.0180   0.0333  -0.0229   0.00    1.1
2018/03/13 12:38:33.000   78.254784823   16.249358215   342.3581   2   8   0.0440   0.0387   0.1111  -0.0178   0.0328  -0.0227   0.00    1.1
2018/03/13 12:38:34.000   78.254784877   16.249358258   342.3456   2   8   0.0437   0.0384   0.1096  -0.0177   0.0323  -0.0225   0.00    1.1
2018/03/13 12:38:35.000   78.254784958   16.249358246   342.3269   2   8   0.0434   0.0381   0.1081  -0.0175   0.0318  -0.0223   0.00    1.1
2018/03/13 12:38:36.000   78.254785010   16.249358277   342.3046   2   8   0.0432   0.0379   0.1066  -0.0174   0.0314  -0.0221   0.00    1.1
2018/03/13 12:38:37.000   78.254785058   16.249358330   342.2907   2   8   0.0429   0.0376   0.1051  -0.0172   0.0309  -0.0219   0.00    1.1
2018/03/13 12:38:38.000   78.254785112   16.249358312   342.2793   2   8   0.0426   0.0373   0.1037  -0.0170   0.0305  -0.0217   0.00    1.1
2018/03/13 12:38:39.000   78.254785156   16.249358480   342.2618   2   8   0.0423   0.0371   0.1023  -0.0169   0.0300  -0.0215   0.00    1.1
2018/03/13 12:38:40.000   78.254785164   16.249358398   342.2404   2   8   0.0420   0.0368   0.1010  -0.0167   0.0296  -0.0213   0.00    1.1
2018/03/13 12:38:41.000   78.254785211   16.249358358   342.2115   2   8   0.0418   0.0366   0.0997  -0.0166   0.0291  -0.0212   0.00    1.1
2018/03/13 12:38:42.000   78.254785225   16.249358258   342.1762   2   8   0.0415   0.0363   0.0984  -0.0164   0.0287  -0.0210   0.00    1.1
2018/03/13 12:38:43.000   78.254785243   16.249358193   342.1369   2   8   0.0412   0.0361   0.0971  -0.0163   0.0283  -0.0208   0.00    1.1
2018/03/13 12:38:44.000   78.254785211   16.249357982   342.0892   2   8   0.0410   0.0359   0.0958  -0.0161   0.0279  -0.0206   0.00    1.1
2018/03/13 12:38:45.000   78.254785137   16.249357942   342.0447   2   8   0.0407   0.0356   0.0946  -0.0160   0.0275  -0.0205   0.00    1.1
2018/03/13 12:38:46.000   78.254785042   16.249357852   342.0025   2   8   0.0405   0.0354   0.0934  -0.0158   0.0271  -0.0203   0.00    1.2
2018/03/13 12:38:47.000   78.254784944   16.249357796   341.9618   2   8   0.0402   0.0351   0.0923  -0.0157   0.0268  -0.0202   0.00    1.2
2018/03/13 12:38:48.000   78.254784840   16.249357640   341.9266   2   8   0.0400   0.0349   0.0911  -0.0155   0.0264  -0.0200   0.00    1.2
2018/03/13 12:38:49.000   78.254784758   16.249357609   341.8894   2   8   0.0397   0.0347   0.0900  -0.0154   0.0260  -0.0198   0.00    1.2
2018/03/13 12:38:50.000   78.254784651   16.249357534   341.8518   2   8   0.0395   0.0345   0.0889  -0.0153   0.0257  -0.0197   0.00    1.2
2018/03/13 12:38:51.000   78.254784549   16.249357439   341.8125   2   8   0.0392   0.0343   0.0878  -0.0151   0.0253  -0.0195   0.00    1.2
2018/03/13 12:38:52.000   78.254784437   16.249357321   341.7840   2   8   0.0390   0.0340   0.0867  -0.0150   0.0250  -0.0194   0.00    1.2
2018/03/13 12:38:53.000   78.254784319   16.249357173   341.7558   2   8   0.0388   0.0338   0.0857  -0.0149   0.0246  -0.0192   0.00    1.2
2018/03/13 12:38:54.000   78.254784197   16.249357013   341.7238   2   8   0.0385   0.0336   0.0847  -0.0147   0.0243  -0.0191   0.00    1.2
2018/03/13 12:38:55.000   78.254784081   16.249356913   341.6889   2   8   0.0383   0.0334   0.0837  -0.0146   0.0240  -0.0190   0.00    1.2
2018/03/13 12:38:56.000   78.254783985   16.249356754   341.6504   2   8   0.0381   0.0332   0.0827  -0.0145   0.0237  -0.0188   0.00    1.2
2018/03/13 12:38:57.000   78.254783862   16.249356794   341.6230   2   8   0.0379   0.0330   0.0817  -0.0143   0.0234  -0.0187   0.00    1.3
2018/03/13 12:38:58.000   78.254783734   16.249356739   341.6051   2   8   0.0376   0.0328   0.0808  -0.0142   0.0231  -0.0186   0.00    1.3
2018/03/13 12:38:59.000   78.254783605   16.249356791   341.5904   2   8   0.0374   0.0326   0.0799  -0.0141   0.0228  -0.0184   0.00    1.3
2018/03/13 12:39:00.000   78.254783508   16.249356770   341.5728   2   8   0.0372   0.0324   0.0790  -0.0139   0.0225  -0.0183   0.00    1.2
2018/03/13 12:39:01.000   78.254783399   16.249356857   341.5529   2   8   0.0370   0.0322   0.0781  -0.0138   0.0222  -0.0182   0.00    1.2
2018/03/13 12:39:02.000   78.254783343   16.249356921   341.5324   2   8   0.0368   0.0320   0.0772  -0.0137   0.0219  -0.0180   0.00    1.2
2018/03/13 12:39:03.000   78.254783248   16.249356863   341.5082   2   8   0.0366   0.0318   0.0763  -0.0136   0.0216  -0.0179   0.00    1.2
2018/03/13 12:39:04.000   78.254783100   16.249357057   341.5006   2   8   0.0364   0.0317   0.0755  -0.0135   0.0213  -0.0178   0.00    1.2
2018/03/13 12:39:05.000   78.254782962   16.249357229   341.5065   2   8   0.0362   0.0315   0.0747  -0.0133   0.0211  -0.0177   0.00    1.2
2018/03/13 12:39:06.000   78.254782809   16.249357507   341.5013   2   8   0.0360   0.0313   0.0738  -0.0132   0.0208  -0.0176   0.00    1.2
2018/03/13 12:39:07.000   78.254782688   16.249357772   341.5003   2   8   0.0358   0.0311   0.0730  -0.0131   0.0205  -0.0175   0.00    1.2
2018/03/13 12:39:08.000   78.254782580   16.249358143   341.4938   2   8   0.0356   0.0309   0.0723  -0.0130   0.0203  -0.0173   0.00    1.2
2018/03/13 12:39:09.000   78.254782510   16.249358485   341.4861   2   8   0.0354   0.0308   0.0715  -0.0129   0.0200  -0.0172   0.00    1.2
2018/03/13 12:39:10.000   78.254782460   16.249358774   341.4808   2   8   0.0352   0.0306   0.0707  -0.0128   0.0198  -0.0171   0.00    1.2
2018/03/13 12:39:11.000   78.254782393   16.249359061   341.4749   2   8   0.0350   0.0304   0.0700  -0.0126   0.0195  -0.0170   0.00    1.2
2018/03/13 12:39:12.000   78.254782326   16.249359310   341.4700   2   8   0.0348   0.0302   0.0692  -0.0125   0.0193  -0.0169   0.00    1.2
2018/03/13 12:39:13.000   78.254782283   16.249359486   341.4620   2   8   0.0346   0.0301   0.0685  -0.0124   0.0191  -0.0168   0.00    1.2
2018/03/13 12:39:14.000   78.254782234   16.249359601   341.4573   2   8   0.0344   0.0299   0.0678  -0.0123   0.0188  -0.0167   0.00    1.1
2018/03/13 12:39:15.000   78.254782195   16.249359776   341.4580   2   8   0.0342   0.0297   0.0671  -0.0122   0.0186  -0.0166   0.00    1.1
2018/03/13 12:39:16.000   78.254782180   16.249359865   341.4570   2   8   0.0341   0.0296   0.0664  -0.0121   0.0184  -0.0165   0.00    1.1
2018/03/13 12:39:17.000   78.254782161   16.249359843   341.4546   2   8   0.0339   0.0294   0.0658  -0.0120   0.0182  -0.0164   0.00    1.1
2018/03/13 12:39:18.000   78.254782121   16.249359886   341.4597   2   8   0.0337   0.0293   0.0651  -0.0119   0.0179  -0.0163   0.00    1.1
2018/03/13 12:39:19.000   78.254782077   16.249359880   341.4589   2   8   0.0335   0.0291   0.0644  -0.0118   0.0177  -0.0162   0.00    1.1
2018/03/13 12:39:20.000   78.254782030   16.249359877   341.4613   2   8   0.0333   0.0289   0.0638  -0.0117   0.0175  -0.0161   0.00    1.1
2018/03/13 12:39:21.000   78.254781971   16.249359892   341.4693   2   8   0.0332   0.0288   0.0632  -0.0116   0.0173  -0.0160   0.00    1.1
2018/03/13 12:39:22.000   78.254781926   16.249359830   341.4805   2   8   0.0330   0.0286   0.0626  -0.0114   0.0171  -0.0159   0.00    1.1
2018/03/13 12:39:23.000   78.254781918   16.249359620   341.4748   2   8   0.0328   0.0285   0.0619  -0.0113   0.0169  -0.0158   0.00    1.1
2018/03/13 12:39:24.000   78.254781883   16.249359709   341.4917   2   8   0.0327   0.0283   0.0613  -0.0112   0.0167  -0.0157   0.00    1.1
2018/03/13 12:39:25.000   78.254781850   16.249359796   341.5090   2   8   0.0325   0.0282   0.0608  -0.0111   0.0165  -0.0156   0.00    1.1
2018/03/13 12:39:26.000   78.254781849   16.249359796   341.5249   2   8   0.0323   0.0280   0.0602  -0.0110   0.0163  -0.0155   0.00    1.0
2018/03/13 12:39:27.000   78.254781825   16.249359813   341.5443   2   8   0.0322   0.0279   0.0596  -0.0109   0.0161  -0.0155   0.00    1.0
2018/03/13 12:39:28.000   78.254781834   16.249359615   341.5583   2   8   0.0320   0.0278   0.0590  -0.0108   0.0160  -0.0154   0.00    1.0
2018/03/13 12:39:29.000   78.254781837   16.249359461   341.5729   2   8   0.0318   0.0276   0.0585  -0.0107   0.0158  -0.0153   0.00    1.0
2018/03/13 12:39:30.000   78.254781869   16.249359120   341.5886   2   8   0.0317   0.0275   0.0579  -0.0106   0.0156  -0.0152   0.00    1.0
2018/03/13 12:39:31.000   78.254781890   16.249358928   341.6014   2   8   0.0315   0.0273   0.0574  -0.0105   0.0154  -0.0151   0.00    1.0
2018/03/13 12:39:32.000   78.254781912   16.249358647   341.6111   2   8   0.0313   0.0272   0.0569  -0.0105   0.0152  -0.0150   0.00    1.0
2018/03/13 12:39:33.000   78.254781949   16.249358333   341.6177   2   8   0.0312   0.0271   0.0563  -0.0104   0.0151  -0.0149   0.00    1.0
2018/03/13 12:39:34.000   78.254782006   16.249358009   341.6278   2   8   0.0310   0.0269   0.0558  -0.0103   0.0149  -0.0149   0.00    1.0
2018/03/13 12:39:35.000   78.254782079   16.249357726   341.6421   2   8   0.0309   0.0268   0.0553  -0.0102   0.0147  -0.0148   0.00    1.0
2018/03/13 12:39:36.000   78.254782136   16.249357447   341.6585   2   8   0.0307   0.0266   0.0548  -0.0101   0.0146  -0.0147   0.00    1.0
2018/03/13 12:39:37.000   78.254782235   16.249357038   341.6675   2   8   0.0306   0.0265   0.0543  -0.0100   0.0144  -0.0146   0.00    1.0
2018/03/13 12:39:38.000   78.254782330   16.249356811   341.6815   2   8   0.0304   0.0264   0.0539  -0.0099   0.0142  -0.0145   0.00    1.0
2018/03/13 12:39:39.000   78.254782410   16.249356669   341.6949   2   8   0.0303   0.0263   0.0534  -0.0098   0.0141  -0.0145   0.00    1.0
2018/03/13 12:39:40.000   78.254782514   16.249356480   341.6999   2   8   0.0301   0.0261   0.0529  -0.0097   0.0139  -0.0144   0.00    1.0
2018/03/13 12:39:41.000   78.254782619   16.249356277   341.7109   2   8   0.0300   0.0260   0.0525  -0.0096   0.0138  -0.0143   0.00    1.0
2018/03/13 12:39:42.000   78.254782722   16.249356085   341.7255   2   8   0.0298   0.0259   0.0520  -0.0095   0.0136  -0.0142   0.00    1.0
2018/03/13 12:39:43.000   78.254782823   16.249355881   341.7389   2   8   0.0297   0.0257   0.0515  -0.0094   0.0135  -0.0142   0.00    1.0
2018/03/13 12:39:44.000   78.254782913   16.249355678   341.7464   2   8   0.0296   0.0256   0.0511  -0.0093   0.0133  -0.0141   0.00    1.0
2018/03/13 12:39:45.000   78.254783015   16.249355395   341.7557   2   8   0.0294   0.0255   0.0507  -0.0093   0.0132  -0.0140   0.00    1.0
2018/03/13 12:39:46.000   78.254783130   16.249355274   341.7680   2   8   0.0293   0.0254   0.0502  -0.0092   0.0130  -0.0140   0.00    1.0
2018/03/13 12:39:47.000   78.254783256   16.249355191   341.7806   2   8   0.0291   0.0252   0.0498  -0.0091   0.0129  -0.0139   0.00    1.0
2018/03/13 12:39:48.000   78.254783388   16.249355004   341.7927   2   8   0.0290   0.0251   0.0494  -0.0090   0.0128  -0.0138   0.00    1.0
2018/03/13 12:39:49.000   78.254783527   16.249354873   341.8002   2   8   0.0289   0.0250   0.0490  -0.0089   0.0126  -0.0138   0.00    1.1
2018/03/13 12:39:50.000   78.254783681   16.249354644   341.8082   2   8   0.0287   0.0249   0.0486  -0.0088   0.0125  -0.0137   0.00    1.1
2018/03/13 12:39:51.000   78.254783825   16.249354489   341.8146   2   8   0.0286   0.0248   0.0482  -0.0087   0.0124  -0.0136   0.00    1.1
2018/03/13 12:39:52.000   78.254783969   16.249354185   341.8184   2   8   0.0285   0.0247   0.0478  -0.0087   0.0122  -0.0135   0.00    1.1
2018/03/13 12:39:53.000   78.254784135   16.249353900   341.8203   2   8   0.0283   0.0245   0.0474  -0.0086   0.0121  -0.0135   0.00    1.1
2018/03/13 12:39:54.000   78.254784296   16.249353506   341.8164   2   8   0.0282   0.0244   0.0470  -0.0085   0.0120  -0.0134   0.00    1.1
2018/03/13 12:39:55.000   78.254784448   16.249353180   341.8147   2   8   0.0281   0.0243   0.0466  -0.0084   0.0118  -0.0134   0.00    1.1
2018/03/13 12:39:56.000   78.254784590   16.249352952   341.8187   2   8   0.0279   0.0242   0.0463  -0.0083   0.0117  -0.0133   0.00    1.1
2018/03/13 12:39:57.000   78.254784755   16.249352631   341.8208   2   8   0.0278   0.0241   0.0459  -0.0083   0.0116  -0.0132   0.00    1.1
2018/03/13 12:39:58.000   78.254784894   16.249352260   341.8152   2   8   0.0277   0.0240   0.0455  -0.0082   0.0115  -0.0132   0.00    1.1
2018/03/13 12:39:59.000   78.254785026   16.249351976   341.8188   2   8   0.0275   0.0239   0.0452  -0.0081   0.0114  -0.0131   0.00    1.1
2018/03/13 12:40:00.000   78.254785151   16.249351717   341.8230   2   8   0.0274   0.0238   0.0448  -0.0080   0.0112  -0.0130   0.00    1.1
2018/03/13 12:40:01.000   78.254785314   16.249351495   341.8273   2   8   0.0273   0.0236   0.0445  -0.0079   0.0111  -0.0130   0.00    1.2
2018/03/13 12:40:02.000   78.254785507   16.249351233   341.8329   2   8   0.0272   0.0235   0.0441  -0.0079   0.0110  -0.0129   0.00    1.2
2018/03/13 12:40:03.000   78.254785678   16.249350963   341.8382   2   8   0.0270   0.0234   0.0438  -0.0078   0.0109  -0.0129   0.00    1.2
2018/03/13 12:40:04.000   78.254785855   16.249350618   341.8424   2   8   0.0269   0.0233   0.0434  -0.0077   0.0108  -0.0128   0.00    1.2
2018/03/13 12:40:05.000   78.254786007   16.249350403   341.8526   2   8   0.0268   0.0232   0.0431  -0.0076   0.0107  -0.0127   0.00    1.2
2018/03/13 12:40:06.000   78.254786158   16.249350175   341.8648   2   8   0.0267   0.0231   0.0428  -0.0075   0.0106  -0.0127   0.00    1.2
2018/03/13 12:40:07.000   78.254786299   16.249349931   341.8780   2   8   0.0266   0.0230   0.0424  -0.0075   0.0105  -0.0126   0.00    1.2
2018/03/13 12:40:08.000   78.254786438   16.249349690   341.8921   2   8   0.0264   0.0229   0.0421  -0.0074   0.0103  -0.0126   0.00    1.2
2018/03/13 12:40:09.000   78.254786569   16.249349461   341.8995   2   8   0.0263   0.0228   0.0418  -0.0073   0.0102  -0.0125   0.00    1.2
2018/03/13 12:40:10.000   78.254786700   16.249349344   341.9061   2   8   0.0262   0.0227   0.0415  -0.0072   0.0101  -0.0125   0.00    1.2
2018/03/13 12:40:11.000   78.254786854   16.249349271   341.9148   2   8   0.0261   0.0226   0.0412  -0.0072   0.0100  -0.0124   0.00    1.3
2018/03/13 12:40:12.000   78.254786986   16.249349237   341.9278   2   8   0.0260   0.0225   0.0409  -0.0071   0.0099  -0.0123   0.00    1.3
2018/03/13 12:40:13.000   78.254787071   16.249349118   341.9342   2   8   0.0259   0.0224   0.0406  -0.0070   0.0098  -0.0123   0.00    1.3
2018/03/13 12:40:14.000   78.254787116   16.249348997   341.9419   2   8   0.0258   0.0223   0.0403  -0.0069   0.0097  -0.0122   0.00    1.3
2018/03/13 12:40:15.000   78.254787141   16.249348746   341.9397   2   8   0.0256   0.0222   0.0400  -0.0069   0.0096  -0.0122   0.00    1.3
2018/03/13 12:40:16.000   78.254787173   16.249348471   341.9366   2   8   0.0255   0.0221   0.0397  -0.0068   0.0095  -0.0121   0.00    1.3
2018/03/13 12:40:17.000   78.254787226   16.249348174   341.9387   2   8   0.0254   0.0220   0.0394  -0.0067   0.0094  -0.0121   0.00    1.3
2018/03/13 12:40:18.000   78.254787270   16.249347919   341.9442   2   8   0.0253   0.0219   0.0391  -0.0067   0.0093  -0.0120   0.00    1.3
2018/03/13 12:40:19.000   78.254787328   16.249347696   341.9512   2   8   0.0252   0.0218   0.0389  -0.0066   0.0092  -0.0120   0.00    1.3
2018/03/13 12:40:20.000   78.254787403   16.249347535   341.9607   2   8   0.0251   0.0217   0.0386  -0.0065   0.0092  -0.0119   0.00    1.4
2018/03/13 12:40:21.000   78.254787496   16.249347349   341.9703   2   8   0.0250   0.0216   0.0383  -0.0064   0.0091  -0.0119   0.00    1.4
2018/03/13 12:40:22.000   78.254787576   16.249347193   341.9771   2   8   0.0249   0.0216   0.0380  -0.0064   0.0090  -0.0118   0.00    1.4
2018/03/13 12:40:23.000   78.254787628   16.249347008   341.9854   2   8   0.0248   0.0215   0.0378  -0.0063   0.0089  -0.0118   0.00    1.4
2018/03/13 12:40:24.000   78.254787699   16.249346745   341.9905   2   8   0.0247   0.0214   0.0375  -0.0062   0.0088  -0.0117   0.00    1.4
2018/03/13 12:40:25.000   78.254787733   16.249346577   341.9942   2   8   0.0246   0.0213   0.0373  -0.0062   0.0087  -0.0117   0.00    1.4
2018/03/13 12:40:26.000   78.254787778   16.249346415   341.9971   2   8   0.0245   0.0212   0.0370  -0.0061   0.0086  -0.0116   0.00    1.4
2018/03/13 12:40:27.000   78.254787832   16.249346349   342.0039   2   8   0.0244   0.0211   0.0367  -0.0060   0.0085  -0.0116   0.00    1.4
2018/03/13 12:40:28.000   78.254787891   16.249346407   342.0146   2   8   0.0243   0.0210   0.0365  -0.0060   0.0084  -0.0115   0.00    1.5
2018/03/13 12:40:29.000   78.254787959   16.249346536   342.0247   2   8   0.0242   0.0209   0.0362  -0.0059   0.0084  -0.0115   0.00    1.5
2018/03/13 12:40:30.000   78.254788010   16.249346641   342.0350   2   8   0.0241   0.0208   0.0360  -0.0058   0.0083  -0.0114   0.00    1.5
2018/03/13 12:40:31.000   78.254788064   16.249346776   342.0447   2   8   0.0240   0.0208   0.0358  -0.0058   0.0082  -0.0114   0.00    1.5
2018/03/13 12:40:32.000   78.254788132   16.249346944   342.0555   2   8   0.0239   0.0207   0.0355  -0.0057   0.0081  -0.0113   0.00    1.5
2018/03/13 12:40:33.000   78.254788213   16.249347152   342.0672   2   8   0.0238   0.0206   0.0353  -0.0056   0.0080  -0.0113   0.00    1.5
2018/03/13 12:40:34.000   78.254788303   16.249347459   342.0781   2   8   0.0237   0.0205   0.0350  -0.0056   0.0080  -0.0112   0.00    1.5
2018/03/13 12:40:35.000   78.254788402   16.249347864   342.0861   2   8   0.0236   0.0204   0.0348  -0.0055   0.0079  -0.0112   0.00    1.5
2018/03/13 12:40:36.000   78.254788474   16.249348262   342.0969   2   8   0.0235   0.0203   0.0346  -0.0054   0.0078  -0.0112   0.00    1.5
2018/03/13 12:40:37.000   78.254788535   16.249348677   342.1052   2   8   0.0234   0.0202   0.0344  -0.0054   0.0077  -0.0111   0.00    1.5
2018/03/13 12:40:38.000   78.254788616   16.249349060   342.1130   2   8   0.0233   0.0202   0.0341  -0.0053   0.0076  -0.0111   0.00    1.5
2018/03/13 12:40:39.000   78.254788715   16.249349532   342.1241   2   8   0.0232   0.0201   0.0339  -0.0052   0.0076  -0.0110   0.00    1.5
2018/03/13 12:40:40.000   78.254788831   16.249350190   342.1407   2   8   0.0231   0.0200   0.0337  -0.0052   0.0075  -0.0110   0.00    1.5
2018/03/13 12:40:41.000   78.254788903   16.249350698   342.1535   2   8   0.0230   0.0199   0.0335  -0.0051   0.0074  -0.0109   0.00    1.5
2018/03/13 12:40:42.000   78.254788972   16.249351065   342.1668   2   8   0.0229   0.0198   0.0333  -0.0050   0.0074  -0.0109   0.00    1.5
2018/03/13 12:40:43.000   78.254789026   16.249351332   342.1805   2   8   0.0228   0.0198   0.0331  -0.0050   0.0073  -0.0109   0.00    1.5
2018/03/13 12:40:44.000   78.254789035   16.249351328   342.1866   2   8   0.0227   0.0197   0.0328  -0.0049   0.0072  -0.0108   0.00    1.5
2018/03/13 12:40:45.000   78.254789047   16.249351256   342.1866   2   8   0.0226   0.0196   0.0326  -0.0048   0.0072  -0.0107   0.00    1.5
2018/03/13 12:40:46.000   78.254789041   16.249351177   342.1913   2   8   0.0226   0.0196   0.0324  -0.0047   0.0071  -0.0107   0.00    1.5
2018/03/13 12:40:47.000   78.254789031   16.249351086   342.1984   2   8   0.0225   0.0195   0.0322  -0.0046   0.0071  -0.0106   0.00    1.5
2018/03/13 12:40:48.000   78.254789013   16.249350964   342.2053   2   8   0.0224   0.0194   0.0320  -0.0046   0.0070  -0.0106   0.00    1.5
2018/03/13 12:40:49.000   78.254788998   16.249350769   342.2127   2   8   0.0223   0.0193   0.0319  -0.0045   0.0070  -0.0105   0.00    1.0
2018/03/13 12:40:50.000   78.254788965   16.249350630   342.2190   2   8   0.0222   0.0193   0.0317  -0.0044   0.0069  -0.0105   0.00    1.0
2018/03/13 12:40:51.000   78.254788931   16.249350444   342.2280   2   8   0.0222   0.0192   0.0315  -0.0043   0.0069  -0.0104   0.00    1.0
2018/03/13 12:40:52.000   78.254788898   16.249350318   342.2351   2   8   0.0221   0.0191   0.0313  -0.0043   0.0068  -0.0104   0.00    1.0
2018/03/13 12:40:53.000   78.254788860   16.249350239   342.2412   2   8   0.0220   0.0191   0.0311  -0.0042   0.0068  -0.0103   0.00    1.1
2018/03/13 12:40:54.000   78.254788828   16.249350154   342.2461   2   8   0.0219   0.0190   0.0309  -0.0041   0.0067  -0.0103   0.00    1.1
2018/03/13 12:40:55.000   78.254788773   16.249350106   342.2521   2   8   0.0219   0.0189   0.0307  -0.0040   0.0067  -0.0102   0.00    1.0
2018/03/13 12:40:56.000   78.254788725   16.249349979   342.2580   2   8   0.0218   0.0189   0.0305  -0.0038   0.0066  -0.0102   0.00    1.0
2018/03/13 12:40:57.000   78.254788672   16.249349863   342.2657   2   8   0.0217   0.0188   0.0304  -0.0037   0.0066  -0.0101   0.00    1.0
2018/03/13 12:40:58.000   78.254788615   16.249349713   342.2749   2   8   0.0217   0.0187   0.0302  -0.0036   0.0066  -0.0100   0.00    1.1
2018/03/13 12:40:59.000   78.254788560   16.249349614   342.2820   2   8   0.0216   0.0187   0.0300  -0.0034   0.0065  -0.0100   0.00    1.1
2018/03/13 12:41:00.000   78.254788500   16.249349535   342.2915   2   8   0.0215   0.0186   0.0298  -0.0033   0.0065  -0.0099   0.00    1.1
2018/03/13 12:41:01.000   78.254788444   16.249349483   342.3012   2   8   0.0215   0.0186   0.0297  -0.0032   0.0064  -0.0098   0.00    1.1
2018/03/13 12:41:02.000   78.254788376   16.249349491   342.3112   2   8   0.0214   0.0185   0.0295  -0.0030   0.0064  -0.0098   0.00    1.1
2018/03/13 12:41:03.000   78.254788316   16.249349496   342.3202   2   8   0.0213   0.0184   0.0293  -0.0029   0.0064  -0.0097   0.00    1.1
2018/03/13 12:41:04.000   78.254788250   16.249349537   342.3314   2   8   0.0213   0.0184   0.0292  -0.0027   0.0063  -0.0097   0.00    1.1
2018/03/13 12:41:05.000   78.254788173   16.249349636   342.3454   2   8   0.0212   0.0183   0.0290  -0.0025   0.0063  -0.0096   0.00    1.1
2018/03/13 12:41:06.000   78.254788102   16.249349684   342.3584   2   8   0.0211   0.0182   0.0288  -0.0024   0.0063  -0.0096   0.00    1.1
2018/03/13 12:41:07.000   78.254788043   16.249349687   342.3695   2   8   0.0211   0.0182   0.0287  -0.0022   0.0062  -0.0095   0.00    1.1
2018/03/13 12:41:08.000   78.254787975   16.249349678   342.3817   2   8   0.0210   0.0181   0.0285  -0.0020   0.0062  -0.0094   0.00    1.1
2018/03/13 12:41:09.000   78.254787906   16.249349691   342.3927   2   8   0.0210   0.0181   0.0284  -0.0018   0.0061  -0.0094   0.00    1.1
2018/03/13 12:41:10.000   78.254787831   16.249349777   342.4033   2   8   0.0209   0.0180   0.0282  -0.0015   0.0061  -0.0093   0.00    1.1
2018/03/13 12:41:11.000   78.254787761   16.249349815   342.4149   2   8   0.0208   0.0179   0.0281  -0.0012   0.0061  -0.0093   0.00    1.0
2018/03/13 12:41:12.000   78.254787700   16.249349828   342.4248   2   8   0.0208   0.0179   0.0279  -0.0008   0.0060  -0.0092   0.00    1.0
2018/03/13 12:41:13.000   78.254787639   16.249349851   342.4344   2   8   0.0207   0.0178   0.0277   0.0003   0.0060  -0.0092   0.00    1.0
2018/03/13 12:41:14.000   78.254787579   16.249349847   342.4427   2   8   0.0206   0.0178   0.0276   0.0009   0.0060  -0.0091   0.00    1.0
2018/03/13 12:41:15.000   78.254787518   16.249349882   342.4528   2   8   0.0206   0.0177   0.0274   0.0013   0.0059  -0.0091   0.00    1.0
2018/03/13 12:41:16.000   78.254787464   16.249349905   342.4613   2   8   0.0205   0.0176   0.0273   0.0015   0.0059  -0.0090   0.00    1.0
2018/03/13 12:41:17.000   78.254787412   16.249349978   342.4694   2   8   0.0205   0.0176   0.0272   0.0017   0.0059  -0.0090   0.00    1.0
2018/03/13 12:41:18.000   78.254787364   16.249350027   342.4760   2   8   0.0204   0.0175   0.0270   0.0019   0.0058  -0.0089   0.00    1.0
2018/03/13 12:41:19.000   78.254787317   16.249350096   342.4823   2   8   0.0203   0.0175   0.0269   0.0021   0.0058  -0.0089   0.00    1.0
2018/03/13 12:41:20.000   78.254787264   16.249350183   342.4882   2   8   0.0203   0.0174   0.0267   0.0023   0.0058  -0.0088   0.00    1.0
2018/03/13 12:41:21.000   78.254787222   16.249350302   342.4894   2   8   0.0202   0.0174   0.0266   0.0024   0.0057  -0.0088   0.00    1.0
2018/03/13 12:41:22.000   78.254787172   16.249350465   342.4909   2   8   0.0202   0.0173   0.0264   0.0025   0.0057  -0.0087   0.00    1.0
2018/03/13 12:41:23.000   78.254787123   16.249350636   342.4945   2   8   0.0201   0.0172   0.0263   0.0027   0.0057  -0.0087   0.00    1.0
2018/03/13 12:41:24.000   78.254787080   16.249350808   342.4940   2   8   0.0201   0.0172   0.0262   0.0028   0.0056  -0.0086   0.00    1.0
2018/03/13 12:41:25.000   78.254787047   16.249350902   342.4945   2   7   0.0200   0.0171   0.0260   0.0029   0.0056  -0.0086   0.00    1.0
2018/03/13 12:41:26.000   78.254787020   16.249351009   342.4941   2   8   0.0199   0.0171   0.0259   0.0030   0.0056  -0.0086   0.00    1.0
2018/03/13 12:41:27.000   78.254786985   16.249351107   342.4938   2   8   0.0199   0.0170   0.0258   0.0031   0.0056  -0.0085   0.00    1.0
2018/03/13 12:41:28.000   78.254786951   16.249351233   342.4945   2   8   0.0198   0.0170   0.0256   0.0032   0.0055  -0.0085   0.00    1.0
2018/03/13 12:41:29.000   78.254786912   16.249351383   342.4944   2   8   0.0198   0.0169   0.0255   0.0032   0.0055  -0.0084   0.00    1.0
2018/03/13 12:41:30.000   78.254786888   16.249351433   342.4940   2   8   0.0197   0.0169   0.0254   0.0033   0.0055  -0.0084   0.00    1.0
2018/03/13 12:41:31.000   78.254786851   16.249351521   342.4932   2   8   0.0197   0.0168   0.0252   0.0034   0.0054  -0.0083   0.00    1.0
2018/03/13 12:41:32.000   78.254786817   16.249351856   342.4807   2   8   0.0196   0.0168   0.0251   0.0034   0.0054  -0.0083   0.00    1.0
2018/03/13 12:41:33.000   78.254786801   16.249351867   342.4806   2   6   0.0196   0.0168   0.0250   0.0035   0.0054  -0.0083   0.00    1.0
2018/03/13 12:41:34.000   78.254786769   16.249351891   342.4791   2   8   0.0196   0.0168   0.0250   0.0035   0.0054  -0.0084   0.00    1.0
2018/03/13 12:41:35.000   78.254786738   16.249351905   342.4777   2   8   0.0195   0.0167   0.0249   0.0036   0.0054  -0.0084   0.00    1.0
2018/03/13 12:41:36.000   78.254786708   16.249351931   342.4755   2   8   0.0195   0.0167   0.0248   0.0036   0.0054  -0.0084   0.00    1.0
2018/03/13 12:41:37.000   78.254786667   16.249351956   342.4728   2   8   0.0195   0.0167   0.0248   0.0036   0.0053  -0.0085   0.00    1.1
2018/03/13 12:41:38.000   78.254786652   16.249351913   342.4710   2   8   0.0194   0.0167   0.0247   0.0036   0.0053  -0.0085   0.00    1.0
2018/03/13 12:41:39.000   78.254786613   16.249351932   342.4692   2   8   0.0194   0.0166   0.0247   0.0036   0.0053  -0.0085   0.00    1.0
2018/03/13 12:41:40.000   78.254786583   16.249352009   342.4691   2   8   0.0194   0.0166   0.0246   0.0037   0.0053  -0.0086   0.00    1.0
2018/03/13 12:41:41.000   78.254786559   16.249352014   342.4677   2   8   0.0193   0.0166   0.0245   0.0037   0.0053  -0.0086   0.00    1.1
2018/03/13 12:41:42.000   78.254786538   16.249352037   342.4653   2   8   0.0193   0.0166   0.0245   0.0037   0.0052  -0.0086   0.00    1.2
2018/03/13 12:41:43.000   78.254786509   16.249352037   342.4630   2   8   0.0193   0.0166   0.0244   0.0037   0.0052  -0.0086   0.00    1.2
2018/03/13 12:41:44.000   78.254786485   16.249352053   342.4608   2   8   0.0192   0.0165   0.0243   0.0038   0.0052  -0.0087   0.00    1.0
2018/03/13 12:41:45.000   78.254786472   16.249352171   342.4604   2   8   0.0192   0.0165   0.0243   0.0038   0.0052  -0.0087   0.00    1.0
2018/03/13 12:41:46.000   78.254786448   16.249352226   342.4582   2   7   0.0192   0.0165   0.0242   0.0038   0.0052  -0.0087   0.00    1.0
2018/03/13 12:41:47.000   78.254786413   16.249352274   342.4572   2   8   0.0191   0.0165   0.0241   0.0039   0.0051  -0.0087   0.00    1.1
2018/03/13 12:41:48.000   78.254786380   16.249352316   342.4549   2   8   0.0191   0.0164   0.0241   0.0039   0.0051  -0.0088   0.00    1.1
2018/03/13 12:41:49.000   78.254786352   16.249352339   342.4526   2   8   0.0191   0.0164   0.0240   0.0039   0.0051  -0.0088   0.00    1.0
2018/03/13 12:41:50.000   78.254786327   16.249352373   342.4506   2   8   0.0190   0.0164   0.0240   0.0039   0.0051  -0.0088   0.00    1.0
2018/03/13 12:41:51.000   78.254786299   16.249352402   342.4489   2   8   0.0190   0.0164   0.0239   0.0039   0.0051  -0.0088   0.00    1.1
2018/03/13 12:41:52.000   78.254786272   16.249352418   342.4485   2   8   0.0189   0.0163   0.0238   0.0039   0.0050  -0.0089   0.00    1.1
2018/03/13 12:41:53.000   78.254786246   16.249352429   342.4482   2   8   0.0189   0.0163   0.0238   0.0040   0.0050  -0.0089   0.00    1.2
2018/03/13 12:41:54.000   78.254786216   16.249352464   342.4474   2   8   0.0189   0.0163   0.0237   0.0040   0.0050  -0.0089   0.00    1.2
2018/03/13 12:41:55.000   78.254786183   16.249352496   342.4470   2   8   0.0188   0.0163   0.0237   0.0040   0.0050  -0.0089   0.00    1.3
2018/03/13 12:41:56.000   78.254786156   16.249352534   342.4469   2   8   0.0188   0.0162   0.0236   0.0040   0.0049  -0.0089   0.00    1.3
2018/03/13 12:41:57.000   78.254786122   16.249352553   342.4452   2   8   0.0188   0.0162   0.0235   0.0040   0.0049  -0.0089   0.00    1.3
2018/03/13 12:41:58.000   78.254786081   16.249352627   342.4445   2   8   0.0187   0.0162   0.0235   0.0040   0.0049  -0.0090   0.00    1.4
2018/03/13 12:41:59.000   78.254786043   16.249352664   342.4432   2   8   0.0187   0.0162   0.0234   0.0041   0.0049  -0.0090   0.00    1.4
2018/03/13 12:42:00.000   78.254786008   16.249352717   342.4424   2   8   0.0187   0.0161   0.0234   0.0041   0.0049  -0.0090   0.00    1.4
2018/03/13 12:42:01.000   78.254785965   16.249352783   342.4404   2   8   0.0186   0.0161   0.0233   0.0041   0.0048  -0.0090   0.00    1.5
2018/03/13 12:42:02.000   78.254785929   16.249352842   342.4395   2   8   0.0186   0.0161   0.0232   0.0041   0.0048  -0.0090   0.00    1.5
2018/03/13 12:42:03.000   78.254785894   16.249352894   342.4390   2   8   0.0186   0.0161   0.0232   0.0041   0.0048  -0.0091   0.00    1.5
2018/03/13 12:42:04.000   78.254785867   16.249352940   342.4396   2   8   0.0185   0.0161   0.0231   0.0041   0.0048  -0.0091   0.00    1.5
2018/03/13 12:42:05.000   78.254785838   16.249352993   342.4392   2   8   0.0185   0.0160   0.0231   0.0041   0.0048  -0.0091   0.00    1.6
2018/03/13 12:42:06.000   78.254785808   16.249353053   342.4388   2   8   0.0185   0.0160   0.0230   0.0042   0.0047  -0.0091   0.00    1.6
2018/03/13 12:42:07.000   78.254785773   16.249353087   342.4376   2   8   0.0184   0.0160   0.0229   0.0042   0.0047  -0.0091   0.00    1.6
2018/03/13 12:42:08.000   78.254785748   16.249353119   342.4362   2   8   0.0184   0.0160   0.0229   0.0042   0.0047  -0.0091   0.00    1.6
2018/03/13 12:42:09.000   78.254785720   16.249353153   342.4347   2   8   0.0183   0.0159   0.0228   0.0042   0.0047  -0.0091   0.00    1.6
2018/03/13 12:42:10.000   78.254785688   16.249353165   342.4326   2   8   0.0183   0.0159   0.0228   0.0042   0.0047  -0.0092   0.00    1.6
2018/03/13 12:42:11.000   78.254785652   16.249353193   342.4307   2   8   0.0183   0.0159   0.0227   0.0042   0.0046  -0.0092   0.00    1.6
2018/03/13 12:42:12.000   78.254785616   16.249353192   342.4278   2   8   0.0182   0.0159   0.0226   0.0042   0.0046  -0.0092   0.00    1.6
2018/03/13 12:42:13.000   78.254785581   16.249353170   342.4255   2   8   0.0182   0.0158   0.0226   0.0043   0.0046  -0.0092   0.00    1.6
2018/03/13 12:42:14.000   78.254785541   16.249353148   342.4229   2   8   0.0182   0.0158   0.0225   0.0043   0.0046  -0.0092   0.00    1.5
2018/03/13 12:42:15.000   78.254785498   16.249353132   342.4206   2   8   0.0181   0.0158   0.0225   0.0043   0.0045  -0.0092   0.00    1.5
2018/03/13 12:42:16.000   78.254785451   16.249353098   342.4169   2   8   0.0181   0.0158   0.0224   0.0043   0.0045  -0.0092   0.00    1.4
2018/03/13 12:42:17.000   78.254785407   16.249353060   342.4139   2   8   0.0181   0.0157   0.0223   0.0043   0.0045  -0.0092   0.00    1.4
2018/03/13 12:42:18.000   78.254785365   16.249352998   342.4102   2   8   0.0180   0.0157   0.0223   0.0043   0.0045  -0.0092   0.00    1.3
2018/03/13 12:42:19.000   78.254785317   16.249352940   342.4064   2   8   0.0180   0.0157   0.0222   0.0043   0.0045  -0.0093   0.00    1.3
2018/03/13 12:42:20.000   78.254785269   16.249352875   342.4021   2   8   0.0180   0.0157   0.0222   0.0044   0.0044  -0.0093   0.00    1.2
2018/03/13 12:42:21.000   78.254785219   16.249352781   342.3970   2   8   0.0179   0.0157   0.0221   0.0044   0.0044  -0.0093   0.00    1.1
2018/03/13 12:42:22.000   78.254785162   16.249352693   342.3925   2   8   0.0179   0.0156   0.0221   0.0044   0.0044  -0.0093   0.00    1.1
2018/03/13 12:42:23.000   78.254785110   16.249352578   342.3866   2   8   0.0179   0.0156   0.0220   0.0044   0.0044  -0.0093   0.00    1.0
2018/03/13 12:42:24.000   78.254785054   16.249352433   342.3810   2   8   0.0178   0.0156   0.0219   0.0044   0.0043  -0.0093   0.00    1.0
2018/03/13 12:42:25.000   78.254784993   16.249352291   342.3746   2   8   0.0178   0.0156   0.0219   0.0044   0.0043  -0.0093   0.00    1.0
2018/03/13 12:42:26.000   78.254784929   16.249352116   342.3688   2   8   0.0178   0.0155   0.0218   0.0044   0.0043  -0.0093   0.00    1.1
2018/03/13 12:42:27.000   78.254784866   16.249351917   342.3621   2   8   0.0178   0.0155   0.0218   0.0044   0.0043  -0.0093   0.00    1.1
2018/03/13 12:42:28.000   78.254784806   16.249351739   342.3553   2   8   0.0177   0.0155   0.0217   0.0045   0.0042  -0.0093   0.00    1.1
2018/03/13 12:42:29.000   78.254784743   16.249351559   342.3481   2   8   0.0177   0.0155   0.0217   0.0045   0.0042  -0.0093   0.00    1.1
2018/03/13 12:42:30.000   78.254784678   16.249351376   342.3420   2   8   0.0177   0.0154   0.0216   0.0045   0.0042  -0.0094   0.00    1.0
2018/03/13 12:42:31.000   78.254784609   16.249351207   342.3351   2   8   0.0176   0.0154   0.0215   0.0045   0.0042  -0.0094   0.00    1.1
2018/03/13 12:42:32.000   78.254784538   16.249351017   342.3283   2   8   0.0176   0.0154   0.0215   0.0045   0.0041  -0.0094   0.00    1.0
2018/03/13 12:42:33.000   78.254784472   16.249350872   342.3216   2   8   0.0176   0.0154   0.0214   0.0045   0.0041  -0.0094   0.00    1.0
2018/03/13 12:42:34.000   78.254784411   16.249350734   342.3149   2   8   0.0175   0.0153   0.0214   0.0045   0.0041  -0.0094   0.00    1.0
2018/03/13 12:42:35.000   78.254784345   16.249350578   342.3086   2   8   0.0175   0.0153   0.0213   0.0045   0.0041  -0.0094   0.00    1.0
2018/03/13 12:42:36.000   78.254784289   16.249350470   342.3022   2   8   0.0175   0.0153   0.0213   0.0046   0.0040  -0.0094   0.00    1.0
2018/03/13 12:42:37.000   78.254784234   16.249350327   342.2950   2   8   0.0174   0.0153   0.0212   0.0046   0.0040  -0.0094   0.00    1.0
2018/03/13 12:42:38.000   78.254784180   16.249350215   342.2884   2   8   0.0174   0.0153   0.0212   0.0046   0.0040  -0.0094   0.00    1.0
2018/03/13 12:42:39.000   78.254784128   16.249350112   342.2813   2   8   0.0174   0.0152   0.0211   0.0046   0.0040  -0.0094   0.00    1.1
2018/03/13 12:42:40.000   78.254784075   16.249349975   342.2747   2   8   0.0173   0.0152   0.0210   0.0046   0.0039  -0.0094   0.00    1.1
2018/03/13 12:42:41.000   78.254784026   16.249349864   342.2679   2   8   0.0173   0.0152   0.0210   0.0046   0.0039  -0.0094   0.00    1.1
2018/03/13 12:42:42.000   78.254783974   16.249349745   342.2621   2   8   0.0173   0.0152   0.0209   0.0046   0.0039  -0.0094   0.00    1.1
2018/03/13 12:42:43.000   78.254783927   16.249349656   342.2564   2   8   0.0172   0.0151   0.0209   0.0046   0.0039  -0.0094   0.00    1.1
2018/03/13 12:42:44.000   78.254783893   16.249349546   342.2514   2   8   0.0172   0.0151   0.0208   0.0047   0.0038  -0.0094   0.00    1.0
2018/03/13 12:42:45.000   78.254783849   16.249349467   342.2458   2   8   0.0172   0.0151   0.0208   0.0047   0.0038  -0.0094   0.00    1.0
2018/03/13 12:42:46.000   78.254783800   16.249349372   342.2405   2   8   0.0171   0.0151   0.0207   0.0047   0.0038  -0.0094   0.00    1.0
2018/03/13 12:42:47.000   78.254783767   16.249349265   342.2358   2   8   0.0171   0.0150   0.0207   0.0047   0.0038  -0.0094   0.00    1.0
2018/03/13 12:42:48.000   78.254783736   16.249349168   342.2319   2   8   0.0171   0.0150   0.0206   0.0047   0.0037  -0.0094   0.00    1.0
2018/03/13 12:42:49.000   78.254783702   16.249349083   342.2285   2   8   0.0171   0.0150   0.0206   0.0047   0.0037  -0.0094   0.00    1.0
2018/03/13 12:42:50.000   78.254783671   16.249348994   342.2254   2   8   0.0170   0.0150   0.0205   0.0047   0.0037  -0.0094   0.00    1.0
2018/03/13 12:42:51.000   78.254783644   16.249348906   342.2219   2   8   0.0170   0.0150   0.0205   0.0047   0.0037  -0.0094   0.00    1.0
2018/03/13 12:42:52.000   78.254783611   16.249348836   342.2192   2   8   0.0170   0.0149   0.0204   0.0048   0.0036  -0.0094   0.00    1.0
2018/03/13 12:42:53.000   78.254783581   16.249348756   342.2159   2   8   0.0169   0.0149   0.0203   0.0048   0.0036  -0.0095   0.00    1.0
2018/03/13 12:42:54.000   78.254783558   16.249348676   342.2125   2   8   0.0169   0.0149   0.0203   0.0048   0.0036  -0.0095   0.00    1.0
2018/03/13 12:42:55.000   78.254783537   16.249348563   342.2092   2   8   0.0169   0.0149   0.0202   0.0048   0.0036  -0.0095   0.00    1.0
2018/03/13 12:42:56.000   78.254783520   16.249348500   342.2059   2   8   0.0168   0.0148   0.0202   0.0048   0.0035  -0.0095   0.00    1.0
2018/03/13 12:42:57.000   78.254783500   16.249348420   342.2030   2   8   0.0168   0.0148   0.0201   0.0048   0.0035  -0.0095   0.00    1.1
2018/03/13 12:42:58.000   78.254783483   16.249348368   342.2004   2   8   0.0168   0.0148   0.0201   0.0048   0.0035  -0.0095   0.00    1.1
2018/03/13 12:42:59.000   78.254783466   16.249348265   342.1968   2   8   0.0168   0.0148   0.0200   0.0048   0.0034  -0.0095   0.00    1.1
2018/03/13 12:43:00.000   78.254783448   16.249348154   342.1936   2   8   0.0167   0.0148   0.0200   0.0048   0.0034  -0.0095   0.00    1.1
2018/03/13 12:43:01.000   78.254783436   16.249348055   342.1914   2   8   0.0167   0.0147   0.0199   0.0049   0.0034  -0.0095   0.00    1.1
2018/03/13 12:43:02.000   78.254783420   16.249347936   342.1887   2   8   0.0167   0.0147   0.0199   0.0049   0.0034  -0.0095   0.00    1.1
2018/03/13 12:43:03.000   78.254783409   16.249347833   342.1863   2   8   0.0166   0.0147   0.0198   0.0049   0.0033  -0.0095   0.00    1.1
2018/03/13 12:43:04.000   78.254783388   16.249347717   342.1844   2   8   0.0166   0.0147   0.0198   0.0049   0.0033  -0.0095   0.00    1.1
2018/03/13 12:43:05.000   78.254783369   16.249347592   342.1836   2   8   0.0166   0.0146   0.0197   0.0049   0.0033  -0.0095   0.00    1.1
2018/03/13 12:43:06.000   78.254783349   16.249347467   342.1827   2   8   0.0165   0.0146   0.0197   0.0049   0.0033  -0.0095   0.00    1.1
2018/03/13 12:43:07.000   78.254783336   16.249347354   342.1815   2   8   0.0165   0.0146   0.0196   0.0049   0.0032  -0.0095   0.00    1.2
2018/03/13 12:43:08.000   78.254783322   16.249347268   342.1813   2   8   0.0165   0.0146   0.0196   0.0049   0.0032  -0.0095   0.00    1.2
2018/03/13 12:43:09.000   78.254783310   16.249347173   342.1815   2   8   0.0165   0.0146   0.0195   0.0049   0.0032  -0.0095   0.00    1.2
2018/03/13 12:43:10.000   78.254783301   16.249347059   342.1812   2   8   0.0164   0.0145   0.0195   0.0049   0.0031  -0.0095   0.00    1.2
2018/03/13 12:43:11.000   78.254783301   16.249346942   342.1802   2   8   0.0164   0.0145   0.0194   0.0050   0.0031  -0.0094   0.00    1.2
2018/03/13 12:43:12.000   78.254783291   16.249346867   342.1795   2   8   0.0164   0.0145   0.0194   0.0050   0.0031  -0.0094   0.00    1.2
2018/03/13 12:43:13.000   78.254783283   16.249346755   342.1793   2   8   0.0163   0.0145   0.0193   0.0050   0.0031  -0.0094   0.00    1.2
2018/03/13 12:43:14.000   78.254783274   16.249346670   342.1800   2   8   0.0163   0.0144   0.0193   0.0050   0.0030  -0.0094   0.00    1.2
2018/03/13 12:43:15.000   78.254783266   16.249346571   342.1803   2   8   0.0163   0.0144   0.0192   0.0050   0.0030  -0.0094   0.00    1.1
2018/03/13 12:43:16.000   78.254783264   16.249346495   342.1808   2   8   0.0163   0.0144   0.0192   0.0050   0.0030  -0.0094   0.00    1.1
2018/03/13 12:43:17.000   78.254783257   16.249346383   342.1817   2   8   0.0162   0.0144   0.0191   0.0050   0.0029  -0.0094   0.00    1.1
2018/03/13 12:43:18.000   78.254783254   16.249346297   342.1831   2   8   0.0162   0.0143   0.0191   0.0050   0.0029  -0.0094   0.00    1.1
2018/03/13 12:43:19.000   78.254783253   16.249346194   342.1843   2   8   0.0162   0.0143   0.0190   0.0050   0.0029  -0.0094   0.00    1.0
2018/03/13 12:43:20.000   78.254783258   16.249346125   342.1867   2   8   0.0161   0.0143   0.0190   0.0050   0.0028  -0.0094   0.00    1.0
2018/03/13 12:43:21.000   78.254783269   16.249346083   342.1898   2   8   0.0161   0.0143   0.0189   0.0051   0.0028  -0.0094   0.00    1.0
2018/03/13 12:43:22.000   78.254783282   16.249346066   342.1928   2   8   0.0161   0.0143   0.0189   0.0051   0.0028  -0.0094   0.00    1.1
2018/03/13 12:43:23.000   78.254783300   16.249346088   342.1964   2   8   0.0160   0.0142   0.0188   0.0051   0.0028  -0.0094   0.00    1.1
2018/03/13 12:43:24.000   78.254783336   16.249346149   342.2010   2   8   0.0160   0.0142   0.0188   0.0051   0.0027  -0.0094   0.00    1.1
2018/03/13 12:43:25.000   78.254783376   16.249346236   342.2065   2   8   0.0160   0.0142   0.0187   0.0051   0.0027  -0.0094   0.00    1.1
2018/03/13 12:43:26.000   78.254783420   16.249346347   342.2114   2   8   0.0160   0.0142   0.0187   0.0051   0.0027  -0.0094   0.00    1.1
2018/03/13 12:43:27.000   78.254783463   16.249346454   342.2167   2   8   0.0159   0.0141   0.0186   0.0051   0.0026  -0.0094   0.00    1.1
2018/03/13 12:43:28.000   78.254783502   16.249346562   342.2217   2   8   0.0159   0.0141   0.0186   0.0051   0.0026  -0.0094   0.00    1.1
2018/03/13 12:43:29.000   78.254783540   16.249346711   342.2271   2   8   0.0159   0.0141   0.0185   0.0051   0.0026  -0.0094   0.00    1.1
2018/03/13 12:43:30.000   78.254783581   16.249346854   342.2325   2   8   0.0158   0.0141   0.0185   0.0051   0.0025  -0.0094   0.00    1.1
2018/03/13 12:43:31.000   78.254783626   16.249346979   342.2370   2   8   0.0158   0.0141   0.0184   0.0051   0.0025  -0.0094   0.00    1.1
2018/03/13 12:43:32.000   78.254783664   16.249347122   342.2416   2   8   0.0158   0.0140   0.0184   0.0051   0.0025  -0.0094   0.00    1.1
2018/03/13 12:43:33.000   78.254783700   16.249347279   342.2458   2   8   0.0158   0.0140   0.0183   0.0052   0.0024  -0.0094   0.00    1.1
2018/03/13 12:43:34.000   78.254783728   16.249347455   342.2499   2   8   0.0157   0.0140   0.0183   0.0052   0.0024  -0.0094   0.00    1.1
2018/03/13 12:43:35.000   78.254783749   16.249347602   342.2538   2   8   0.0157   0.0140   0.0182   0.0052   0.0024  -0.0094   0.00    1.1
2018/03/13 12:43:36.000   78.254783772   16.249347729   342.2573   2   8   0.0157   0.0139   0.0182   0.0052   0.0023  -0.0094   0.00    1.1
2018/03/13 12:43:37.000   78.254783792   16.249347863   342.2612   2   8   0.0157   0.0139   0.0181   0.0052   0.0023  -0.0093   0.00    1.1
2018/03/13 12:43:38.000   78.254783809   16.249347999   342.2644   2   8   0.0156   0.0139   0.0181   0.0052   0.0023  -0.0093   0.00    1.1
2018/03/13 12:43:39.000   78.254783828   16.249348099   342.2678   2   8   0.0156   0.0139   0.0180   0.0052   0.0022  -0.0093   0.00    1.1
2018/03/13 12:43:40.000   78.254783856   16.249348197   342.2700   2   8   0.0156   0.0139   0.0180   0.0052   0.0022  -0.0093   0.00    1.1
2018/03/13 12:43:41.000   78.254783874   16.249348293   342.2728   2   8   0.0155   0.0138   0.0180   0.0052   0.0022  -0.0093   0.00    1.1
2018/03/13 12:43:42.000   78.254783888   16.249348389   342.2757   2   8   0.0155   0.0138   0.0179   0.0052   0.0021  -0.0093   0.00    1.1
2018/03/13 12:43:43.000   78.254783899   16.249348488   342.2786   2   8   0.0155   0.0138   0.0179   0.0052   0.0021  -0.0093   0.00    1.1
2018/03/13 12:43:44.000   78.254783915   16.249348574   342.2819   2   8   0.0155   0.0138   0.0178   0.0052   0.0020  -0.0093   0.00    1.1
2018/03/13 12:43:45.000   78.254783923   16.249348645   342.2842   2   8   0.0154   0.0138   0.0178   0.0052   0.0020  -0.0093   0.00    1.1
2018/03/13 12:43:46.000   78.254783928   16.249348703   342.2870   2   8   0.0154   0.0137   0.0177   0.0052   0.0020  -0.0093   0.00    1.1
2018/03/13 12:43:47.000   78.254783937   16.249348746   342.2898   2   8   0.0154   0.0137   0.0177   0.0053   0.0019  -0.0093   0.00    1.1
2018/03/13 12:43:48.000   78.254783937   16.249348782   342.2932   2   8   0.0153   0.0137   0.0176   0.0053   0.0019  -0.0093   0.00    1.1
2018/03/13 12:43:49.000   78.254783939   16.249348780   342.2962   2   8   0.0153   0.0137   0.0176   0.0053   0.0018  -0.0093   0.00    1.1
2018/03/13 12:43:50.000   78.254783933   16.249348788   342.2988   2   8   0.0153   0.0136   0.0175   0.0053   0.0018  -0.0093   0.00    1.1
2018/03/13 12:43:51.000   78.254783924   16.249348793   342.3008   2   8   0.0153   0.0136   0.0175   0.0053   0.0018  -0.0093   0.00    1.1
2018/03/13 12:43:52.000   78.254783917   16.249348811   342.3022   2   8   0.0152   0.0136   0.0175   0.0053   0.0017  -0.0092   0.00    1.1
2018/03/13 12:43:53.000   78.254783906   16.249348811   342.3042   2   8   0.0152   0.0136   0.0174   0.0053   0.0017  -0.0092   0.00    1.1
2018/03/13 12:43:54.000   78.254783897   16.249348853   342.3061   2   8   0.0152   0.0136   0.0174   0.0053   0.0016  -0.0092   0.00    1.1
2018/03/13 12:43:55.000   78.254783884   16.249348876   342.3071   2   8   0.0152   0.0135   0.0173   0.0053   0.0016  -0.0092   0.00    1.1
2018/03/13 12:43:56.000   78.254783866   16.249348891   342.3083   2   8   0.0151   0.0135   0.0173   0.0053   0.0015  -0.0092   0.00    1.1
