     2.11           OBSERVATION DATA    M (MIXED)           RINEX VERSION / TYPE
teqc  2018Mar15                         20180319 14:17:32UTCPGM / RUN BY / DATE
Linux 2.6.32-573.12.1.x86_64|x86_64|gcc -static|Linux 64|=+ COMMENT
END OF STATIC MODE OBSERVATION                              COMMENT
BIT 2 OF LLI FLAGS DATA COLLECTED UNDER A/S CONDITION       COMMENT
-Unknown-                                                   MARKER NAME
4625                                                        MARKER NUMBER
-Unknown-           -Unknown-                               OBSERVER / AGENCY
5127468778          TRIMBLE             4.63                REC # / TYPE / VERS
47477114                            NONE                    ANT # / TYPE
  6266234.6428        0.0000  1185522.1970                  APPROX POSITION XYZ
        0.0000        0.0000        0.0000                  ANTENNA: DELTA H/E/N
     1     1                                                WAVELENGTH FACT L1/2
     7    L1    L2    C1    P1    P2    S1    S2            # / TYPES OF OBSERV
    18                                                      LEAP SECONDS
 SNR is mapped to RINEX snr flag value [0-9]                COMMENT
  L1 & L2: min(max(int(snr_dBHz/6), 0), 9)                  COMMENT
  2018     3    13    12    37    3.0000000     GPS         TIME OF FIRST OBS
                                                            END OF HEADER
 18  3 13 12 37  3.0000000  0 15G10R17R07G11R15G15R06R24R16R23G17G19
                                G24G28G01
 116755444.115 7  90978387.10743  22217843.484                    22217850.305
        42.100          22.000
                  89781896.971 4  21571579.227                    21571580.738
                        29.300
                  83833778.425 5  20135385.898                    20135388.188
                        30.200
 117673392.521 7  91693583.32043  22392507.281                    22392510.035
        43.300          22.300
                  86039754.188 3  20701501.617                    20701504.449
                        23.200
 121030803.584 7  94309768.07843  23031404.617                    23031409.121
        44.100          22.800
                  89633552.562 3  21596512.695                    21596513.391
                        22.500
                  84456647.692 3  20306337.125                    20306338.832
                        22.300
                  81316888.543 4  19572034.680                    19572035.039
                        28.600
                                  22213464.141

 120078028.865 7  93567333.25944  22850095.742                    22850098.984
        46.500          26.200
 125708719.509 6  97954847.10842  23921571.438                    23921575.191
        37.100          17.800
 111472284.153 7  86861513.88444  21212466.039                    21212472.598
        44.700          25.400
 117598820.725 7  91635456.53443  22378315.523                    22378319.031
        43.000          22.200
 119129545.837 6  92828309.75243  22669614.953                    22669622.438
        41.400          21.800
 18  3 13 12 37  4.0000000  0 15G10R17R07G11R15G15R06R24R16R23G17G19
                                G24G28G01
 116756665.964 7  90979339.20343  22218075.977                    22218083.164
        43.300          22.500
                  89779436.087 6  21570987.977                    21570989.324
                        36.200
                  83833969.109 6  20135431.328                    20135433.668
                        36.500
 117673964.864 7  91694029.31244  22392616.398                    22392619.105
        44.600          24.700
                  86042612.253 5  20702189.328                    20702192.270
                        31.000
 121034442.563 7  94312603.65044  23032097.172                    23032101.340
        45.600          27.400
                  89636776.483 4  21597289.820                    21597290.453
                        27.000
                  84457214.481 4  20306474.063                    20306475.133
                        28.000
                  81315829.388 5  19571779.273                    19571780.316
                        35.400
                                  22214246.148

 120075865.540 7  93565647.54645  22849684.070                    22849687.227
        47.900          32.100
 125705262.403 6  97952153.28142  23920914.328                    23920916.977
        39.500          17.800
 111471047.777 7  86860550.47545  21212230.883                    21212237.129
        46.000          31.600
 117601564.446 7  91637594.50544  22378837.531                    22378840.543
        44.100          28.300
 119128202.063 7  92827262.65643  22669359.508                    22669367.148
        42.600          23.000
 18  3 13 12 37  5.0000000  0 15G10R17R07G11R15G15R06R24R16R23G17G19
                                G24G28G01
 116757888.690 7  90980291.98743  22218309.125                    22218315.402
        44.100          22.200
                  89776975.800 5  21570396.773                    21570398.363
                        35.900
                  83834160.658 6  20135477.250                    20135479.840
                        36.700
 117674538.160 7  91694476.04544  22392725.180                    22392728.375
        44.500          24.700
                  86045470.869 5  20702876.063                    20702880.066
                        32.000
 121038082.075 7  94315439.62544  23032790.094                    23032793.570
        45.700          26.600
                  89640000.952 4  21598066.781                    21598067.477
                        27.400
                  84457782.150 4  20306610.156                    20306611.613
                        28.100
                  81314771.012 5  19571524.227                    19571526.000
                        35.200
                                  22215030.016

 120073702.853 7  93563962.33745  22849272.703                    22849275.934
        47.900          31.400
 125701805.749 6  97949459.78742  23920256.375                    23920259.492
        40.300          17.800
 111469812.156 7  86859587.65745  21211995.977                    21212001.855
        46.400          31.900
 117604308.740 7  91639732.92644  22379359.586                    22379363.098
        44.400          28.600
 119126859.122 7  92826216.21844  22669104.063                    22669111.367
        42.500          25.200
 18  3 13 12 37  6.0000000  0 15G10R17R07G11R15G15R06R24R16R23G17G19
                                G24G28G01
 116759112.206 7  90981245.37543  22218542.125                    22218548.730
        43.600          22.600
                  89774516.040 5  21569805.945                    21569807.523
                        35.600
                  83834353.032 6  20135523.953                    20135525.672
                        36.500
 117675112.288 7  91694923.43844  22392833.820                    22392837.488
        44.400          25.800
                  86048329.978 5  20703565.102                    20703567.723
                        32.200
 121041722.032 7  94318275.94744  23033482.719                    23033486.418
        45.200          27.900
                  89643225.914 4  21598844.070                    21598844.426
                        27.700
                  84458350.676 4  20306746.594                    20306747.949
                        28.000
                  81313713.279 5  19571269.648                    19571271.578
                        35.400
                                  22215813.109

 120071540.694 7  93562277.54545  22848861.461                    22848864.426
        47.000          31.800
 125698349.467 6  97946766.58343  23919599.477                    23919601.777
        39.600          18.300
 111468577.249 7  86858625.40445  21211761.156                    21211767.285
        46.100          31.700
 117607053.540 7  91641871.73244  22379882.328                    22379885.203
        44.100          28.100
 119125516.936 6  92825170.35244  22668848.781                    22668856.184
        41.700          25.200
 18  3 13 12 37  7.0000000  0 15G10R17R07G11R15G15R06R24R16R23G17G19
                                G24G28G01
 116760336.560 7  90982199.41644  22218774.672                    22218781.164
        45.400          26.400
                  89772056.818 6  21569215.813                    21569216.457
                        36.300
                  83834546.243 6  20135571.531                    20135572.422
                        37.300
 117675687.303 7  91695371.52144  22392944.211                    22392947.117
        44.300          26.800
                  86051189.607 5  20704253.461                    20704256.188
                        32.700
 121045362.505 7  94321112.67744  23034175.781                    23034179.133
        45.600          28.700
                  89646451.381 4  21599621.156                    21599621.613
                        29.900
                  84458920.049 4  20306884.195                    20306884.633
                        29.600
                  81312656.244 6  19571014.977                    19571016.496
                        36.100
                                  22216595.727

 120069379.135 7  93560593.21345  22848449.641                    22848452.793
        47.200          31.600
 125694893.547 6  97944073.66243  23918941.594                    23918944.012
        39.800          18.600
 111467343.072 7  86857663.71945  21211526.609                    21211532.023
        46.000          31.600
 117609798.880 7  91644010.95444  22380404.820                    22380407.785
        44.400          29.800
 119124175.531 7  92824125.08644  22668593.008                    22668600.227
        42.000          25.700
 18  3 13 12 37  8.0000000  0 15G10R17R07G11R15G15R06R24R16R23G17G19
                                G24G28G01
 116761561.703 7  90983154.07445  22219008.281                    22219014.816
        47.300          30.400
                  89769598.111 6  21568625.000                    21568625.898
                        38.200
                  83834740.258 6  20135616.352                    20135618.859
                        38.000
 117676263.202 7  91695820.24844  22393053.414                    22393056.285
        45.400          26.500
                  86054049.766 5  20704940.180                    20704944.582
                        34.000
 121049003.468 7  94323949.79444  23034868.672                    23034871.906
        46.700          29.600
                  89649677.412 5  21600397.727                    21600398.535
                        31.000
                  84459490.251 5  20307020.602                    20307021.512
                        30.100
                  81311599.965 6  19570760.805                    19570762.813
                        37.600
                                  22217377.234

 120067218.137 7  93558909.32245  22848038.242                    22848041.742
        47.000          31.600
 125691438.084 6  97941381.10943  23918283.469                    23918286.215
        41.300          19.900
 111466109.663 7  86856702.63745  21211291.500                    21211297.578
        47.200          31.500
 117612544.742 7  91646150.58645  22380927.078                    22380930.121
        45.200          31.000
 119122834.889 7  92823080.44044  22668337.844                    22668345.551
        43.400          27.000
 18  3 13 12 37  9.0000000  0 15G10R17R07G11R15G15R06R24R16R23G17G19
                                G24G28G01
 116762787.690 7  90984109.38344  22219241.258                    22219247.707
        47.600          29.600
                  89767140.042 6  21568034.367                    21568035.340
                        38.300
                  83834935.218 6  20135663.391                    20135665.926
                        39.500
 117676840.043 7  91696269.72944  22393162.984                    22393166.094
        45.000          25.100
                  86056910.513 5  20705628.352                    20705632.633
                        35.100
 121052644.973 7  94326787.34145  23035561.656                    23035565.008
        47.100          30.200
                  89652903.930 5  21601175.195                    21601176.141
                        30.900
                  84460061.354 5  20307157.859                    20307158.582
                        31.300
                  81310544.390 6  19570507.164                    19570508.520
                        37.900
                                  22218160.148

 120065057.784 7  93557225.93945  22847627.406                    22847630.465
        47.600          31.400
 125687983.040 6  97938688.85943  23917626.117                    23917628.539
        41.500          20.600
 111464877.034 8  86855742.14245  21211056.625                    21211062.551
        48.400          33.700
 117615291.234 7  91648290.71544  22381449.898                    22381452.902
        45.100          29.300
 119121495.148 7  92822036.49144  22668083.266                    22668090.395
        42.500          26.200
 18  3 13 12 37 10.0000000  0 15G10R17R07G11R15G15R06R24R16R23G17G19
                                G24G28G01
 116764014.488 8  90985065.31645  22219474.852                    22219480.973
        49.200          32.200
                  89764682.495 6  21567443.680                    21567444.695
                        38.700
                  83835130.880 6  20135710.539                    20135713.023
                        38.700
 117677417.723 7  91696719.87744  22393272.758                    22393276.594
        43.800          26.500
                  86059771.707 5  20706318.227                    20706320.746
                        34.000
 121056286.943 7  94329625.23745  23036254.188                    23036258.059
        46.100          30.100
                  89656130.914 5  21601953.094                    21601953.914
                        30.900
                  84460633.277 5  20307296.430                    20307296.500
                        31.700
                  81309489.473 6  19570252.813                    19570254.551
                        36.100
                                  22218944.516

 120062897.950 8  93555542.95345  22847216.484                    22847219.766
        48.000          31.700
 125684528.330 6  97935996.85943  23916968.508                    23916971.461
        40.600          21.100
 111463645.123 7  86854782.20644  21210822.086                    21210828.691
        46.800          29.700
 117618038.200 7  91650431.20345  22381972.453                    22381975.742
        45.900          30.700
 119120156.037 7  92820993.02644  22667828.273                    22667835.477
        43.600          26.800
 18  3 13 12 37 11.0000000  0 15G10R17R07G11R15G15R06R24R16R23G17G19
                                G24G28G01
 116765242.100 8  90986021.89445  22219708.344                    22219714.770
        49.100          30.900
                  89762225.540 6  21566853.242                    21566854.672
                        39.000
                  83835327.420 6  20135757.383                    20135759.824
                        39.600
 117677996.299 7  91697170.70844  22393382.953                    22393386.410
        43.800          26.300
                  86062633.438 5  20707007.336                    20707009.551
                        34.300
 121059929.386 7  94332463.48945  23036947.586                    23036951.129
        47.300          31.600
                  89659358.484 5  21602730.477                    21602731.570
                        30.800
                  84461206.071 5  20307433.336                    20307433.914
                        31.600
                  81308435.330 6  19569999.805                    19570000.547
                        36.200
                                  22219727.469

 120060738.716 8  93553860.41745  22846805.281                    22846808.340
        48.100          32.100
 125681074.022 6  97933305.17143  23916310.688                    23916314.215
        39.400          21.700
 111462413.896 7  86853822.82244  21210587.961                    21210594.457
        45.300          28.900
 117620785.717 7  91652572.10444  22382495.789                    22382499.059
        44.800          29.700
 119118817.762 7  92819950.22944  22667573.445                    22667580.543
        43.400          26.700
 18  3 13 12 37 12.0000000  0 15G10R17R07G11R15G15R06R24R16R23G17G19
                                G24G28G01
 116766470.519 7  90986979.11844  22219942.070                    22219948.316
        47.700          29.200
                  89759769.080 6  21566262.656                    21566263.734
                        38.900
                  83835524.787 6  20135804.781                    20135807.379
                        39.800
 117678575.768 7  91697622.23044  22393493.367                    22393496.566
        45.000          26.800
                  86065495.735 5  20707694.758                    20707698.938
                        34.300
 121063572.306 7  94335302.13745  23037640.672                    23037643.910
        47.000          30.800
                  89662586.528 4  21603508.844                    21603510.016
                        29.800
                  84461779.737 5  20307571.422                    20307572.035
                        32.500
                  81307381.864 6  19569746.125                    19569747.441
                        37.400
                                  22220511.109

 120058580.055 8  93552178.33745  22846394.656                    22846397.727
        48.800          31.700
 125677620.141 6  97930613.81843  23915652.836                    23915656.727
        39.000          21.100
 111461183.394 7  86852864.01244  21210353.633                    21210360.156
        44.500          28.900
 117623533.798 7  91654713.46244  22383018.453                    22383021.586
        44.800          29.600
 119117480.304 7  92818908.05644  22667318.797                    22667326.414
        42.500          26.500
 18  3 13 12 37 13.0000000  0 15G10R17R07G11R15G15R06R24R16R23G17G19
                                G24G28G01
 116767699.801 7  90987937.03044  22220176.141                    22220182.273
        47.100          28.700
                  89757313.234 6  21565673.117                    21565674.168
                        39.000
                  83835723.041 6  20135853.273                    20135855.094
                        39.600
 117679156.161 7  91698074.48244  22393603.516                    22393606.875
        45.000          26.500
                  86068358.620 5  20708383.109                    20708386.887
                        34.900
 121067215.780 7  94338141.20745  23038333.586                    23038337.402
        47.200          30.200
                  89665815.103 4  21604286.828                    21604286.871
                        29.600
                  84462354.312 5  20307709.297                    20307710.109
                        32.800
                  81306329.147 6  19569492.133                    19569494.102
                        37.500
                                  22221295.133

 120056422.039 8  93550496.75445  22845984.320                    22845987.008
        49.300          32.100
 125674166.634 6  97927922.77843  23914996.227                    23914999.203
        39.500          20.900
 111459953.753 7  86851905.85044  21210120.227                    21210126.230
        44.600          29.100
 117626282.445 7  91656855.26045  22383541.352                    22383544.734
        45.200          30.200
 119116143.646 7  92817866.50044  22667064.594                    22667071.902
        42.800          25.800
 18  3 13 12 37 14.0000000  0 15G10R17R07G11R15G15R06R24R16R23G17G19
                                G24G28G01
 116768929.957 7  90988895.60544  22220409.883                    22220416.734
        47.100          29.500
                  89754857.938 6  21565083.164                    21565084.180
                        38.600
                  83835922.146 6  20135900.984                    20135902.938
                        38.500
 117679737.479 7  91698527.44444  22393714.305                    22393717.902
        44.300          25.600
                  86071221.990 5  20709073.078                    20709076.273
                        35.300
 121070859.813 7  94340980.71545  23039027.117                    23039031.074
        47.000          30.300
                  89669044.188 4  21605065.336                    21605065.426
                        29.900
                  84462929.751 5  20307846.664                    20307848.473
                        31.900
                  81305277.156 6  19569239.391                    19569240.449
                        37.000
                                  22222077.047

 120054264.617 8  93548815.64845  22845573.469                    22845576.598
        48.500          32.000
 125670713.560 6  97925232.08543  23914339.695                    23914342.559
        40.400          20.900
 111458724.858 7  86850948.26844  21209886.180                    21209892.488
        44.800          29.100
 117629031.653 7  91658997.50945  22384064.805                    22384067.926
        45.200          30.500
 119114807.757 7  92816825.55144  22666810.953                    22666817.457
        43.900          28.600
 18  3 13 12 37 15.0000000  0 15G10R17R07G11R15G15R06R24R16R23G17G19
                                G24G28G01
 116770160.943 7  90989854.79745  22220644.172                    22220650.961
        47.500          31.100
                  89752403.238 6  21564493.492                    21564494.563
                        38.900
                  83836122.120 6  20135948.508                    20135951.176
                        38.800
 117680319.704 7  91698981.12444  22393824.898                    22393828.434
        44.600          25.600
                  86074085.949 5  20709762.063                    20709766.035
                        34.500
 121074504.324 8  94343820.58545  23039720.664                    23039724.695
        48.000          32.300
                  89672273.848 4  21605843.086                    21605843.555
                        29.600
                  84463506.048 5  20307986.078                    20307987.410
                        32.400
                  81304225.889 6  19568986.594                    19568987.723
                        36.400
                                  22222861.305

 120052107.811 8  93547135.02345  22845162.813                    22845166.141
        48.300          31.800
 125667260.943 6  97922541.76843  23913682.883                    23913685.270
        40.000          20.100
 111457496.754 7  86849991.28444  21209652.266                    21209658.098
        43.900          26.700
 117631781.418 7  91661140.19344  22384587.469                    22384591.574
        45.000          29.700
 119113472.758 7  92815785.30244  22666556.797                    22666563.738
        43.600          26.500
 18  3 13 12 37 16.0000000  0 15G10R17R07G11R15G15R06R24R16R23G17G19
                                G24G28G01
 116771392.683 7  90990814.57045  22220878.828                    22220885.129
        47.700          31.700
                  89749949.045 6  21563903.297                    21563904.852
                        39.300
                  83836322.893 6  20135996.516                    20135999.332
                        39.100
 117680902.751 7  91699435.44244  22393935.992                    22393939.492
        44.500          26.100
                  86076950.414 5  20710449.477                    20710454.559
                        33.900
 121078149.282 8  94346660.80745  23040413.938                    23040418.363
        48.000          32.000
                  89675503.997 5  21606621.555                    21606621.523
                        30.700
                  84464083.185 5  20308124.820                    20308126.051
                        31.600
                  81303175.313 6  19568733.047                    19568734.570
                        36.800
                                  22223644.414

 120049951.528 8  93545454.80545  22844752.984                    22844755.844
        48.700          32.200
 125663808.686 6  97919851.72043  23913025.609                    23913028.570
        39.900          19.000
 111456269.306 7  86849034.81344  21209418.992                    21209424.551
        44.100          27.600
 117634531.685 7  91663283.26045  22385110.906                    22385114.395
        45.100          30.000
 119112138.462 7  92814745.60644  22666302.961                    22666310.207
        43.700          28.400
 18  3 13 12 37 17.0000000  0 15G10R17R07G11R15G15R06R24R16R23G17G19
                                G24G28G01
 116772625.163 7  90991774.93444  22221113.531                    22221119.664
        47.500          29.100
                  89747495.435 6  21563313.367                    21563315.539
                        39.900
                  83836524.521 6  20136045.477                    20136048.000
                        39.300
 117681486.675 7  91699890.45144  22394046.789                    22394050.176
        43.600          25.400
                  86079815.408 5  20711139.609                    20711143.613
                        35.000
 121081794.752 7  94349501.42145  23041107.523                    23041112.223
        47.800          30.800
                  89678734.646 4  21607398.727                    21607399.895
                        29.300
                  84464661.157 5  20308264.586                    20308264.715
                        31.900
                  81302125.434 6  19568479.930                    19568481.262
                        37.900
                                  22224429.797

 120047795.822 8  93543775.03745  22844342.625                    22844346.016
        48.800          31.500
 125660356.788 6  97917161.94243  23912368.844                    23912371.555
        40.300          19.600
 111455042.564 7  86848078.90945  21209185.406                    21209191.516
        45.700          30.000
 117637282.517 7  91665426.76645  22385634.578                    22385638.059
        45.300          30.500
 119110804.962 7  92813706.52044  22666049.086                    22666055.766
        44.300          26.700
 18  3 13 12 37 18.0000000  0 15G10R17R07G11R15G15R06R24R16R23G17G19
                                G24G28G01
 116773858.520 7  90992735.99544  22221348.523                    22221354.531
        46.800          29.000
                  89745042.335 6  21562724.930                    21562726.172
                        40.600
                  83836726.911 6  20136094.148                    20136096.004
                        40.000
 117682071.479 7  91700346.15044  22394158.914                    22394161.828
        43.900          26.700
                  86082680.879 5  20711830.117                    20711833.465
                        35.200
 121085440.709 7  94352342.41245  23041801.195                    23041806.191
        47.000          30.700
                  89681965.770 5  21608177.484                    21608177.938
                        30.300
                  84465240.023 5  20308403.305                    20308404.238
                        31.900
                  81301076.238 6  19568228.727                    19568229.695
                        37.800
                                  22225212.914

 120045640.683 8  93542095.72245  22843932.328                    22843935.676
        48.400          31.800
 125656905.312 6  97914472.46443  23911711.945                    23911714.824
        39.700          19.600
 111453816.561 7  86847123.60144  21208951.570                    21208958.301
        46.300          29.900
 117640033.861 7  91667570.65945  22386158.344                    22386161.473
        46.000          30.800
 119109472.224 7  92812668.00744  22665795.883                    22665802.363
        44.600          27.300
 18  3 13 12 37 19.0000000  0 15G10R17R07G11R15G15R06R24R16R23G17G19
                                G24G28G01
 116775092.719 7  90993697.72644  22221582.859                    22221589.105
        47.500          29.100
                  89742589.813 6  21562135.422                    21562136.785
                        40.800
                  83836930.148 6  20136142.828                    20136145.270
                        39.800
 117682657.193 7  91700802.54244  22394270.078                    22394273.027
        43.900          25.600
                  86085546.931 5  20712519.078                    20712521.895
                        35.100
 121089087.152 7  94355183.78645  23042495.102                    23042499.887
        46.900          30.500
                  89685197.399 4  21608956.797                    21608956.660
                        29.700
                  84465819.718 5  20308543.070                    20308543.496
                        32.800
                  81300027.743 6  19567975.891                    19567976.906
                        38.000
                                  22225997.484

 120043486.149 8  93540416.87145  22843522.398                    22843525.629
        48.400          32.000
 125653454.227 6  97911783.27543  23911054.469                    23911057.676
        38.900          19.300
 111452591.317 7  86846168.88145  21208718.695                    21208724.934
        46.300          30.200
 117642785.742 7  91669714.96845  22386681.656                    22386684.738
        46.300          30.800
 119108140.264 7  92811630.11244  22665542.109                    22665549.000
        43.900          27.400
 18  3 13 12 37 20.0000000  0 15G10R17R07G11R15G15R06R24R16R23G17G19
                                G24G28G01
 116776327.767 7  90994660.11444  22221817.789                    22221824.059
        47.500          29.700
                  89740137.854 6  21561546.227                    21561547.949
                        40.500
                  83837134.229 6  20136192.172                    20136193.758
                        39.500
 117683243.821 7  91701259.64944  22394381.406                    22394384.781
        43.700          24.500
                  86088413.557 5  20713208.344                    20713212.055
                        34.500
 121092734.117 7  94358025.56744  23043189.523                    23043193.770
        46.600          29.800
                  89688429.563 4  21609734.984                    21609735.504
                        29.700
                  84466400.320 5  20308682.289                    20308682.688
                        33.000
                  81298979.993 6  19567723.148                    19567725.094
                        38.000
                                  22226781.742

 120041332.201 8  93538738.47545  22843112.688                    22843115.848
        48.600          32.100
 125650003.545 6  97909094.41243  23910398.141                    23910401.008
        38.900          19.600
 111451366.818 7  86845214.73445  21208486.102                    21208491.680
        46.400          31.300
 117645538.201 7  91671859.73545  22387205.703                    22387209.016
        46.100          30.500
 119106809.137 7  92810592.86344  22665288.289                    22665295.500
        43.900          27.000
 18  3 13 12 37 21.0000000  0 15G10R17R07G11R15G15R06R24R16R23G17G19
                                G24G28G01
 116777563.602 7  90995623.10444  22222052.789                    22222059.148
        47.800          29.300
                  89737686.455 6  21560956.172                    21560958.539
                        40.100
                  83837339.159 6  20136240.586                    20136243.207
                        39.800
 117683831.329 7  91701717.45744  22394493.438                    22394496.387
        43.800          24.900
                  86091280.674 5  20713899.023                    20713902.070
                        35.200
 121096381.566 7  94360867.72644  23043883.664                    23043888.160
        46.200          29.500
                  89691662.247 4  21610514.852                    21610514.520
                        28.900
                  84466981.764 5  20308821.289                    20308823.098
                        32.600
                  81297932.960 6  19567472.453                    19567473.141
                        38.200
                                  22227566.578

 120039178.823 8  93537060.51845  22842702.469                    22842706.156
        48.300          31.300
 125646553.227 6  97906405.87143  23909741.836                    23909744.730
        39.600          20.900
 111450143.072 7  86844261.16245  21208253.195                    21208258.980
        46.300          31.100
 117648291.179 7  91674004.91845  22387729.305                    22387732.926
        45.900          31.100
 119105478.781 7  92809556.22544  22665035.156                    22665042.781
        43.400          28.200
 18  3 13 12 37 22.0000000  0 15G10R17R07G11R15G15R06R24R16R23G17G19
                                G24G28G01
 116778800.199 7  90996586.68244  22222288.422                    22222294.871
        45.300          24.400
                  89735235.554 6  21560368.094                    21560369.699
                        40.000
                  83837544.917 6  20136290.734                    20136292.824
                        38.300
 117684419.675 7  91702175.91244  22394605.930                    22394608.047
        43.800          25.100
                  86094148.238 5  20714589.852                    20714592.398
                        35.400
 121100029.442 7  94363710.24144  23044578.086                    23044582.313
        46.100          29.300
                  89694895.381 5  21611293.461                    21611293.727
                        31.900
                  84467564.058 5  20308961.750                    20308962.488
                        32.800
                  81296886.585 6  19567220.758                    19567221.227
                        38.800
                                  22228351.039

 120037025.968 8  93535382.95745  22842292.734                    22842295.980
        48.400          31.200
 125643103.271 6  97903717.62643  23909086.109                    23909088.184
        40.600          21.700
 111448919.997 8  86843308.09745  21208020.750                    21208026.059
        48.000          33.000
 117651044.634 7  91676150.46844  22388253.258                    22388256.688
        45.800          29.300
 119104149.106 7  92808520.11144  22664781.898                    22664789.441
        44.100          28.300
 18  3 13 12 37 23.0000000  0 15G10R17R07G11R15G15R06R24R16R23G17G19
                                G24G28G01
 116780037.705 6  90997550.96343  22222523.672                    22222530.133
        39.000          19.300
                  89732785.229 6  21559779.219                    21559781.047
                        39.700
                  83837751.484 6  20136339.953                    20136341.898
                        39.100
 117685008.844 7  91702635.02444  22394717.930                    22394720.516
        44.600          27.300
                  86097016.324 5  20715278.727                    20715282.418
                        34.900
 121103677.793 7  94366553.10345  23045272.758                    23045276.262
        47.000          30.100
                  89698128.962 5  21612072.578                    21612073.066
                        33.800
                  84468147.104 5  20309102.406                    20309102.867
                        31.900
                  81295840.863 6  19566967.680                    19566969.813
                        38.500
                                  22229135.359

 120034873.647 8  93533705.82345  22841883.523                    22841886.762
        49.300          32.500
 125639653.721 6  97901029.67543  23908429.250                    23908431.629
        40.300          21.800
 111447697.652 8  86842355.58146  21207787.789                    21207793.484
        50.100          38.700
 117653798.584 7  91678296.40644  22388777.445                    22388780.875
        45.300          29.400
 119102820.180 7  92807484.58144  22664529.367                    22664536.730
        42.500          27.900
 18  3 13 12 37 24.0000000  0 15G10R17R07G11R15G15R06R24R16R23G17G19
                                G24G28G01
 116781275.911 7  90998515.81443  22222759.930                    22222765.730
        45.600          22.000
                  89730335.393 6  21559191.281                    21559192.711
                        40.100
                  83837958.762 6  20136389.961                    20136392.043
                        39.200
 117685598.872 7  91703094.77144  22394830.305                    22394832.738
        46.000          24.700
                  86099884.917 6  20715968.766                    20715972.832
                        36.000
 121107326.591 7  94369396.31745  23045967.227                    23045970.723
        47.200          30.400
                  89701363.027 5  21612852.188                    21612852.492
                        34.300
                  84468731.015 5  20309242.000                    20309243.223
                        32.200
                  81294795.848 6  19566716.102                    19566717.820
                        38.500
                                  22229920.914

 120032721.878 8  93532029.11045  22841474.555                    22841477.305
        49.100          33.400
 125636204.487 6  97898341.95843  23907772.883                    23907775.699
        39.700          22.000
 111446476.015 8  86841403.64746  21207555.133                    21207561.480
        50.300          39.200
 117656553.082 7  91680442.78244  22389301.609                    22389304.957
        45.400          29.100
 119101492.022 6  92806449.65944  22664276.320                    22664284.422
        41.700          26.600
 18  3 13 12 37 25.0000000  0 15G10R17R07G11R15G15R06R24R16R23G17G19
                                G24G28G01
 116782514.885 7  90999481.28744  22222995.422                    22223001.688
        47.100          28.500
                  89727886.097 6  21558602.375                    21558603.875
                        39.900
                  83838166.955 6  20136439.758                    20136442.039
                        39.100
 117686189.792 7  91703555.22944  22394942.492                    22394945.211
        45.400          26.500
                  86102754.039 5  20716659.781                    20716662.891
                        35.700
 121110975.869 7  94372239.91244  23046661.313                    23046664.641
        47.100          29.600
                  89704597.600 5  21613631.016                    21613631.758
                        33.400
                  84469315.819 5  20309383.172                    20309383.352
                        32.800
                  81293751.568 6  19566465.516                    19566467.344
                        38.300
                                  22230706.578

 120030570.672 8  93530352.84245  22841064.453                    22841068.164
        48.500          33.200
 125632755.696 6  97895654.56243  23907116.375                    23907119.191
        40.400          21.800
 111445255.100 8  86840452.29646  21207322.883                    21207329.203
        50.100          38.500
 117659308.090 7  91682589.54844  22389825.813                    22389829.324
        45.000          29.500
 119100164.705 6  92805415.41044  22664023.961                    22664031.855
        41.600          25.700
 18  3 13 12 37 26.0000000  0 15G10R17R07G11R15G15R06R24R16R23G17G19
                                G24G28G01
 116783754.648 7  91000447.33944  22223230.781                    22223237.449
        46.000          27.200
                  89725437.343 6  21558014.445                    21558015.496
                        39.400
                  83838375.960 6  20136490.422                    20136491.949
                        39.100
 117686781.578 7  91704016.36944  22395055.297                    22395057.805
        45.300          27.300
                  86105623.645 5  20717350.172                    20717353.582
                        35.800
 121114625.636 7  94375083.88144  23047355.875                    23047359.184
        47.400          28.500
                  89707832.697 5  21614410.977                    21614411.000
                        34.300
                  84469901.437 5  20309524.320                    20309524.516
                        33.400
                  81292707.976 6  19566213.805                    19566215.371
                        38.100
                                  22231491.227

 120028420.063 8  93528677.03845  22840655.711                    22840658.395
        49.000          33.100
 125629307.249 6  97892967.44743  23906460.430                    23906462.824
        40.900          22.600
 111444034.894 8  86839501.50346  21207090.453                    21207097.035
        49.600          37.900
 117662063.633 7  91684736.72244  22390350.242                    22390353.656
        45.100          29.800
 119098838.098 7  92804381.67344  22663771.570                    22663779.223
        42.200          28.700
 18  3 13 12 37 27.0000000  0 15G10R17R07G11R15G15R06R24R16R23G17G19
                                G24G28G01
 116784995.217 7  91001414.00444  22223467.672                    22223473.645
        46.000          24.700
                  89722989.169 6  21557425.977                    21557427.090
                        39.900
                  83838585.776 6  20136540.633                    20136542.137
                        39.400
 117687374.233 7  91704478.20044  22395168.031                    22395170.773
        45.500          27.400
                  86108493.758 5  20718040.094                    20718044.000
                        35.800
 121118275.868 7  94377928.22544  23048050.594                    23048053.840
        47.200          29.100
                  89711068.306 5  21615190.414                    21615190.738
                        34.400
                  84470487.879 5  20309665.188                    20309665.734
                        33.300
                  81291665.083 6  19565962.586                    19565965.102
                        37.700
                                  22232275.820

 120026270.009 8  93527001.68545  22840246.406                    22840249.441
        48.600          33.700
 125625859.193 6  97890280.66743  23905804.250                    23905806.543
        40.000          22.000
 111442815.379 8  86838551.23946  21206858.422                    21206864.668
        50.200          37.900
 117664819.696 7  91686884.30345  22390874.727                    22390878.137
        45.300          30.000
 119097512.300 6  92803348.57944  22663518.789                    22663526.805
        41.300          25.800
 18  3 13 12 37 28.0000000  0 15G10R17R07G11R15G15R06R24R16R23G17G19
                                G24G28G01
 116786236.530 7  91002381.25644  22223703.633                    22223709.582
        46.300          25.900
                  89720541.467 6  21556837.672                    21556838.742
                        39.600
                  83838796.302 6  20136590.992                    20136593.285
                        39.000
 117687967.676 7  91704940.62744  22395281.141                    22395283.656
        45.700          27.900
                  86111364.347 5  20718730.914                    20718734.512
                        35.500
 121121926.488 7  94380772.87544  23048745.305                    23048748.426
        47.000          29.000
                  89714304.319 5  21615968.781                    21615970.629
                        33.800
                  84471075.091 5  20309805.563                    20309806.809
                        33.400
                  81290622.779 6  19565712.586                    19565713.398
                        38.100
                                  22233060.813

 120024120.428 8  93525326.69045  22839837.094                    22839840.402
        48.500          33.100
 125622411.450 6  97887594.12443  23905147.211                    23905151.035
        39.400          21.700
 111441596.528 8  86837601.50246  21206626.781                    21206632.828
        50.700          37.500
 117667576.206 7  91689032.22845  22391399.805                    22391402.559
        44.600          30.200
 119096187.147 6  92802315.97744  22663267.195                    22663274.621
        41.400          26.000
 18  3 13 12 37 29.0000000  0 15G10R17R07G11R15G15R06R24R16R23G17G19
                                G24G28G01
 116787478.678 7  91003349.15544  22223940.180                    22223946.340
        46.300          25.300
                  89718094.344 6  21556250.023                    21556251.352
                        39.400
                  83839007.722 6  20136641.539                    20136644.191
                        38.800
 117688562.063 7  91705403.78644  22395394.086                    22395396.813
        45.600          26.700
                  86114235.466 5  20719422.563                    20719425.543
                        35.500
 121125577.663 7  94383617.95644  23049440.125                    23049443.137
        46.900          29.700
                  89717540.874 5  21616749.273                    21616749.980
                        33.600
                  84471663.188 5  20309947.469                    20309948.156
                        33.600
                  81289581.229 6  19565461.102                    19565463.398
                        38.300
                                  22233845.375

 120021971.481 8  93523652.19045  22839428.164                    22839431.555
        48.400          32.700
 125618964.115 6  97884907.90443  23904491.672                    23904494.480
        40.400          21.500
 111440378.489 8  86836652.38646  21206395.047                    21206400.746
        50.900          37.700
 117670333.287 7  91691180.59144  22391924.211                    22391927.164
        45.100          29.500
 119094862.843 7  92801284.05844  22663015.172                    22663022.520
        42.400          27.700
 18  3 13 12 37 30.0000000  0 15G10R17R07G11R15G15R06R24R16R23G17G19
                                G24G28G01
 116788721.665 7  91004317.72644  22224176.313                    22224182.684
        47.900          28.800
                  89715647.735 6  21555662.539                    21555663.570
                        39.300
                  83839220.005 6  20136692.898                    20136695.270
                        39.800
 117689157.286 7  91705867.59244  22395507.008                    22395510.023
        45.400          26.800
                  86117107.112 5  20720112.695                    20720116.531
                        35.900
 121129229.297 7  94386463.39344  23050134.602                    23050138.008
        46.300          29.800
                  89720777.947 5  21617528.578                    21617529.891
                        33.700
                  84472252.158 5  20310089.188                    20310090.164
                        32.700
                  81288540.347 6  19565211.047                    19565212.402
                        37.900
                                  22234631.523

 120019823.100 8  93521978.13045  22839019.852                    22839022.977
        48.400          33.600
 125615517.163 6  97882221.98743  23903835.578                    23903838.457
        39.100          21.100
 111439161.165 8  86835703.81946  21206163.938                    21206169.086
        51.200          38.400
 117673090.890 7  91693329.37844  22392448.719                    22392452.488
        44.900          28.900
 119093539.300 7  92800252.74144  22662763.547                    22662770.559
        42.400          27.100
 18  3 13 12 37 31.0000000  0 15G10R17R07G11R15G15R06R24R16R23G17G19
                                G24G28G01
 116789965.363 7  91005286.84944  22224413.000                    22224419.469
        47.500          26.900
                  89713201.692 6  21555074.781                    21555076.090
                        38.800
                  83839433.056 6  20136743.813                    20136746.258
                        39.700
 117689753.403 7  91706332.08744  22395620.195                    22395623.355
        44.600          26.400
                  86119979.274 5  20720803.656                    20720807.770
                        35.200
 121132881.406 7  94389309.19244  23050829.039                    23050833.258
        46.600          29.300
                  89724015.517 5  21618309.164                    21618310.160
                        34.500
                  84472841.978 5  20310230.453                    20310232.129
                        33.400
                  81287500.166 6  19564960.594                    19564962.063
                        38.200
                                  22235416.523

 120017675.269 7  93520304.49245  22838610.828                    22838614.449
        47.800          34.000
 125612070.582 6  97879536.33843  23903180.875                    23903182.797
        40.500          21.100
 111437944.579 8  86834755.82846  21205932.109                    21205937.965
        51.300          38.300
 117675849.004 7  91695478.55844  22392973.664                    22392976.750
        44.900          28.000
 119092216.502 7  92799221.99944  22662511.672                    22662518.871
        42.200          27.500
 18  3 13 12 37 32.0000000  0 15G10R17R07G11R15G15R06R24R16R23G17G19
                                G24G28G01
 116791209.843 7  91006256.58744  22224650.172                    22224656.539
        47.700          26.900
                  89710756.174 6  21554486.813                    21554488.141
                        39.300
                  83839646.896 6  20136795.406                    20136797.621
                        39.700
 117690350.323 7  91706797.21444  22395733.898                    22395737.168
        45.200          26.200
                  86122851.920 5  20721494.664                    20721498.098
                        34.900
 121136533.959 7  94392155.35144  23051524.398                    23051528.078
        46.700          29.300
                  89727253.551 5  21619089.875                    21619090.336
                        34.300
                  84473432.593 5  20310372.563                    20310373.398
                        32.900
                  81286460.665 6  19564711.008                    19564711.781
                        38.300
                                  22236201.508

 120015527.955 7  93518631.25945  22838202.273                    22838205.422
        46.800          33.300
 125608624.399 6  97876850.97543  23902524.602                    23902526.750
        41.000          20.600
 111436728.686 8  86833808.37246  21205700.289                    21205706.402
        50.400          38.600
 117678607.620 7  91697628.12744  22393498.320                    22393501.945
        44.400          28.300
 119090894.464 6  92798191.83344  22662259.664                    22662267.602
        41.800          27.200
 18  3 13 12 37 33.0000000  0 15G10R17R07G11R15G15R06R24R16R23G17G19
                                G24G28G01
 116792455.142 7  91007226.93244  22224886.719                    22224893.063
        47.000          27.500
                  89708311.204 6  21553899.266                    21553900.648
                        39.800
                  83839861.601 6  20136847.383                    20136849.113
                        39.900
 117690948.135 7  91707263.04344  22395847.969                    22395850.969
        45.500          24.800
                  86125725.095 5  20722186.836                    20722190.305
                        35.600
 121140186.976 7  94395001.85645  23052219.609                    23052223.625
        46.600          30.400
                  89730492.093 5  21619869.891                    21619870.891
                        33.800
                  84474024.051 5  20310515.836                    20310516.246
                        32.500
                  81285421.883 6  19564460.133                    19564462.059
                        38.900
                                  22236987.898

 120013381.234 7  93516958.48745  22837793.359                    22837797.016
        46.800          32.700
 125605178.541 6  97874165.87443  23901868.867                    23901870.926
        40.700          21.800
 111435513.523 8  86832861.48346  21205468.961                    21205474.973
        49.400          37.300
 117681366.745 7  91699778.09344  22394023.188                    22394026.770
        43.700          29.200
 119089573.199 7  92797162.26944  22662008.250                    22662016.215
        42.400          27.200
 18  3 13 12 37 34.0000000  0 15G10R17R07G11R15G15R06R24R16R23G17G19
                                G24G28G01
 116793701.269 7  91008197.93344  22225124.867                    22225130.504
        46.500          27.100
                  89705866.765 6  21553311.953                    21553313.469
                        39.800
                  83840077.133 6  20136898.328                    20136900.551
                        39.100
 117691546.819 7  91707729.54844  22395961.805                    22395964.738
        45.000          24.700
                  86128598.754 5  20722876.711                    20722881.211
                        35.600
 121143840.495 7  94397848.74744  23052914.297                    23052918.648
        45.500          28.700
                  89733731.136 5  21620651.547                    21620651.145
                        34.400
                  84474616.380 5  20310657.617                    20310658.551
                        33.100
                  81284383.790 6  19564210.281                    19564211.859
                        38.100
                                  22237774.156

 120011235.070 7  93515286.15145  22837385.508                    22837388.602
        47.500          33.300
 125601733.104 6  97871481.11543  23901213.297                    23901215.199
        40.900          22.000
 111434299.068 8  86831915.14646  21205237.938                    21205244.055
        49.600          37.400
 117684126.421 7  91701928.48244  22394548.898                    22394551.848
        44.300          28.600
 119088252.718 7  92796133.31944  22661756.680                    22661764.723
        42.000          26.900
 18  3 13 12 37 35.0000000  0 15G10R17R07G11R15G15R06R24R16R23G17G19
                                G24G28G01
 116794948.095 7  91009169.46944  22225361.359                    22225367.188
        47.000          27.800
                  89703422.838 6  21552724.625                    21552726.031
                        40.400
                  83840293.440 6  20136951.266                    20136952.551
                        39.100
 117692146.310 7  91708196.67144  22396075.891                    22396078.918
        44.500          25.000
                  86131472.890 6  20723568.922                    20723572.824
                        36.100
 121147494.432 7  94400695.95744  23053610.281                    23053613.918
        46.400          29.300
                  89736970.630 5  21621431.563                    21621431.664
                        34.400
                  84475209.530 5  20310800.766                    20310801.004
                        33.400
                  81283346.330 6  19563961.586                    19563962.512
                        38.100
                                  22238560.555

 120009089.393 7  93513614.18545  22836977.141                    22836980.438
        47.900          33.200
 125598287.964 6  97868796.59543  23900557.492                    23900559.461
        40.600          22.000
 111433085.284 8  86830969.34546  21205006.906                    21205012.875
        50.400          37.600
 117686886.510 7  91704079.20644  22395074.117                    22395077.094
        45.400          29.800
 119086932.898 7  92795104.88744  22661506.078                    22661513.465
        43.500          27.100
 18  3 13 12 37 36.0000000  0 14G10R17R07G11R15G15R06R24R16G17G19G24
                                G28G01
 116796195.786 7  91010141.69843  22225598.703                    22225604.504
        44.700          22.600
                  89700979.478 6  21552137.523                    21552139.238
                        40.000
                  83840510.604 6  20137002.570                    20137004.828
                        38.500
 117692746.707 7  91708664.49544  22396190.313                    22396192.977
        45.400          25.600
                  86134347.577 5  20724260.953                    20724264.555
                        35.100
 121151148.884 7  94403543.56744  23054305.570                    23054309.598
        46.600          29.200
                  89740210.641 5  21622211.875                    21622211.883
                        35.200
                  84475803.529 5  20310943.164                    20310944.402
                        34.200
                  81282309.612 6  19563711.352                    19563712.641
                        37.900
 120006944.359 7  93511942.73145  22836568.617                    22836572.094
        47.900          32.300
 125594843.295 6  97866112.43943  23899902.188                    23899903.926
        40.600          21.500
 111431872.289 8  86830024.16146  21204776.484                    21204782.219
        50.800          37.500
 117689647.229 7  91706230.41844  22395599.133                    22395602.691
        44.600          29.200
 119085613.931 7  92794077.12544  22661254.930                    22661262.441
        43.200          25.500
 18  3 13 12 37 37.0000000  0 14G10R17R07G11R15G15R06R24R16G17G19G24
                                G28G01
 116797444.375 7  91011114.66843  22225836.070                    22225842.578
        46.100          23.000
                  89698536.684 6  21551550.500                    21551552.516
                        40.500
                  83840728.594 6  20137055.625                    20137057.297
                        38.000
 117693348.029 7  91709133.05144  22396304.875                    22396307.426
        45.100          25.700
                  86137222.794 5  20724953.352                    20724956.852
                        34.400
 121154803.830 7  94406391.56644  23055001.320                    23055005.211
        46.500          27.900
                  89743451.157 5  21622992.594                    21622992.973
