% program   : RTKPOST ver.2.4.2
% inp file  : Z:\home\linda\Documents\Spring18\GitHub_Unis\data\processed_data\46250726.obs
% inp file  : Z:\home\linda\Documents\Spring18\GitHub_Unis\data\base_station_data\lyrs0720.18o
% inp file  : Z:\home\linda\Documents\Spring18\GitHub_Unis\data\processed_data\46250726.nav
% obs start : 2018/03/13 14:13:00.0 GPST (week1992 223980.0s)
% obs end   : 2018/03/13 14:38:39.0 GPST (week1992 225519.0s)
% pos mode  : static
% freqs     : L1+L2
% solution  : forward
% elev mask : 15.0 deg
% dynamics  : on
% tidecorr  : off
% ionos opt : broadcast
% tropo opt : saastamoinen
% ephemeris : broadcast
% navi sys  : gps glonass galileo qzss sbas
% amb res   : fix and hold
% amb glo   : on
% val thres : 3.0
% antenna1  :                       ( 0.0000  0.0000  0.0000)
% antenna2  :                       ( 0.0000  0.0000  0.0000)
% ref pos   : 78.228825638   15.397310064   495.6816
%
% (lat/lon/height=WGS84/ellipsoidal,Q=1:fix,2:float,3:sbas,4:dgps,5:single,6:ppp,ns=# of satellites)
%  GPST                  latitude(deg) longitude(deg)  height(m)   Q  ns   sdn(m)   sde(m)   sdu(m)  sdne(m)  sdeu(m)  sdun(m) age(s)  ratio
2018/03/13 14:13:00.000   78.256770872   16.230311545   396.1141   2   9   0.6186   0.4064   2.7626  -0.2284  -0.5634   1.1719   0.00    1.2
2018/03/13 14:13:01.000   78.256772418   16.230308793   396.6682   2   9   0.4396   0.2887   1.9687  -0.1631  -0.4030   0.8341   0.00    1.3
2018/03/13 14:13:02.000   78.256773325   16.230305632   397.1800   2   9   0.3593   0.2361   1.6098  -0.1334  -0.3298   0.6817   0.00    1.3
2018/03/13 14:13:03.000   78.256773310   16.230305382   397.2578   2   9   0.3110   0.2046   1.3934  -0.1154  -0.2856   0.5898   0.00    1.4
2018/03/13 14:13:04.000   78.256772785   16.230306271   397.4060   2   9   0.2778   0.1830   1.2442  -0.1030  -0.2550   0.5265   0.00    1.3
2018/03/13 14:13:05.000   78.256773088   16.230303592   397.5375   2   9   0.2531   0.1671   1.1328  -0.0938  -0.2322   0.4793   0.00    1.3
2018/03/13 14:13:06.000   78.256772700   16.230302188   397.3953   2   9   0.2338   0.1546   1.0454  -0.0864  -0.2142   0.4422   0.00    1.2
2018/03/13 14:13:07.000   78.256772350   16.230301182   397.2365   2   9   0.2181   0.1446   0.9740  -0.0805  -0.1995   0.4119   0.00    1.2
2018/03/13 14:13:08.000   78.256771967   16.230301495   397.0334   2   9   0.2049   0.1363   0.9142  -0.0754  -0.1872   0.3865   0.00    1.1
2018/03/13 14:13:09.000   78.256771894   16.230300974   397.0317   2   9   0.1937   0.1292   0.8629  -0.0711  -0.1766   0.3647   0.00    1.1
2018/03/13 14:13:10.000   78.256771936   16.230300714   397.1167   2   9   0.1840   0.1231   0.8181  -0.0673  -0.1674   0.3457   0.00    1.1
2018/03/13 14:13:11.000   78.256771958   16.230300214   397.2633   2   9   0.1754   0.1178   0.7785  -0.0640  -0.1592   0.3289   0.00    1.0
2018/03/13 14:13:12.000   78.256771786   16.230300814   397.1823   2   9   0.1677   0.1131   0.7431  -0.0610  -0.1518   0.3138   0.00    1.0
2018/03/13 14:13:13.000   78.256771206   16.230300792   397.0097   2   9   0.1608   0.1089   0.7110  -0.0583  -0.1452   0.3002   0.00    1.0
2018/03/13 14:13:14.000   78.256771336   16.230299718   397.0408   2   9   0.1546   0.1051   0.6818  -0.0558  -0.1391   0.2877   0.00    1.0
2018/03/13 14:13:15.000   78.256770934   16.230300256   396.8824   2   9   0.1489   0.1017   0.6550  -0.0535  -0.1336   0.2763   0.00    1.0
2018/03/13 14:13:16.000   78.256770362   16.230299943   396.6507   2   9   0.1436   0.0986   0.6302  -0.0513  -0.1284   0.2658   0.00    1.0
2018/03/13 14:13:17.000   78.256769777   16.230300530   396.3753   2   9   0.1387   0.0957   0.6072  -0.0494  -0.1236   0.2559   0.00    1.0
2018/03/13 14:13:18.000   78.256769503   16.230300249   396.3346   2   9   0.1342   0.0931   0.5857  -0.0475  -0.1191   0.2468   0.00    1.0
2018/03/13 14:13:19.000   78.256769233   16.230300703   396.2553   2   9   0.1300   0.0906   0.5656  -0.0458  -0.1150   0.2382   0.00    1.0
2018/03/13 14:13:20.000   78.256768913   16.230300755   396.1308   2   9   0.1260   0.0884   0.5467  -0.0441  -0.1110   0.2301   0.00    1.0
2018/03/13 14:13:21.000   78.256768669   16.230301575   396.0688   2   9   0.1223   0.0863   0.5289  -0.0426  -0.1073   0.2225   0.00    1.0
2018/03/13 14:13:22.000   78.256768493   16.230301586   396.0813   2   9   0.1188   0.0843   0.5121  -0.0411  -0.1038   0.2153   0.00    1.0
2018/03/13 14:13:23.000   78.256768510   16.230301664   396.1547   2   9   0.1155   0.0824   0.4961  -0.0397  -0.1004   0.2085   0.00    1.0
2018/03/13 14:13:24.000   78.256768673   16.230301179   396.3098   2   9   0.1124   0.0807   0.4810  -0.0384  -0.0973   0.2020   0.00    1.0
2018/03/13 14:13:25.000   78.256768915   16.230300849   396.5144   2   9   0.1095   0.0790   0.4666  -0.0371  -0.0942   0.1959   0.00    1.0
2018/03/13 14:13:26.000   78.256769168   16.230300001   396.7190   2   9   0.1067   0.0774   0.4529  -0.0359  -0.0914   0.1900   0.00    1.0
2018/03/13 14:13:27.000   78.256769419   16.230299578   396.9177   2   9   0.1040   0.0760   0.4398  -0.0348  -0.0886   0.1844   0.00    1.0
2018/03/13 14:13:28.000   78.256769621   16.230299378   397.1123   2   9   0.1014   0.0746   0.4273  -0.0337  -0.0860   0.1790   0.00    1.0
2018/03/13 14:13:29.000   78.256769873   16.230298756   397.2656   2   9   0.0990   0.0732   0.4154  -0.0326  -0.0835   0.1739   0.00    1.1
2018/03/13 14:13:30.000   78.256769960   16.230298413   397.4010   2   9   0.0967   0.0720   0.4040  -0.0316  -0.0811   0.1690   0.00    1.1
2018/03/13 14:13:31.000   78.256770186   16.230297661   397.5621   2   9   0.0945   0.0708   0.3930  -0.0306  -0.0788   0.1643   0.00    1.1
2018/03/13 14:13:32.000   78.256770378   16.230297462   397.6812   2   9   0.0924   0.0696   0.3825  -0.0297  -0.0765   0.1598   0.00    1.1
2018/03/13 14:13:33.000   78.256770485   16.230297576   397.7772   2   9   0.0903   0.0685   0.3724  -0.0288  -0.0744   0.1555   0.00    1.1
2018/03/13 14:13:34.000   78.256770407   16.230297637   397.8056   2   9   0.0884   0.0674   0.3627  -0.0279  -0.0724   0.1513   0.00    1.1
2018/03/13 14:13:35.000   78.256770387   16.230297431   397.8105   2   9   0.0865   0.0664   0.3534  -0.0271  -0.0704   0.1473   0.00    1.1
2018/03/13 14:13:36.000   78.256770357   16.230297487   397.8381   2   9   0.0847   0.0654   0.3445  -0.0263  -0.0685   0.1435   0.00    1.1
2018/03/13 14:13:37.000   78.256770263   16.230297549   397.8407   2   9   0.0830   0.0645   0.3359  -0.0255  -0.0667   0.1398   0.00    1.1
2018/03/13 14:13:38.000   78.256770154   16.230298040   397.8316   2   9   0.0814   0.0636   0.3276  -0.0248  -0.0649   0.1362   0.00    1.1
2018/03/13 14:13:39.000   78.256770045   16.230298126   397.8276   2   9   0.0798   0.0627   0.3196  -0.0241  -0.0632   0.1328   0.00    1.0
2018/03/13 14:13:40.000   78.256769962   16.230298421   397.8187   2   9   0.0782   0.0619   0.3119  -0.0234  -0.0616   0.1294   0.00    1.0
2018/03/13 14:13:41.000   78.256769789   16.230298654   397.7798   2   9   0.0768   0.0611   0.3045  -0.0227  -0.0600   0.1262   0.00    1.0
2018/03/13 14:13:42.000   78.256769646   16.230298981   397.7680   2   9   0.0753   0.0603   0.2973  -0.0221  -0.0585   0.1232   0.00    1.0
2018/03/13 14:13:43.000   78.256769673   16.230298846   397.8632   2   9   0.0740   0.0596   0.2904  -0.0215  -0.0570   0.1202   0.00    1.0
2018/03/13 14:13:44.000   78.256769601   16.230298753   397.8525   2   9   0.0726   0.0588   0.2838  -0.0209  -0.0556   0.1173   0.00    1.0
2018/03/13 14:13:45.000   78.256769570   16.230298785   397.8583   2   9   0.0714   0.0581   0.2773  -0.0203  -0.0542   0.1145   0.00    1.0
2018/03/13 14:13:46.000   78.256769646   16.230298598   397.9090   2   9   0.0701   0.0574   0.2711  -0.0197  -0.0529   0.1119   0.00    1.0
2018/03/13 14:13:47.000   78.256769530   16.230298617   397.8342   2   9   0.0689   0.0568   0.2651  -0.0192  -0.0516   0.1093   0.00    1.0
2018/03/13 14:13:48.000   78.256769291   16.230299260   397.7188   2   9   0.0678   0.0561   0.2593  -0.0187  -0.0504   0.1068   0.00    1.0
2018/03/13 14:13:49.000   78.256769229   16.230299348   397.7236   2   9   0.0667   0.0555   0.2537  -0.0182  -0.0492   0.1043   0.00    1.0
2018/03/13 14:13:50.000   78.256769107   16.230299795   397.6559   2   9   0.0656   0.0549   0.2487  -0.0177  -0.0483   0.1021   0.00    1.0
2018/03/13 14:13:51.000   78.256769026   16.230299938   397.6198   2   9   0.0646   0.0544   0.2439  -0.0173  -0.0474   0.0999   0.00    1.0
2018/03/13 14:13:52.000   78.256768941   16.230300210   397.5585   2   9   0.0636   0.0538   0.2392  -0.0169  -0.0465   0.0978   0.00    1.0
2018/03/13 14:13:53.000   78.256768915   16.230300257   397.5610   2   9   0.0626   0.0533   0.2346  -0.0165  -0.0457   0.0958   0.00    1.0
2018/03/13 14:13:54.000   78.256768754   16.230300445   397.4804   2   9   0.0617   0.0528   0.2301  -0.0161  -0.0449   0.0938   0.00    1.0
2018/03/13 14:13:55.000   78.256768688   16.230300862   397.4472   2   9   0.0608   0.0522   0.2256  -0.0158  -0.0440   0.0919   0.00    1.0
2018/03/13 14:13:56.000   78.256768591   16.230301039   397.4014   2   9   0.0599   0.0517   0.2213  -0.0154  -0.0431   0.0900   0.00    1.1
2018/03/13 14:13:57.000   78.256768532   16.230301397   397.3779   2   9   0.0591   0.0512   0.2171  -0.0151  -0.0422   0.0882   0.00    1.1
2018/03/13 14:13:58.000   78.256768542   16.230301467   397.3924   2   9   0.0582   0.0508   0.2130  -0.0147  -0.0414   0.0864   0.00    1.1
2018/03/13 14:13:59.000   78.256768537   16.230301646   397.3722   2   9   0.0574   0.0503   0.2090  -0.0144  -0.0406   0.0847   0.00    1.1
2018/03/13 14:14:00.000   78.256768534   16.230301867   397.3762   2   9   0.0567   0.0498   0.2051  -0.0141  -0.0398   0.0830   0.00    1.1
2018/03/13 14:14:01.000   78.256768436   16.230302179   397.3626   2   9   0.0559   0.0494   0.2013  -0.0138  -0.0390   0.0814   0.00    1.1
2018/03/13 14:14:02.000   78.256768282   16.230302346   397.3263   2   9   0.0552   0.0489   0.1976  -0.0134  -0.0382   0.0798   0.00    1.1
2018/03/13 14:14:03.000   78.256768098   16.230302507   397.2802   2   9   0.0544   0.0485   0.1941  -0.0132  -0.0375   0.0782   0.00    1.2
2018/03/13 14:14:04.000   78.256767888   16.230302481   397.2322   2   9   0.0537   0.0481   0.1906  -0.0129  -0.0368   0.0767   0.00    1.2
2018/03/13 14:14:05.000   78.256767703   16.230302335   397.2181   2   9   0.0530   0.0477   0.1872  -0.0126  -0.0361   0.0753   0.00    1.2
2018/03/13 14:14:06.000   78.256767511   16.230302280   397.1973   2   9   0.0524   0.0473   0.1839  -0.0123  -0.0354   0.0739   0.00    1.2
2018/03/13 14:14:07.000   78.256767376   16.230302055   397.2250   2   9   0.0517   0.0469   0.1807  -0.0121  -0.0347   0.0725   0.00    1.2
2018/03/13 14:14:08.000   78.256767235   16.230301863   397.2332   2   9   0.0511   0.0465   0.1776  -0.0118  -0.0341   0.0711   0.00    1.2
2018/03/13 14:14:09.000   78.256767097   16.230301695   397.2521   2   9   0.0505   0.0461   0.1746  -0.0115  -0.0335   0.0698   0.00    1.2
2018/03/13 14:14:10.000   78.256766950   16.230301694   397.2627   2   9   0.0499   0.0457   0.1716  -0.0113  -0.0329   0.0685   0.00    1.2
2018/03/13 14:14:11.000   78.256766796   16.230301438   397.3011   2   9   0.0493   0.0454   0.1687  -0.0111  -0.0323   0.0673   0.00    1.2
2018/03/13 14:14:12.000   78.256766667   16.230301315   397.3313   2   9   0.0487   0.0450   0.1659  -0.0108  -0.0317   0.0661   0.00    1.2
2018/03/13 14:14:13.000   78.256766570   16.230301342   397.3675   2   9   0.0481   0.0447   0.1632  -0.0106  -0.0311   0.0649   0.00    1.2
2018/03/13 14:14:14.000   78.256766524   16.230300943   397.4075   2   9   0.0476   0.0443   0.1605  -0.0104  -0.0306   0.0637   0.00    1.2
2018/03/13 14:14:15.000   78.256766579   16.230300652   397.4950   2   9   0.0470   0.0440   0.1579  -0.0102  -0.0300   0.0626   0.00    1.2
2018/03/13 14:14:16.000   78.256766653   16.230300356   397.5946   2   9   0.0465   0.0437   0.1554  -0.0100  -0.0295   0.0615   0.00    1.2
2018/03/13 14:14:17.000   78.256766727   16.230299981   397.6977   2   9   0.0460   0.0433   0.1529  -0.0098  -0.0290   0.0604   0.00    1.2
2018/03/13 14:14:18.000   78.256766718   16.230299607   397.7730   2   9   0.0455   0.0430   0.1505  -0.0096  -0.0285   0.0594   0.00    1.3
2018/03/13 14:14:19.000   78.256766775   16.230299279   397.8690   2   9   0.0450   0.0427   0.1481  -0.0094  -0.0280   0.0584   0.00    1.2
2018/03/13 14:14:20.000   78.256766871   16.230299016   397.9755   2   9   0.0445   0.0424   0.1458  -0.0092  -0.0275   0.0574   0.00    1.2
2018/03/13 14:14:21.000   78.256766968   16.230298758   398.0794   2   9   0.0441   0.0421   0.1436  -0.0091  -0.0270   0.0564   0.00    1.2
2018/03/13 14:14:22.000   78.256767043   16.230298458   398.1802   2   9   0.0436   0.0418   0.1414  -0.0089  -0.0265   0.0555   0.00    1.2
2018/03/13 14:14:23.000   78.256767166   16.230298218   398.2747   2   9   0.0431   0.0415   0.1393  -0.0087  -0.0261   0.0545   0.00    1.2
2018/03/13 14:14:24.000   78.256767298   16.230297897   398.3714   2   9   0.0427   0.0412   0.1372  -0.0086  -0.0256   0.0536   0.00    1.2
2018/03/13 14:14:25.000   78.256767357   16.230297621   398.4616   2   9   0.0423   0.0409   0.1352  -0.0084  -0.0252   0.0528   0.00    1.2
2018/03/13 14:14:26.000   78.256767402   16.230297338   398.5733   2   9   0.0418   0.0407   0.1332  -0.0082  -0.0248   0.0519   0.00    1.2
2018/03/13 14:14:27.000   78.256767396   16.230297073   398.6766   2   9   0.0414   0.0404   0.1312  -0.0081  -0.0244   0.0511   0.00    1.2
2018/03/13 14:14:28.000   78.256767302   16.230296957   398.7578   2   9   0.0410   0.0401   0.1293  -0.0080  -0.0240   0.0502   0.00    1.2
2018/03/13 14:14:29.000   78.256767186   16.230296734   398.8312   2   9   0.0406   0.0398   0.1275  -0.0078  -0.0236   0.0494   0.00    1.1
2018/03/13 14:14:30.000   78.256767160   16.230296467   398.9430   2   9   0.0402   0.0396   0.1256  -0.0077  -0.0232   0.0486   0.00    1.1
2018/03/13 14:14:31.000   78.256767101   16.230296151   399.0506   2   9   0.0399   0.0393   0.1239  -0.0075  -0.0228   0.0479   0.00    1.1
2018/03/13 14:14:32.000   78.256767035   16.230295958   399.1550   2   9   0.0395   0.0391   0.1221  -0.0074  -0.0224   0.0471   0.00    1.1
2018/03/13 14:14:33.000   78.256766945   16.230295896   399.2238   2   9   0.0391   0.0388   0.1204  -0.0073  -0.0221   0.0464   0.00    1.1
2018/03/13 14:14:34.000   78.256766963   16.230295788   399.3404   2   9   0.0388   0.0386   0.1188  -0.0072  -0.0217   0.0457   0.00    1.0
2018/03/13 14:14:35.000   78.256767016   16.230295723   399.4527   2   9   0.0384   0.0383   0.1171  -0.0071  -0.0214   0.0450   0.00    1.0
2018/03/13 14:14:36.000   78.256767092   16.230295628   399.5806   2   9   0.0380   0.0381   0.1156  -0.0069  -0.0210   0.0443   0.00    1.0
2018/03/13 14:14:37.000   78.256767065   16.230295299   399.6557   2   9   0.0377   0.0378   0.1140  -0.0068  -0.0207   0.0436   0.00    1.0
2018/03/13 14:14:38.000   78.256767028   16.230294887   399.7302   2   9   0.0374   0.0376   0.1125  -0.0067  -0.0203   0.0429   0.00    1.0
2018/03/13 14:14:39.000   78.256767130   16.230294318   399.9182   2   9   0.0372   0.0374   0.1117  -0.0069  -0.0205   0.0427   0.00    1.0
2018/03/13 14:14:40.000   78.256767331   16.230294180   400.1433   2   9   0.0370   0.0372   0.1110  -0.0071  -0.0206   0.0425   0.00    1.1
2018/03/13 14:14:41.000   78.256767391   16.230293576   400.3912   2   9   0.0368   0.0370   0.1103  -0.0073  -0.0207   0.0423   0.00    1.1
2018/03/13 14:14:42.000   78.256767532   16.230293217   400.6445   2   9   0.0366   0.0368   0.1097  -0.0074  -0.0208   0.0422   0.00    1.0
2018/03/13 14:14:43.000   78.256767730   16.230292679   400.9207   2   9   0.0364   0.0366   0.1091  -0.0076  -0.0208   0.0420   0.00    1.0
2018/03/13 14:14:44.000   78.256767944   16.230292176   401.1930   2   9   0.0361   0.0364   0.1085  -0.0077  -0.0208   0.0418   0.00    1.0
2018/03/13 14:14:45.000   78.256768159   16.230291686   401.4765   2   9   0.0359   0.0362   0.1079  -0.0078  -0.0209   0.0416   0.00    1.0
2018/03/13 14:14:46.000   78.256768392   16.230291247   401.7645   2   9   0.0357   0.0361   0.1073  -0.0079  -0.0209   0.0415   0.00    1.1
2018/03/13 14:14:47.000   78.256768599   16.230290713   402.0836   2   9   0.0355   0.0359   0.1067  -0.0080  -0.0210   0.0413   0.00    1.0
2018/03/13 14:14:48.000   78.256768752   16.230290435   402.3741   2   8   0.0354   0.0357   0.1062  -0.0082  -0.0210   0.0411   0.00    1.0
2018/03/13 14:14:49.000   78.256768892   16.230290159   402.6389   2   9   0.0352   0.0355   0.1056  -0.0083  -0.0211   0.0409   0.00    1.1
2018/03/13 14:14:50.000   78.256768951   16.230290134   402.8943   2   9   0.0350   0.0354   0.1051  -0.0083  -0.0212   0.0407   0.00    1.0
2018/03/13 14:14:51.000   78.256769068   16.230290026   403.1225   2   9   0.0348   0.0352   0.1045  -0.0084  -0.0213   0.0405   0.00    1.0
2018/03/13 14:14:52.000   78.256769183   16.230289913   403.3596   2   9   0.0346   0.0351   0.1040  -0.0085  -0.0214   0.0403   0.00    1.0
2018/03/13 14:14:53.000   78.256769254   16.230289966   403.3682   2   9   0.0344   0.0349   0.1037  -0.0085  -0.0215   0.0401   0.00    1.4
2018/03/13 14:14:54.000   78.256769326   16.230289950   403.3722   2   9   0.0343   0.0348   0.1033  -0.0086  -0.0215   0.0400   0.00    1.3
2018/03/13 14:14:55.000   78.256769440   16.230289983   403.3680   2   9   0.0341   0.0347   0.1030  -0.0086  -0.0216   0.0398   0.00    1.2
2018/03/13 14:14:56.000   78.256769517   16.230290049   403.3649   2   9   0.0339   0.0346   0.1027  -0.0087  -0.0217   0.0396   0.00    1.0
2018/03/13 14:14:57.000   78.256769585   16.230289922   403.3589   2   9   0.0337   0.0344   0.1023  -0.0087  -0.0218   0.0394   0.00    1.1
2018/03/13 14:14:58.000   78.256769648   16.230290046   403.3586   2   9   0.0335   0.0343   0.1020  -0.0087  -0.0218   0.0392   0.00    1.0
2018/03/13 14:14:59.000   78.256769692   16.230290079   403.3562   2   9   0.0333   0.0342   0.1016  -0.0088  -0.0219   0.0390   0.00    1.0
2018/03/13 14:15:00.000   78.256769713   16.230290149   403.3505   2   9   0.0332   0.0340   0.1013  -0.0088  -0.0220   0.0388   0.00    1.0
2018/03/13 14:15:01.000   78.256769743   16.230290244   403.3455   2   9   0.0330   0.0339   0.1009  -0.0089  -0.0221   0.0386   0.00    1.0
2018/03/13 14:15:02.000   78.256769780   16.230290353   403.3417   2   9   0.0328   0.0338   0.1006  -0.0089  -0.0222   0.0384   0.00    1.0
2018/03/13 14:15:03.000   78.256769817   16.230290398   403.3353   2   9   0.0326   0.0336   0.1002  -0.0090  -0.0222   0.0382   0.00    1.0
2018/03/13 14:15:04.000   78.256769821   16.230290373   403.3274   2   9   0.0325   0.0335   0.0999  -0.0090  -0.0223   0.0380   0.00    1.0
2018/03/13 14:15:05.000   78.256769793   16.230290381   403.3029   2   9   0.0323   0.0334   0.0995  -0.0091  -0.0224   0.0378   0.00    1.0
2018/03/13 14:15:06.000   78.256769767   16.230290374   403.2749   2   9   0.0321   0.0332   0.0992  -0.0091  -0.0225   0.0376   0.00    1.0
2018/03/13 14:15:07.000   78.256769762   16.230290391   403.2489   2   9   0.0319   0.0331   0.0988  -0.0092  -0.0225   0.0374   0.00    1.0
2018/03/13 14:15:08.000   78.256769769   16.230290478   403.2256   2   9   0.0318   0.0330   0.0984  -0.0092  -0.0226   0.0372   0.00    1.0
2018/03/13 14:15:09.000   78.256769778   16.230290557   403.2014   2   9   0.0316   0.0329   0.0981  -0.0092  -0.0226   0.0370   0.00    1.0
2018/03/13 14:15:10.000   78.256769748   16.230290661   403.1702   2   9   0.0314   0.0327   0.0977  -0.0093  -0.0227   0.0368   0.00    1.0
2018/03/13 14:15:11.000   78.256769721   16.230290634   403.1339   2   9   0.0313   0.0326   0.0973  -0.0093  -0.0227   0.0366   0.00    1.1
2018/03/13 14:15:12.000   78.256769710   16.230290682   403.0971   2   9   0.0311   0.0325   0.0970  -0.0093  -0.0228   0.0364   0.00    1.1
2018/03/13 14:15:13.000   78.256769700   16.230290686   403.0621   2   9   0.0309   0.0324   0.0966  -0.0094  -0.0228   0.0362   0.00    1.1
2018/03/13 14:15:14.000   78.256769692   16.230290628   403.0231   2   9   0.0308   0.0322   0.0962  -0.0094  -0.0229   0.0360   0.00    1.1
2018/03/13 14:15:15.000   78.256769684   16.230290622   402.9785   2   9   0.0306   0.0321   0.0958  -0.0094  -0.0229   0.0358   0.00    1.0
2018/03/13 14:15:16.000   78.256769673   16.230290627   402.9310   2   9   0.0304   0.0320   0.0954  -0.0095  -0.0229   0.0356   0.00    1.0
2018/03/13 14:15:17.000   78.256769660   16.230290588   402.8806   2   9   0.0303   0.0319   0.0950  -0.0095  -0.0230   0.0354   0.00    1.0
2018/03/13 14:15:18.000   78.256769645   16.230290545   402.8322   2   9   0.0301   0.0318   0.0946  -0.0095  -0.0230   0.0352   0.00    1.0
2018/03/13 14:15:19.000   78.256769676   16.230290598   402.7871   2   9   0.0299   0.0316   0.0943  -0.0095  -0.0230   0.0349   0.00    1.0
2018/03/13 14:15:20.000   78.256769725   16.230290580   402.7527   2   9   0.0298   0.0315   0.0939  -0.0095  -0.0230   0.0347   0.00    1.0
2018/03/13 14:15:21.000   78.256769790   16.230290672   402.7245   2   9   0.0296   0.0314   0.0935  -0.0095  -0.0230   0.0345   0.00    1.0
2018/03/13 14:15:22.000   78.256769833   16.230290736   402.6946   2   9   0.0295   0.0313   0.0930  -0.0096  -0.0230   0.0343   0.00    1.1
2018/03/13 14:15:23.000   78.256769892   16.230290903   402.6656   2   9   0.0293   0.0312   0.0926  -0.0096  -0.0231   0.0341   0.00    1.1
2018/03/13 14:15:24.000   78.256769972   16.230290980   402.6362   2   9   0.0292   0.0311   0.0922  -0.0096  -0.0231   0.0339   0.00    1.1
2018/03/13 14:15:25.000   78.256770087   16.230291022   402.6091   2   9   0.0290   0.0310   0.0918  -0.0096  -0.0231   0.0337   0.00    1.2
2018/03/13 14:15:26.000   78.256770211   16.230291190   402.5808   2   9   0.0288   0.0309   0.0914  -0.0096  -0.0231   0.0335   0.00    1.2
2018/03/13 14:15:27.000   78.256770336   16.230291286   402.5580   2   9   0.0287   0.0307   0.0910  -0.0096  -0.0231   0.0332   0.00    1.2
2018/03/13 14:15:28.000   78.256770470   16.230291466   402.5300   2   9   0.0285   0.0306   0.0906  -0.0096  -0.0231   0.0330   0.00    1.2
2018/03/13 14:15:29.000   78.256770577   16.230291570   402.5057   2   9   0.0284   0.0305   0.0901  -0.0096  -0.0230   0.0328   0.00    1.2
2018/03/13 14:15:30.000   78.256770690   16.230291706   402.4748   2   9   0.0282   0.0304   0.0897  -0.0096  -0.0230   0.0326   0.00    1.2
2018/03/13 14:15:31.000   78.256770825   16.230291792   402.4377   2   9   0.0281   0.0303   0.0893  -0.0096  -0.0230   0.0324   0.00    1.0
2018/03/13 14:15:32.000   78.256770968   16.230291883   402.4083   2   9   0.0279   0.0302   0.0889  -0.0096  -0.0230   0.0322   0.00    1.0
2018/03/13 14:15:33.000   78.256771146   16.230291916   402.3729   2   9   0.0278   0.0301   0.0884  -0.0096  -0.0230   0.0319   0.00    1.0
2018/03/13 14:15:34.000   78.256771343   16.230291998   402.3443   2   9   0.0276   0.0300   0.0880  -0.0096  -0.0230   0.0317   0.00    1.0
2018/03/13 14:15:35.000   78.256771484   16.230292122   402.3047   2   9   0.0275   0.0299   0.0876  -0.0096  -0.0230   0.0315   0.00    1.0
2018/03/13 14:15:36.000   78.256771648   16.230292195   402.2633   2   9   0.0273   0.0298   0.0872  -0.0096  -0.0229   0.0313   0.00    1.0
2018/03/13 14:15:37.000   78.256771778   16.230292327   402.2217   2   9   0.0272   0.0297   0.0867  -0.0096  -0.0229   0.0311   0.00    1.0
2018/03/13 14:15:38.000   78.256771863   16.230292516   402.1790   2   9   0.0271   0.0296   0.0863  -0.0096  -0.0229   0.0309   0.00    1.0
2018/03/13 14:15:39.000   78.256772018   16.230292861   402.1313   2   9   0.0269   0.0295   0.0858  -0.0096  -0.0229   0.0306   0.00    1.0
2018/03/13 14:15:40.000   78.256772169   16.230293080   402.0795   2   9   0.0268   0.0294   0.0855  -0.0096  -0.0229   0.0305   0.00    1.0
2018/03/13 14:15:41.000   78.256772194   16.230293241   402.0132   2   9   0.0267   0.0293   0.0851  -0.0096  -0.0228   0.0303   0.00    1.0
2018/03/13 14:15:42.000   78.256772223   16.230293406   401.9589   2   9   0.0265   0.0292   0.0847  -0.0096  -0.0229   0.0301   0.00    1.0
2018/03/13 14:15:43.000   78.256772257   16.230293477   401.9037   2   9   0.0264   0.0291   0.0844  -0.0097  -0.0229   0.0299   0.00    1.1
2018/03/13 14:15:44.000   78.256772282   16.230293550   401.8427   2   9   0.0263   0.0290   0.0840  -0.0097  -0.0229   0.0298   0.00    1.1
2018/03/13 14:15:45.000   78.256772322   16.230293698   401.8068   2   9   0.0261   0.0289   0.0837  -0.0097  -0.0229   0.0296   0.00    1.1
2018/03/13 14:15:46.000   78.256772344   16.230293836   401.7660   2   9   0.0260   0.0288   0.0833  -0.0097  -0.0229   0.0294   0.00    1.1
2018/03/13 14:15:47.000   78.256772394   16.230294000   401.7135   2   9   0.0259   0.0288   0.0830  -0.0097  -0.0229   0.0293   0.00    1.2
2018/03/13 14:15:48.000   78.256772451   16.230294208   401.6626   2   9   0.0258   0.0287   0.0827  -0.0097  -0.0229   0.0291   0.00    1.2
2018/03/13 14:15:49.000   78.256772501   16.230294382   401.6188   2   9   0.0256   0.0286   0.0823  -0.0097  -0.0229   0.0290   0.00    1.2
2018/03/13 14:15:50.000   78.256772542   16.230294462   401.5827   2   9   0.0255   0.0285   0.0820  -0.0097  -0.0229   0.0288   0.00    1.2
2018/03/13 14:15:51.000   78.256772585   16.230294706   401.5383   2   9   0.0254   0.0284   0.0816  -0.0097  -0.0229   0.0286   0.00    1.2
2018/03/13 14:15:52.000   78.256772606   16.230294933   401.5011   2   9   0.0253   0.0283   0.0813  -0.0098  -0.0229   0.0285   0.00    1.3
2018/03/13 14:15:53.000   78.256772611   16.230295066   401.4574   2   9   0.0252   0.0282   0.0809  -0.0098  -0.0229   0.0283   0.00    1.3
2018/03/13 14:15:54.000   78.256772603   16.230295209   401.4152   2   9   0.0250   0.0282   0.0806  -0.0098  -0.0229   0.0282   0.00    1.3
2018/03/13 14:15:55.000   78.256772577   16.230295412   401.3750   2   9   0.0249   0.0281   0.0802  -0.0098  -0.0229   0.0280   0.00    1.3
2018/03/13 14:15:56.000   78.256772557   16.230295616   401.3430   2   9   0.0248   0.0280   0.0799  -0.0098  -0.0229   0.0278   0.00    1.3
2018/03/13 14:15:57.000   78.256772541   16.230295808   401.3075   2   9   0.0247   0.0279   0.0795  -0.0098  -0.0229   0.0277   0.00    1.3
2018/03/13 14:15:58.000   78.256772537   16.230296128   401.2719   2   9   0.0246   0.0278   0.0791  -0.0098  -0.0229   0.0275   0.00    1.3
2018/03/13 14:15:59.000   78.256772545   16.230296339   401.2549   2   9   0.0244   0.0277   0.0788  -0.0098  -0.0229   0.0274   0.00    1.3
2018/03/13 14:16:00.000   78.256772574   16.230296545   401.2327   2   9   0.0243   0.0277   0.0784  -0.0098  -0.0229   0.0272   0.00    1.2
2018/03/13 14:16:01.000   78.256772602   16.230296815   401.2077   2   9   0.0242   0.0276   0.0781  -0.0098  -0.0228   0.0271   0.00    1.2
2018/03/13 14:16:02.000   78.256772649   16.230297027   401.1888   2   9   0.0241   0.0275   0.0777  -0.0098  -0.0228   0.0269   0.00    1.2
2018/03/13 14:16:03.000   78.256772675   16.230297329   401.1704   2   9   0.0240   0.0274   0.0774  -0.0098  -0.0228   0.0267   0.00    1.2
2018/03/13 14:16:04.000   78.256772695   16.230297538   401.1490   2   9   0.0239   0.0273   0.0770  -0.0098  -0.0228   0.0266   0.00    1.1
2018/03/13 14:16:05.000   78.256772714   16.230297741   401.1312   2   9   0.0238   0.0272   0.0767  -0.0098  -0.0228   0.0264   0.00    1.1
2018/03/13 14:16:06.000   78.256772771   16.230297975   401.1131   2   9   0.0237   0.0272   0.0763  -0.0098  -0.0227   0.0263   0.00    1.1
2018/03/13 14:16:07.000   78.256772836   16.230298112   401.0915   2   9   0.0235   0.0271   0.0759  -0.0098  -0.0227   0.0261   0.00    1.1
2018/03/13 14:16:08.000   78.256772913   16.230298281   401.0649   2   9   0.0234   0.0270   0.0756  -0.0098  -0.0227   0.0260   0.00    1.1
2018/03/13 14:16:09.000   78.256772994   16.230298429   401.0346   2   9   0.0233   0.0269   0.0752  -0.0098  -0.0226   0.0258   0.00    1.1
2018/03/13 14:16:10.000   78.256773051   16.230298650   400.9957   2   9   0.0232   0.0268   0.0749  -0.0098  -0.0226   0.0257   0.00    1.1
2018/03/13 14:16:11.000   78.256773111   16.230298802   400.9627   2   9   0.0231   0.0268   0.0745  -0.0098  -0.0226   0.0255   0.00    1.1
2018/03/13 14:16:12.000   78.256773160   16.230299011   400.9220   2   9   0.0230   0.0267   0.0741  -0.0098  -0.0225   0.0254   0.00    1.0
2018/03/13 14:16:13.000   78.256773224   16.230299266   400.8790   2   9   0.0229   0.0266   0.0738  -0.0098  -0.0225   0.0252   0.00    1.0
2018/03/13 14:16:14.000   78.256773305   16.230299578   400.8333   2   9   0.0228   0.0265   0.0734  -0.0098  -0.0225   0.0251   0.00    1.0
2018/03/13 14:16:15.000   78.256773389   16.230299885   400.7842   2   9   0.0227   0.0265   0.0731  -0.0097  -0.0224   0.0249   0.00    1.0
2018/03/13 14:16:16.000   78.256773429   16.230300221   400.7235   2   9   0.0226   0.0264   0.0727  -0.0097  -0.0224   0.0247   0.00    1.0
2018/03/13 14:16:17.000   78.256773477   16.230300515   400.6633   2   9   0.0225   0.0263   0.0723  -0.0097  -0.0224   0.0246   0.00    1.0
2018/03/13 14:16:18.000   78.256773539   16.230300749   400.6060   2   9   0.0224   0.0262   0.0720  -0.0097  -0.0223   0.0244   0.00    1.0
2018/03/13 14:16:19.000   78.256773580   16.230301000   400.5485   2   9   0.0223   0.0261   0.0716  -0.0097  -0.0223   0.0243   0.00    1.0
2018/03/13 14:16:20.000   78.256773647   16.230301132   400.4932   2   9   0.0222   0.0261   0.0712  -0.0097  -0.0222   0.0241   0.00    1.0
2018/03/13 14:16:21.000   78.256773752   16.230301470   400.4439   2   9   0.0221   0.0260   0.0709  -0.0097  -0.0222   0.0240   0.00    1.0
2018/03/13 14:16:22.000   78.256773836   16.230301728   400.3866   2   9   0.0220   0.0259   0.0705  -0.0097  -0.0221   0.0238   0.00    1.1
2018/03/13 14:16:23.000   78.256773920   16.230302065   400.3296   2   9   0.0219   0.0258   0.0702  -0.0097  -0.0221   0.0237   0.00    1.1
2018/03/13 14:16:24.000   78.256773989   16.230302435   400.2608   2   9   0.0218   0.0258   0.0698  -0.0097  -0.0220   0.0235   0.00    1.1
2018/03/13 14:16:25.000   78.256774075   16.230302704   400.1953   2   9   0.0217   0.0257   0.0695  -0.0096  -0.0220   0.0234   0.00    1.1
2018/03/13 14:16:26.000   78.256774167   16.230302939   400.1287   2   9   0.0216   0.0256   0.0691  -0.0096  -0.0219   0.0232   0.00    1.3
2018/03/13 14:16:27.000   78.256774255   16.230303229   400.0583   2   9   0.0215   0.0256   0.0687  -0.0096  -0.0219   0.0231   0.00    1.0
2018/03/13 14:16:28.000   78.256774355   16.230303541   399.9872   2   9   0.0214   0.0255   0.0684  -0.0096  -0.0218   0.0229   0.00    1.0
2018/03/13 14:16:29.000   78.256774468   16.230303848   399.9157   2   9   0.0213   0.0254   0.0680  -0.0096  -0.0218   0.0228   0.00    1.1
2018/03/13 14:16:30.000   78.256774577   16.230304139   399.8436   2   9   0.0212   0.0253   0.0677  -0.0096  -0.0217   0.0227   0.00    1.1
2018/03/13 14:16:31.000   78.256774685   16.230304464   399.7722   2   9   0.0211   0.0253   0.0673  -0.0096  -0.0217   0.0225   0.00    1.1
2018/03/13 14:16:32.000   78.256774783   16.230304812   399.6981   2   9   0.0210   0.0252   0.0670  -0.0096  -0.0216   0.0224   0.00    1.1
2018/03/13 14:16:33.000   78.256774865   16.230304980   399.6254   2   9   0.0209   0.0251   0.0666  -0.0095  -0.0216   0.0222   0.00    1.1
2018/03/13 14:16:34.000   78.256774987   16.230305284   399.5652   2   9   0.0208   0.0251   0.0662  -0.0095  -0.0215   0.0221   0.00    1.1
2018/03/13 14:16:35.000   78.256775104   16.230305595   399.5049   2   9   0.0207   0.0250   0.0659  -0.0095  -0.0215   0.0219   0.00    1.1
2018/03/13 14:16:36.000   78.256775205   16.230305885   399.4441   2   9   0.0206   0.0249   0.0655  -0.0095  -0.0214   0.0218   0.00    1.1
2018/03/13 14:16:37.000   78.256775288   16.230306175   399.3781   2   9   0.0205   0.0248   0.0652  -0.0095  -0.0213   0.0217   0.00    1.1
2018/03/13 14:16:38.000   78.256775365   16.230306545   399.3142   2   9   0.0204   0.0248   0.0648  -0.0095  -0.0213   0.0215   0.00    1.2
2018/03/13 14:16:39.000   78.256775433   16.230306863   399.2470   2   9   0.0203   0.0247   0.0645  -0.0094  -0.0212   0.0214   0.00    1.2
2018/03/13 14:16:40.000   78.256775474   16.230307165   399.1792   2   9   0.0203   0.0246   0.0641  -0.0094  -0.0211   0.0213   0.00    1.2
2018/03/13 14:16:41.000   78.256775513   16.230307476   399.1168   2   9   0.0202   0.0246   0.0638  -0.0094  -0.0211   0.0211   0.00    1.2
2018/03/13 14:16:42.000   78.256775553   16.230307724   399.0567   2   9   0.0201   0.0245   0.0634  -0.0094  -0.0210   0.0210   0.00    1.2
2018/03/13 14:16:43.000   78.256775574   16.230308016   398.9890   2   9   0.0200   0.0244   0.0631  -0.0094  -0.0210   0.0208   0.00    1.2
2018/03/13 14:16:44.000   78.256775527   16.230308261   398.9128   2   9   0.0199   0.0244   0.0627  -0.0094  -0.0209   0.0207   0.00    1.2
2018/03/13 14:16:45.000   78.256775505   16.230308494   398.8468   2   9   0.0198   0.0243   0.0624  -0.0093  -0.0208   0.0206   0.00    1.1
2018/03/13 14:16:46.000   78.256775482   16.230308721   398.7812   2   9   0.0197   0.0242   0.0620  -0.0093  -0.0208   0.0204   0.00    1.1
2018/03/13 14:16:47.000   78.256775459   16.230308854   398.7116   2   9   0.0196   0.0241   0.0617  -0.0093  -0.0207   0.0203   0.00    1.1
2018/03/13 14:16:48.000   78.256775446   16.230308951   398.6429   2   9   0.0195   0.0241   0.0613  -0.0093  -0.0206   0.0202   0.00    1.1
2018/03/13 14:16:49.000   78.256775449   16.230308912   398.5804   2   9   0.0195   0.0240   0.0610  -0.0093  -0.0205   0.0200   0.00    1.1
2018/03/13 14:16:50.000   78.256775463   16.230308912   398.5244   2   9   0.0194   0.0239   0.0607  -0.0092  -0.0205   0.0199   0.00    1.0
2018/03/13 14:16:51.000   78.256775476   16.230308972   398.4683   2   9   0.0193   0.0239   0.0603  -0.0092  -0.0204   0.0198   0.00    1.0
2018/03/13 14:16:52.000   78.256775494   16.230309053   398.4191   2   9   0.0192   0.0238   0.0600  -0.0092  -0.0203   0.0196   0.00    1.0
2018/03/13 14:16:53.000   78.256775501   16.230309049   398.3686   2   9   0.0191   0.0237   0.0596  -0.0092  -0.0203   0.0195   0.00    1.0
2018/03/13 14:16:54.000   78.256775532   16.230309009   398.3249   2   9   0.0190   0.0237   0.0593  -0.0092  -0.0202   0.0194   0.00    1.0
2018/03/13 14:16:55.000   78.256775576   16.230308974   398.2870   2   9   0.0190   0.0236   0.0590  -0.0092  -0.0201   0.0193   0.00    1.0
2018/03/13 14:16:56.000   78.256775606   16.230309043   398.2484   2   9   0.0189   0.0235   0.0586  -0.0091  -0.0200   0.0191   0.00    1.0
2018/03/13 14:16:57.000   78.256775652   16.230309076   398.2125   2   9   0.0188   0.0235   0.0583  -0.0091  -0.0200   0.0190   0.00    1.0
2018/03/13 14:16:58.000   78.256775689   16.230309133   398.1784   2   9   0.0187   0.0234   0.0580  -0.0091  -0.0199   0.0189   0.00    1.0
2018/03/13 14:16:59.000   78.256775731   16.230309176   398.1516   2   9   0.0186   0.0233   0.0576  -0.0091  -0.0198   0.0187   0.00    1.0
2018/03/13 14:17:00.000   78.256775773   16.230309180   398.1236   2   9   0.0186   0.0233   0.0573  -0.0090  -0.0197   0.0186   0.00    1.0
2018/03/13 14:17:35.000   78.256775764   16.230309164   398.1237   2   9   0.0185   0.0232   0.0573  -0.0090  -0.0197   0.0186   0.00    1.1
2018/03/13 14:17:36.000   78.256775758   16.230309173   398.1235   2   9   0.0185   0.0232   0.0573  -0.0090  -0.0197   0.0186   0.00    1.0
2018/03/13 14:17:37.000   78.256775754   16.230309147   398.1243   2   9   0.0185   0.0232   0.0572  -0.0090  -0.0197   0.0186   0.00    1.1
2018/03/13 14:17:38.000   78.256775744   16.230309182   398.1239   2   9   0.0185   0.0231   0.0572  -0.0090  -0.0196   0.0186   0.00    1.1
2018/03/13 14:17:39.000   78.256775735   16.230309174   398.1242   2   9   0.0185   0.0231   0.0572  -0.0090  -0.0196   0.0186   0.00    1.1
2018/03/13 14:17:40.000   78.256775730   16.230309200   398.1228   2   9   0.0184   0.0230   0.0572  -0.0089  -0.0196   0.0187   0.00    1.0
2018/03/13 14:17:41.000   78.256775722   16.230309230   398.1216   2   9   0.0184   0.0230   0.0572  -0.0089  -0.0196   0.0187   0.00    1.0
2018/03/13 14:17:42.000   78.256775718   16.230309235   398.1205   2   9   0.0184   0.0230   0.0571  -0.0089  -0.0195   0.0187   0.00    1.0
2018/03/13 14:17:43.000   78.256775710   16.230309225   398.1193   2   9   0.0184   0.0229   0.0571  -0.0089  -0.0195   0.0187   0.00    1.1
2018/03/13 14:17:44.000   78.256775700   16.230309227   398.1199   2   9   0.0184   0.0229   0.0571  -0.0089  -0.0195   0.0187   0.00    1.0
2018/03/13 14:17:45.000   78.256775694   16.230309236   398.1198   2   9   0.0184   0.0228   0.0571  -0.0089  -0.0194   0.0187   0.00    1.0
2018/03/13 14:17:46.000   78.256775683   16.230309228   398.1181   2   9   0.0183   0.0228   0.0571  -0.0088  -0.0194   0.0187   0.00    1.0
2018/03/13 14:17:47.000   78.256775671   16.230309242   398.1158   2   9   0.0183   0.0228   0.0570  -0.0088  -0.0194   0.0187   0.00    1.0
2018/03/13 14:17:48.000   78.256775663   16.230309247   398.1135   2   9   0.0183   0.0227   0.0570  -0.0088  -0.0194   0.0187   0.00    1.0
2018/03/13 14:17:49.000   78.256775651   16.230309259   398.1112   2   9   0.0183   0.0227   0.0570  -0.0088  -0.0193   0.0187   0.00    1.0
2018/03/13 14:17:50.000   78.256775648   16.230309201   398.1099   2   9   0.0183   0.0227   0.0570  -0.0088  -0.0193   0.0187   0.00    1.0
2018/03/13 14:17:51.000   78.256775637   16.230309220   398.1055   2   9   0.0183   0.0226   0.0569  -0.0088  -0.0193   0.0187   0.00    1.0
2018/03/13 14:17:52.000   78.256775623   16.230309264   398.1010   2   9   0.0182   0.0226   0.0569  -0.0087  -0.0193   0.0187   0.00    1.0
2018/03/13 14:17:53.000   78.256775611   16.230309308   398.0959   2   9   0.0182   0.0225   0.0569  -0.0087  -0.0192   0.0187   0.00    1.0
2018/03/13 14:17:54.000   78.256775604   16.230309307   398.0952   2   9   0.0182   0.0225   0.0569  -0.0087  -0.0192   0.0187   0.00    1.0
2018/03/13 14:17:55.000   78.256775601   16.230309313   398.0923   2   9   0.0182   0.0225   0.0568  -0.0087  -0.0192   0.0187   0.00    1.0
2018/03/13 14:17:56.000   78.256775588   16.230309341   398.0905   2   9   0.0182   0.0224   0.0568  -0.0087  -0.0191   0.0187   0.00    1.0
2018/03/13 14:17:57.000   78.256775577   16.230309327   398.0879   2   9   0.0182   0.0224   0.0568  -0.0087  -0.0191   0.0187   0.00    1.1
2018/03/13 14:17:58.000   78.256775570   16.230309350   398.0844   2   9   0.0181   0.0224   0.0567  -0.0086  -0.0191   0.0187   0.00    1.1
2018/03/13 14:17:59.000   78.256775554   16.230309390   398.0785   2   9   0.0181   0.0223   0.0567  -0.0086  -0.0191   0.0187   0.00    1.1
2018/03/13 14:18:00.000   78.256775543   16.230309393   398.0730   2   9   0.0181   0.0223   0.0567  -0.0086  -0.0190   0.0187   0.00    1.1
2018/03/13 14:18:01.000   78.256775524   16.230309390   398.0664   2   9   0.0181   0.0222   0.0567  -0.0086  -0.0190   0.0187   0.00    1.2
2018/03/13 14:18:02.000   78.256775499   16.230309394   398.0591   2   9   0.0181   0.0222   0.0566  -0.0086  -0.0190   0.0187   0.00    1.0
2018/03/13 14:18:03.000   78.256775485   16.230309368   398.0590   2   9   0.0181   0.0222   0.0566  -0.0086  -0.0189   0.0187   0.00    1.1
2018/03/13 14:18:04.000   78.256775470   16.230309289   398.0602   2   9   0.0180   0.0221   0.0566  -0.0085  -0.0189   0.0187   0.00    1.1
2018/03/13 14:18:05.000   78.256775457   16.230309253   398.0615   2   9   0.0180   0.0221   0.0565  -0.0085  -0.0189   0.0187   0.00    1.1
2018/03/13 14:18:06.000   78.256775459   16.230309170   398.0675   2   9   0.0180   0.0221   0.0565  -0.0085  -0.0189   0.0187   0.00    1.0
2018/03/13 14:18:07.000   78.256775429   16.230309162   398.0626   2   9   0.0180   0.0220   0.0565  -0.0085  -0.0188   0.0187   0.00    1.0
2018/03/13 14:18:08.000   78.256775393   16.230309157   398.0573   2   9   0.0180   0.0220   0.0564  -0.0085  -0.0188   0.0187   0.00    1.1
2018/03/13 14:18:09.000   78.256775356   16.230309181   398.0497   2   9   0.0180   0.0220   0.0564  -0.0085  -0.0188   0.0187   0.00    1.1
2018/03/13 14:18:10.000   78.256775317   16.230309167   398.0459   2   9   0.0179   0.0219   0.0564  -0.0084  -0.0187   0.0187   0.00    1.1
2018/03/13 14:18:11.000   78.256775275   16.230309172   398.0412   2   9   0.0179   0.0219   0.0563  -0.0084  -0.0187   0.0187   0.00    1.1
2018/03/13 14:18:12.000   78.256775233   16.230309147   398.0384   2   9   0.0179   0.0219   0.0563  -0.0084  -0.0187   0.0187   0.00    1.2
2018/03/13 14:18:13.000   78.256775190   16.230309095   398.0373   2   9   0.0179   0.0218   0.0562  -0.0084  -0.0186   0.0186   0.00    1.2
2018/03/13 14:18:14.000   78.256775144   16.230309071   398.0352   2   9   0.0179   0.0218   0.0562  -0.0084  -0.0186   0.0186   0.00    1.2
2018/03/13 14:18:15.000   78.256775093   16.230309052   398.0328   2   9   0.0178   0.0217   0.0561  -0.0084  -0.0186   0.0186   0.00    1.2
2018/03/13 14:18:16.000   78.256775038   16.230309036   398.0300   2   9   0.0178   0.0217   0.0561  -0.0083  -0.0185   0.0186   0.00    1.2
2018/03/13 14:18:17.000   78.256774999   16.230309021   398.0280   2   9   0.0178   0.0217   0.0560  -0.0083  -0.0185   0.0186   0.00    1.2
2018/03/13 14:18:18.000   78.256774955   16.230309026   398.0234   2   9   0.0178   0.0216   0.0560  -0.0083  -0.0185   0.0186   0.00    1.1
2018/03/13 14:18:19.000   78.256774910   16.230309038   398.0174   2   9   0.0178   0.0216   0.0559  -0.0083  -0.0184   0.0186   0.00    1.1
2018/03/13 14:18:20.000   78.256774858   16.230309017   398.0132   2   9   0.0178   0.0216   0.0559  -0.0083  -0.0184   0.0186   0.00    1.1
2018/03/13 14:18:21.000   78.256774817   16.230308947   398.0115   2   9   0.0177   0.0215   0.0558  -0.0083  -0.0184   0.0186   0.00    1.0
2018/03/13 14:18:22.000   78.256774773   16.230308860   398.0099   2   9   0.0177   0.0215   0.0558  -0.0082  -0.0183   0.0186   0.00    1.0
2018/03/13 14:18:23.000   78.256774736   16.230308776   398.0070   2   9   0.0177   0.0215   0.0557  -0.0082  -0.0183   0.0185   0.00    1.0
2018/03/13 14:18:24.000   78.256774696   16.230308704   398.0030   2   9   0.0177   0.0214   0.0557  -0.0082  -0.0183   0.0185   0.00    1.0
2018/03/13 14:18:25.000   78.256774644   16.230308682   398.0004   2   9   0.0177   0.0214   0.0556  -0.0082  -0.0182   0.0185   0.00    1.0
2018/03/13 14:18:26.000   78.256774599   16.230308651   397.9965   2   9   0.0176   0.0214   0.0555  -0.0082  -0.0182   0.0185   0.00    1.0
2018/03/13 14:18:27.000   78.256774560   16.230308630   397.9914   2   9   0.0176   0.0213   0.0555  -0.0081  -0.0181   0.0185   0.00    1.0
2018/03/13 14:18:28.000   78.256774527   16.230308614   397.9857   2   9   0.0176   0.0213   0.0554  -0.0081  -0.0181   0.0185   0.00    1.0
2018/03/13 14:18:29.000   78.256774503   16.230308620   397.9804   2   9   0.0176   0.0213   0.0554  -0.0081  -0.0181   0.0185   0.00    1.0
2018/03/13 14:18:30.000   78.256774475   16.230308656   397.9731   2   9   0.0176   0.0212   0.0553  -0.0081  -0.0180   0.0184   0.00    1.0
2018/03/13 14:18:31.000   78.256774452   16.230308701   397.9650   2   9   0.0175   0.0212   0.0552  -0.0081  -0.0180   0.0184   0.00    1.0
2018/03/13 14:18:32.000   78.256774425   16.230308748   397.9556   2   9   0.0175   0.0212   0.0552  -0.0081  -0.0180   0.0184   0.00    1.0
2018/03/13 14:18:33.000   78.256774400   16.230308813   397.9440   2   9   0.0175   0.0211   0.0551  -0.0080  -0.0179   0.0184   0.00    1.0
2018/03/13 14:18:34.000   78.256774376   16.230308928   397.9235   2   9   0.0175   0.0211   0.0550  -0.0080  -0.0179   0.0184   0.00    1.0
2018/03/13 14:18:35.000   78.256774360   16.230309025   397.9030   2   9   0.0175   0.0211   0.0549  -0.0080  -0.0178   0.0183   0.00    1.0
2018/03/13 14:18:36.000   78.256774339   16.230309190   397.8792   2   9   0.0174   0.0210   0.0549  -0.0080  -0.0178   0.0183   0.00    1.0
2018/03/13 14:18:37.000   78.256774317   16.230309387   397.8559   2   9   0.0174   0.0210   0.0548  -0.0080  -0.0178   0.0183   0.00    1.1
2018/03/13 14:18:38.000   78.256774298   16.230309560   397.8288   2   9   0.0174   0.0210   0.0547  -0.0079  -0.0177   0.0183   0.00    1.1
2018/03/13 14:18:39.000   78.256774285   16.230309766   397.8029   2   9   0.0174   0.0209   0.0546  -0.0079  -0.0177   0.0183   0.00    1.1
2018/03/13 14:18:40.000   78.256774273   16.230309929   397.7783   2   9   0.0174   0.0209   0.0545  -0.0079  -0.0176   0.0182   0.00    1.1
2018/03/13 14:18:41.000   78.256774259   16.230310187   397.7484   2   9   0.0173   0.0209   0.0545  -0.0079  -0.0176   0.0182   0.00    1.0
2018/03/13 14:18:42.000   78.256774248   16.230310414   397.7206   2   9   0.0173   0.0208   0.0544  -0.0079  -0.0175   0.0182   0.00    1.0
2018/03/13 14:18:43.000   78.256774234   16.230310661   397.6910   2   9   0.0173   0.0208   0.0543  -0.0079  -0.0175   0.0182   0.00    1.0
2018/03/13 14:18:44.000   78.256774207   16.230310934   397.6600   2   9   0.0173   0.0208   0.0542  -0.0078  -0.0175   0.0181   0.00    1.0
2018/03/13 14:18:45.000   78.256774179   16.230311175   397.6257   2   9   0.0172   0.0207   0.0541  -0.0078  -0.0174   0.0181   0.00    1.0
2018/03/13 14:18:46.000   78.256774154   16.230311396   397.5938   2   9   0.0172   0.0207   0.0540  -0.0078  -0.0174   0.0181   0.00    1.1
2018/03/13 14:18:47.000   78.256774128   16.230311670   397.5561   2   9   0.0172   0.0207   0.0539  -0.0078  -0.0173   0.0180   0.00    1.1
2018/03/13 14:18:48.000   78.256774087   16.230311992   397.5120   2   9   0.0172   0.0206   0.0538  -0.0078  -0.0173   0.0180   0.00    1.1
2018/03/13 14:18:49.000   78.256774041   16.230312272   397.4709   2   9   0.0172   0.0206   0.0537  -0.0077  -0.0172   0.0180   0.00    1.1
2018/03/13 14:18:50.000   78.256773995   16.230312562   397.4356   2   9   0.0171   0.0206   0.0536  -0.0077  -0.0172   0.0180   0.00    1.1
2018/03/13 14:18:51.000   78.256773949   16.230312895   397.3880   2   9   0.0171   0.0205   0.0535  -0.0077  -0.0171   0.0179   0.00    1.0
2018/03/13 14:18:52.000   78.256773906   16.230313184   397.3434   2   9   0.0171   0.0205   0.0534  -0.0077  -0.0171   0.0179   0.00    1.0
2018/03/13 14:18:53.000   78.256773858   16.230313458   397.3013   2   9   0.0171   0.0205   0.0533  -0.0077  -0.0170   0.0179   0.00    1.0
2018/03/13 14:18:54.000   78.256773808   16.230313708   397.2611   2   9   0.0170   0.0204   0.0532  -0.0076  -0.0170   0.0178   0.00    1.0
2018/03/13 14:18:55.000   78.256773756   16.230314016   397.2175   2   9   0.0170   0.0204   0.0531  -0.0076  -0.0169   0.0178   0.00    1.0
2018/03/13 14:18:56.000   78.256773707   16.230314342   397.1714   2   9   0.0170   0.0204   0.0530  -0.0076  -0.0169   0.0178   0.00    1.0
2018/03/13 14:18:57.000   78.256773661   16.230314670   397.1266   2   9   0.0170   0.0203   0.0529  -0.0076  -0.0169   0.0177   0.00    1.0
2018/03/13 14:18:58.000   78.256773603   16.230315020   397.0772   2   9   0.0169   0.0203   0.0528  -0.0076  -0.0168   0.0177   0.00    1.0
2018/03/13 14:18:59.000   78.256773540   16.230315385   397.0267   2   9   0.0169   0.0203   0.0527  -0.0075  -0.0168   0.0177   0.00    1.0
2018/03/13 14:19:00.000   78.256773470   16.230315741   396.9726   2   9   0.0169   0.0202   0.0526  -0.0075  -0.0167   0.0176   0.00    1.0
2018/03/13 14:19:01.000   78.256773391   16.230316101   396.9160   2   9   0.0169   0.0202   0.0524  -0.0075  -0.0167   0.0176   0.00    1.0
2018/03/13 14:19:02.000   78.256773324   16.230316365   396.8696   2   9   0.0168   0.0202   0.0523  -0.0075  -0.0166   0.0175   0.00    1.0
2018/03/13 14:19:03.000   78.256773268   16.230316625   396.8256   2   9   0.0168   0.0201   0.0522  -0.0075  -0.0166   0.0175   0.00    1.0
2018/03/13 14:19:04.000   78.256773206   16.230316900   396.7804   2   9   0.0168   0.0201   0.0521  -0.0074  -0.0165   0.0175   0.00    1.1
2018/03/13 14:19:05.000   78.256773149   16.230317141   396.7411   2   9   0.0168   0.0201   0.0520  -0.0074  -0.0165   0.0174   0.00    1.1
2018/03/13 14:19:06.000   78.256773103   16.230317379   396.7058   2   9   0.0167   0.0200   0.0518  -0.0074  -0.0164   0.0174   0.00    1.1
2018/03/13 14:19:07.000   78.256773056   16.230317558   396.6745   2   9   0.0167   0.0200   0.0517  -0.0074  -0.0164   0.0173   0.00    1.1
2018/03/13 14:19:08.000   78.256772998   16.230317822   396.6399   2   9   0.0167   0.0200   0.0516  -0.0074  -0.0163   0.0173   0.00    1.1
2018/03/13 14:19:09.000   78.256772934   16.230318117   396.6054   2   9   0.0167   0.0199   0.0515  -0.0073  -0.0162   0.0173   0.00    1.1
2018/03/13 14:19:10.000   78.256772870   16.230318360   396.5670   2   9   0.0166   0.0199   0.0513  -0.0073  -0.0162   0.0172   0.00    1.1
2018/03/13 14:19:11.000   78.256772802   16.230318632   396.5293   2   9   0.0166   0.0199   0.0512  -0.0073  -0.0161   0.0172   0.00    1.1
2018/03/13 14:19:12.000   78.256772727   16.230318886   396.4898   2   9   0.0166   0.0198   0.0511  -0.0073  -0.0161   0.0171   0.00    1.1
2018/03/13 14:19:13.000   78.256772646   16.230319207   396.4494   2   9   0.0165   0.0198   0.0509  -0.0072  -0.0160   0.0171   0.00    1.1
2018/03/13 14:19:14.000   78.256772563   16.230319526   396.4094   2   9   0.0165   0.0198   0.0508  -0.0072  -0.0160   0.0170   0.00    1.1
2018/03/13 14:19:15.000   78.256772480   16.230319762   396.3725   2   9   0.0165   0.0197   0.0507  -0.0072  -0.0159   0.0170   0.00    1.1
2018/03/13 14:19:16.000   78.256772383   16.230320087   396.3308   2   9   0.0165   0.0197   0.0505  -0.0072  -0.0159   0.0169   0.00    1.1
2018/03/13 14:19:17.000   78.256772277   16.230320418   396.2871   2   9   0.0164   0.0197   0.0504  -0.0072  -0.0158   0.0169   0.00    1.1
2018/03/13 14:19:18.000   78.256772164   16.230320768   396.2435   2   9   0.0164   0.0196   0.0503  -0.0071  -0.0158   0.0168   0.00    1.1
2018/03/13 14:19:19.000   78.256772055   16.230321031   396.2010   2   9   0.0164   0.0196   0.0501  -0.0071  -0.0157   0.0168   0.00    1.1
2018/03/13 14:19:20.000   78.256771931   16.230321352   396.1581   2   9   0.0164   0.0196   0.0500  -0.0071  -0.0156   0.0167   0.00    1.1
2018/03/13 14:19:21.000   78.256771812   16.230321625   396.1221   2   9   0.0163   0.0195   0.0498  -0.0071  -0.0156   0.0167   0.00    1.1
2018/03/13 14:19:22.000   78.256771704   16.230321802   396.1043   2   9   0.0163   0.0195   0.0497  -0.0071  -0.0155   0.0166   0.00    1.1
2018/03/13 14:19:23.000   78.256771601   16.230322018   396.0811   2   9   0.0163   0.0195   0.0495  -0.0070  -0.0155   0.0166   0.00    1.1
2018/03/13 14:19:24.000   78.256771510   16.230322158   396.0663   2   9   0.0162   0.0194   0.0494  -0.0070  -0.0154   0.0165   0.00    1.0
2018/03/13 14:19:25.000   78.256771433   16.230322257   396.0553   2   9   0.0162   0.0194   0.0492  -0.0070  -0.0154   0.0165   0.00    1.0
2018/03/13 14:19:26.000   78.256771371   16.230322371   396.0480   2   9   0.0162   0.0194   0.0491  -0.0070  -0.0153   0.0164   0.00    1.0
2018/03/13 14:19:27.000   78.256771328   16.230322428   396.0438   2   9   0.0161   0.0193   0.0489  -0.0069  -0.0152   0.0164   0.00    1.0
2018/03/13 14:19:28.000   78.256771279   16.230322573   396.0397   2   9   0.0161   0.0193   0.0488  -0.0069  -0.0152   0.0163   0.00    1.0
2018/03/13 14:19:29.000   78.256771223   16.230322758   396.0306   2   9   0.0161   0.0193   0.0486  -0.0069  -0.0151   0.0163   0.00    1.0
2018/03/13 14:19:30.000   78.256771187   16.230322775   396.0371   2   9   0.0161   0.0192   0.0485  -0.0069  -0.0151   0.0162   0.00    1.0
2018/03/13 14:19:31.000   78.256771169   16.230322693   396.0523   2   9   0.0160   0.0192   0.0484  -0.0069  -0.0150   0.0162   0.00    1.1
2018/03/13 14:19:32.000   78.256771159   16.230322583   396.0715   2   9   0.0160   0.0192   0.0482  -0.0068  -0.0150   0.0161   0.00    1.1
2018/03/13 14:19:33.000   78.256771151   16.230322477   396.0896   2   9   0.0160   0.0191   0.0481  -0.0068  -0.0149   0.0160   0.00    1.1
2018/03/13 14:19:34.000   78.256771144   16.230322404   396.1066   2   9   0.0159   0.0191   0.0479  -0.0068  -0.0149   0.0160   0.00    1.0
2018/03/13 14:19:35.000   78.256771141   16.230322299   396.1242   2   9   0.0159   0.0191   0.0478  -0.0068  -0.0148   0.0159   0.00    1.0
2018/03/13 14:19:36.000   78.256771138   16.230322183   396.1442   2   9   0.0159   0.0191   0.0477  -0.0067  -0.0148   0.0159   0.00    1.0
2018/03/13 14:19:37.000   78.256771131   16.230322117   396.1615   2   9   0.0158   0.0190   0.0475  -0.0067  -0.0147   0.0158   0.00    1.0
2018/03/13 14:19:38.000   78.256771129   16.230322031   396.1783   2   9   0.0158   0.0190   0.0474  -0.0067  -0.0147   0.0157   0.00    1.0
2018/03/13 14:19:39.000   78.256771134   16.230321963   396.1964   2   9   0.0158   0.0190   0.0472  -0.0067  -0.0146   0.0157   0.00    1.0
2018/03/13 14:19:40.000   78.256771142   16.230321856   396.2178   2   9   0.0158   0.0189   0.0471  -0.0066  -0.0146   0.0156   0.00    1.0
2018/03/13 14:19:41.000   78.256771155   16.230321774   396.2376   2   9   0.0157   0.0189   0.0469  -0.0066  -0.0145   0.0156   0.00    1.0
2018/03/13 14:19:42.000   78.256771177   16.230321745   396.2577   2   9   0.0157   0.0189   0.0468  -0.0066  -0.0145   0.0155   0.00    1.0
2018/03/13 14:19:43.000   78.256771210   16.230321671   396.2821   2   9   0.0157   0.0188   0.0466  -0.0066  -0.0144   0.0154   0.00    1.0
2018/03/13 14:19:44.000   78.256771239   16.230321558   396.3101   2   9   0.0156   0.0188   0.0465  -0.0065  -0.0144   0.0154   0.00    1.0
2018/03/13 14:19:45.000   78.256771262   16.230321450   396.3352   2   9   0.0156   0.0188   0.0463  -0.0065  -0.0143   0.0153   0.00    1.0
2018/03/13 14:19:46.000   78.256771280   16.230321355   396.3571   2   9   0.0156   0.0187   0.0462  -0.0065  -0.0143   0.0152   0.00    1.0
2018/03/13 14:19:47.000   78.256771293   16.230321300   396.3763   2   9   0.0155   0.0187   0.0461  -0.0065  -0.0142   0.0152   0.00    1.0
2018/03/13 14:19:48.000   78.256771307   16.230321252   396.3909   2   9   0.0155   0.0187   0.0459  -0.0064  -0.0142   0.0151   0.00    1.0
2018/03/13 14:19:49.000   78.256771306   16.230321247   396.4008   2   9   0.0155   0.0187   0.0458  -0.0064  -0.0141   0.0150   0.00    1.0
2018/03/13 14:19:50.000   78.256771320   16.230321201   396.4198   2   9   0.0154   0.0186   0.0456  -0.0064  -0.0141   0.0150   0.00    1.0
2018/03/13 14:19:51.000   78.256771360   16.230320992   396.4541   2   9   0.0154   0.0186   0.0455  -0.0064  -0.0140   0.0149   0.00    1.0
2018/03/13 14:19:52.000   78.256771347   16.230321067   396.4574   2   9   0.0154   0.0186   0.0453  -0.0064  -0.0140   0.0148   0.00    1.0
2018/03/13 14:19:53.000   78.256771356   16.230321026   396.4705   2   9   0.0153   0.0185   0.0452  -0.0063  -0.0139   0.0148   0.00    1.0
2018/03/13 14:19:54.000   78.256771347   16.230320998   396.4829   2   9   0.0153   0.0185   0.0450  -0.0063  -0.0139   0.0147   0.00    1.0
2018/03/13 14:19:55.000   78.256771340   16.230320969   396.4934   2   9   0.0153   0.0185   0.0449  -0.0063  -0.0139   0.0146   0.00    1.1
2018/03/13 14:19:56.000   78.256771346   16.230320931   396.5080   2   9   0.0153   0.0184   0.0447  -0.0063  -0.0138   0.0146   0.00    1.1
2018/03/13 14:19:57.000   78.256771343   16.230320895   396.5159   2   9   0.0152   0.0184   0.0446  -0.0062  -0.0138   0.0145   0.00    1.1
2018/03/13 14:19:58.000   78.256771344   16.230320834   396.5263   2   9   0.0152   0.0184   0.0444  -0.0062  -0.0137   0.0145   0.00    1.1
2018/03/13 14:19:59.000   78.256771331   16.230320834   396.5329   2   9   0.0152   0.0184   0.0443  -0.0062  -0.0137   0.0144   0.00    1.1
2018/03/13 14:20:00.000   78.256771307   16.230320821   396.5390   2   9   0.0151   0.0183   0.0441  -0.0062  -0.0136   0.0143   0.00    1.1
2018/03/13 14:20:01.000   78.256771268   16.230320833   396.5388   2   9   0.0151   0.0183   0.0440  -0.0061  -0.0136   0.0143   0.00    1.2
2018/03/13 14:20:02.000   78.256771235   16.230320895   396.5376   2   9   0.0151   0.0183   0.0438  -0.0061  -0.0135   0.0142   0.00    1.2
2018/03/13 14:20:03.000   78.256771202   16.230320955   396.5347   2   9   0.0150   0.0182   0.0437  -0.0061  -0.0135   0.0141   0.00    1.2
2018/03/13 14:20:04.000   78.256771180   16.230321041   396.5334   2   9   0.0150   0.0182   0.0435  -0.0061  -0.0135   0.0141   0.00    1.2
2018/03/13 14:20:05.000   78.256771153   16.230321154   396.5291   2   9   0.0150   0.0182   0.0434  -0.0061  -0.0134   0.0140   0.00    1.2
2018/03/13 14:20:06.000   78.256771139   16.230321223   396.5301   2   9   0.0149   0.0182   0.0432  -0.0060  -0.0134   0.0139   0.00    1.2
2018/03/13 14:20:07.000   78.256771149   16.230321266   396.5399   2   9   0.0149   0.0181   0.0431  -0.0060  -0.0133   0.0138   0.00    1.2
2018/03/13 14:20:08.000   78.256771153   16.230321362   396.5500   2   9   0.0149   0.0181   0.0429  -0.0060  -0.0133   0.0138   0.00    1.1
2018/03/13 14:20:09.000   78.256771151   16.230321453   396.5578   2   9   0.0148   0.0181   0.0427  -0.0060  -0.0132   0.0137   0.00    1.1
2018/03/13 14:20:10.000   78.256771140   16.230321543   396.5641   2   9   0.0148   0.0180   0.0426  -0.0059  -0.0132   0.0136   0.00    1.0
2018/03/13 14:20:11.000   78.256771127   16.230321613   396.5679   2   9   0.0148   0.0180   0.0424  -0.0059  -0.0131   0.0136   0.00    1.0
2018/03/13 14:20:12.000   78.256771109   16.230321705   396.5695   2   9   0.0147   0.0180   0.0423  -0.0059  -0.0131   0.0135   0.00    1.0
2018/03/13 14:20:13.000   78.256771083   16.230321799   396.5743   2   9   0.0147   0.0180   0.0421  -0.0059  -0.0131   0.0134   0.00    1.1
2018/03/13 14:20:14.000   78.256771072   16.230321847   396.5848   2   9   0.0147   0.0179   0.0420  -0.0059  -0.0130   0.0134   0.00    1.0
2018/03/13 14:20:15.000   78.256771052   16.230321852   396.5915   2   9   0.0146   0.0179   0.0418  -0.0058  -0.0130   0.0133   0.00    1.0
2018/03/13 14:20:16.000   78.256771038   16.230321886   396.5994   2   9   0.0146   0.0179   0.0417  -0.0058  -0.0129   0.0132   0.00    1.0
2018/03/13 14:20:17.000   78.256771028   16.230321950   396.6059   2   9   0.0146   0.0178   0.0415  -0.0058  -0.0129   0.0132   0.00    1.0
2018/03/13 14:20:18.000   78.256771024   16.230321990   396.6176   2   9   0.0145   0.0178   0.0414  -0.0058  -0.0128   0.0131   0.00    1.0
2018/03/13 14:20:19.000   78.256771020   16.230321993   396.6248   2   9   0.0145   0.0178   0.0412  -0.0057  -0.0128   0.0130   0.00    1.0
2018/03/13 14:20:20.000   78.256771010   16.230322008   396.6316   2  10   0.0145   0.0178   0.0410  -0.0057  -0.0127   0.0130   0.00    1.0
2018/03/13 14:20:21.000   78.256770988   16.230322029   396.6343   2  10   0.0144   0.0177   0.0409  -0.0057  -0.0127   0.0129   0.00    1.0
2018/03/13 14:20:22.000   78.256770970   16.230322067   396.6402   2  10   0.0144   0.0177   0.0407  -0.0057  -0.0127   0.0128   0.00    1.0
2018/03/13 14:20:23.000   78.256770936   16.230322130   396.6424   2  10   0.0144   0.0177   0.0406  -0.0057  -0.0126   0.0128   0.00    1.0
2018/03/13 14:20:24.000   78.256770905   16.230322206   396.6443   2  10   0.0143   0.0176   0.0404  -0.0056  -0.0126   0.0127   0.00    1.0
2018/03/13 14:20:25.000   78.256770882   16.230322326   396.6460   2  10   0.0143   0.0176   0.0403  -0.0056  -0.0125   0.0126   0.00    1.0
2018/03/13 14:20:26.000   78.256770847   16.230322450   396.6514   2  10   0.0143   0.0176   0.0401  -0.0056  -0.0125   0.0125   0.00    1.0
2018/03/13 14:20:27.000   78.256770811   16.230322579   396.6526   2  10   0.0142   0.0176   0.0399  -0.0056  -0.0124   0.0125   0.00    1.0
