% program   : RTKPOST ver.2.4.2
% inp file  : Z:\home\linda\Documents\Spring18\GitHub_Unis\data\processed_data\46250726.obs
% inp file  : Z:\home\linda\Documents\Spring18\GitHub_Unis\data\base_station_data\lyrs0720.18o
% inp file  : Z:\home\linda\Documents\Spring18\GitHub_Unis\data\processed_data\46250726.nav
% obs start : 2018/03/13 14:13:00.0 GPST (week1992 223980.0s)
% obs end   : 2018/03/13 14:38:39.0 GPST (week1992 225519.0s)
% pos mode  : static
% freqs     : L1+L2
% solution  : forward
% elev mask : 15.0 deg
% dynamics  : on
% tidecorr  : off
% ionos opt : iono-free
% tropo opt : saastamoinen
% ephemeris : broadcast
% navi sys  : gps glonass galileo qzss sbas
% amb res   : fix and hold
% amb glo   : on
% val thres : 3.0
% antenna1  :                       ( 0.0000  0.0000  0.0000)
% antenna2  :                       ( 0.0000  0.0000  0.0000)
% ref pos   : 78.228825638   15.397310064   495.6816
%
% (lat/lon/height=WGS84/ellipsoidal,Q=1:fix,2:float,3:sbas,4:dgps,5:single,6:ppp,ns=# of satellites)
%  GPST                  latitude(deg) longitude(deg)  height(m)   Q  ns   sdn(m)   sde(m)   sdu(m)  sdne(m)  sdeu(m)  sdun(m) age(s)  ratio
2018/03/13 14:13:00.000   78.256740123   16.230368035   382.9461   2   8   1.5087   1.0034   6.7712  -0.5469  -1.3974   2.8114   0.00    1.2
2018/03/13 14:13:01.000   78.256751406   16.230339702   389.8700   2   8   1.0758   0.7109   4.8527  -0.3927  -1.0020   2.0148   0.00    1.2
2018/03/13 14:13:02.000   78.256752305   16.230340217   390.1882   2   8   0.8802   0.5807   3.9760  -0.3219  -0.8209   1.6507   0.00    1.3
2018/03/13 14:13:03.000   78.256752761   16.230348369   390.0251   2   8   0.7624   0.5029   3.4452  -0.2788  -0.7112   1.4301   0.00    1.4
2018/03/13 14:13:04.000   78.256752884   16.230342971   390.0804   2   8   0.6814   0.4498   3.0784  -0.2490  -0.6352   1.2777   0.00    1.3
2018/03/13 14:13:05.000   78.256754803   16.230334339   390.4346   2   8   0.6211   0.4105   2.8045  -0.2266  -0.5785   1.1638   0.00    1.2
2018/03/13 14:13:06.000   78.256757800   16.230330734   390.8956   2   8   0.5739   0.3799   2.5892  -0.2090  -0.5338   1.0742   0.00    1.1
2018/03/13 14:13:07.000   78.256757459   16.230331649   390.1899   2   8   0.5355   0.3552   2.4135  -0.1946  -0.4973   1.0011   0.00    1.1
2018/03/13 14:13:08.000   78.256756878   16.230334138   389.7404   2   8   0.5034   0.3347   2.2660  -0.1825  -0.4666   0.9397   0.00    1.1
2018/03/13 14:13:09.000   78.256758011   16.230334155   390.3801   2   8   0.4761   0.3173   2.1397  -0.1720  -0.4403   0.8871   0.00    1.1
2018/03/13 14:13:10.000   78.256759078   16.230337937   390.9554   2   8   0.4523   0.3024   2.0294  -0.1629  -0.4173   0.8411   0.00    1.2
2018/03/13 14:13:11.000   78.256759677   16.230337123   391.4328   2   8   0.4313   0.2893   1.9319  -0.1548  -0.3969   0.8004   0.00    1.2
2018/03/13 14:13:12.000   78.256760125   16.230336948   391.7865   2   8   0.4127   0.2777   1.8446  -0.1475  -0.3786   0.7640   0.00    1.1
2018/03/13 14:13:13.000   78.256760825   16.230336115   391.9668   2   8   0.3959   0.2674   1.7657  -0.1409  -0.3621   0.7310   0.00    1.1
2018/03/13 14:13:14.000   78.256760699   16.230336922   391.8810   2   8   0.3806   0.2581   1.6938  -0.1348  -0.3470   0.7009   0.00    1.1
2018/03/13 14:13:15.000   78.256760958   16.230335851   391.9224   2   8   0.3667   0.2497   1.6278  -0.1292  -0.3331   0.6733   0.00    1.0
2018/03/13 14:13:16.000   78.256761471   16.230334870   392.0279   2   8   0.3539   0.2420   1.5668  -0.1241  -0.3202   0.6478   0.00    1.0
2018/03/13 14:13:17.000   78.256761827   16.230335445   392.2187   2   8   0.3420   0.2350   1.5102  -0.1192  -0.3083   0.6241   0.00    1.0
2018/03/13 14:13:18.000   78.256762602   16.230335196   392.6525   2   8   0.3310   0.2285   1.4574  -0.1147  -0.2971   0.6020   0.00    1.0
2018/03/13 14:13:19.000   78.256763065   16.230333615   392.8302   2   8   0.3208   0.2225   1.4079  -0.1105  -0.2867   0.5812   0.00    1.0
2018/03/13 14:13:20.000   78.256763484   16.230333608   392.9715   2   8   0.3112   0.2169   1.3614  -0.1065  -0.2768   0.5617   0.00    1.0
2018/03/13 14:13:21.000   78.256763630   16.230332479   392.8029   2   8   0.3022   0.2117   1.3176  -0.1027  -0.2675   0.5433   0.00    1.1
2018/03/13 14:13:22.000   78.256763634   16.230329756   392.9304   2   8   0.2937   0.2068   1.2762  -0.0992  -0.2587   0.5260   0.00    1.1
2018/03/13 14:13:23.000   78.256763587   16.230327481   392.7731   2   8   0.2857   0.2022   1.2370  -0.0958  -0.2504   0.5095   0.00    1.1
2018/03/13 14:13:24.000   78.256764061   16.230327173   392.9667   2   8   0.2781   0.1979   1.1998  -0.0925  -0.2425   0.4938   0.00    1.1
2018/03/13 14:13:25.000   78.256764052   16.230326283   393.0224   2   8   0.2709   0.1939   1.1644  -0.0894  -0.2349   0.4789   0.00    1.2
2018/03/13 14:13:26.000   78.256763859   16.230325801   392.8258   2   8   0.2641   0.1900   1.1307  -0.0865  -0.2277   0.4647   0.00    1.2
2018/03/13 14:13:27.000   78.256763361   16.230325924   392.7073   2   8   0.2576   0.1864   1.0985  -0.0837  -0.2208   0.4512   0.00    1.2
2018/03/13 14:13:28.000   78.256763418   16.230325911   392.7114   2   8   0.2514   0.1830   1.0678  -0.0809  -0.2142   0.4382   0.00    1.2
2018/03/13 14:13:29.000   78.256763486   16.230325526   392.6858   2   8   0.2456   0.1797   1.0384  -0.0784  -0.2079   0.4258   0.00    1.2
2018/03/13 14:13:30.000   78.256763657   16.230326800   392.8834   2   8   0.2399   0.1766   1.0103  -0.0759  -0.2019   0.4140   0.00    1.2
2018/03/13 14:13:31.000   78.256764075   16.230325197   393.0381   2   8   0.2346   0.1736   0.9833  -0.0735  -0.1961   0.4026   0.00    1.3
2018/03/13 14:13:32.000   78.256763908   16.230325527   392.9276   2   8   0.2294   0.1707   0.9575  -0.0712  -0.1905   0.3916   0.00    1.3
2018/03/13 14:13:33.000   78.256764213   16.230326418   393.1982   2   8   0.2245   0.1680   0.9326  -0.0690  -0.1851   0.3812   0.00    1.3
2018/03/13 14:13:34.000   78.256764319   16.230326509   393.3697   2   8   0.2197   0.1654   0.9088  -0.0669  -0.1800   0.3711   0.00    1.3
2018/03/13 14:13:35.000   78.256764510   16.230325704   393.4839   2   8   0.2152   0.1629   0.8859  -0.0648  -0.1750   0.3614   0.00    1.3
2018/03/13 14:13:36.000   78.256765001   16.230324970   393.6500   2   8   0.2109   0.1605   0.8638  -0.0628  -0.1703   0.3521   0.00    1.4
2018/03/13 14:13:37.000   78.256765334   16.230325176   393.8366   2   8   0.2067   0.1582   0.8426  -0.0609  -0.1657   0.3431   0.00    1.4
2018/03/13 14:13:38.000   78.256765638   16.230325540   394.0008   2   8   0.2026   0.1560   0.8222  -0.0591  -0.1612   0.3344   0.00    1.4
2018/03/13 14:13:39.000   78.256765902   16.230325734   394.1008   2   8   0.1988   0.1539   0.8025  -0.0573  -0.1569   0.3261   0.00    1.5
2018/03/13 14:13:40.000   78.256766274   16.230325304   394.2594   2   8   0.1950   0.1518   0.7835  -0.0556  -0.1528   0.3181   0.00    1.5
2018/03/13 14:13:41.000   78.256766599   16.230324718   394.3162   2   8   0.1914   0.1498   0.7652  -0.0540  -0.1488   0.3103   0.00    1.6
2018/03/13 14:13:42.000   78.256766875   16.230323815   394.3863   2   8   0.1880   0.1479   0.7475  -0.0524  -0.1450   0.3028   0.00    1.6
2018/03/13 14:13:43.000   78.256767370   16.230323726   394.4314   2   8   0.1846   0.1461   0.7305  -0.0508  -0.1412   0.2956   0.00    1.7
2018/03/13 14:13:44.000   78.256767499   16.230322777   394.4171   2   8   0.1814   0.1443   0.7140  -0.0493  -0.1376   0.2886   0.00    1.7
2018/03/13 14:13:45.000   78.256767667   16.230321622   394.4669   2   8   0.1783   0.1426   0.6982  -0.0479  -0.1342   0.2819   0.00    1.8
2018/03/13 14:13:46.000   78.256768223   16.230320286   394.6133   2   8   0.1753   0.1409   0.6828  -0.0465  -0.1308   0.2753   0.00    1.8
2018/03/13 14:13:47.000   78.256768624   16.230319400   394.7283   2   8   0.1724   0.1393   0.6680  -0.0451  -0.1275   0.2690   0.00    1.9
2018/03/13 14:13:48.000   78.256768541   16.230320338   394.7308   2   8   0.1695   0.1377   0.6536  -0.0438  -0.1244   0.2629   0.00    1.9
2018/03/13 14:13:49.000   78.256768556   16.230320615   394.7880   2   8   0.1668   0.1362   0.6397  -0.0426  -0.1213   0.2571   0.00    1.9
2018/03/13 14:13:50.000   78.256768589   16.230320559   394.8407   2   7   0.1643   0.1348   0.6281  -0.0415  -0.1194   0.2516   0.00    1.9
2018/03/13 14:13:51.000   78.256768703   16.230320250   394.9212   2   7   0.1618   0.1334   0.6167  -0.0405  -0.1175   0.2463   0.00    1.9
2018/03/13 14:13:52.000   78.256768623   16.230320208   394.8778   2   7   0.1593   0.1321   0.6055  -0.0394  -0.1156   0.2412   0.00    1.9
2018/03/13 14:13:53.000   78.256768654   16.230320763   394.8833   2   7   0.1570   0.1308   0.5947  -0.0384  -0.1137   0.2362   0.00    1.9
2018/03/13 14:13:54.000   78.256768737   16.230321166   394.8932   2   7   0.1547   0.1296   0.5840  -0.0374  -0.1119   0.2313   0.00    1.8
2018/03/13 14:13:55.000   78.256768766   16.230321319   394.8519   2   8   0.1525   0.1283   0.5728  -0.0365  -0.1095   0.2266   0.00    1.9
2018/03/13 14:13:56.000   78.256768855   16.230320891   394.7981   2   8   0.1504   0.1271   0.5619  -0.0356  -0.1072   0.2220   0.00    2.0
2018/03/13 14:13:57.000   78.256769004   16.230320538   394.7509   2   8   0.1483   0.1259   0.5514  -0.0347  -0.1049   0.2176   0.00    2.1
2018/03/13 14:13:58.000   78.256769242   16.230319944   394.8351   2   8   0.1462   0.1247   0.5411  -0.0338  -0.1027   0.2133   0.00    2.2
2018/03/13 14:13:59.000   78.256769310   16.230318970   394.8015   2   8   0.1443   0.1235   0.5311  -0.0330  -0.1005   0.2091   0.00    2.3
2018/03/13 14:14:00.000   78.256769306   16.230317832   394.8204   2   8   0.1423   0.1224   0.5214  -0.0322  -0.0984   0.2050   0.00    2.4
2018/03/13 14:14:01.000   78.256769478   16.230316929   394.8645   2   8   0.1405   0.1213   0.5120  -0.0314  -0.0964   0.2010   0.00    2.4
2018/03/13 14:14:02.000   78.256769618   16.230316404   394.9341   2   8   0.1386   0.1202   0.5028  -0.0306  -0.0944   0.1971   0.00    2.4
2018/03/13 14:14:03.000   78.256769811   16.230315549   394.9182   2   8   0.1369   0.1191   0.4939  -0.0298  -0.0925   0.1934   0.00    2.4
2018/03/13 14:14:04.000   78.256769904   16.230315375   394.8410   2   8   0.1351   0.1181   0.4852  -0.0291  -0.0906   0.1897   0.00    2.4
2018/03/13 14:14:05.000   78.256769960   16.230314400   394.8138   2   8   0.1335   0.1171   0.4768  -0.0284  -0.0888   0.1862   0.00    2.3
2018/03/13 14:14:06.000   78.256769940   16.230313622   394.7723   2   8   0.1318   0.1161   0.4686  -0.0277  -0.0870   0.1827   0.00    2.3
2018/03/13 14:14:07.000   78.256769911   16.230313808   394.7972   2   8   0.1302   0.1152   0.4606  -0.0271  -0.0852   0.1793   0.00    2.2
2018/03/13 14:14:08.000   78.256770127   16.230313322   394.8349   2   8   0.1286   0.1142   0.4528  -0.0264  -0.0835   0.1760   0.00    2.2
2018/03/13 14:14:09.000   78.256770201   16.230313033   394.8861   2   8   0.1271   0.1133   0.4453  -0.0258  -0.0819   0.1728   0.00    2.2
2018/03/13 14:14:10.000   78.256770182   16.230312782   394.9055   2   8   0.1256   0.1124   0.4379  -0.0252  -0.0802   0.1697   0.00    2.2
2018/03/13 14:14:11.000   78.256770201   16.230312399   394.9533   2   8   0.1242   0.1115   0.4307  -0.0246  -0.0787   0.1667   0.00    2.2
2018/03/13 14:14:12.000   78.256770183   16.230312408   394.9800   2   8   0.1228   0.1106   0.4237  -0.0240  -0.0771   0.1637   0.00    2.1
2018/03/13 14:14:13.000   78.256770282   16.230312227   394.9847   2   8   0.1214   0.1098   0.4169  -0.0234  -0.0756   0.1608   0.00    2.1
2018/03/13 14:14:14.000   78.256770373   16.230311968   395.0436   2   8   0.1200   0.1089   0.4102  -0.0229  -0.0741   0.1580   0.00    2.1
2018/03/13 14:14:15.000   78.256770373   16.230311473   395.1159   2   8   0.1187   0.1081   0.4037  -0.0224  -0.0727   0.1553   0.00    2.1
2018/03/13 14:14:16.000   78.256770338   16.230311354   395.1305   2   8   0.1174   0.1073   0.3974  -0.0218  -0.0713   0.1526   0.00    2.1
2018/03/13 14:14:17.000   78.256770270   16.230311257   395.1491   2   8   0.1161   0.1065   0.3913  -0.0213  -0.0699   0.1500   0.00    2.1
2018/03/13 14:14:18.000   78.256770119   16.230311532   395.1230   2   8   0.1149   0.1058   0.3852  -0.0209  -0.0686   0.1475   0.00    2.1
2018/03/13 14:14:19.000   78.256770085   16.230311729   395.1256   2   8   0.1137   0.1050   0.3794  -0.0204  -0.0673   0.1450   0.00    2.0
2018/03/13 14:14:20.000   78.256770190   16.230312082   395.1465   2   8   0.1125   0.1042   0.3737  -0.0199  -0.0660   0.1426   0.00    2.0
2018/03/13 14:14:21.000   78.256770346   16.230311957   395.1880   2   8   0.1114   0.1035   0.3681  -0.0195  -0.0647   0.1402   0.00    2.0
2018/03/13 14:14:22.000   78.256770485   16.230311842   395.2078   2   8   0.1102   0.1028   0.3626  -0.0190  -0.0635   0.1379   0.00    2.0
2018/03/13 14:14:23.000   78.256770545   16.230312040   395.2280   2   8   0.1091   0.1021   0.3573  -0.0186  -0.0623   0.1357   0.00    2.0
2018/03/13 14:14:24.000   78.256770522   16.230311825   395.2364   2   8   0.1080   0.1014   0.3521  -0.0182  -0.0611   0.1335   0.00    2.0
2018/03/13 14:14:25.000   78.256770491   16.230312082   395.2447   2   8   0.1070   0.1007   0.3470  -0.0178  -0.0599   0.1313   0.00    2.0
2018/03/13 14:14:26.000   78.256770530   16.230311900   395.2627   2   8   0.1059   0.1000   0.3421  -0.0174  -0.0588   0.1292   0.00    2.0
2018/03/13 14:14:27.000   78.256770528   16.230312033   395.2864   2   8   0.1049   0.0993   0.3372  -0.0171  -0.0577   0.1272   0.00    2.0
2018/03/13 14:14:28.000   78.256770492   16.230312230   395.2724   2   8   0.1039   0.0987   0.3325  -0.0167  -0.0566   0.1252   0.00    2.0
2018/03/13 14:14:29.000   78.256770464   16.230312343   395.2849   2   8   0.1029   0.0980   0.3279  -0.0164  -0.0556   0.1232   0.00    2.0
2018/03/13 14:14:30.000   78.256770366   16.230312129   395.3080   2   8   0.1019   0.0974   0.3234  -0.0160  -0.0545   0.1213   0.00    2.0
2018/03/13 14:14:31.000   78.256770270   16.230311847   395.2915   2   8   0.1010   0.0968   0.3190  -0.0157  -0.0535   0.1194   0.00    1.9
2018/03/13 14:14:32.000   78.256770221   16.230311595   395.2893   2   8   0.1001   0.0962   0.3146  -0.0154  -0.0525   0.1176   0.00    1.9
2018/03/13 14:14:33.000   78.256770219   16.230311512   395.2337   2   8   0.0992   0.0956   0.3104  -0.0151  -0.0515   0.1158   0.00    1.9
2018/03/13 14:14:34.000   78.256770168   16.230311569   395.2163   2   8   0.0983   0.0950   0.3063  -0.0148  -0.0505   0.1141   0.00    1.9
2018/03/13 14:14:35.000   78.256770069   16.230311687   395.1833   2   8   0.0974   0.0944   0.3022  -0.0145  -0.0496   0.1124   0.00    1.9
2018/03/13 14:14:36.000   78.256770014   16.230311657   395.1948   2   8   0.0965   0.0938   0.2983  -0.0142  -0.0487   0.1107   0.00    1.9
2018/03/13 14:14:37.000   78.256769992   16.230311765   395.1586   2   8   0.0957   0.0932   0.2944  -0.0139  -0.0477   0.1091   0.00    1.9
2018/03/13 14:14:38.000   78.256769942   16.230311161   395.1117   2   8   0.0949   0.0927   0.2906  -0.0137  -0.0468   0.1075   0.00    1.8
2018/03/13 14:14:39.000   78.256769828   16.230310686   395.0951   2   7   0.0944   0.0922   0.2890  -0.0143  -0.0471   0.1071   0.00    1.8
2018/03/13 14:14:40.000   78.256769831   16.230310751   395.1121   2   7   0.0940   0.0917   0.2874  -0.0148  -0.0474   0.1068   0.00    1.7
2018/03/13 14:14:41.000   78.256769692   16.230310529   395.1710   2   7   0.0936   0.0912   0.2858  -0.0153  -0.0476   0.1064   0.00    1.8
2018/03/13 14:14:42.000   78.256769661   16.230310433   395.1827   2   8   0.0930   0.0907   0.2842  -0.0157  -0.0479   0.1060   0.00    1.8
2018/03/13 14:14:43.000   78.256769677   16.230310740   395.1906   2   8   0.0925   0.0902   0.2826  -0.0162  -0.0481   0.1056   0.00    1.5
2018/03/13 14:14:44.000   78.256769721   16.230311354   395.1499   2   8   0.0920   0.0898   0.2810  -0.0166  -0.0483   0.1051   0.00    1.4
2018/03/13 14:14:45.000   78.256769663   16.230311361   395.1153   2   8   0.0914   0.0893   0.2794  -0.0170  -0.0485   0.1047   0.00    1.2
2018/03/13 14:14:46.000   78.256769672   16.230311289   395.0711   2   8   0.0909   0.0888   0.2778  -0.0173  -0.0487   0.1043   0.00    1.1
2018/03/13 14:14:47.000   78.256769630   16.230311312   395.0900   2   9   0.0904   0.0884   0.2761  -0.0177  -0.0488   0.1039   0.00    1.1
2018/03/13 14:14:48.000   78.256769544   16.230311646   395.1160   2   6   0.0900   0.0880   0.2747  -0.0182  -0.0490   0.1034   0.00    1.1
2018/03/13 14:14:49.000   78.256769529   16.230312240   395.1568   2   7   0.0896   0.0876   0.2732  -0.0184  -0.0492   0.1030   0.00    1.5
2018/03/13 14:14:50.000   78.256769464   16.230312649   395.2003   2   7   0.0892   0.0872   0.2718  -0.0186  -0.0496   0.1024   0.00    1.4
2018/03/13 14:14:51.000   78.256769483   16.230312636   395.2023   2   8   0.0887   0.0868   0.2704  -0.0189  -0.0499   0.1019   0.00    1.6
2018/03/13 14:14:52.000   78.256769501   16.230312671   395.1990   2   8   0.0882   0.0864   0.2690  -0.0191  -0.0502   0.1014   0.00    1.6
2018/03/13 14:14:53.000   78.256769631   16.230312548   395.2171   2   7   0.0877   0.0861   0.2681  -0.0191  -0.0504   0.1010   0.00    1.1
2018/03/13 14:14:54.000   78.256769724   16.230312668   395.2318   2   7   0.0873   0.0859   0.2672  -0.0192  -0.0506   0.1005   0.00    1.1
2018/03/13 14:14:55.000   78.256769869   16.230312951   395.2395   2   7   0.0868   0.0856   0.2663  -0.0193  -0.0508   0.1000   0.00    1.1
2018/03/13 14:14:56.000   78.256769854   16.230312847   395.2367   2   7   0.0863   0.0853   0.2655  -0.0193  -0.0509   0.0996   0.00    1.1
2018/03/13 14:14:57.000   78.256769828   16.230312653   395.2286   2   7   0.0859   0.0850   0.2646  -0.0194  -0.0511   0.0991   0.00    1.1
2018/03/13 14:14:58.000   78.256769793   16.230312840   395.2035   2   7   0.0854   0.0848   0.2637  -0.0194  -0.0513   0.0986   0.00    1.1
2018/03/13 14:14:59.000   78.256769751   16.230312840   395.1883   2   7   0.0850   0.0845   0.2629  -0.0195  -0.0514   0.0982   0.00    1.1
2018/03/13 14:15:00.000   78.256769692   16.230313193   395.1719   2   8   0.0845   0.0841   0.2619  -0.0197  -0.0517   0.0977   0.00    1.0
2018/03/13 14:15:01.000   78.256769632   16.230313128   395.1646   2   8   0.0841   0.0838   0.2610  -0.0199  -0.0520   0.0972   0.00    1.0
2018/03/13 14:15:02.000   78.256769675   16.230312861   395.1713   2   8   0.0836   0.0835   0.2601  -0.0200  -0.0522   0.0967   0.00    1.0
2018/03/13 14:15:03.000   78.256769732   16.230312780   395.1750   2   8   0.0832   0.0831   0.2592  -0.0202  -0.0525   0.0962   0.00    1.0
2018/03/13 14:15:04.000   78.256769755   16.230312808   395.1820   2   8   0.0827   0.0828   0.2583  -0.0203  -0.0527   0.0957   0.00    1.0
2018/03/13 14:15:05.000   78.256769761   16.230312855   395.1781   2   8   0.0823   0.0825   0.2574  -0.0205  -0.0529   0.0952   0.00    1.0
2018/03/13 14:15:06.000   78.256769844   16.230312782   395.1737   2   8   0.0819   0.0821   0.2564  -0.0206  -0.0531   0.0947   0.00    1.0
2018/03/13 14:15:07.000   78.256769886   16.230313090   395.1658   2   8   0.0814   0.0818   0.2555  -0.0208  -0.0533   0.0942   0.00    1.0
2018/03/13 14:15:08.000   78.256769883   16.230313384   395.1673   2   8   0.0810   0.0815   0.2545  -0.0209  -0.0535   0.0937   0.00    1.0
2018/03/13 14:15:09.000   78.256769828   16.230313544   395.1683   2   8   0.0806   0.0812   0.2536  -0.0210  -0.0537   0.0932   0.00    1.0
2018/03/13 14:15:10.000   78.256769759   16.230313641   395.1679   2   8   0.0802   0.0809   0.2526  -0.0211  -0.0538   0.0927   0.00    1.0
2018/03/13 14:15:11.000   78.256769691   16.230313775   395.1724   2   8   0.0797   0.0805   0.2517  -0.0212  -0.0540   0.0922   0.00    1.0
2018/03/13 14:15:12.000   78.256769680   16.230313573   395.1677   2   8   0.0793   0.0802   0.2507  -0.0213  -0.0541   0.0916   0.00    1.0
2018/03/13 14:15:13.000   78.256769671   16.230313636   395.1680   2   8   0.0789   0.0799   0.2497  -0.0214  -0.0543   0.0911   0.00    1.0
2018/03/13 14:15:14.000   78.256769662   16.230313390   395.1726   2   8   0.0785   0.0796   0.2488  -0.0215  -0.0544   0.0906   0.00    1.0
2018/03/13 14:15:15.000   78.256769664   16.230313234   395.1807   2   8   0.0781   0.0793   0.2478  -0.0216  -0.0545   0.0901   0.00    1.0
2018/03/13 14:15:16.000   78.256769663   16.230313193   395.1973   2   8   0.0777   0.0790   0.2468  -0.0217  -0.0546   0.0896   0.00    1.0
2018/03/13 14:15:17.000   78.256769667   16.230313256   395.2038   2   8   0.0773   0.0787   0.2458  -0.0217  -0.0547   0.0891   0.00    1.0
2018/03/13 14:15:18.000   78.256769686   16.230313405   395.2266   2   8   0.0769   0.0784   0.2448  -0.0218  -0.0548   0.0886   0.00    1.0
2018/03/13 14:15:19.000   78.256769707   16.230313335   395.2303   2   8   0.0765   0.0782   0.2438  -0.0219  -0.0549   0.0880   0.00    1.0
2018/03/13 14:15:20.000   78.256769709   16.230313094   395.2400   2   8   0.0761   0.0779   0.2428  -0.0219  -0.0549   0.0875   0.00    1.0
2018/03/13 14:15:21.000   78.256769713   16.230313085   395.2422   2   8   0.0757   0.0776   0.2418  -0.0220  -0.0550   0.0870   0.00    1.0
2018/03/13 14:15:22.000   78.256769691   16.230312708   395.2258   2   8   0.0753   0.0773   0.2407  -0.0220  -0.0550   0.0865   0.00    1.0
2018/03/13 14:15:23.000   78.256769627   16.230312771   395.2389   2   8   0.0749   0.0770   0.2397  -0.0221  -0.0551   0.0859   0.00    1.0
2018/03/13 14:15:24.000   78.256769591   16.230312604   395.2291   2   8   0.0745   0.0767   0.2386  -0.0221  -0.0551   0.0854   0.00    1.0
2018/03/13 14:15:25.000   78.256769592   16.230312605   395.2272   2   8   0.0741   0.0765   0.2376  -0.0221  -0.0551   0.0849   0.00    1.0
2018/03/13 14:15:26.000   78.256769603   16.230312502   395.2300   2   8   0.0737   0.0762   0.2366  -0.0222  -0.0551   0.0844   0.00    1.0
2018/03/13 14:15:27.000   78.256769600   16.230312307   395.2467   2   8   0.0734   0.0759   0.2355  -0.0222  -0.0551   0.0838   0.00    1.0
2018/03/13 14:15:28.000   78.256769614   16.230312259   395.2541   2   8   0.0730   0.0756   0.2344  -0.0222  -0.0551   0.0833   0.00    1.0
2018/03/13 14:15:29.000   78.256769637   16.230311785   395.2642   2   8   0.0726   0.0754   0.2334  -0.0222  -0.0551   0.0828   0.00    1.0
2018/03/13 14:15:30.000   78.256769658   16.230311800   395.2586   2   8   0.0722   0.0751   0.2323  -0.0223  -0.0550   0.0823   0.00    1.0
2018/03/13 14:15:31.000   78.256769695   16.230311776   395.2526   2   8   0.0719   0.0748   0.2312  -0.0223  -0.0550   0.0817   0.00    1.1
2018/03/13 14:15:32.000   78.256769745   16.230311664   395.2569   2   8   0.0715   0.0746   0.2301  -0.0223  -0.0550   0.0812   0.00    1.0
2018/03/13 14:15:33.000   78.256769778   16.230311594   395.2524   2   8   0.0711   0.0743   0.2291  -0.0223  -0.0550   0.0807   0.00    1.0
2018/03/13 14:15:34.000   78.256769779   16.230311378   395.2536   2   8   0.0708   0.0741   0.2280  -0.0223  -0.0549   0.0801   0.00    1.0
2018/03/13 14:15:35.000   78.256769746   16.230311347   395.2445   2   8   0.0704   0.0738   0.2269  -0.0223  -0.0549   0.0796   0.00    1.0
2018/03/13 14:15:36.000   78.256769705   16.230311078   395.2474   2   8   0.0701   0.0736   0.2258  -0.0223  -0.0548   0.0791   0.00    1.0
2018/03/13 14:15:37.000   78.256769629   16.230310958   395.2612   2   8   0.0697   0.0733   0.2247  -0.0223  -0.0548   0.0785   0.00    1.1
2018/03/13 14:15:38.000   78.256769617   16.230311114   395.2693   2   8   0.0694   0.0731   0.2236  -0.0223  -0.0547   0.0780   0.00    1.1
2018/03/13 14:15:39.000   78.256769582   16.230311394   395.2399   2   8   0.0690   0.0728   0.2225  -0.0223  -0.0546   0.0775   0.00    1.1
2018/03/13 14:15:40.000   78.256769661   16.230311471   395.2669   2   7   0.0687   0.0726   0.2217  -0.0224  -0.0547   0.0771   0.00    1.1
2018/03/13 14:15:41.000   78.256769643   16.230311329   395.2767   2   7   0.0685   0.0724   0.2209  -0.0224  -0.0547   0.0768   0.00    1.1
2018/03/13 14:15:42.000   78.256769796   16.230310983   395.2902   2   8   0.0682   0.0721   0.2200  -0.0225  -0.0548   0.0764   0.00    1.4
2018/03/13 14:15:43.000   78.256769816   16.230310779   395.2831   2   8   0.0678   0.0719   0.2192  -0.0225  -0.0548   0.0760   0.00    1.2
2018/03/13 14:15:44.000   78.256769740   16.230310737   395.2599   2   8   0.0675   0.0717   0.2184  -0.0225  -0.0548   0.0756   0.00    1.1
2018/03/13 14:15:45.000   78.256769708   16.230310523   395.2527   2   8   0.0672   0.0714   0.2176  -0.0226  -0.0549   0.0753   0.00    1.0
2018/03/13 14:15:46.000   78.256769676   16.230310379   395.2480   2   8   0.0669   0.0712   0.2167  -0.0226  -0.0549   0.0749   0.00    1.0
2018/03/13 14:15:47.000   78.256769673   16.230310052   395.2511   2   8   0.0666   0.0710   0.2159  -0.0227  -0.0549   0.0745   0.00    1.1
2018/03/13 14:15:48.000   78.256769660   16.230309748   395.2526   2   8   0.0663   0.0708   0.2151  -0.0227  -0.0549   0.0741   0.00    1.2
2018/03/13 14:15:49.000   78.256769634   16.230309822   395.2570   2   8   0.0660   0.0706   0.2142  -0.0227  -0.0549   0.0738   0.00    1.2
2018/03/13 14:15:50.000   78.256769625   16.230309623   395.2575   2   8   0.0657   0.0704   0.2134  -0.0227  -0.0549   0.0734   0.00    1.3
2018/03/13 14:15:51.000   78.256769614   16.230309816   395.2510   2   8   0.0654   0.0701   0.2126  -0.0228  -0.0549   0.0730   0.00    1.3
2018/03/13 14:15:52.000   78.256769607   16.230309947   395.2432   2   8   0.0651   0.0699   0.2118  -0.0228  -0.0549   0.0727   0.00    1.4
2018/03/13 14:15:53.000   78.256769553   16.230309890   395.2235   2   8   0.0648   0.0697   0.2109  -0.0228  -0.0549   0.0723   0.00    1.4
2018/03/13 14:15:54.000   78.256769481   16.230309691   395.2068   2   8   0.0646   0.0695   0.2101  -0.0228  -0.0549   0.0719   0.00    1.4
2018/03/13 14:15:55.000   78.256769434   16.230309594   395.1962   2   8   0.0643   0.0693   0.2092  -0.0229  -0.0549   0.0716   0.00    1.4
2018/03/13 14:15:56.000   78.256769398   16.230309267   395.2024   2   8   0.0640   0.0691   0.2084  -0.0229  -0.0549   0.0712   0.00    1.5
2018/03/13 14:15:57.000   78.256769386   16.230308950   395.2194   2   8   0.0637   0.0689   0.2076  -0.0229  -0.0548   0.0709   0.00    1.5
2018/03/13 14:15:58.000   78.256769348   16.230308812   395.2396   2   8   0.0634   0.0687   0.2067  -0.0229  -0.0548   0.0705   0.00    1.5
2018/03/13 14:15:59.000   78.256769349   16.230308521   395.2582   2   8   0.0631   0.0685   0.2059  -0.0229  -0.0548   0.0701   0.00    1.5
2018/03/13 14:16:00.000   78.256769414   16.230308477   395.2684   2   8   0.0629   0.0683   0.2051  -0.0229  -0.0547   0.0698   0.00    1.5
2018/03/13 14:16:01.000   78.256769416   16.230308405   395.2754   2   8   0.0626   0.0681   0.2042  -0.0229  -0.0547   0.0694   0.00    1.5
2018/03/13 14:16:02.000   78.256769414   16.230308514   395.2764   2   8   0.0623   0.0679   0.2034  -0.0229  -0.0546   0.0691   0.00    1.5
2018/03/13 14:16:03.000   78.256769386   16.230308400   395.2737   2   8   0.0621   0.0677   0.2025  -0.0229  -0.0546   0.0687   0.00    1.5
2018/03/13 14:16:04.000   78.256769390   16.230308118   395.2760   2   8   0.0618   0.0675   0.2017  -0.0229  -0.0545   0.0684   0.00    1.5
2018/03/13 14:16:05.000   78.256769366   16.230307874   395.2921   2   8   0.0615   0.0673   0.2008  -0.0229  -0.0545   0.0680   0.00    1.4
2018/03/13 14:16:06.000   78.256769378   16.230307899   395.3223   2   8   0.0612   0.0671   0.2000  -0.0229  -0.0544   0.0677   0.00    1.4
2018/03/13 14:16:07.000   78.256769433   16.230307891   395.3424   2   8   0.0610   0.0669   0.1991  -0.0229  -0.0543   0.0673   0.00    1.4
2018/03/13 14:16:08.000   78.256769459   16.230308021   395.3650   2   8   0.0607   0.0667   0.1983  -0.0229  -0.0542   0.0670   0.00    1.4
2018/03/13 14:16:09.000   78.256769484   16.230307873   395.3724   2   8   0.0605   0.0665   0.1974  -0.0229  -0.0542   0.0666   0.00    1.4
2018/03/13 14:16:10.000   78.256769515   16.230307917   395.3616   2   8   0.0602   0.0663   0.1965  -0.0229  -0.0541   0.0663   0.00    1.3
2018/03/13 14:16:11.000   78.256769528   16.230307747   395.3650   2   8   0.0599   0.0661   0.1957  -0.0229  -0.0540   0.0659   0.00    1.3
2018/03/13 14:16:12.000   78.256769543   16.230307686   395.3639   2   8   0.0597   0.0659   0.1948  -0.0229  -0.0539   0.0656   0.00    1.3
2018/03/13 14:16:13.000   78.256769551   16.230307232   395.3705   2   8   0.0594   0.0657   0.1940  -0.0229  -0.0538   0.0652   0.00    1.3
2018/03/13 14:16:14.000   78.256769620   16.230307003   395.3754   2   8   0.0592   0.0655   0.1931  -0.0229  -0.0537   0.0649   0.00    1.3
2018/03/13 14:16:15.000   78.256769668   16.230306688   395.3879   2   8   0.0589   0.0653   0.1922  -0.0229  -0.0536   0.0645   0.00    1.2
2018/03/13 14:16:16.000   78.256769690   16.230306418   395.4002   2   8   0.0587   0.0651   0.1914  -0.0229  -0.0535   0.0642   0.00    1.2
2018/03/13 14:16:17.000   78.256769733   16.230306157   395.4116   2   8   0.0584   0.0649   0.1905  -0.0228  -0.0534   0.0638   0.00    1.2
2018/03/13 14:16:18.000   78.256769829   16.230306139   395.4199   2   8   0.0582   0.0648   0.1896  -0.0228  -0.0532   0.0635   0.00    1.2
2018/03/13 14:16:19.000   78.256769858   16.230306228   395.4203   2   8   0.0579   0.0646   0.1888  -0.0228  -0.0531   0.0631   0.00    1.2
2018/03/13 14:16:20.000   78.256769873   16.230306067   395.4127   2   8   0.0577   0.0644   0.1879  -0.0228  -0.0530   0.0628   0.00    1.2
2018/03/13 14:16:21.000   78.256769906   16.230306026   395.4217   2   7   0.0575   0.0642   0.1871  -0.0227  -0.0529   0.0624   0.00    1.2
2018/03/13 14:16:22.000   78.256769884   16.230306144   395.4219   2   7   0.0572   0.0640   0.1862  -0.0227  -0.0528   0.0621   0.00    1.2
2018/03/13 14:16:23.000   78.256769901   16.230305949   395.4354   2   7   0.0570   0.0638   0.1854  -0.0227  -0.0527   0.0617   0.00    1.1
2018/03/13 14:16:24.000   78.256769929   16.230305838   395.4398   2   7   0.0568   0.0637   0.1845  -0.0226  -0.0525   0.0613   0.00    1.1
2018/03/13 14:16:25.000   78.256769963   16.230305568   395.4501   2   7   0.0566   0.0635   0.1837  -0.0226  -0.0524   0.0610   0.00    1.1
2018/03/13 14:16:26.000   78.256770007   16.230305341   395.4598   2   7   0.0563   0.0633   0.1828  -0.0226  -0.0523   0.0606   0.00    1.1
2018/03/13 14:16:27.000   78.256770083   16.230305163   395.4851   2   8   0.0561   0.0631   0.1820  -0.0226  -0.0521   0.0603   0.00    1.0
2018/03/13 14:16:28.000   78.256770088   16.230304995   395.5072   2   8   0.0559   0.0630   0.1811  -0.0225  -0.0520   0.0599   0.00    1.0
2018/03/13 14:16:29.000   78.256770113   16.230304795   395.5253   2   8   0.0557   0.0628   0.1802  -0.0225  -0.0519   0.0596   0.00    1.0
2018/03/13 14:16:30.000   78.256770124   16.230304651   395.5450   2   8   0.0554   0.0626   0.1794  -0.0225  -0.0517   0.0593   0.00    1.0
2018/03/13 14:16:31.000   78.256770101   16.230304518   395.5535   2   8   0.0552   0.0624   0.1785  -0.0224  -0.0516   0.0589   0.00    1.0
2018/03/13 14:16:32.000   78.256770092   16.230304561   395.5635   2   8   0.0550   0.0623   0.1776  -0.0224  -0.0514   0.0586   0.00    1.0
2018/03/13 14:16:33.000   78.256770064   16.230304498   395.5674   2   8   0.0547   0.0621   0.1768  -0.0224  -0.0513   0.0583   0.00    1.0
2018/03/13 14:16:34.000   78.256770085   16.230304495   395.5827   2   8   0.0545   0.0619   0.1759  -0.0223  -0.0511   0.0580   0.00    1.1
2018/03/13 14:16:35.000   78.256770062   16.230304371   395.5896   2   8   0.0543   0.0617   0.1751  -0.0223  -0.0509   0.0576   0.00    1.1
2018/03/13 14:16:36.000   78.256770059   16.230304208   395.5969   2   8   0.0541   0.0616   0.1742  -0.0223  -0.0508   0.0573   0.00    1.1
2018/03/13 14:16:37.000   78.256770061   16.230304096   395.6017   2   8   0.0539   0.0614   0.1733  -0.0222  -0.0506   0.0570   0.00    1.1
2018/03/13 14:16:38.000   78.256770033   16.230304224   395.6043   2   8   0.0536   0.0612   0.1725  -0.0222  -0.0504   0.0566   0.00    1.1
2018/03/13 14:16:39.000   78.256770041   16.230304181   395.5955   2   8   0.0534   0.0611   0.1716  -0.0221  -0.0503   0.0563   0.00    1.1
2018/03/13 14:16:40.000   78.256769985   16.230304080   395.5903   2   8   0.0532   0.0609   0.1708  -0.0221  -0.0501   0.0560   0.00    1.1
2018/03/13 14:16:41.000   78.256769946   16.230304170   395.5803   2   8   0.0530   0.0607   0.1699  -0.0221  -0.0499   0.0557   0.00    1.1
2018/03/13 14:16:42.000   78.256769936   16.230304166   395.5735   2   8   0.0528   0.0606   0.1690  -0.0220  -0.0497   0.0554   0.00    1.1
2018/03/13 14:16:43.000   78.256769912   16.230304207   395.5682   2   8   0.0526   0.0604   0.1682  -0.0220  -0.0496   0.0550   0.00    1.1
2018/03/13 14:16:44.000   78.256769862   16.230304371   395.5580   2   8   0.0524   0.0602   0.1673  -0.0219  -0.0494   0.0547   0.00    1.1
2018/03/13 14:16:45.000   78.256769864   16.230304416   395.5688   2   8   0.0522   0.0601   0.1665  -0.0219  -0.0492   0.0544   0.00    1.1
2018/03/13 14:16:46.000   78.256769910   16.230304331   395.5773   2   8   0.0519   0.0599   0.1656  -0.0218  -0.0490   0.0541   0.00    1.1
2018/03/13 14:16:47.000   78.256769941   16.230304376   395.5713   2   8   0.0517   0.0597   0.1648  -0.0218  -0.0488   0.0538   0.00    1.2
2018/03/13 14:16:48.000   78.256769934   16.230304498   395.5686   2   8   0.0515   0.0596   0.1640  -0.0218  -0.0486   0.0534   0.00    1.2
2018/03/13 14:16:49.000   78.256769935   16.230304451   395.5686   2   8   0.0513   0.0594   0.1631  -0.0217  -0.0484   0.0531   0.00    1.2
2018/03/13 14:16:50.000   78.256769952   16.230304504   395.5776   2   8   0.0511   0.0592   0.1623  -0.0217  -0.0482   0.0528   0.00    1.2
2018/03/13 14:16:51.000   78.256770010   16.230304373   395.5939   2   8   0.0509   0.0591   0.1614  -0.0216  -0.0480   0.0525   0.00    1.2
2018/03/13 14:16:52.000   78.256770090   16.230304217   395.6124   2   8   0.0507   0.0589   0.1606  -0.0216  -0.0478   0.0522   0.00    1.2
2018/03/13 14:16:53.000   78.256770139   16.230304046   395.6249   2   8   0.0505   0.0587   0.1598  -0.0215  -0.0476   0.0519   0.00    1.2
2018/03/13 14:16:54.000   78.256770188   16.230303777   395.6320   2   8   0.0503   0.0586   0.1589  -0.0215  -0.0474   0.0516   0.00    1.2
2018/03/13 14:16:55.000   78.256770247   16.230303430   395.6414   2   8   0.0501   0.0584   0.1581  -0.0214  -0.0472   0.0513   0.00    1.2
2018/03/13 14:16:56.000   78.256770275   16.230303290   395.6411   2   8   0.0499   0.0583   0.1573  -0.0214  -0.0470   0.0510   0.00    1.2
2018/03/13 14:16:57.000   78.256770280   16.230303052   395.6339   2   8   0.0497   0.0581   0.1565  -0.0213  -0.0468   0.0507   0.00    1.2
2018/03/13 14:16:58.000   78.256770290   16.230302999   395.6303   2   8   0.0496   0.0579   0.1556  -0.0213  -0.0466   0.0504   0.00    1.2
2018/03/13 14:16:59.000   78.256770301   16.230302934   395.6395   2   8   0.0494   0.0578   0.1548  -0.0212  -0.0464   0.0501   0.00    1.2
2018/03/13 14:17:00.000   78.256770319   16.230303110   395.6505   2   8   0.0492   0.0576   0.1540  -0.0212  -0.0462   0.0498   0.00    1.2
2018/03/13 14:17:35.000   78.256770352   16.230302942   395.6535   2   8   0.0491   0.0575   0.1539  -0.0211  -0.0462   0.0498   0.00    1.1
2018/03/13 14:17:36.000   78.256770349   16.230303028   395.6531   2   8   0.0491   0.0574   0.1539  -0.0211  -0.0461   0.0498   0.00    1.3
2018/03/13 14:17:37.000   78.256770358   16.230302725   395.6595   2   8   0.0490   0.0573   0.1538  -0.0210  -0.0460   0.0498   0.00    1.5
2018/03/13 14:17:38.000   78.256770380   16.230302628   395.6595   2   8   0.0490   0.0572   0.1538  -0.0210  -0.0460   0.0498   0.00    1.6
2018/03/13 14:17:39.000   78.256770392   16.230302282   395.6606   2   8   0.0489   0.0571   0.1537  -0.0209  -0.0459   0.0498   0.00    1.6
2018/03/13 14:17:40.000   78.256770416   16.230302182   395.6602   2   8   0.0489   0.0570   0.1537  -0.0209  -0.0459   0.0499   0.00    1.6
2018/03/13 14:17:41.000   78.256770445   16.230302202   395.6592   2   8   0.0488   0.0569   0.1536  -0.0209  -0.0458   0.0499   0.00    1.6
2018/03/13 14:17:42.000   78.256770461   16.230302193   395.6638   2   8   0.0488   0.0568   0.1536  -0.0208  -0.0458   0.0499   0.00    1.6
2018/03/13 14:17:43.000   78.256770470   16.230302063   395.6666   2   8   0.0487   0.0567   0.1535  -0.0208  -0.0457   0.0499   0.00    1.6
2018/03/13 14:17:44.000   78.256770471   16.230301945   395.6724   2   8   0.0487   0.0566   0.1535  -0.0207  -0.0456   0.0499   0.00    1.5
2018/03/13 14:17:45.000   78.256770490   16.230301818   395.6756   2   8   0.0486   0.0565   0.1534  -0.0207  -0.0456   0.0499   0.00    1.5
2018/03/13 14:17:46.000   78.256770480   16.230301763   395.6758   2   8   0.0486   0.0564   0.1534  -0.0207  -0.0455   0.0499   0.00    1.5
2018/03/13 14:17:47.000   78.256770476   16.230301822   395.6707   2   8   0.0485   0.0564   0.1533  -0.0206  -0.0455   0.0499   0.00    1.5
2018/03/13 14:17:48.000   78.256770486   16.230301732   395.6706   2   8   0.0485   0.0563   0.1532  -0.0206  -0.0454   0.0499   0.00    1.5
2018/03/13 14:17:49.000   78.256770497   16.230301749   395.6691   2   8   0.0485   0.0562   0.1532  -0.0205  -0.0453   0.0500   0.00    1.5
2018/03/13 14:17:50.000   78.256770519   16.230301679   395.6667   2   8   0.0484   0.0561   0.1531  -0.0205  -0.0453   0.0500   0.00    1.5
2018/03/13 14:17:51.000   78.256770526   16.230301650   395.6638   2   8   0.0484   0.0560   0.1530  -0.0205  -0.0452   0.0500   0.00    1.5
2018/03/13 14:17:52.000   78.256770531   16.230301824   395.6596   2   8   0.0483   0.0559   0.1530  -0.0204  -0.0452   0.0500   0.00    1.5
2018/03/13 14:17:53.000   78.256770531   16.230301731   395.6564   2   8   0.0483   0.0558   0.1529  -0.0204  -0.0451   0.0500   0.00    1.5
2018/03/13 14:17:54.000   78.256770544   16.230301576   395.6616   2   8   0.0482   0.0557   0.1528  -0.0203  -0.0450   0.0500   0.00    1.4
2018/03/13 14:17:55.000   78.256770563   16.230301543   395.6678   2   8   0.0482   0.0556   0.1528  -0.0203  -0.0450   0.0500   0.00    1.4
2018/03/13 14:17:56.000   78.256770558   16.230301541   395.6660   2   8   0.0481   0.0555   0.1527  -0.0203  -0.0449   0.0500   0.00    1.4
2018/03/13 14:17:57.000   78.256770587   16.230301414   395.6640   2   8   0.0481   0.0554   0.1526  -0.0202  -0.0448   0.0500   0.00    1.3
2018/03/13 14:17:58.000   78.256770611   16.230301340   395.6639   2   8   0.0480   0.0553   0.1525  -0.0202  -0.0448   0.0500   0.00    1.3
2018/03/13 14:17:59.000   78.256770632   16.230301367   395.6599   2   8   0.0480   0.0552   0.1524  -0.0201  -0.0447   0.0500   0.00    1.2
2018/03/13 14:18:00.000   78.256770647   16.230301320   395.6597   2   8   0.0479   0.0551   0.1524  -0.0201  -0.0446   0.0500   0.00    1.2
2018/03/13 14:18:01.000   78.256770673   16.230301351   395.6616   2   8   0.0479   0.0550   0.1523  -0.0201  -0.0446   0.0500   0.00    1.2
2018/03/13 14:18:02.000   78.256775464   16.230277713   394.8209   1   7   0.0030   0.0021   0.0178  -0.0014  -0.0041   0.0065   0.00    8.8
2018/03/13 14:18:03.000   78.256775481   16.230277699   394.8302   1   7   0.0030   0.0020   0.0175  -0.0013  -0.0040   0.0064   0.00    9.1
2018/03/13 14:18:04.000   78.256775485   16.230277704   394.8298   1   7   0.0029   0.0020   0.0172  -0.0013  -0.0039   0.0063   0.00    9.1
2018/03/13 14:18:05.000   78.256775483   16.230277708   394.8270   1   7   0.0029   0.0020   0.0169  -0.0013  -0.0039   0.0062   0.00    9.1
2018/03/13 14:18:06.000   78.256775482   16.230277701   394.8265   1   7   0.0028   0.0019   0.0167  -0.0013  -0.0038   0.0061   0.00    9.1
2018/03/13 14:18:07.000   78.256770788   16.230301035   395.6556   2   8   0.0476   0.0545   0.1518  -0.0198  -0.0443   0.0499   0.00    1.3
2018/03/13 14:18:08.000   78.256770812   16.230301059   395.6513   2   8   0.0475   0.0544   0.1517  -0.0197  -0.0442   0.0499   0.00    1.5
2018/03/13 14:18:09.000   78.256770831   16.230301259   395.6487   2   8   0.0475   0.0543   0.1516  -0.0197  -0.0441   0.0498   0.00    1.7
2018/03/13 14:18:10.000   78.256770871   16.230301263   395.6474   2   8   0.0474   0.0542   0.1515  -0.0197  -0.0440   0.0498   0.00    1.9
2018/03/13 14:18:11.000   78.256770895   16.230301272   395.6423   2   8   0.0474   0.0542   0.1514  -0.0196  -0.0440   0.0498   0.00    2.0
2018/03/13 14:18:12.000   78.256770919   16.230301273   395.6377   2   8   0.0473   0.0541   0.1512  -0.0196  -0.0439   0.0498   0.00    2.1
2018/03/13 14:18:13.000   78.256770924   16.230301342   395.6371   2   8   0.0473   0.0540   0.1511  -0.0195  -0.0438   0.0498   0.00    2.2
2018/03/13 14:18:14.000   78.256770928   16.230301348   395.6341   2   8   0.0472   0.0539   0.1510  -0.0195  -0.0437   0.0498   0.00    2.2
2018/03/13 14:18:15.000   78.256770942   16.230301435   395.6301   2   8   0.0472   0.0538   0.1509  -0.0195  -0.0436   0.0497   0.00    2.2
2018/03/13 14:18:16.000   78.256770963   16.230301550   395.6220   2   8   0.0471   0.0537   0.1507  -0.0194  -0.0436   0.0497   0.00    2.0
2018/03/13 14:18:17.000   78.256770994   16.230301632   395.6181   2   8   0.0471   0.0536   0.1506  -0.0194  -0.0435   0.0497   0.00    1.8
2018/03/13 14:18:18.000   78.256771013   16.230301796   395.6084   2   8   0.0470   0.0535   0.1504  -0.0193  -0.0434   0.0496   0.00    1.7
2018/03/13 14:18:19.000   78.256771040   16.230301996   395.5950   2   8   0.0470   0.0534   0.1503  -0.0193  -0.0433   0.0496   0.00    1.5
2018/03/13 14:18:20.000   78.256771050   16.230302224   395.5815   2   8   0.0469   0.0533   0.1501  -0.0192  -0.0432   0.0496   0.00    1.4
2018/03/13 14:18:21.000   78.256771052   16.230302334   395.5767   2   7   0.0469   0.0533   0.1500  -0.0192  -0.0431   0.0495   0.00    1.8
2018/03/13 14:18:22.000   78.256771066   16.230302265   395.5707   2   7   0.0468   0.0532   0.1498  -0.0192  -0.0431   0.0495   0.00    1.7
2018/03/13 14:18:23.000   78.256771077   16.230302237   395.5642   2   7   0.0468   0.0531   0.1497  -0.0191  -0.0430   0.0494   0.00    1.7
2018/03/13 14:18:24.000   78.256771127   16.230302109   395.5581   2   8   0.0467   0.0530   0.1495  -0.0191  -0.0429   0.0494   0.00    1.7
2018/03/13 14:18:25.000   78.256771171   16.230302104   395.5637   2   8   0.0467   0.0529   0.1493  -0.0190  -0.0428   0.0494   0.00    1.6
2018/03/13 14:18:26.000   78.256771209   16.230302073   395.5660   2   8   0.0466   0.0528   0.1492  -0.0190  -0.0427   0.0493   0.00    1.7
2018/03/13 14:18:27.000   78.256771239   16.230301906   395.5675   2   8   0.0465   0.0528   0.1490  -0.0189  -0.0426   0.0493   0.00    1.6
2018/03/13 14:18:28.000   78.256771259   16.230301904   395.5635   2   8   0.0465   0.0527   0.1488  -0.0189  -0.0425   0.0492   0.00    1.5
2018/03/13 14:18:29.000   78.256771263   16.230301946   395.5574   2   8   0.0464   0.0526   0.1486  -0.0188  -0.0424   0.0492   0.00    1.5
2018/03/13 14:18:30.000   78.256771260   16.230301958   395.5478   2   8   0.0464   0.0525   0.1484  -0.0188  -0.0423   0.0491   0.00    1.4
2018/03/13 14:18:31.000   78.256771264   16.230302003   395.5394   2   8   0.0463   0.0524   0.1482  -0.0188  -0.0423   0.0491   0.00    1.3
2018/03/13 14:18:32.000   78.256771261   16.230301980   395.5351   2   8   0.0463   0.0523   0.1480  -0.0187  -0.0422   0.0490   0.00    1.3
2018/03/13 14:18:33.000   78.256771282   16.230301846   395.5329   2   8   0.0462   0.0522   0.1478  -0.0187  -0.0421   0.0490   0.00    1.2
2018/03/13 14:18:34.000   78.256771299   16.230301904   395.5289   2   7   0.0461   0.0522   0.1476  -0.0186  -0.0420   0.0489   0.00    1.4
2018/03/13 14:18:35.000   78.256771298   16.230301953   395.5239   2   7   0.0461   0.0521   0.1474  -0.0186  -0.0419   0.0488   0.00    1.4
2018/03/13 14:18:36.000   78.256771307   16.230302004   395.5216   2   7   0.0460   0.0520   0.1472  -0.0185  -0.0418   0.0487   0.00    1.4
2018/03/13 14:18:37.000   78.256771330   16.230302026   395.5258   2   8   0.0460   0.0519   0.1470  -0.0185  -0.0417   0.0487   0.00    1.3
2018/03/13 14:18:38.000   78.256771344   16.230302082   395.5185   2   8   0.0459   0.0518   0.1467  -0.0184  -0.0416   0.0486   0.00    1.3
2018/03/13 14:18:39.000   78.256771366   16.230302027   395.5106   2   8   0.0459   0.0517   0.1465  -0.0184  -0.0415   0.0485   0.00    1.2
2018/03/13 14:18:40.000   78.256771377   16.230301873   395.5043   2   8   0.0458   0.0517   0.1463  -0.0183  -0.0414   0.0485   0.00    1.2
2018/03/13 14:18:41.000   78.256771383   16.230301881   395.4852   2   8   0.0457   0.0516   0.1460  -0.0183  -0.0412   0.0484   0.00    1.2
2018/03/13 14:18:42.000   78.256771402   16.230301978   395.4728   2   8   0.0457   0.0515   0.1458  -0.0182  -0.0411   0.0483   0.00    1.1
2018/03/13 14:18:43.000   78.256771415   16.230302028   395.4622   2   8   0.0456   0.0514   0.1455  -0.0182  -0.0410   0.0483   0.00    1.1
2018/03/13 14:18:44.000   78.256771422   16.230302044   395.4520   2   8   0.0455   0.0513   0.1453  -0.0182  -0.0409   0.0482   0.00    1.0
2018/03/13 14:18:45.000   78.256771434   16.230301983   395.4438   2   8   0.0455   0.0512   0.1450  -0.0181  -0.0408   0.0481   0.00    1.1
2018/03/13 14:18:46.000   78.256771436   16.230301996   395.4350   2   8   0.0454   0.0512   0.1447  -0.0181  -0.0407   0.0480   0.00    1.1
2018/03/13 14:18:47.000   78.256771443   16.230302083   395.4222   2   8   0.0453   0.0511   0.1445  -0.0180  -0.0406   0.0479   0.00    1.1
2018/03/13 14:18:48.000   78.256771463   16.230301993   395.4120   2   8   0.0453   0.0510   0.1442  -0.0180  -0.0404   0.0478   0.00    1.1
2018/03/13 14:18:49.000   78.256771459   16.230302053   395.3994   2   8   0.0452   0.0509   0.1439  -0.0179  -0.0403   0.0478   0.00    1.0
2018/03/13 14:18:50.000   78.256771465   16.230302082   395.3969   2   8   0.0451   0.0508   0.1436  -0.0179  -0.0402   0.0477   0.00    1.0
2018/03/13 14:18:51.000   78.256775373   16.230277844   394.7395   1   7   0.0019   0.0015   0.0147  -0.0010  -0.0036   0.0044   0.00    7.4
2018/03/13 14:18:52.000   78.256775371   16.230277849   394.7386   1   7   0.0019   0.0015   0.0145  -0.0010  -0.0036   0.0044   0.00    7.5
2018/03/13 14:18:53.000   78.256771562   16.230302169   395.3945   2   8   0.0449   0.0506   0.1428  -0.0177  -0.0399   0.0474   0.00    1.4
2018/03/13 14:18:54.000   78.256771584   16.230302144   395.4018   2   8   0.0449   0.0505   0.1425  -0.0177  -0.0398   0.0473   0.00    1.6
2018/03/13 14:18:55.000   78.256771622   16.230302107   395.4032   2   8   0.0448   0.0504   0.1422  -0.0176  -0.0397   0.0472   0.00    1.7
2018/03/13 14:18:56.000   78.256771682   16.230302121   395.3948   2   8   0.0447   0.0503   0.1419  -0.0176  -0.0395   0.0471   0.00    1.3
2018/03/13 14:18:57.000   78.256771696   16.230302195   395.3865   2   8   0.0447   0.0503   0.1416  -0.0175  -0.0394   0.0470   0.00    1.4
2018/03/13 14:18:58.000   78.256771705   16.230302392   395.3709   2   8   0.0446   0.0502   0.1413  -0.0175  -0.0393   0.0469   0.00    1.5
2018/03/13 14:18:59.000   78.256771709   16.230302352   395.3530   2   8   0.0445   0.0501   0.1410  -0.0174  -0.0392   0.0468   0.00    1.5
2018/03/13 14:19:00.000   78.256771729   16.230302398   395.3408   2   8   0.0445   0.0500   0.1407  -0.0174  -0.0391   0.0467   0.00    1.6
2018/03/13 14:19:01.000   78.256771739   16.230302359   395.3299   2   8   0.0444   0.0499   0.1403  -0.0173  -0.0389   0.0466   0.00    1.6
2018/03/13 14:19:02.000   78.256771748   16.230302265   395.3210   2   8   0.0443   0.0499   0.1400  -0.0173  -0.0388   0.0464   0.00    1.7
2018/03/13 14:19:03.000   78.256771776   16.230302220   395.3176   2   8   0.0442   0.0498   0.1397  -0.0172  -0.0387   0.0463   0.00    1.7
2018/03/13 14:19:04.000   78.256771788   16.230302242   395.3219   2   8   0.0442   0.0497   0.1393  -0.0172  -0.0385   0.0462   0.00    1.6
2018/03/13 14:19:05.000   78.256771823   16.230302206   395.3284   2   8   0.0441   0.0496   0.1390  -0.0171  -0.0384   0.0461   0.00    1.7
2018/03/13 14:19:06.000   78.256771850   16.230302209   395.3271   2   8   0.0440   0.0495   0.1387  -0.0171  -0.0383   0.0460   0.00    1.7
2018/03/13 14:19:07.000   78.256771878   16.230302149   395.3220   2   8   0.0440   0.0495   0.1383  -0.0170  -0.0382   0.0459   0.00    1.6
2018/03/13 14:19:08.000   78.256771900   16.230302116   395.3088   2   8   0.0439   0.0494   0.1380  -0.0170  -0.0380   0.0457   0.00    1.5
2018/03/13 14:19:09.000   78.256771924   16.230302158   395.2950   2   8   0.0438   0.0493   0.1376  -0.0169  -0.0379   0.0456   0.00    1.5
2018/03/13 14:19:10.000   78.256771936   16.230302184   395.2807   2   8   0.0437   0.0492   0.1372  -0.0169  -0.0378   0.0455   0.00    1.4
2018/03/13 14:19:11.000   78.256771943   16.230302126   395.2758   2   8   0.0437   0.0491   0.1369  -0.0168  -0.0376   0.0454   0.00    1.4
2018/03/13 14:19:12.000   78.256771943   16.230302137   395.2593   2   8   0.0436   0.0491   0.1365  -0.0168  -0.0375   0.0453   0.00    1.3
2018/03/13 14:19:13.000   78.256771960   16.230302127   395.2406   2   8   0.0435   0.0490   0.1362  -0.0167  -0.0373   0.0451   0.00    1.3
2018/03/13 14:19:14.000   78.256771974   16.230302255   395.2239   2   8   0.0434   0.0489   0.1358  -0.0167  -0.0372   0.0450   0.00    1.2
2018/03/13 14:19:15.000   78.256772017   16.230302181   395.2165   2   8   0.0433   0.0488   0.1354  -0.0166  -0.0371   0.0449   0.00    1.2
2018/03/13 14:19:16.000   78.256772039   16.230302204   395.2130   2   8   0.0433   0.0487   0.1350  -0.0166  -0.0369   0.0447   0.00    1.2
2018/03/13 14:19:17.000   78.256772068   16.230302131   395.2051   2   8   0.0432   0.0487   0.1346  -0.0165  -0.0368   0.0446   0.00    1.1
2018/03/13 14:19:18.000   78.256772106   16.230302087   395.2043   2   8   0.0431   0.0486   0.1343  -0.0165  -0.0366   0.0445   0.00    1.1
2018/03/13 14:19:19.000   78.256772159   16.230301937   395.2103   2   8   0.0430   0.0485   0.1339  -0.0164  -0.0365   0.0443   0.00    1.1
2018/03/13 14:19:20.000   78.256772198   16.230301973   395.2019   2   8   0.0430   0.0484   0.1335  -0.0164  -0.0364   0.0442   0.00    1.1
2018/03/13 14:19:21.000   78.256772235   16.230301924   395.2025   2   8   0.0429   0.0483   0.1331  -0.0163  -0.0362   0.0441   0.00    1.0
2018/03/13 14:19:22.000   78.256772276   16.230301814   395.2172   2   8   0.0428   0.0483   0.1327  -0.0163  -0.0361   0.0439   0.00    1.0
2018/03/13 14:19:23.000   78.256772292   16.230301769   395.2190   2   8   0.0427   0.0482   0.1323  -0.0162  -0.0359   0.0438   0.00    1.0
2018/03/13 14:19:24.000   78.256772327   16.230301700   395.2212   2   8   0.0426   0.0481   0.1319  -0.0162  -0.0358   0.0436   0.00    1.0
2018/03/13 14:19:25.000   78.256772345   16.230301512   395.2263   2   8   0.0426   0.0480   0.1315  -0.0161  -0.0356   0.0435   0.00    1.1
2018/03/13 14:19:26.000   78.256772359   16.230301526   395.2312   2   8   0.0425   0.0479   0.1311  -0.0161  -0.0355   0.0433   0.00    1.1
2018/03/13 14:19:27.000   78.256772386   16.230301449   395.2330   2   8   0.0424   0.0479   0.1307  -0.0160  -0.0353   0.0432   0.00    1.1
2018/03/13 14:19:28.000   78.256772393   16.230301535   395.2327   2   8   0.0423   0.0478   0.1303  -0.0159  -0.0352   0.0430   0.00    1.1
2018/03/13 14:19:29.000   78.256772405   16.230301477   395.2311   2   8   0.0422   0.0477   0.1299  -0.0159  -0.0350   0.0429   0.00    1.1
2018/03/13 14:19:30.000   78.256772451   16.230301558   395.2238   2   7   0.0422   0.0476   0.1295  -0.0159  -0.0349   0.0427   0.00    1.2
2018/03/13 14:19:31.000   78.256772491   16.230301504   395.2096   2   8   0.0421   0.0476   0.1291  -0.0158  -0.0348   0.0426   0.00    1.1
2018/03/13 14:19:32.000   78.256772525   16.230301375   395.2028   2   8   0.0420   0.0475   0.1288  -0.0158  -0.0347   0.0424   0.00    1.1
2018/03/13 14:19:33.000   78.256772578   16.230301204   395.1989   2   8   0.0419   0.0474   0.1284  -0.0157  -0.0345   0.0423   0.00    1.1
2018/03/13 14:19:34.000   78.256772630   16.230301226   395.2000   2   8   0.0418   0.0473   0.1280  -0.0156  -0.0344   0.0421   0.00    1.0
2018/03/13 14:19:35.000   78.256772670   16.230301215   395.1985   2   8   0.0418   0.0473   0.1276  -0.0156  -0.0343   0.0419   0.00    1.0
2018/03/13 14:19:36.000   78.256772687   16.230301183   395.1960   2   8   0.0417   0.0472   0.1272  -0.0155  -0.0342   0.0418   0.00    1.0
2018/03/13 14:19:37.000   78.256772701   16.230301256   395.1862   2   8   0.0416   0.0471   0.1269  -0.0155  -0.0341   0.0416   0.00    1.0
2018/03/13 14:19:38.000   78.256772731   16.230301229   395.1770   2   8   0.0415   0.0470   0.1265  -0.0154  -0.0339   0.0415   0.00    1.0
2018/03/13 14:19:39.000   78.256772766   16.230301161   395.1767   2   8   0.0414   0.0470   0.1261  -0.0154  -0.0338   0.0413   0.00    1.0
2018/03/13 14:19:40.000   78.256772802   16.230300991   395.1809   2   8   0.0413   0.0469   0.1257  -0.0153  -0.0337   0.0411   0.00    1.1
2018/03/13 14:19:41.000   78.256772836   16.230300899   395.1804   2   8   0.0413   0.0468   0.1253  -0.0153  -0.0336   0.0410   0.00    1.1
2018/03/13 14:19:42.000   78.256772865   16.230300917   395.1807   2   8   0.0412   0.0467   0.1249  -0.0152  -0.0334   0.0408   0.00    1.1
2018/03/13 14:19:43.000   78.256772910   16.230300894   395.1810   2   8   0.0411   0.0467   0.1245  -0.0151  -0.0333   0.0406   0.00    1.1
2018/03/13 14:19:44.000   78.256772948   16.230300763   395.1813   2   8   0.0410   0.0466   0.1242  -0.0151  -0.0332   0.0405   0.00    1.2
2018/03/13 14:19:45.000   78.256772980   16.230300609   395.1851   2   8   0.0409   0.0465   0.1238  -0.0150  -0.0331   0.0403   0.00    1.2
2018/03/13 14:19:46.000   78.256772997   16.230300541   395.1888   2   7   0.0408   0.0465   0.1234  -0.0150  -0.0330   0.0401   0.00    1.5
2018/03/13 14:19:47.000   78.256773011   16.230300613   395.1847   2   8   0.0408   0.0464   0.1230  -0.0149  -0.0328   0.0399   0.00    1.6
2018/03/13 14:19:48.000   78.256773062   16.230300430   395.1870   2   8   0.0407   0.0463   0.1226  -0.0149  -0.0327   0.0398   0.00    1.7
2018/03/13 14:19:49.000   78.256773094   16.230300379   395.1849   2   8   0.0406   0.0462   0.1222  -0.0148  -0.0326   0.0396   0.00    1.7
2018/03/13 14:19:50.000   78.256773131   16.230300339   395.1857   2   8   0.0405   0.0462   0.1218  -0.0148  -0.0325   0.0394   0.00    1.8
2018/03/13 14:19:51.000   78.256775319   16.230277965   394.5389   1   7   0.0016   0.0012   0.0167  -0.0008  -0.0034   0.0036   0.00   12.5
2018/03/13 14:19:52.000   78.256775317   16.230277958   394.5453   1   7   0.0016   0.0012   0.0163  -0.0008  -0.0034   0.0036   0.00   13.3
2018/03/13 14:19:53.000   78.256775317   16.230277950   394.5511   1   7   0.0016   0.0012   0.0159  -0.0008  -0.0033   0.0035   0.00   14.1
2018/03/13 14:19:54.000   78.256773252   16.230300313   395.1840   2   8   0.0402   0.0459   0.1203  -0.0145  -0.0321   0.0387   0.00    1.7
2018/03/13 14:19:55.000   78.256773301   16.230300237   395.1926   2   8   0.0401   0.0458   0.1199  -0.0145  -0.0320   0.0386   0.00    1.9
2018/03/13 14:19:56.000   78.256773358   16.230300195   395.2005   2   8   0.0400   0.0458   0.1195  -0.0144  -0.0319   0.0384   0.00    2.0
2018/03/13 14:19:57.000   78.256773400   16.230300020   395.2028   2   8   0.0399   0.0457   0.1192  -0.0144  -0.0318   0.0382   0.00    2.1
2018/03/13 14:19:58.000   78.256773448   16.230300015   395.2036   2   8   0.0398   0.0456   0.1188  -0.0143  -0.0317   0.0381   0.00    2.1
2018/03/13 14:19:59.000   78.256773498   16.230300025   395.1982   2   8   0.0397   0.0456   0.1184  -0.0143  -0.0316   0.0379   0.00    2.2
2018/03/13 14:20:00.000   78.256773570   16.230299883   395.2090   2   8   0.0397   0.0455   0.1180  -0.0142  -0.0315   0.0377   0.00    2.2
2018/03/13 14:20:01.000   78.256773617   16.230299728   395.2182   2   8   0.0396   0.0454   0.1176  -0.0142  -0.0314   0.0375   0.00    2.1
2018/03/13 14:20:02.000   78.256773670   16.230299568   395.2243   2   8   0.0395   0.0454   0.1172  -0.0141  -0.0312   0.0374   0.00    2.1
2018/03/13 14:20:03.000   78.256773702   16.230299578   395.2222   2   8   0.0394   0.0453   0.1168  -0.0141  -0.0311   0.0372   0.00    2.1
2018/03/13 14:20:04.000   78.256773739   16.230299579   395.2159   2   8   0.0393   0.0452   0.1164  -0.0140  -0.0310   0.0370   0.00    2.1
2018/03/13 14:20:05.000   78.256773768   16.230299571   395.2074   2   8   0.0392   0.0452   0.1160  -0.0140  -0.0309   0.0369   0.00    2.1
2018/03/13 14:20:06.000   78.256773801   16.230299471   395.2041   2   8   0.0392   0.0451   0.1157  -0.0139  -0.0308   0.0367   0.00    2.1
2018/03/13 14:20:07.000   78.256773836   16.230299402   395.2077   2   8   0.0391   0.0450   0.1153  -0.0139  -0.0307   0.0365   0.00    2.1
2018/03/13 14:20:08.000   78.256773867   16.230299425   395.2093   2   8   0.0390   0.0450   0.1149  -0.0138  -0.0306   0.0363   0.00    2.1
2018/03/13 14:20:09.000   78.256773897   16.230299421   395.2160   2   8   0.0389   0.0449   0.1145  -0.0138  -0.0305   0.0362   0.00    2.1
2018/03/13 14:20:10.000   78.256773937   16.230299316   395.2319   2   7   0.0388   0.0448   0.1141  -0.0137  -0.0304   0.0360   0.00    1.9
2018/03/13 14:20:11.000   78.256773991   16.230299276   395.2478   2   8   0.0387   0.0448   0.1137  -0.0137  -0.0303   0.0358   0.00    1.7
2018/03/13 14:20:12.000   78.256774048   16.230299314   395.2606   2   8   0.0387   0.0447   0.1133  -0.0136  -0.0302   0.0357   0.00    2.1
2018/03/13 14:20:13.000   78.256774067   16.230299240   395.2646   2   8   0.0386   0.0446   0.1129  -0.0136  -0.0301   0.0355   0.00    2.2
2018/03/13 14:20:14.000   78.256774094   16.230299205   395.2691   2   7   0.0385   0.0446   0.1126  -0.0135  -0.0300   0.0353   0.00    1.8
2018/03/13 14:20:15.000   78.256774112   16.230299156   395.2741   2   8   0.0384   0.0445   0.1122  -0.0135  -0.0299   0.0351   0.00    1.6
2018/03/13 14:20:16.000   78.256774119   16.230299123   395.2769   2   8   0.0383   0.0444   0.1118  -0.0134  -0.0298   0.0350   0.00    2.0
2018/03/13 14:20:17.000   78.256774153   16.230299076   395.2825   2   8   0.0382   0.0444   0.1114  -0.0134  -0.0297   0.0348   0.00    2.0
2018/03/13 14:20:18.000   78.256774205   16.230298991   395.2922   2   8   0.0382   0.0443   0.1110  -0.0133  -0.0296   0.0346   0.00    2.1
2018/03/13 14:20:19.000   78.256774247   16.230298879   395.3038   2   8   0.0381   0.0442   0.1106  -0.0133  -0.0295   0.0345   0.00    2.1
2018/03/13 14:20:20.000   78.256774288   16.230298990   395.3133   2   8   0.0380   0.0442   0.1102  -0.0132  -0.0293   0.0343   0.00    2.1
2018/03/13 14:20:21.000   78.256774322   16.230299064   395.3168   2   8   0.0379   0.0441   0.1098  -0.0132  -0.0292   0.0341   0.00    2.0
2018/03/13 14:20:22.000   78.256774370   16.230299236   395.3219   2   8   0.0378   0.0441   0.1095  -0.0131  -0.0291   0.0340   0.00    2.0
2018/03/13 14:20:23.000   78.256774413   16.230299217   395.3284   2   8   0.0377   0.0440   0.1091  -0.0131  -0.0290   0.0338   0.00    2.0
2018/03/13 14:20:24.000   78.256774458   16.230299190   395.3376   2   8   0.0377   0.0439   0.1087  -0.0131  -0.0289   0.0336   0.00    1.9
2018/03/13 14:20:25.000   78.256774497   16.230299178   395.3476   2   8   0.0376   0.0439   0.1083  -0.0130  -0.0288   0.0335   0.00    1.9
2018/03/13 14:20:26.000   78.256774507   16.230299285   395.3593   2   8   0.0375   0.0438   0.1079  -0.0130  -0.0287   0.0333   0.00    1.8
2018/03/13 14:20:27.000   78.256774527   16.230299293   395.3622   2   8   0.0374   0.0437   0.1075  -0.0129  -0.0286   0.0331   0.00    1.8
