     2.11           OBSERVATION DATA    M (MIXED)           RINEX VERSION / TYPE
teqc  2018Mar15                         20180319 14:17:32UTCPGM / RUN BY / DATE
Linux 2.6.32-573.12.1.x86_64|x86_64|gcc -static|Linux 64|=+ COMMENT
END OF STATIC MODE OBSERVATION                              COMMENT
BIT 2 OF LLI FLAGS DATA COLLECTED UNDER A/S CONDITION       COMMENT
-Unknown-                                                   MARKER NAME
4625                                                        MARKER NUMBER
-Unknown-           -Unknown-                               OBSERVER / AGENCY
5127468778          TRIMBLE             4.63                REC # / TYPE / VERS
47477114                            NONE                    ANT # / TYPE
  6378137.0000        0.0000        0.0000                  APPROX POSITION XYZ
        0.0000        0.0000        0.0000                  ANTENNA: DELTA H/E/N
     1     1                                                WAVELENGTH FACT L1/2
     7    L1    L2    C1    P1    P2    S1    S2            # / TYPES OF OBSERV
    18                                                      LEAP SECONDS
 SNR is mapped to RINEX snr flag value [0-9]                COMMENT
  L1 & L2: min(max(int(snr_dBHz/6), 0), 9)                  COMMENT
  2018     3    13    12    56   14.0000000     GPS         TIME OF FIRST OBS
                                                            END OF HEADER
 18  3 13 12 56 14.0000000  0 17G10G11R08R09R07R15R16R17R23R24G24G01
                                G19G28G32G17G15
 118395635.771 7  92256374.89345  22529944.039                    22529950.738
        47.200          34.000
 118618500.244 7  92430024.41244  22572353.813                    22572357.352
        44.500          29.300
                  89811684.864 6  21563614.695                    21563616.340
                        40.900
                  93491915.793 6  22510328.039                    22510329.016
                        41.500
                  84370481.066 6  20264293.313                    20264295.941
                        41.000
                  89420935.100 5  21515026.336                    21515029.430
                        35.500
                  80343997.513 6  19337870.508                    19337871.766
                        38.900
                  87109002.702 6  20929373.391                    20929374.207
                        40.000
                  96236590.212 6  23130534.648                    23130539.828
                        37.000
                  85435233.966 5  20541627.445                    20541627.211
                        32.900
 110255054.527 8  85912923.49746  20980809.406                    20980815.266
        48.400          38.300
 117821313.822 7  91808840.42545  22420651.375                    22420659.238
        42.800          32.000
 121723187.993 7  94849270.84144  23163158.914                    23163161.203
        42.500          27.700
 120800644.910 7  94130419.35544  22987606.211                    22987610.008
        43.900          28.200
 125010865.785 7  97411007.85044  23788759.430                    23788764.918
        43.800          29.200
 117694636.417 8  91710118.08546  22396544.836                    22396548.457
        48.500          36.400
 125225009.461 7  97577948.24644  23829526.164                    23829531.297
        43.200          25.000
 18  3 13 12 56 15.0000000  0 17G10G11R08R09R07R15R16R17R23R24G24G01
                                G19G28G32G17G15
 118397640.691 7  92257937.17445  22530326.227                    22530332.496
        47.500          33.700
 118619952.311 7  92431155.89144  22572630.219                    22572633.523
        45.200          29.600
                  89809594.930 6  21563112.891                    21563115.164
                        41.200
                  93488938.821 6  22509611.336                    22509611.957
                        41.700
                  84371527.837 6  20264544.531                    20264546.828
                        41.100
                  89424238.521 5  21515821.766                    21515825.035
                        35.600
                  80343682.134 6  19337794.609                    19337796.242
                        39.400
                  87107149.928 6  20928928.070                    20928929.465
                        40.200
                  96240245.496 6  23131413.766                    23131418.734
                        36.700
                  85436666.117 5  20541970.719                    20541971.180
                        32.900
 110254573.262 8  85912548.49246  20980718.063                    20980723.477
        48.700          38.600
 117820784.609 7  91808428.04745  22420550.922                    22420558.688
        42.100          30.400
 121720132.508 7  94846889.93944  23162578.516                    23162579.848
        43.200          27.300
 120803836.784 7  94132906.51644  22988214.422                    22988217.320
        44.200          28.100
 125008098.016 7  97408851.12544  23788231.867                    23788238.039
        44.100          29.500
 117693062.360 8  91708891.55446  22396245.680                    22396248.898
        49.100          36.200
 125229024.052 7  97581076.48244  23830290.016                    23830295.305
        43.500          24.700
 18  3 13 12 56 16.0000000  0 17G10G11R08R09R07R15R16R17R23R24G24G01
                                G19G28G32G17G15
 118399646.254 7  92259499.95145  22530707.984                    22530713.602
        47.600          34.300
 118621405.098 7  92432287.94844  22572907.180                    22572910.199
        44.700          29.200
                  89807505.549 6  21562611.930                    21562613.262
                        40.500
                  93485962.056 6  22508894.172                    22508895.016
                        41.800
                  84372575.382 6  20264796.344                    20264798.906
                        41.200
                  89427542.339 5  21516615.867                    21516618.980
                        35.800
                  80343367.424 6  19337719.352                    19337720.051
                        39.000
                  87105297.796 6  20928482.563                    20928484.133
                        40.200
                  96243901.115 6  23132291.336                    23132297.258
                        36.500
                  85438098.990 5  20542315.250                    20542315.895
                        33.400
 110254092.682 8  85912174.01746  20980626.570                    20980631.957
        49.000          38.700
 117820256.200 6  91808016.29245  22420450.391                    22420458.379
        41.800          31.900
 121717077.512 7  94844509.41844  23161997.906                    23161998.285
        43.900          26.700
 120807028.986 7  94135393.93844  22988821.969                    22988824.965
        44.100          27.200
 125005330.615 7  97406694.69444  23787705.680                    23787711.590
        43.600          29.500
 117691488.902 8  91707665.48146  22395945.953                    22395949.418
        49.000          36.300
 125233038.955 7  97584204.97744  23831053.789                    23831059.469
        42.300          24.800
 18  3 13 12 56 17.0000000  0 17G10G11R08R09R07R15R16R17R23R24G24G01
                                G19G28G32G17G15
 118401652.426 8  92261063.21645  22531089.234                    22531095.992
        48.100          34.000
 118622858.613 7  92433420.58244  22573183.273                    22573186.648
        45.000          29.600
                  89805416.598 6  21562109.805                    21562111.281
                        40.600
                  93482985.460 6  22508177.078                    22508178.871
                        41.300
                  84373623.583 6  20265047.430                    20265050.156
                        41.300
                  89430846.403 5  21517411.219                    21517414.457
                        35.300
                  80343053.341 6  19337643.172                    19337644.664
                        39.100
                  87103446.236 6  20928037.430                    20928039.383
                        40.500
                  96247556.856 6  23133169.148                    23133175.066
                        36.800
                  85439532.520 5  20542659.297                    20542660.238
                        33.400
 110253612.706 8  85911800.01146  20980535.289                    20980540.766
        48.900          38.800
 117819728.428 7  91807605.01645  22420350.250                    22420357.563
        42.000          32.100
 121714022.811 7  94842129.12144  23161414.438                    23161417.008
        42.300          27.900
 120810221.443 7  94137881.55744  22989429.594                    22989432.023
        44.500          27.400
 125002563.564 7  97404538.53244  23787179.094                    23787184.809
        42.500          28.700
 117689915.930 8  91706439.78846  22395646.156                    22395649.578
        49.100          36.200
 125237054.038 6  97587333.61543  23831817.461                    23831823.215
        41.700          22.300
 18  3 13 12 56 18.0000000  0 17G10G11R08R09R07R15R16R17R23R24G24G01
                                G19G28G32G17G15
 118403659.233 7  92262626.97045  22531470.867                    22531477.742
        47.200          33.400
 118624312.870 7  92434553.78644  22573459.648                    22573463.145
        44.800          29.700
                  89803328.168 6  21561608.688                    21561609.656
                        40.000
                  93480009.104 6  22507460.328                    22507461.945
                        41.000
                  84374672.499 6  20265299.375                    20265302.246
                        41.400
                  89434150.811 5  21518205.797                    21518209.348
                        35.000
                  80342739.928 6  19337567.648                    19337569.008
                        39.200
                  87101595.295 6  20927592.789                    20927594.863
                        40.200
                  96251212.952 6  23134049.063                    23134054.449
                        36.700
                  85440966.802 5  20543004.859                    20543005.457
                        33.400
 110253133.444 8  85911426.55646  20980443.766                    20980449.484
        48.800          38.500
 117819201.377 6  91807194.29845  22420250.180                    22420257.207
        41.600          31.500
 121710968.518 7  94839749.15044  23160833.617                    23160835.805
        42.100          27.600
 120813414.285 7  94140369.48744  22990037.375                    22990040.035
        45.300          28.200
 124999796.853 7  97402382.64844  23786651.914                    23786658.324
        42.700          28.700
 117688343.501 8  91705214.52046  22395347.531                    22395350.641
        49.500          36.900
 125241069.426 6  97590462.48043  23832581.805                    23832587.355
        41.500          22.600
 18  3 13 12 56 19.0000000  0 17G10G11R08R09R07R15R16R17R23R24G24G01
                                G19G28G32G17G15
 118405666.731 7  92264191.27145  22531852.008                    22531859.398
        46.600          33.500
 118625767.896 7  92435687.58244  22573736.492                    22573740.141
        44.500          29.800
                  89801240.261 6  21561107.273                    21561108.086
                        39.800
                  93477032.968 6  22506743.258                    22506745.391
                        41.200
                  84375722.228 6  20265551.672                    20265554.109
                        41.300
                  89437455.588 5  21519000.813                    21519004.547
                        35.600
                  80342427.208 6  19337491.586                    19337493.949
                        39.300
                  87099744.980 6  20927148.414                    20927149.680
                        40.400
                  96254869.354 6  23134928.445                    23134933.063
                        36.500
                  85442401.828 5  20543350.945                    20543350.988
                        33.400
 110252654.892 8  85911053.65946  20980352.281                    20980358.719
        48.700          38.600
 117818675.111 6  91806784.19145  22420150.070                    22420156.938
        40.900          31.300
 121707914.680 7  94837369.54644  23160253.336                    23160254.691
        42.600          27.200
 120816607.495 7  94142857.71644  22990644.523                    22990647.531
        45.500          28.500
 124997030.588 6  97400227.11244  23786125.570                    23786131.645
        41.200          27.700
 117686771.661 8  91703989.70746  22395048.797                    22395051.645
        49.800          36.700
 125245085.107 7  97593591.57843  23833346.086                    23833351.453
        42.200          22.600
 18  3 13 12 56 20.0000000  0 17G10G11R08R09R07R15R16R17R23R24G24G01
                                G19G28G32G17G15
 118407674.885 7  92265756.07745  22532234.219                    22532241.797
        46.500          33.400
 118627223.689 7  92436821.96745  22574013.922                    22574016.902
        44.600          30.400
                  89799152.873 6  21560605.195                    21560606.664
                        39.100
                  93474057.075 6  22506027.500                    22506028.723
                        40.700
                  84376772.679 6  20265804.805                    20265806.910
                        41.200
                  89440760.673 5  21519795.883                    21519799.465
                        35.300
                  80342115.144 6  19337417.281                    19337418.547
                        39.200
                  87097895.202 6  20926704.094                    20926705.844
                        40.300
                  96258525.978 5  23135807.875                    23135811.570
                        35.200
                  85443837.556 5  20543695.438                    20543695.332
                        33.600
 110252177.009 8  85910681.27746  20980261.219                    20980267.602
        48.500          38.400
 117818149.596 6  91806374.68445  22420050.234                    22420056.969
        41.700          31.600
 121704861.260 7  94834990.26244  23159671.469                    23159673.785
        42.200          28.600
 120819801.059 7  94145346.22444  22991252.008                    22991255.078
        45.200          28.600
 124994264.692 6  97398071.86644  23785598.711                    23785606.371
        41.700          28.900
 117685200.367 8  91702765.32746  22394749.430                    22394752.816
        49.700          36.300
 125249101.062 7  97596720.87643  23834110.305                    23834115.477
        42.800          22.300
 18  3 13 12 56 21.0000000  0 17G10G11R08R09R07R15R16R17R23R24G24G01
                                G19G28G32G17G15
 118409683.688 7  92267321.38645  22532616.750                    22532624.082
        46.500          34.400
 118628680.195 7  92437956.89745  22574290.531                    22574294.008
        44.600          30.000
                  89797066.019 6  21560103.078                    21560104.754
                        39.300
                  93471081.375 6  22505310.727                    22505311.906
                        40.900
                  84377823.859 6  20266056.961                    20266059.074
                        41.200
                  89444066.076 5  21520592.039                    21520594.957
                        35.400
                  80341803.778 6  19337342.547                    19337343.969
                        39.100
                  87096046.020 6  20926259.609                    20926261.242
                        40.200
                  96262182.944 5  23136686.891                    23136690.559
                        35.600
                  85445274.035 5  20544040.297                    20544041.004
                        32.900
 110251699.856 8  85910309.48446  20980170.672                    20980176.684
        48.700          38.700
 117817624.813 7  91805965.75045  22419950.664                    22419957.141
        42.200          30.700
 121701808.276 7  94832611.32944  23159091.313                    23159092.504
        42.900          27.500
 120822994.954 7  94147834.97444  22991860.039                    22991862.676
        45.100          28.900
 124991499.132 6  97395916.89644  23785072.258                    23785079.234
        39.900          27.000
 117683629.629 8  91701541.38546  22394450.594                    22394453.996
        49.900          36.700
 125253117.288 7  97599850.39443  23834874.180                    23834879.516
        42.600          22.600
 18  3 13 12 56 22.0000000  0 17G10G11R08R09R07R15R16R17R23R24G24G01
                                G19G28G32G17G15
 118411693.169 7  92268887.20945  22532999.617                    22533006.172
        46.900          34.000
 118630137.494 7  92439092.44645  22574567.906                    22574571.223
        44.300          30.000
                  89794979.676 6  21559602.547                    21559603.305
                        39.300
                  93468105.924 6  22504593.688                    22504595.289
                        40.100
                  84378875.748 6  20266310.281                    20266311.824
                        41.100
                  89447371.837 5  21521388.398                    21521391.332
                        35.300
                  80341493.078 6  19337267.656                    19337269.332
                        39.000
                  87094197.456 6  20925815.398                    20925817.168
                        40.400
                  96265840.207 5  23137565.391                    23137569.875
                        35.700
                  85446711.230 5  20544386.484                    20544386.367
                        33.300
 110251223.374 8  85909938.20546  20980080.672                    20980086.035
        48.700          38.900
 117817100.843 7  91805557.46045  22419850.859                    22419857.273
        42.400          30.200
 121698755.731 7  94830232.73344  23158511.188                    23158511.996
        44.100          27.700
 120826189.229 7  94150324.02944  22992467.063                    22992470.891
        44.500          27.600
 124988733.996 6  97393762.26944  23784545.852                    23784552.973
        39.900          26.400
 117682059.482 8  91700317.90146  22394151.906                    22394155.086
        49.900          36.900
 125257133.798 7  97602980.15043  23835639.313                    23835643.953
        42.400          23.200
 18  3 13 12 56 23.0000000  0 17G10G11R08R09R07R15R16R17R23R24G24G01
                                G19G28G32G17G15
 118413703.265 7  92270453.51345  22533382.641                    22533388.996
        47.200          34.800
 118631595.520 7  92440228.57744  22574845.313                    22574848.527
        44.600          29.900
                  89792893.890 6  21559101.891                    21559102.262
                        40.100
                  93465130.674 6  22503878.141                    22503878.598
                        39.900
                  84379928.360 6  20266562.023                    20266565.285
                        41.300
                  89450677.913 5  21522182.719                    21522186.352
                        35.600
                  80341183.025 6  19337192.969                    19337194.844
                        38.900
                  87092349.450 6  20925371.750                    20925373.359
                        40.500
                  96269497.734 5  23138444.500                    23138449.203
                        35.200
                  85448149.141 5  20544731.961                    20544731.801
                        33.400
 110250747.548 8  85909567.43946  20979990.008                    20979995.117
        48.900          38.600
 117816577.555 7  91805149.68745  22419751.602                    22419757.828
        43.300          31.000
 121695703.596 7  94827854.43744  23157930.375                    23157931.543
        43.700          28.400
 120829383.854 7  94152813.33944  22993075.211                    22993078.668
        44.100          28.700
 124985969.195 6  97391607.89844  23784020.578                    23784026.648
        40.200          26.900
 117680489.848 8  91699094.80845  22393852.836                    22393856.551
        49.800          35.900
 125261150.549 7  97606110.09343  23836403.828                    23836408.395
        43.000          22.500
 18  3 13 12 56 24.0000000  0 17G10G11R08R09R07R15R16R17R23R24G24G01
                                G19G28G32G17G15
 118415713.934 7  92272020.27045  22533764.945                    22533771.793
        47.200          34.400
 118633054.225 7  92441365.24844  22575123.391                    22575126.313
        44.100          29.600
                  89790808.570 6  21558601.781                    21558601.285
                        40.100
                  93462155.590 6  22503162.688                    22503162.047
                        39.900
                  84380981.679 6  20266815.086                    20266817.242
                        41.100
                  89453984.294 5  21522977.305                    21522981.859
                        35.300
                  80340873.591 6  19337118.195                    19337119.680
                        39.100
                  87090501.959 6  20924927.070                    20924929.352
                        40.300
                  96273155.463 5  23139324.359                    23139327.922
                        35.700
                  85449587.722 5  20545077.789                    20545078.363
                        32.800
 110250272.348 8  85909197.15146  20979899.758                    20979905.023
        49.100          38.500
 117816054.952 7  91804742.44844  22419652.266                    22419657.707
        43.900          29.800
 121692651.764 7  94825476.36344  23157348.008                    23157350.723
        42.400          27.300
 120832578.761 7  94155302.87144  22993682.766                    22993686.574
        43.900          27.500
 124983204.715 6  97389453.78444  23783494.719                    23783500.699
        41.100          27.800
 117678920.722 8  91697872.11946  22393554.063                    22393557.680
        49.700          36.500
 125265167.513 7  97609240.20743  23837168.773                    23837172.824
        43.600          21.800
 18  3 13 12 56 25.0000000  0 17G10G11R08R09R07R15R16R17R23R24G24G01
                                G19G28G32G17G15
 118417725.286 7  92273587.55345  22534147.109                    22534154.059
        46.700          34.500
 118634513.705 7  92442502.51744  22575401.188                    22575404.031
        44.500          29.700
                  89788723.813 6  21558101.688                    21558101.719
                        39.800
                  93459180.742 6  22502446.156                    22502445.855
                        40.000
                  84382035.773 6  20267067.930                    20267070.629
                        41.300
                  89457291.068 5  21523772.250                    21523777.848
                        35.600
                  80340564.861 6  19337044.586                    19337045.719
                        38.700
                  87088655.116 6  20924483.547                    20924485.719
                        40.200
                  96276813.501 5  23140202.219                    23140207.238
                        35.300
                  85451027.084 5  20545423.992                    20545424.477
                        32.800
 110249797.869 8  85908827.43046  20979809.438                    20979814.781
        48.900          38.700
 117815533.041 7  91804335.73244  22419553.336                    22419558.945
        44.100          29.900
 121689600.384 7  94823098.67844  23156768.008                    23156769.594
        44.100          28.600
 120835774.021 7  94157792.68344  22994290.938                    22994294.453
        43.500          27.700
 124980440.696 7  97387300.01444  23782968.969                    23782974.871
        42.700          27.400
 117677352.199 8  91696649.89546  22393255.813                    22393259.188
        49.700          36.800
 125269184.778 7  97612370.54443  23837932.883                    23837936.645
        43.400          22.200
 18  3 13 12 56 26.0000000  0 17G10G11R08R09R07R15R16R17R23R24G24G01
                                G19G28G32G17G15
 118419737.236 7  92275155.30045  22534529.961                    22534537.070
        46.400          34.300
 118635973.873 7  92443640.32544  22575678.492                    22575681.941
        44.700          29.700
                  89786639.491 6  21557600.977                    21557601.387
                        40.200
                  93456206.078 6  22501729.836                    22501728.883
                        39.700
                  84383090.568 6  20267322.156                    20267324.277
                        41.400
                  89460598.114 5  21524569.016                    21524573.145
                        35.900
                  80340256.771 6  19336970.047                    19336971.090
                        38.400
                  87086808.780 6  20924039.852                    20924041.566
                        40.200
                  96280471.805 5  23141082.813                    23141086.828
                        35.600
                  85452467.155 5  20545770.516                    20545770.512
                        32.400
 110249323.988 8  85908458.16946  20979718.898                    20979724.500
        48.600          38.800
 117815011.911 7  91803929.61845  22419453.867                    22419459.426
        44.800          30.900
 121686549.443 7  94820721.33044  23156188.578                    23156189.266
        43.700          28.500
 120838969.604 7  94160282.73944  22994899.242                    22994902.527
        43.600          27.800
 124977676.946 7  97385146.44444  23782443.375                    23782448.664
        43.300          28.500
 117675784.153 8  91695428.04846  22392957.414                    22392960.766
        49.500          36.100
 125273202.252 7  97615501.04643  23838697.805                    23838701.180
        43.800          23.900
 18  3 13 12 56 27.0000000  0 17G10G11R08R09R07R15R16R17R23R24G24G01
                                G19G28G32G17G15
 118421749.878 7  92276723.57645  22534913.461                    22534919.977
        47.000          34.700
 118637434.864 7  92444778.77545  22575956.414                    22575960.004
        44.300          30.000
                  89784555.710 6  21557100.766                    21557101.605
                        40.900
                  93453231.654 6  22501014.672                    22501012.910
                        39.600
                  84384146.115 6  20267575.781                    20267577.793
                        41.500
                  89463905.528 6  21525365.352                    21525368.453
                        36.000
                  80339949.385 6  19336896.016                    19336897.395
                        38.900
                  87084963.092 6  20923596.531                    20923598.059
                        40.400
                  96284130.417 5  23141961.305                    23141966.219
                        35.600
                  85453907.993 5  20546116.609                    20546116.918
                        32.800
 110248850.813 8  85908089.46046  20979628.477                    20979634.672
        48.000          38.700
 117814491.549 7  91803524.09545  22419354.719                    22419359.992
        45.000          30.700
 121683498.878 6  94818344.25544  23155605.547                    23155608.813
        41.400          27.700
 120842165.567 7  94162773.10444  22995507.617                    22995510.906
        43.800          26.900
 124974913.681 7  97382993.23244  23781917.703                    23781923.031
        43.900          29.300
 117674216.717 8  91694206.67746  22392659.070                    22392662.672
        49.300          36.800
 125277220.039 7  97618631.79743  23839462.367                    23839465.820
        44.500          23.500
 18  3 13 12 56 28.0000000  0 17G10G11R08R09R07R15R16R17R23R24G24G01
                                G19G28G32G17G15
 118423763.098 7  92278292.31145  22535296.555                    22535302.926
        47.000          34.500
 118638896.500 7  92445917.72044  22576234.477                    22576238.176
        43.700          29.000
                  89782472.392 6  21556601.703                    21556602.137
                        40.400
                  93450257.426 6  22500298.008                    22500297.281
                        39.400
                  84385202.333 6  20267829.047                    20267831.727
                        41.300
                  89467213.244 5  21526160.484                    21526164.320
                        35.300
                  80339642.646 6  19336822.266                    19336823.695
                        38.900
                  87083117.978 6  20923154.195                    20923155.211
                        40.400
                  96287789.240 5  23142841.297                    23142845.227
                        34.700
                  85455349.525 5  20546462.305                    20546463.637
                        32.100
 110248378.303 8  85907721.26546  20979538.719                    20979544.652
        48.000          38.300
 117813971.870 7  91803119.11045  22419255.453                    22419261.359
        44.600          30.800
 121680448.687 7  94815967.50044  23155026.234                    23155027.996
        43.000          28.500
 120845361.850 7  94165263.70444  22996115.602                    22996119.414
        43.500          27.400
 124972150.676 7  97380840.22644  23781391.961                    23781397.180
        43.900          29.100
 117672649.781 8  91692985.69446  22392360.906                    22392364.344
        49.100          36.500
 125281238.054 7  97621762.73844  23840227.109                    23840230.473
        44.600          24.200
 18  3 13 12 56 29.0000000  0 17G10G11R08R09R07R15R16R17R23R24G24G01
                                G19G28G32G17G15
 118425776.951 7  92279861.53745  22535680.391                    22535686.102
        47.000          34.000
 118640358.855 7  92447057.20744  22576512.531                    22576516.145
        43.200          29.900
                  89780389.581 6  21556101.117                    21556101.965
                        40.200
                  93447283.395 6  22499582.281                    22499580.938
                        39.600
                  84386259.266 6  20268082.688                    20268085.266
                        41.500
                  89470521.277 5  21526957.469                    21526960.262
                        35.100
                  80339336.525 6  19336748.609                    19336750.066
                        38.700
                  87081273.415 6  20922710.563                    20922711.328
                        40.400
                  96291448.343 5  23143720.172                    23143724.770
                        34.600
                  85456791.742 5  20546809.375                    20546810.500
                        32.400
 110247906.440 8  85907353.58546  20979449.109                    20979454.738
        48.000          38.700
 117813452.909 7  91802714.68845  22419156.742                    22419162.715
        44.900          31.000
 121677398.952 7  94813591.10044  23154447.875                    23154448.121
        44.100          28.200
 120848558.438 7  94167754.55244  22996724.008                    22996727.539
        43.400          26.900
 124969388.062 7  97378687.51744  23780866.406                    23780871.605
        43.800          29.300
 117671083.365 8  91691765.11446  22392063.016                    22392066.461
        48.600          36.700
 125285256.291 7  97624893.83943  23840991.641                    23840995.078
        44.900          23.500
 18  3 13 12 56 30.0000000  0 17G10G11R08R09R07R15R16R17R23R24G24G01
                                G19G28G32G17G15
 118427791.445 7  92281431.27045  22536063.500                    22536069.691
        46.400          33.900
 118641821.992 7  92448197.29744  22576791.031                    22576794.820
        42.700          29.100
                  89778307.318 6  21555601.156                    21555602.516
                        40.500
                  93444309.570 6  22498865.414                    22498865.090
                        39.900
                  84387316.943 6  20268337.133                    20268338.879
                        41.300
                  89473829.611 5  21527752.938                    21527756.285
                        34.700
                  80339031.070 6  19336675.195                    19336676.797
                        39.100
                  87079429.463 6  20922267.945                    20922269.203
                        40.400
                  96295107.727 5  23144599.945                    23144604.668
                        34.400
                  85458234.682 5  20547157.039                    20547157.324
                        32.400
 110247435.271 8  85906986.44046  20979359.609                    20979364.867
        48.100          38.600
 117812934.670 7  91802310.84245  22419058.195                    22419064.105
        45.000          31.100
 121674349.562 6  94811214.93744  23153864.516                    23153867.957
        41.300          28.200
 120851755.369 7  94170245.65544  22997332.781                    22997336.109
        43.400          26.500
 124966625.810 7  97376535.08744  23780340.313                    23780345.844
        43.100          29.100
 117669517.498 8  91690544.96246  22391765.398                    22391768.590
        48.100          36.700
 125289274.808 7  97628025.15244  23841756.070                    23841759.449
        44.300          25.900
 18  3 13 12 56 31.0000000  0 17G10G11R08R09R07R15R16R17R23R24G24G01
                                G19G28G32G17G15
 118429806.629 7  92283001.55045  22536446.945                    22536452.934
        46.200          33.800
 118643285.883 7  92449337.97544  22577070.422                    22577072.957
        43.200          28.900
                  89776225.581 6  21555101.102                    21555102.934
                        40.100
                  93441335.969 6  22498150.141                    22498148.938
                        40.400
                  84388375.367 6  20268591.320                    20268593.832
                        41.300
                  89477138.308 5  21528549.219                    21528552.141
                        35.300
                  80338726.277 6  19336600.875                    19336603.355
                        38.700
                  87077586.099 6  20921824.336                    20921826.379
                        40.400
                  96298767.370 5  23145479.703                    23145483.914
                        34.300
                  85459678.336 5  20547503.586                    20547503.703
                        32.900
 110246964.757 8  85906619.80346  20979270.227                    20979275.578
        48.500          38.600
 117812417.177 7  91801907.58645  22418959.539                    22418965.672
        45.000          30.700
 121671300.600 7  94808839.14344  23153286.023                    23153287.359
        43.400          27.500
 120854952.646 7  94172737.03344  22997940.898                    22997944.328
        43.600          27.300
 124963863.918 7  97374382.94744  23779815.047                    23779820.449
        43.100          29.100
 117667952.174 8  91689325.22646  22391467.305                    22391470.410
        48.500          36.300
 125293293.594 7  97631156.67544  23842521.281                    23842524.477
        44.800          25.500
 18  3 13 12 56 32.0000000  0 17G10G11R08R09R07R15R16R17R23R24G24G01
                                G19G28G32G17G15
 118431822.365 7  92284572.25045  22536830.672                    22536836.617
        46.600          34.600
 118644750.433 7  92450479.17644  22577349.664                    22577351.699
        43.800          28.500
                  89774144.313 6  21554601.055                    21554603.266
                        40.700
                  93438362.560 6  22497433.945                    22497433.508
                        41.400
                  84389434.498 6  20268845.617                    20268848.254
                        41.600
                  89480447.280 5  21529345.617                    21529348.195
                        35.700
                  80338422.102 6  19336528.477                    19336529.848
                        38.500
                  87075743.265 6  20921382.039                    20921383.422
                        40.500
                  96302427.236 5  23146359.727                    23146363.801
                        34.600
                  85461122.676 5  20547850.008                    20547851.289
                        33.000
 110246494.861 8  85906253.64946  20979180.656                    20979185.984
        48.500          38.700
 117811900.458 7  91801504.93145  22418861.453                    22418867.719
        45.300          30.200
 121668252.052 7  94806463.66644  23152706.703                    23152707.031
        43.900          27.400
 120858150.212 7  94175228.62144  22998549.430                    22998552.836
        43.800          28.700
 124961102.354 7  97372231.06344  23779289.430                    23779294.875
        42.200          28.100
 117666387.354 8  91688105.88346  22391169.461                    22391172.914
        48.600          36.600
 125297312.576 7  97634288.34644  23843286.125                    23843289.141
        44.600          26.200
 18  3 13 12 56 33.0000000  0 17G10G11R08R09R07R15R16R17R23R24G24G01
                                G19G28G32G17G15
 118433838.739 7  92286143.44745  22537214.398                    22537220.219
        46.600          34.800
 118646215.657 7  92451620.92744  22577629.039                    22577630.074
        44.900          29.500
                  89772063.528 6  21554100.344                    21554102.500
                        40.000
                  93435389.328 6  22496717.336                    22496717.367
                        41.900
                  84390494.299 6  20269099.805                    20269102.813
                        41.400
                  89483756.553 5  21530141.414                    21530144.727
                        35.600
                  80338118.563 6  19336455.500                    19336457.141
                        38.500
                  87073900.996 6  20920939.469                    20920940.699
                        40.600
                  96306087.320 5  23147237.836                    23147243.348
                        35.000
                  85462567.642 5  20548198.406                    20548198.734
                        32.800
 110246025.644 8  85905888.01846  20979091.164                    20979096.910
        48.400          38.700
 117811384.402 7  91801102.81245  22418762.703                    22418769.813
        45.300          31.200
 121665203.866 6  94804088.42744  23152124.563                    23152127.859
        41.600          28.100
 120861348.065 7  94177720.45044  22999158.516                    22999161.387
        43.900          27.200
 124958341.108 6  97370079.43444  23778763.461                    23778769.520
        41.500          27.300
 117664823.032 8  91686886.91946  22390871.758                    22390875.145
        48.800          36.500
 125301331.779 7  97637420.19944  23844051.273                    23844054.125
        44.900          26.300
 18  3 13 12 56 34.0000000  0 17G10G11R08R09R07R15R16R17R23R24G24G01
                                G19G28G32G17G15
 118435855.796 7  92287715.19045  22537598.219                    22537604.348
        47.300          34.600
 118647681.726 7  92452763.35344  22577907.492                    22577909.422
        44.300          29.300
                  89769983.303 6  21553602.438                    21553602.828
                        39.400
                  93432416.338 6  22496001.180                    22496002.746
                        41.900
                  84391554.875 6  20269354.344                    20269357.215
                        41.300
                  89487066.195 5  21530937.250                    21530941.359
                        35.600
                  80337815.766 6  19336382.586                    19336384.004
                        38.700
                  87072059.391 6  20920496.211                    20920498.340
                        40.400
                  96309747.762 5  23148118.664                    23148122.969
                        34.800
                  85464013.382 5  20548546.750                    20548546.844
                        32.800
 110245557.163 8  85905522.96746  20979002.039                    20979007.746
        48.400          38.800
 117810869.073 7  91800701.26745  22418664.430                    22418671.238
        44.700          31.400
 121662156.070 7  94801713.52744  23151544.305                    23151547.129
        42.800          28.000
 120864546.335 7  94180212.60644  22999766.586                    22999770.254
        44.400          28.400
 124955580.309 6  97367928.15544  23778237.656                    23778244.355
        40.600          26.600
 117663259.328 8  91685668.44746  22390573.820                    22390577.895
        48.800          36.300
 125305351.328 7  97640552.31144  23844815.289                    23844819.000
        44.700          26.600
 18  3 13 12 56 35.0000000  0 17G10G11R08R09R07R15R16R17R23R24G24G01
                                G19G28G32G17G15
 118437873.424 7  92289287.37945  22537981.570                    22537988.285
        47.000          34.600
 118649148.483 7  92453906.31744  22578185.453                    22578188.574
        43.600          29.600
                  89767903.561 6  21553102.680                    21553102.816
                        39.300
                  93429443.551 7  22495285.453                    22495286.738
                        42.200
                  84392616.093 6  20269609.445                    20269611.684
                        41.800
                  89490376.153 5  21531733.195                    21531737.504
                        35.800
                  80337513.573 6  19336309.625                    19336311.121
                        39.000
                  87070218.352 6  20920054.328                    20920056.219
                        40.500
                  96313408.419 5  23148998.453                    23149002.980
                        34.300
                  85465459.764 5  20548893.711                    20548894.543
                        32.800
 110245089.316 8  85905158.40846  20978913.008                    20978918.699
        48.400          38.600
 117810354.455 7  91800300.25445  22418566.820                    22418573.023
        45.100          31.800
 121659108.749 7  94799339.01244  23150967.344                    23150967.762
        44.600          26.500
 120867744.892 7  94182704.98944  23000376.063                    23000378.730
        44.300          27.500
 124952819.770 6  97365777.10044  23777712.227                    23777718.965
        39.800          25.600
 117661696.128 8  91684450.36546  22390276.398                    22390280.223
        49.000          36.200
 125309371.063 7  97643684.56344  23845580.563                    23845583.543
        44.300          26.600
 18  3 13 12 56 36.0000000  0 17G10G11R08R09R07R15R16R17R23R24G24G01
                                G19G28G32G17G15
 118439891.728 7  92290860.08845  22538365.617                    22538372.602
        46.600          34.300
 118650615.963 7  92455049.83144  22578464.664                    22578468.184
        43.400          29.900
                  89765824.355 6  21552603.188                    21552603.785
                        38.900
                  93426470.986 7  22494570.133                    22494571.496
                        42.000
                  84393678.077 6  20269865.336                    20269867.188
                        41.300
                  89493686.408 5  21532529.680                    21532534.320
                        35.600
                  80337212.052 6  19336236.930                    19336238.414
                        38.800
                  87068377.872 6  20919612.633                    20919613.637
                        40.500
                  96317069.374 5  23149878.953                    23149882.688
                        34.100
                  85466906.898 5  20549241.688                    20549242.574
                        32.700
 110244622.125 8  85904794.35546  20978824.180                    20978830.063
        48.600          38.700
 117809840.544 7  91799899.78345  22418468.750                    22418474.727
        44.500          30.400
 121656061.806 7  94796964.76044  23150385.422                    23150387.973
        42.200          27.700
 120870943.806 7  94185197.65144  23000984.086                    23000987.602
        44.300          28.000
 124950059.663 6  97363626.39244  23777187.375                    23777193.617
        40.500          26.700
 117660133.459 8  91683232.69646  22389979.172                    22389983.047
        49.000          36.300
 125313391.097 7  97646817.05344  23846345.648                    23846348.582
        44.100          28.100
 18  3 13 12 56 37.0000000  0 17G10G11R08R09R07R15R16R17R23R24G24G01
                                G19G28G32G17G15
 118441910.675 7  92292433.29745  22538749.945                    22538756.719
        46.400          34.000
 118652084.170 7  92456193.88744  22578743.836                    22578747.461
        42.900          29.900
                  89763745.656 6  21552104.625                    21552103.613
                        39.100
                  93423498.606 7  22493853.898                    22493856.250
                        42.000
                  84394740.784 6  20270120.195                    20270122.035
                        41.300
                  89496996.990 5  21533326.883                    21533330.805
                        35.400
                  80336911.172 6  19336165.461                    19336165.684
                        38.700
                  87066538.002 6  20919170.461                    20919172.141
                        40.600
                  96320730.586 5  23150758.617                    23150763.316
                        33.500
                  85468354.807 5  20549589.242                    20549590.109
                        32.500
 110244155.634 8  85904430.85446  20978735.500                    20978741.125
        48.800          38.600
 117809327.424 7  91799499.92245  22418371.383                    22418377.762
        44.100          31.200
 121653015.200 7  94794590.78844  23149804.594                    23149808.199
        42.000          27.900
 120874143.031 7  94187690.54744  23001593.039                    23001596.418
        44.600          27.900
 124947299.910 6  97361475.95144  23776661.836                    23776668.402
        40.600          26.800
 117658571.335 8  91682015.45446  22389681.797                    22389685.512
        49.300          36.100
 125317411.372 7  97649949.73444  23847110.648                    23847113.965
        44.400          25.600
 18  3 13 12 56 38.0000000  0 17G10G11R08R09R07R15R16R17R23R24G24G01
                                G19G28G32G17G15
 118443930.274 7  92294007.01045  22539134.078                    22539140.980
        46.700          34.300
 118653553.162 7  92457338.54345  22579023.477                    22579026.555
        43.600          30.200
                  89761667.442 6  21551605.781                    21551605.086
                        39.200
                  93420526.466 7  22493138.188                    22493140.477
                        42.300
                  84395804.229 6  20270375.047                    20270378.109
                        41.400
                  89500307.880 5  21534123.813                    21534127.172
                        35.300
                  80336610.966 6  19336092.695                    19336094.328
                        38.700
                  87064698.744 6  20918728.047                    20918729.367
                        41.000
                  96324392.081 5  23151637.266                    23151643.195
                        33.200
                  85469803.416 5  20549936.797                    20549938.074
                        32.200
 110243689.829 8  85904067.89046  20978646.773                    20978652.234
        48.400          38.800
 117808814.966 7  91799100.59145  22418273.367                    22418280.359
        43.400          31.500
 121649969.107 7  94792217.23744  23149227.781                    23149227.922
        45.100          28.700
 120877342.646 7  94190183.73544  23002201.586                    23002205.074
        44.600          28.800
 124944540.556 7  97359325.82344  23776138.016                    23776143.563
        42.200          26.800
 117657009.799 8  91680798.67045  22389384.758                    22389388.199
        48.900          35.900
 125321431.897 7  97653082.60444  23847875.219                    23847879.129
        43.700          27.200
 18  3 13 12 56 39.0000000  0 17G10G11R08R09R07R15R16R17R23R24G24G01
                                G19G28G32G17G15
 118445950.486 7  92295581.20245  22539518.563                    22539525.301
        46.600          34.200
 118655022.813 7  92458483.69845  22579303.781                    22579306.535
        43.300          30.100
                  89759589.698 6  21551107.023                    21551106.148
                        39.400
                  93417554.519 7  22492423.148                    22492424.961
                        42.400
                  84396868.418 6  20270630.789                    20270633.715
                        41.200
                  89503619.080 5  21534920.477                    21534923.789
                        35.300
                  80336311.376 6  19336020.008                    19336021.504
                        38.600
                  87062859.985 6  20918286.234                    20918288.121
                        40.900
                  96328053.818 5  23152518.320                    23152522.773
                        32.300
                  85471252.748 5  20550286.875                    20550287.520
                        32.500
 110243224.657 8  85903705.42546  20978558.531                    20978563.914
        48.700          38.600
 117808303.265 7  91798701.87345  22418176.133                    22418182.848
        43.600          31.000
 121646923.353 7  94789843.91344  23148646.508                    23148648.832
        42.400          27.000
 120880542.526 7  94192677.13344  23002810.945                    23002814.207
        44.600          28.100
 124941781.533 7  97357175.93244  23775612.453                    23775618.395
        42.500          27.900
 117655448.736 8  91679582.24446  22389087.891                    22389091.516
        49.500          36.300
 125325452.690 7  97656215.68844  23848640.570                    23848644.535
        43.600          27.800
 18  3 13 12 56 40.0000000  0 17G10G11R08R09R07R15R16R17R23R24G24G01
                                G19G28G32G17G15
 118447971.315 7  92297155.88445  22539903.305                    22539910.043
        46.800          33.700
 118656493.203 7  92459629.43945  22579583.711                    22579586.496
        43.600          30.400
                  89757512.489 6  21550608.852                    21550607.824
                        39.900
                  93414582.778 7  22491707.664                    22491709.813
                        42.100
                  84397933.302 6  20270886.305                    20270889.355
                        41.400
                  89506930.602 5  21535716.047                    21535720.234
                        35.600
                  80336012.468 6  19335948.063                    19335949.941
                        38.700
                  87061021.808 6  20917844.953                    20917846.832
                        40.700
                  96331715.805 5  23153398.773                    23153402.840
                        32.800
                  85472702.817 5  20550634.414                    20550635.871
                        31.600
 110242760.141 8  85903343.45946  20978470.344                    20978475.473
        48.700          38.700
 117807792.300 7  91798303.73245  22418078.914                    22418085.520
        44.000          31.100
 121643877.957 7  94787470.88444  23148066.117                    23148068.996
        42.500          26.700
 120883742.774 7  94195170.83544  23003419.984                    23003423.082
        45.100          27.900
 124939022.924 7  97355026.36244  23775087.914                    23775093.875
        43.400          27.900
 117653888.258 8  91678366.28346  22388790.734                    22388794.461
        49.800          36.000
 125329473.707 7  97659348.94244  23849405.305                    23849409.961
        42.900          26.100
 18  3 13 12 56 41.0000000  0 17G10G11R08R09R07R15R16R17R23R24G24G01
                                G19G28G32G17G15
 118449992.793 7  92298731.07145  22540287.813                    22540294.609
        47.000          34.300
 118657964.334 7  92460775.77745  22579863.266                    22579866.504
        42.600          30.600
                  89755435.831 6  21550109.953                    21550110.137
                        40.100
                  93411611.275 7  22490991.711                    22490993.504
                        42.000
                  84398998.906 6  20271142.305                    20271144.898
                        41.400
                  89510242.479 5  21536513.484                    21536517.766
                        35.300
                  80335714.203 6  19335876.703                    19335877.836
                        38.900
                  87059184.233 6  20917403.156                    20917404.594
                        40.900
                  96335378.083 5  23154278.680                    23154283.230
                        33.300
                  85474153.558 5  20550984.625                    20550984.879
                        32.800
 110242296.311 8  85902982.02946  20978381.617                    20978387.590
        48.100          38.400
 117807282.025 7  91797906.12745  22417982.438                    22417988.363
        44.100          31.100
 121640833.079 7  94785098.26544  23147489.289                    23147489.367
        45.200          27.000
 120886943.354 7  94197664.78644  23004029.508                    23004031.992
        45.500          27.300
 124936264.661 7  97352877.05145  23774563.797                    23774568.746
        44.700          30.200
 117652328.334 8  91677150.75346  22388494.250                    22388497.184
        49.100          36.200
 125333495.007 7  97662482.42044  23850170.328                    23850175.219
        42.600          25.700
 18  3 13 12 56 42.0000000  0 17G10G11R08R09R07R15R16R17R23R24G24G01
                                G19G28G32G17G15
 118452014.842 7  92300306.69645  22540672.289                    22540679.242
        46.500          33.900
 118659436.172 7  92461922.66644  22580143.375                    22580146.578
        42.000          29.800
                  89753359.601 6  21549611.273                    21549612.215
                        40.300
                  93408639.904 7  22490276.305                    22490278.129
                        42.100
                  84400065.168 6  20271398.797                    20271400.973
                        41.400
                  89513554.590 5  21537311.617                    21537314.617
                        35.300
                  80335416.569 6  19335806.086                    19335806.074
                        38.900
                  87057347.195 6  20916961.602                    20916963.270
                        40.500
                  96339040.558 5  23155159.125                    23155163.594
                        31.800
                  85475604.969 5  20551332.430                    20551333.203
                        32.400
 110241833.068 8  85902621.06246  20978293.063                    20978298.883
        48.000          38.700
 117806772.479 7  91797509.07945  22417885.703                    22417891.871
        44.700          30.900
 121637788.524 7  94782725.87144  23146909.477                    23146910.527
        43.200          27.400
 120890144.190 7  94200158.94344  23004638.852                    23004641.457
        45.700          27.800
 124933506.723 7  97350727.98545  23774039.211                    23774043.742
        44.900          30.200
 117650768.892 8  91675935.59746  22388197.570                    22388200.770
        49.300          36.200
 125337516.471 7  97665616.02144  23850935.773                    23850940.746
        42.600          25.600
 18  3 13 12 56 43.0000000  0 17G10G11R08R09R07R15R16R17R23R24G24G01
                                G19G28G32G17G15
 118454037.519 7  92301882.80445  22541057.383                    22541063.988
        46.400          33.700
 118660908.721 6  92463070.09745  22580423.844                    22580426.828
        41.600          30.500
                  89751283.853 6  21549112.703                    21549114.090
                        40.000
                  93405668.765 6  22489561.602                    22489563.176
                        41.900
                  84401132.145 6  20271655.328                    20271657.848
                        41.400
                  89516867.065 5  21538107.539                    21538111.441
                        35.700
                  80335119.605 6  19335733.289                    19335734.551
                        38.900
