% program   : RTKPOST ver.2.4.2
% inp file  : Z:\home\linda\Documents\Spring18\GitHub_Unis\data\processed_data\4625074I.obs
% inp file  : Z:\home\linda\Documents\Spring18\GitHub_Unis\data\processed_data\4625074I.nav
% obs start : 2018/03/15 14:07:50.0 GPST (week1992 396470.0s)
% obs end   : 2018/03/15 14:22:55.0 GPST (week1992 397375.0s)
% pos mode  : single
% elev mask : 15.0 deg
% ionos opt : broadcast
% tropo opt : saastamoinen
% ephemeris : broadcast
% navi sys  : gps glonass galileo qzss sbas
%
% (lat/lon/height=WGS84/ellipsoidal,Q=1:fix,2:float,3:sbas,4:dgps,5:single,6:ppp,ns=# of satellites)
%  GPST                  latitude(deg) longitude(deg)  height(m)   Q  ns   sdn(m)   sde(m)   sdu(m)  sdne(m)  sdeu(m)  sdun(m) age(s)  ratio
2018/03/15 14:07:50.000   78.251297185   16.154749524   559.8205   5   8   3.3746   2.1355  16.2324  -1.3630  -3.4543   6.8876   0.00    0.0
2018/03/15 14:07:51.000   78.251300541   16.154767844   559.8279   5   8   3.3740   2.1353  16.2287  -1.3622  -3.4525   6.8859   0.00    0.0
2018/03/15 14:07:52.000   78.251295133   16.154788797   556.7491   5   8   3.3733   2.1351  16.2251  -1.3613  -3.4506   6.8843   0.00    0.0
2018/03/15 14:07:53.000   78.251293913   16.154741384   558.7877   5   8   3.3727   2.1348  16.2214  -1.3604  -3.4488   6.8826   0.00    0.0
2018/03/15 14:07:54.000   78.251305430   16.154771761   560.7019   5   8   3.3720   2.1346  16.2177  -1.3595  -3.4470   6.8809   0.00    0.0
2018/03/15 14:07:55.000   78.251304830   16.154728002   560.4801   5   8   3.3714   2.1344  16.2141  -1.3586  -3.4451   6.8792   0.00    0.0
2018/03/15 14:07:56.000   78.251300516   16.154732232   562.6362   5   8   3.3707   2.1342  16.2104  -1.3578  -3.4433   6.8775   0.00    0.0
2018/03/15 14:07:57.000   78.251312457   16.154747582   564.8443   5   8   3.3701   2.1339  16.2066  -1.3569  -3.4414   6.8758   0.00    0.0
2018/03/15 14:07:58.000   78.251301512   16.154719439   560.2638   5   8   3.3694   2.1337  16.2029  -1.3560  -3.4396   6.8741   0.00    0.0
2018/03/15 14:07:59.000   78.251303133   16.154725823   563.1959   5   8   3.3688   2.1335  16.1992  -1.3551  -3.4377   6.8724   0.00    0.0
2018/03/15 14:08:00.000   78.251309946   16.154735225   563.2277   5   8   3.3681   2.1333  16.1955  -1.3542  -3.4359   6.8707   0.00    0.0
2018/03/15 14:08:01.000   78.251300395   16.154725895   560.8460   5   8   3.3675   2.1330  16.1917  -1.3533  -3.4340   6.8690   0.00    0.0
2018/03/15 14:08:02.000   78.251306856   16.154749806   563.7595   5   8   3.3668   2.1328  16.1880  -1.3525  -3.4321   6.8673   0.00    0.0
2018/03/15 14:08:03.000   78.251296860   16.154753577   559.5451   5   8   3.3662   2.1326  16.1842  -1.3516  -3.4303   6.8656   0.00    0.0
2018/03/15 14:08:04.000   78.251298983   16.154759499   558.5988   5   8   3.3655   2.1324  16.1804  -1.3507  -3.4284   6.8639   0.00    0.0
2018/03/15 14:08:05.000   78.251291820   16.154766600   558.3632   5   8   3.3648   2.1321  16.1766  -1.3498  -3.4266   6.8621   0.00    0.0
2018/03/15 14:08:06.000   78.251292382   16.154757414   556.9835   5   8   3.3642   2.1319  16.1728  -1.3489  -3.4247   6.8604   0.00    0.0
2018/03/15 14:08:07.000   78.251301479   16.154767530   558.4248   5   8   3.3635   2.1317  16.1690  -1.3480  -3.4228   6.8587   0.00    0.0
2018/03/15 14:08:08.000   78.251290464   16.154767959   554.5164   5   8   3.3628   2.1315  16.1652  -1.3471  -3.4210   6.8569   0.00    0.0
2018/03/15 14:08:09.000   78.251307695   16.154741016   562.4403   5   8   3.3622   2.1312  16.1613  -1.3462  -3.4191   6.8552   0.00    0.0
2018/03/15 14:08:10.000   78.251300579   16.154758217   557.5507   5   8   3.3615   2.1310  16.1575  -1.3453  -3.4172   6.8534   0.00    0.0
2018/03/15 14:08:11.000   78.251303159   16.154730967   561.6694   5   8   3.3608   2.1308  16.1536  -1.3444  -3.4153   6.8517   0.00    0.0
2018/03/15 14:08:12.000   78.251306660   16.154740019   563.2169   5   8   3.3602   2.1306  16.1498  -1.3435  -3.4134   6.8499   0.00    0.0
2018/03/15 14:08:13.000   78.251300668   16.154744891   560.4249   5   8   3.3595   2.1303  16.1459  -1.3426  -3.4116   6.8481   0.00    0.0
2018/03/15 14:08:14.000   78.251302560   16.154722497   562.0523   5   8   3.3588   2.1301  16.1420  -1.3417  -3.4097   6.8464   0.00    0.0
2018/03/15 14:08:15.000   78.251297629   16.154758827   559.7249   5   8   3.3581   2.1299  16.1381  -1.3409  -3.4078   6.8446   0.00    0.0
2018/03/15 14:08:16.000   78.251303791   16.154749546   561.5708   5   8   3.3574   2.1297  16.1342  -1.3400  -3.4059   6.8428   0.00    0.0
2018/03/15 14:08:17.000   78.251299703   16.154739213   560.9164   5   8   3.3568   2.1294  16.1303  -1.3390  -3.4040   6.8410   0.00    0.0
2018/03/15 14:08:18.000   78.251302200   16.154759479   560.1553   5   8   3.3561   2.1292  16.1264  -1.3381  -3.4021   6.8393   0.00    0.0
2018/03/15 14:08:19.000   78.251306188   16.154728198   562.7367   5   8   3.3554   2.1290  16.1224  -1.3372  -3.4002   6.8375   0.00    0.0
2018/03/15 14:08:20.000   78.251297149   16.154748170   559.1800   5   8   3.3547   2.1288  16.1185  -1.3363  -3.3983   6.8357   0.00    0.0
2018/03/15 14:08:21.000   78.251305672   16.154738892   562.2742   5   8   3.3540   2.1285  16.1145  -1.3354  -3.3964   6.8339   0.00    0.0
2018/03/15 14:08:22.000   78.251297047   16.154744054   558.1675   5   8   3.3533   2.1283  16.1106  -1.3345  -3.3945   6.8321   0.00    0.0
2018/03/15 14:08:23.000   78.251299162   16.154737879   559.6620   5   8   3.3526   2.1281  16.1066  -1.3336  -3.3926   6.8303   0.00    0.0
2018/03/15 14:08:24.000   78.251310759   16.154719504   567.2969   5   8   3.3519   2.1279  16.1026  -1.3327  -3.3907   6.8284   0.00    0.0
2018/03/15 14:08:25.000   78.251291353   16.154730728   558.0514   5   8   3.3513   2.1276  16.0986  -1.3318  -3.3888   6.8266   0.00    0.0
2018/03/15 14:08:26.000   78.251301232   16.154744392   561.3346   5   8   3.3506   2.1274  16.0946  -1.3309  -3.3869   6.8248   0.00    0.0
2018/03/15 14:08:27.000   78.251298440   16.154773826   559.5766   5   8   3.3499   2.1272  16.0906  -1.3300  -3.3850   6.8230   0.00    0.0
2018/03/15 14:08:28.000   78.251299816   16.154740341   559.2249   5   8   3.3492   2.1270  16.0866  -1.3291  -3.3831   6.8212   0.00    0.0
2018/03/15 14:08:29.000   78.251296912   16.154732848   557.5409   5   8   3.3485   2.1267  16.0825  -1.3282  -3.3812   6.8193   0.00    0.0
2018/03/15 14:08:30.000   78.251306338   16.154751555   561.7908   5   8   3.3478   2.1265  16.0785  -1.3272  -3.3793   6.8175   0.00    0.0
2018/03/15 14:08:31.000   78.251300115   16.154739452   560.1643   5   8   3.3471   2.1263  16.0744  -1.3263  -3.3774   6.8156   0.00    0.0
2018/03/15 14:08:32.000   78.251293498   16.154750537   556.7224   5   8   3.3464   2.1261  16.0703  -1.3254  -3.3754   6.8138   0.00    0.0
2018/03/15 14:08:33.000   78.251307305   16.154746836   563.9182   5   8   3.3456   2.1258  16.0663  -1.3245  -3.3735   6.8119   0.00    0.0
2018/03/15 14:08:34.000   78.251293611   16.154750605   558.0815   5   8   3.3449   2.1256  16.0622  -1.3236  -3.3716   6.8101   0.00    0.0
2018/03/15 14:08:35.000   78.251303414   16.154733560   562.5086   5   8   3.3442   2.1254  16.0581  -1.3227  -3.3697   6.8082   0.00    0.0
2018/03/15 14:08:36.000   78.251305453   16.154747858   563.6459   5   8   3.3435   2.1252  16.0540  -1.3217  -3.3677   6.8064   0.00    0.0
2018/03/15 14:08:37.000   78.251294804   16.154769022   558.0060   5   8   3.3428   2.1249  16.0499  -1.3208  -3.3658   6.8045   0.00    0.0
2018/03/15 14:08:38.000   78.251302403   16.154742690   560.8304   5   8   3.3421   2.1247  16.0457  -1.3199  -3.3639   6.8026   0.00    0.0
2018/03/15 14:08:39.000   78.251292233   16.154764044   557.0149   5   8   3.3414   2.1245  16.0416  -1.3190  -3.3619   6.8008   0.00    0.0
2018/03/15 14:08:40.000   78.251305513   16.154756614   561.7191   5   8   3.3407   2.1243  16.0375  -1.3180  -3.3600   6.7989   0.00    0.0
2018/03/15 14:08:41.000   78.251296737   16.154733635   559.6304   5   8   3.3399   2.1240  16.0333  -1.3171  -3.3581   6.7970   0.00    0.0
2018/03/15 14:08:42.000   78.251299034   16.154751138   559.4535   5   8   3.3392   2.1238  16.0291  -1.3162  -3.3561   6.7951   0.00    0.0
2018/03/15 14:08:43.000   78.251307694   16.154742778   563.8392   5   8   3.3385   2.1236  16.0250  -1.3153  -3.3542   6.7932   0.00    0.0
2018/03/15 14:08:44.000   78.251293265   16.154752762   557.0637   5   8   3.3378   2.1234  16.0208  -1.3143  -3.3523   6.7913   0.00    0.0
2018/03/15 14:08:45.000   78.251305537   16.154762725   561.9570   5   8   3.3371   2.1232  16.0166  -1.3134  -3.3503   6.7894   0.00    0.0
2018/03/15 14:08:46.000   78.251292398   16.154756985   557.6005   5   8   3.3363   2.1229  16.0124  -1.3125  -3.3484   6.7875   0.00    0.0
2018/03/15 14:08:47.000   78.251299079   16.154758705   560.2515   5   8   3.3356   2.1227  16.0082  -1.3116  -3.3464   6.7856   0.00    0.0
2018/03/15 14:08:48.000   78.251302590   16.154748115   562.6005   5   8   3.3349   2.1225  16.0040  -1.3106  -3.3445   6.7837   0.00    0.0
2018/03/15 14:08:49.000   78.251298672   16.154748669   560.9742   5   8   3.3342   2.1223  15.9997  -1.3097  -3.3425   6.7818   0.00    0.0
2018/03/15 14:08:50.000   78.251303918   16.154729852   561.0951   5   8   3.3334   2.1220  15.9955  -1.3088  -3.3406   6.7799   0.00    0.0
2018/03/15 14:08:51.000   78.251300460   16.154745379   558.6752   5   8   3.3327   2.1218  15.9912  -1.3078  -3.3386   6.7779   0.00    0.0
2018/03/15 14:08:52.000   78.251300488   16.154730170   563.0093   5   8   3.3320   2.1216  15.9870  -1.3069  -3.3367   6.7760   0.00    0.0
2018/03/15 14:08:53.000   78.251307903   16.154749025   564.1461   5   8   3.3312   2.1214  15.9827  -1.3060  -3.3347   6.7741   0.00    0.0
2018/03/15 14:08:54.000   78.251297855   16.154742750   559.9853   5   8   3.3305   2.1211  15.9784  -1.3050  -3.3327   6.7721   0.00    0.0
2018/03/15 14:08:55.000   78.251300883   16.154747587   562.9925   5   8   3.3297   2.1209  15.9742  -1.3041  -3.3308   6.7702   0.00    0.0
2018/03/15 14:08:56.000   78.251300924   16.154771111   558.8608   5   8   3.3290   2.1207  15.9699  -1.3032  -3.3288   6.7682   0.00    0.0
2018/03/15 14:08:57.000   78.251300809   16.154735299   559.6895   5   8   3.3283   2.1205  15.9656  -1.3022  -3.3269   6.7663   0.00    0.0
2018/03/15 14:08:58.000   78.251297938   16.154756197   560.1358   5   8   3.3275   2.1203  15.9612  -1.3013  -3.3249   6.7644   0.00    0.0
2018/03/15 14:08:59.000   78.251304891   16.154777880   561.0132   5   8   3.3268   2.1200  15.9569  -1.3003  -3.3229   6.7624   0.00    0.0
2018/03/15 14:09:00.000   78.251300328   16.154734200   560.8760   5   8   3.3260   2.1198  15.9526  -1.2994  -3.3209   6.7604   0.00    0.0
2018/03/15 14:09:01.000   78.251297853   16.154724108   561.2712   5   8   3.3253   2.1196  15.9483  -1.2984  -3.3190   6.7585   0.00    0.0
2018/03/15 14:09:02.000   78.251307394   16.154735631   562.9771   5   8   3.3245   2.1194  15.9439  -1.2975  -3.3170   6.7565   0.00    0.0
2018/03/15 14:09:03.000   78.251295489   16.154731571   559.9350   5   8   3.3238   2.1191  15.9396  -1.2966  -3.3150   6.7545   0.00    0.0
2018/03/15 14:09:04.000   78.251303240   16.154759198   562.2748   5   8   3.3230   2.1189  15.9352  -1.2956  -3.3131   6.7526   0.00    0.0
2018/03/15 14:09:05.000   78.251300980   16.154739261   560.0818   5   8   3.3223   2.1187  15.9308  -1.2947  -3.3111   6.7506   0.00    0.0
2018/03/15 14:09:06.000   78.251295837   16.154755627   558.7569   5   8   3.3215   2.1185  15.9264  -1.2937  -3.3091   6.7486   0.00    0.0
2018/03/15 14:09:07.000   78.251301418   16.154776659   561.1610   5   8   3.3208   2.1183  15.9220  -1.2928  -3.3071   6.7466   0.00    0.0
2018/03/15 14:09:08.000   78.251295625   16.154753595   558.4706   5   8   3.3200   2.1180  15.9176  -1.2918  -3.3051   6.7446   0.00    0.0
2018/03/15 14:09:09.000   78.251298817   16.154745489   559.7077   5   8   3.3193   2.1178  15.9132  -1.2909  -3.3031   6.7426   0.00    0.0
2018/03/15 14:09:10.000   78.251300612   16.154732208   560.7480   5   8   3.3185   2.1176  15.9088  -1.2899  -3.3012   6.7406   0.00    0.0
2018/03/15 14:09:11.000   78.251302120   16.154733223   560.5016   5   8   3.3178   2.1174  15.9044  -1.2890  -3.2992   6.7386   0.00    0.0
2018/03/15 14:09:12.000   78.251308286   16.154737039   563.8714   5   8   3.3170   2.1172  15.8999  -1.2880  -3.2972   6.7366   0.00    0.0
2018/03/15 14:09:13.000   78.251296026   16.154748032   559.2081   5   8   3.3162   2.1169  15.8955  -1.2871  -3.2952   6.7346   0.00    0.0
2018/03/15 14:09:14.000   78.251304110   16.154734966   563.5398   5   8   3.3155   2.1167  15.8910  -1.2861  -3.2932   6.7326   0.00    0.0
2018/03/15 14:09:15.000   78.251297481   16.154755952   559.7409   5   8   3.3147   2.1165  15.8866  -1.2852  -3.2912   6.7306   0.00    0.0
2018/03/15 14:09:16.000   78.251302048   16.154748981   561.7065   5   8   3.3140   2.1163  15.8821  -1.2842  -3.2892   6.7286   0.00    0.0
2018/03/15 14:09:17.000   78.251295938   16.154749584   559.2693   5   8   3.3132   2.1160  15.8776  -1.2833  -3.2872   6.7266   0.00    0.0
2018/03/15 14:09:18.000   78.251299492   16.154756388   560.1268   5   8   3.3124   2.1158  15.8731  -1.2823  -3.2852   6.7245   0.00    0.0
2018/03/15 14:09:19.000   78.251299791   16.154749846   560.7063   5   8   3.3116   2.1156  15.8686  -1.2813  -3.2832   6.7225   0.00    0.0
2018/03/15 14:09:20.000   78.251292615   16.154746433   557.8650   5   8   3.3109   2.1154  15.8641  -1.2804  -3.2812   6.7205   0.00    0.0
2018/03/15 14:09:21.000   78.251303693   16.154746549   561.3989   5   8   3.3101   2.1152  15.8596  -1.2794  -3.2792   6.7184   0.00    0.0
2018/03/15 14:09:22.000   78.251292617   16.154762984   556.7746   5   8   3.3093   2.1149  15.8551  -1.2785  -3.2772   6.7164   0.00    0.0
2018/03/15 14:09:23.000   78.251300669   16.154757690   561.8679   5   8   3.3086   2.1147  15.8505  -1.2775  -3.2752   6.7143   0.00    0.0
2018/03/15 14:09:24.000   78.251297833   16.154756473   560.9010   5   8   3.3078   2.1145  15.8460  -1.2765  -3.2732   6.7123   0.00    0.0
2018/03/15 14:09:25.000   78.251303818   16.154765623   560.4430   5   8   3.3070   2.1143  15.8415  -1.2756  -3.2712   6.7102   0.00    0.0
2018/03/15 14:09:26.000   78.251302068   16.154722298   561.3476   5   8   3.3062   2.1141  15.8369  -1.2746  -3.2692   6.7082   0.00    0.0
2018/03/15 14:09:27.000   78.251294541   16.154736474   558.0669   5   8   3.3055   2.1138  15.8323  -1.2737  -3.2672   6.7061   0.00    0.0
2018/03/15 14:09:28.000   78.251309838   16.154746630   564.3894   5   8   3.3047   2.1136  15.8278  -1.2727  -3.2651   6.7041   0.00    0.0
2018/03/15 14:09:29.000   78.251295769   16.154738035   561.4191   5   8   3.3039   2.1134  15.8232  -1.2717  -3.2631   6.7020   0.00    0.0
2018/03/15 14:09:30.000   78.251301064   16.154720518   561.0802   5   8   3.3031   2.1132  15.8186  -1.2708  -3.2611   6.6999   0.00    0.0
2018/03/15 14:09:31.000   78.251313479   16.154711122   566.4353   5   8   3.3023   2.1130  15.8140  -1.2698  -3.2591   6.6978   0.00    0.0
2018/03/15 14:09:32.000   78.251295567   16.154723043   559.4814   5   8   3.3015   2.1128  15.8094  -1.2688  -3.2571   6.6958   0.00    0.0
2018/03/15 14:09:33.000   78.251306253   16.154735191   561.7771   5   8   3.3008   2.1125  15.8048  -1.2679  -3.2550   6.6937   0.00    0.0
2018/03/15 14:09:34.000   78.251299744   16.154730453   559.1634   5   8   3.3000   2.1123  15.8002  -1.2669  -3.2530   6.6916   0.00    0.0
2018/03/15 14:09:35.000   78.251299152   16.154745099   559.4549   5   8   3.2992   2.1121  15.7955  -1.2659  -3.2510   6.6895   0.00    0.0
2018/03/15 14:09:36.000   78.251304891   16.154760052   562.0567   5   8   3.2984   2.1119  15.7909  -1.2650  -3.2490   6.6874   0.00    0.0
2018/03/15 14:09:37.000   78.251292566   16.154759919   556.2002   5   8   3.2976   2.1117  15.7862  -1.2640  -3.2469   6.6853   0.00    0.0
2018/03/15 14:09:38.000   78.251299196   16.154747401   559.8189   5   8   3.2968   2.1114  15.7816  -1.2630  -3.2449   6.6832   0.00    0.0
2018/03/15 14:09:39.000   78.251295603   16.154753767   558.4143   5   8   3.2960   2.1112  15.7769  -1.2620  -3.2429   6.6811   0.00    0.0
2018/03/15 14:09:40.000   78.251299946   16.154749381   559.9585   5   8   3.2952   2.1110  15.7723  -1.2611  -3.2409   6.6790   0.00    0.0
2018/03/15 14:09:41.000   78.251303979   16.154734103   562.7448   5   8   3.2944   2.1108  15.7676  -1.2601  -3.2388   6.6769   0.00    0.0
2018/03/15 14:09:42.000   78.251298555   16.154725769   559.6848   5   8   3.2936   2.1106  15.7629  -1.2591  -3.2368   6.6748   0.00    0.0
2018/03/15 14:09:43.000   78.251303243   16.154734305   561.5928   5   8   3.2928   2.1104  15.7582  -1.2581  -3.2348   6.6727   0.00    0.0
2018/03/15 14:09:44.000   78.251296803   16.154731532   559.4378   5   8   3.2920   2.1101  15.7535  -1.2572  -3.2327   6.6706   0.00    0.0
2018/03/15 14:09:45.000   78.251305088   16.154739883   562.3336   5   8   3.2912   2.1099  15.7488  -1.2562  -3.2307   6.6685   0.00    0.0
2018/03/15 14:09:46.000   78.251302429   16.154739781   562.1127   5   8   3.2904   2.1097  15.7441  -1.2552  -3.2286   6.6663   0.00    0.0
2018/03/15 14:09:47.000   78.251299992   16.154749716   560.7481   5   8   3.2896   2.1095  15.7393  -1.2542  -3.2266   6.6642   0.00    0.0
2018/03/15 14:09:48.000   78.251305530   16.154740866   561.5728   5   8   3.2888   2.1093  15.7346  -1.2533  -3.2246   6.6621   0.00    0.0
2018/03/15 14:09:49.000   78.251293471   16.154753937   558.8803   5   8   3.2880   2.1090  15.7299  -1.2523  -3.2225   6.6600   0.00    0.0
2018/03/15 14:09:50.000   78.251303020   16.154741656   561.7522   5   8   3.2872   2.1088  15.7251  -1.2513  -3.2205   6.6578   0.00    0.0
2018/03/15 14:09:51.000   78.251299102   16.154765794   561.4800   5   8   3.2864   2.1086  15.7204  -1.2503  -3.2184   6.6557   0.00    0.0
2018/03/15 14:09:52.000   78.251296936   16.154738335   559.9747   5   8   3.2856   2.1084  15.7156  -1.2493  -3.2164   6.6535   0.00    0.0
2018/03/15 14:09:53.000   78.251302292   16.154741289   561.6996   5   8   3.2848   2.1082  15.7108  -1.2483  -3.2143   6.6514   0.00    0.0
2018/03/15 14:09:54.000   78.251295554   16.154747621   559.1918   5   8   3.2840   2.1080  15.7060  -1.2474  -3.2123   6.6492   0.00    0.0
2018/03/15 14:09:55.000   78.251307552   16.154738757   563.6185   5   8   3.2832   2.1077  15.7013  -1.2464  -3.2102   6.6471   0.00    0.0
2018/03/15 14:09:56.000   78.251298215   16.154754904   560.6951   5   8   3.2824   2.1075  15.6965  -1.2454  -3.2082   6.6449   0.00    0.0
2018/03/15 14:09:57.000   78.251303157   16.154746995   562.8977   5   8   3.2815   2.1073  15.6917  -1.2444  -3.2061   6.6428   0.00    0.0
2018/03/15 14:09:58.000   78.251304919   16.154717481   562.5289   5   8   3.2807   2.1071  15.6869  -1.2434  -3.2041   6.6406   0.00    0.0
2018/03/15 14:09:59.000   78.251299419   16.154724817   560.9651   5   8   3.2799   2.1069  15.6820  -1.2424  -3.2020   6.6384   0.00    0.0
2018/03/15 14:10:00.000   78.251309337   16.154738466   564.1942   5   8   3.2791   2.1067  15.6772  -1.2414  -3.2000   6.6363   0.00    0.0
2018/03/15 14:10:01.000   78.251294648   16.154759961   557.6706   5   8   3.2783   2.1065  15.6724  -1.2405  -3.1979   6.6341   0.00    0.0
2018/03/15 14:10:02.000   78.251299468   16.154744979   559.9852   5   8   3.2775   2.1062  15.6675  -1.2395  -3.1958   6.6319   0.00    0.0
2018/03/15 14:10:03.000   78.251298752   16.154767232   559.3469   5   8   3.2766   2.1060  15.6627  -1.2385  -3.1938   6.6297   0.00    0.0
2018/03/15 14:10:04.000   78.251297032   16.154754315   557.8713   5   8   3.2758   2.1058  15.6579  -1.2375  -3.1917   6.6276   0.00    0.0
2018/03/15 14:10:05.000   78.251296766   16.154752396   559.1493   5   8   3.2750   2.1056  15.6530  -1.2365  -3.1896   6.6254   0.00    0.0
2018/03/15 14:10:06.000   78.251295825   16.154770631   556.8928   5   8   3.2742   2.1054  15.6481  -1.2355  -3.1876   6.6232   0.00    0.0
2018/03/15 14:10:07.000   78.251300987   16.154749573   561.6059   5   8   3.2734   2.1052  15.6432  -1.2345  -3.1855   6.6210   0.00    0.0
2018/03/15 14:10:08.000   78.251293280   16.154772625   558.8105   5   8   3.2725   2.1049  15.6384  -1.2335  -3.1835   6.6188   0.00    0.0
2018/03/15 14:10:09.000   78.251307938   16.154727971   564.2246   5   8   3.2717   2.1047  15.6335  -1.2325  -3.1814   6.6166   0.00    0.0
2018/03/15 14:10:10.000   78.251299670   16.154720797   562.6693   5   8   3.2709   2.1045  15.6286  -1.2315  -3.1793   6.6144   0.00    0.0
2018/03/15 14:10:11.000   78.251303892   16.154753205   561.8305   5   8   3.2700   2.1043  15.6237  -1.2305  -3.1772   6.6122   0.00    0.0
2018/03/15 14:10:12.000   78.251304745   16.154734896   563.0533   5   8   3.2692   2.1041  15.6188  -1.2295  -3.1752   6.6100   0.00    0.0
2018/03/15 14:10:13.000   78.251302095   16.154734132   562.5612   5   8   3.2684   2.1039  15.6138  -1.2286  -3.1731   6.6078   0.00    0.0
2018/03/15 14:10:14.000   78.251311260   16.154732103   563.7628   5   8   3.2676   2.1037  15.6089  -1.2276  -3.1710   6.6056   0.00    0.0
2018/03/15 14:10:15.000   78.251296269   16.154729739   559.2303   5   8   3.2667   2.1035  15.6040  -1.2266  -3.1690   6.6034   0.00    0.0
2018/03/15 14:10:16.000   78.251299991   16.154740708   559.5604   5   8   3.2659   2.1032  15.5991  -1.2256  -3.1669   6.6012   0.00    0.0
2018/03/15 14:10:17.000   78.251300496   16.154763327   560.9802   5   8   3.2651   2.1030  15.5941  -1.2246  -3.1648   6.5989   0.00    0.0
2018/03/15 14:10:18.000   78.251294252   16.154756490   558.7504   5   8   3.2642   2.1028  15.5892  -1.2236  -3.1627   6.5967   0.00    0.0
2018/03/15 14:10:19.000   78.251303441   16.154767589   560.6595   5   8   3.2634   2.1026  15.5842  -1.2226  -3.1606   6.5945   0.00    0.0
2018/03/15 14:10:20.000   78.251298767   16.154754355   560.4720   5   8   3.2626   2.1024  15.5792  -1.2216  -3.1586   6.5923   0.00    0.0
2018/03/15 14:10:21.000   78.251298221   16.154737251   559.7681   5   8   3.2617   2.1022  15.5743  -1.2206  -3.1565   6.5900   0.00    0.0
2018/03/15 14:10:22.000   78.251305071   16.154727391   561.7723   5   8   3.2609   2.1020  15.5693  -1.2196  -3.1544   6.5878   0.00    0.0
2018/03/15 14:10:23.000   78.251301282   16.154723253   563.0304   5   8   3.2600   2.1017  15.5643  -1.2186  -3.1523   6.5855   0.00    0.0
2018/03/15 14:10:24.000   78.251307295   16.154729384   564.1898   5   8   3.2592   2.1015  15.5593  -1.2176  -3.1502   6.5833   0.00    0.0
2018/03/15 14:10:25.000   78.251309916   16.154717709   564.6495   5   8   3.2584   2.1013  15.5543  -1.2166  -3.1481   6.5811   0.00    0.0
2018/03/15 14:10:26.000   78.251299400   16.154725461   560.6736   5   8   3.2575   2.1011  15.5493  -1.2156  -3.1461   6.5788   0.00    0.0
2018/03/15 14:10:27.000   78.251306408   16.154735035   563.3450   5   8   3.2567   2.1009  15.5443  -1.2145  -3.1440   6.5766   0.00    0.0
2018/03/15 14:10:28.000   78.251302610   16.154739524   562.2691   5   8   3.2558   2.1007  15.5393  -1.2135  -3.1419   6.5743   0.00    0.0
2018/03/15 14:10:29.000   78.251296567   16.154750817   559.5483   5   8   3.2550   2.1005  15.5342  -1.2125  -3.1398   6.5721   0.00    0.0
2018/03/15 14:10:30.000   78.251304027   16.154756959   561.2284   5   8   3.2541   2.1003  15.5292  -1.2115  -3.1377   6.5698   0.00    0.0
2018/03/15 14:10:31.000   78.251296186   16.154755769   558.0839   5   8   3.2533   2.1001  15.5242  -1.2105  -3.1356   6.5675   0.00    0.0
2018/03/15 14:10:32.000   78.251300903   16.154738138   560.5779   5   8   3.2524   2.0998  15.5191  -1.2095  -3.1335   6.5653   0.00    0.0
2018/03/15 14:10:33.000   78.251300671   16.154735655   560.1047   5   8   3.2516   2.0996  15.5141  -1.2085  -3.1314   6.5630   0.00    0.0
2018/03/15 14:10:34.000   78.251296054   16.154751238   560.6251   5   8   3.2507   2.0994  15.5090  -1.2075  -3.1293   6.5607   0.00    0.0
2018/03/15 14:10:35.000   78.251301950   16.154742042   561.7472   5   8   3.2499   2.0992  15.5039  -1.2065  -3.1272   6.5585   0.00    0.0
2018/03/15 14:10:36.000   78.251295485   16.154756272   558.1932   5   8   3.2490   2.0990  15.4989  -1.2055  -3.1251   6.5562   0.00    0.0
2018/03/15 14:10:37.000   78.251304525   16.154740683   563.2145   5   8   3.2482   2.0988  15.4938  -1.2045  -3.1230   6.5539   0.00    0.0
2018/03/15 14:10:38.000   78.251297146   16.154738582   560.6630   5   8   3.2473   2.0986  15.4887  -1.2035  -3.1209   6.5516   0.00    0.0
2018/03/15 14:10:39.000   78.251309679   16.154748884   564.3049   5   8   3.2465   2.0984  15.4836  -1.2024  -3.1188   6.5494   0.00    0.0
2018/03/15 14:10:40.000   78.251307010   16.154726808   563.4442   5   8   3.2456   2.0982  15.4785  -1.2014  -3.1167   6.5471   0.00    0.0
2018/03/15 14:10:41.000   78.251302614   16.154728323   563.5999   5   8   3.2448   2.0980  15.4734  -1.2004  -3.1146   6.5448   0.00    0.0
2018/03/15 14:10:42.000   78.251308662   16.154727049   565.3740   5   8   3.2439   2.0977  15.4683  -1.1994  -3.1125   6.5425   0.00    0.0
2018/03/15 14:10:43.000   78.251302931   16.154725707   561.0781   5   8   3.2431   2.0975  15.4632  -1.1984  -3.1104   6.5402   0.00    0.0
2018/03/15 14:10:44.000   78.251300698   16.154730082   561.2663   5   8   3.2422   2.0973  15.4581  -1.1974  -3.1083   6.5379   0.00    0.0
2018/03/15 14:10:45.000   78.251305614   16.154755089   562.3941   5   8   3.2413   2.0971  15.4529  -1.1964  -3.1062   6.5356   0.00    0.0
2018/03/15 14:10:46.000   78.251302636   16.154757859   559.8652   5   8   3.2405   2.0969  15.4478  -1.1954  -3.1041   6.5333   0.00    0.0
2018/03/15 14:10:47.000   78.251295145   16.154742537   558.8091   5   8   3.2396   2.0967  15.4427  -1.1943  -3.1020   6.5310   0.00    0.0
2018/03/15 14:10:48.000   78.251296401   16.154764034   557.3289   5   8   3.2388   2.0965  15.4375  -1.1933  -3.0999   6.5287   0.00    0.0
2018/03/15 14:10:49.000   78.251301923   16.154767696   560.1659   5   8   3.2379   2.0963  15.4324  -1.1923  -3.0978   6.5264   0.00    0.0
2018/03/15 14:10:50.000   78.251290544   16.154756126   556.5738   5   8   3.2370   2.0961  15.4272  -1.1913  -3.0957   6.5241   0.00    0.0
2018/03/15 14:10:51.000   78.251298106   16.154776255   557.5914   5   8   3.2362   2.0959  15.4221  -1.1903  -3.0936   6.5218   0.00    0.0
2018/03/15 14:10:52.000   78.251298149   16.154761285   559.8136   5   8   3.2353   2.0957  15.4169  -1.1893  -3.0915   6.5195   0.00    0.0
2018/03/15 14:10:53.000   78.251293295   16.154754597   557.8382   5   8   3.2344   2.0954  15.4117  -1.1882  -3.0893   6.5171   0.00    0.0
2018/03/15 14:10:54.000   78.251309562   16.154741838   564.0976   5   8   3.2336   2.0952  15.4065  -1.1872  -3.0872   6.5148   0.00    0.0
2018/03/15 14:10:55.000   78.251302965   16.154718310   564.5412   5   8   3.2327   2.0950  15.4013  -1.1862  -3.0851   6.5125   0.00    0.0
2018/03/15 14:10:56.000   78.251310205   16.154731238   564.9139   5   8   3.2318   2.0948  15.3961  -1.1852  -3.0830   6.5102   0.00    0.0
2018/03/15 14:10:57.000   78.251301402   16.154722745   560.6166   5   8   3.2310   2.0946  15.3909  -1.1842  -3.0809   6.5078   0.00    0.0
2018/03/15 14:10:58.000   78.251304071   16.154723260   562.9218   5   8   3.2301   2.0944  15.3857  -1.1831  -3.0788   6.5055   0.00    0.0
2018/03/15 14:10:59.000   78.251307738   16.154728945   561.9826   5   8   3.2292   2.0942  15.3805  -1.1821  -3.0766   6.5032   0.00    0.0
2018/03/15 14:11:00.000   78.251295147   16.154733110   560.7149   5   8   3.2284   2.0940  15.3753  -1.1811  -3.0745   6.5008   0.00    0.0
2018/03/15 14:11:01.000   78.251301841   16.154757441   561.8805   5   8   3.2275   2.0938  15.3701  -1.1801  -3.0724   6.4985   0.00    0.0
2018/03/15 14:11:02.000   78.251301916   16.154766895   560.6395   5   8   3.2266   2.0936  15.3649  -1.1790  -3.0703   6.4962   0.00    0.0
2018/03/15 14:11:03.000   78.251298017   16.154741009   561.5580   5   8   3.2257   2.0934  15.3596  -1.1780  -3.0682   6.4938   0.00    0.0
2018/03/15 14:11:04.000   78.251307394   16.154749974   563.7110   5   8   3.2249   2.0932  15.3544  -1.1770  -3.0660   6.4915   0.00    0.0
2018/03/15 14:11:05.000   78.251306905   16.154723906   563.2236   5   8   3.2240   2.0930  15.3491  -1.1760  -3.0639   6.4891   0.00    0.0
2018/03/15 14:11:06.000   78.251302155   16.154720285   563.6319   5   8   3.2231   2.0928  15.3439  -1.1749  -3.0618   6.4868   0.00    0.0
2018/03/15 14:11:07.000   78.251306415   16.154722030   564.6410   5   8   3.2222   2.0926  15.3386  -1.1739  -3.0597   6.4844   0.00    0.0
2018/03/15 14:11:08.000   78.251306484   16.154728618   563.2259   5   8   3.2214   2.0924  15.3334  -1.1729  -3.0576   6.4821   0.00    0.0
2018/03/15 14:11:09.000   78.251301902   16.154730574   561.2355   5   8   3.2205   2.0921  15.3281  -1.1719  -3.0554   6.4797   0.00    0.0
2018/03/15 14:11:10.000   78.251307274   16.154740239   562.9178   5   8   3.2196   2.0919  15.3228  -1.1708  -3.0533   6.4774   0.00    0.0
2018/03/15 14:11:11.000   78.251303445   16.154760222   562.8769   5   8   3.2187   2.0917  15.3176  -1.1698  -3.0512   6.4750   0.00    0.0
2018/03/15 14:11:12.000   78.251305889   16.154746925   563.1630   5   8   3.2178   2.0915  15.3123  -1.1688  -3.0490   6.4726   0.00    0.0
2018/03/15 14:11:13.000   78.251296384   16.154756855   559.2754   5   8   3.2170   2.0913  15.3070  -1.1678  -3.0469   6.4703   0.00    0.0
2018/03/15 14:11:14.000   78.251300234   16.154762016   560.8580   5   8   3.2161   2.0911  15.3017  -1.1667  -3.0448   6.4679   0.00    0.0
2018/03/15 14:11:15.000   78.251297356   16.154749849   560.5032   5   8   3.2152   2.0909  15.2964  -1.1657  -3.0427   6.4655   0.00    0.0
2018/03/15 14:11:16.000   78.251299492   16.154740075   561.3486   5   8   3.2143   2.0907  15.2911  -1.1647  -3.0405   6.4631   0.00    0.0
2018/03/15 14:11:17.000   78.251303781   16.154737869   562.7257   5   8   3.2134   2.0905  15.2858  -1.1636  -3.0384   6.4608   0.00    0.0
2018/03/15 14:11:18.000   78.251309854   16.154720379   564.0696   5   8   3.2125   2.0903  15.2805  -1.1626  -3.0363   6.4584   0.00    0.0
2018/03/15 14:11:19.000   78.251305771   16.154703376   564.3273   5   8   3.2117   2.0901  15.2751  -1.1616  -3.0341   6.4560   0.00    0.0
2018/03/15 14:11:20.000   78.251302147   16.154735298   560.8457   5   8   3.2108   2.0899  15.2698  -1.1605  -3.0320   6.4536   0.00    0.0
2018/03/15 14:11:21.000   78.251307096   16.154737775   563.4825   5   8   3.2099   2.0897  15.2645  -1.1595  -3.0299   6.4512   0.00    0.0
2018/03/15 14:11:22.000   78.251297729   16.154741161   560.1370   5   8   3.2090   2.0895  15.2591  -1.1585  -3.0277   6.4489   0.00    0.0
2018/03/15 14:11:23.000   78.251306496   16.154774105   560.5302   5   8   3.2081   2.0893  15.2538  -1.1574  -3.0256   6.4465   0.00    0.0
2018/03/15 14:11:24.000   78.251301172   16.154737083   563.4606   5   8   3.2072   2.0891  15.2484  -1.1564  -3.0235   6.4441   0.00    0.0
2018/03/15 14:11:25.000   78.251300186   16.154753118   560.5005   5   8   3.2063   2.0889  15.2431  -1.1554  -3.0213   6.4417   0.00    0.0
2018/03/15 14:11:26.000   78.251309427   16.154726548   565.5277   5   8   3.2054   2.0887  15.2377  -1.1543  -3.0192   6.4393   0.00    0.0
2018/03/15 14:11:27.000   78.251305263   16.154714994   565.6931   5   8   3.2046   2.0885  15.2324  -1.1533  -3.0171   6.4369   0.00    0.0
2018/03/15 14:11:28.000   78.251309668   16.154720669   563.4502   5   8   3.2037   2.0883  15.2270  -1.1523  -3.0149   6.4345   0.00    0.0
2018/03/15 14:11:29.000   78.251309318   16.154726628   563.1287   5   8   3.2028   2.0881  15.2216  -1.1512  -3.0128   6.4321   0.00    0.0
2018/03/15 14:11:30.000   78.251301134   16.154748141   559.6329   5   8   3.2019   2.0879  15.2163  -1.1502  -3.0106   6.4297   0.00    0.0
2018/03/15 14:11:31.000   78.251304577   16.154762428   560.4923   5   8   3.2010   2.0877  15.2109  -1.1492  -3.0085   6.4273   0.00    0.0
2018/03/15 14:11:32.000   78.251296569   16.154757626   558.4092   5   8   3.2001   2.0875  15.2055  -1.1481  -3.0064   6.4249   0.00    0.0
2018/03/15 14:11:33.000   78.251297767   16.154774142   557.3634   5   8   3.1992   2.0873  15.2001  -1.1471  -3.0042   6.4225   0.00    0.0
2018/03/15 14:11:34.000   78.251298466   16.154769319   558.7128   5   8   3.1983   2.0871  15.1947  -1.1460  -3.0021   6.4201   0.00    0.0
2018/03/15 14:11:35.000   78.251300267   16.154779889   560.0584   5   8   3.1974   2.0869  15.1893  -1.1450  -2.9999   6.4177   0.00    0.0
2018/03/15 14:11:36.000   78.251305037   16.154771721   561.9689   5   8   3.1965   2.0867  15.1839  -1.1440  -2.9978   6.4152   0.00    0.0
2018/03/15 14:11:37.000   78.251298303   16.154744770   560.4892   5   8   3.1956   2.0865  15.1785  -1.1429  -2.9956   6.4128   0.00    0.0
2018/03/15 14:11:38.000   78.251306275   16.154737219   563.5184   5   8   3.1947   2.0863  15.1731  -1.1419  -2.9935   6.4104   0.00    0.0
2018/03/15 14:11:39.000   78.251304310   16.154723388   562.3514   5   8   3.1938   2.0861  15.1676  -1.1409  -2.9914   6.4080   0.00    0.0
2018/03/15 14:11:40.000   78.251299039   16.154729475   561.7088   5   8   3.1929   2.0859  15.1622  -1.1398  -2.9892   6.4056   0.00    0.0
2018/03/15 14:11:41.000   78.251306979   16.154738729   563.1741   5   8   3.1920   2.0857  15.1568  -1.1388  -2.9871   6.4031   0.00    0.0
2018/03/15 14:11:42.000   78.251304873   16.154732059   561.5736   5   8   3.1911   2.0855  15.1514  -1.1377  -2.9849   6.4007   0.00    0.0
2018/03/15 14:11:43.000   78.251301557   16.154746277   560.6119   5   8   3.1902   2.0853  15.1459  -1.1367  -2.9828   6.3983   0.00    0.0
2018/03/15 14:11:44.000   78.251313365   16.154738474   565.6877   5   8   3.1893   2.0851  15.1405  -1.1356  -2.9806   6.3958   0.00    0.0
2018/03/15 14:11:45.000   78.251300092   16.154741163   560.8845   5   8   3.1884   2.0849  15.1350  -1.1346  -2.9785   6.3934   0.00    0.0
2018/03/15 14:11:46.000   78.251309475   16.154726135   565.2961   5   8   3.1875   2.0847  15.1296  -1.1336  -2.9763   6.3910   0.00    0.0
2018/03/15 14:11:47.000   78.251303878   16.154740984   562.4060   5   8   3.1866   2.0845  15.1241  -1.1325  -2.9742   6.3885   0.00    0.0
2018/03/15 14:11:48.000   78.251300748   16.154743219   560.5393   5   8   3.1857   2.0843  15.1186  -1.1315  -2.9720   6.3861   0.00    0.0
2018/03/15 14:11:49.000   78.251310665   16.154744253   565.2837   5   8   3.1848   2.0841  15.1132  -1.1304  -2.9699   6.3837   0.00    0.0
2018/03/15 14:11:50.000   78.251294767   16.154753871   559.4330   5   8   3.1839   2.0839  15.1077  -1.1294  -2.9677   6.3812   0.00    0.0
2018/03/15 14:11:51.000   78.251302621   16.154763370   560.3250   5   8   3.1830   2.0837  15.1022  -1.1283  -2.9656   6.3788   0.00    0.0
2018/03/15 14:11:52.000   78.251295480   16.154777558   558.3798   5   8   3.1821   2.0835  15.0968  -1.1273  -2.9634   6.3763   0.00    0.0
2018/03/15 14:11:53.000   78.251298059   16.154752383   559.0120   5   8   3.1812   2.0833  15.0913  -1.1263  -2.9613   6.3739   0.00    0.0
2018/03/15 14:11:54.000   78.251305635   16.154760566   560.8290   5   8   3.1803   2.0831  15.0858  -1.1252  -2.9591   6.3714   0.00    0.0
2018/03/15 14:11:55.000   78.251299159   16.154759335   559.0362   5   8   3.1794   2.0829  15.0803  -1.1242  -2.9570   6.3690   0.00    0.0
2018/03/15 14:11:56.000   78.251304572   16.154737881   561.9938   5   8   3.1785   2.0827  15.0748  -1.1231  -2.9548   6.3665   0.00    0.0
2018/03/15 14:11:57.000   78.251303019   16.154725549   560.6710   5   8   3.1776   2.0825  15.0693  -1.1221  -2.9527   6.3641   0.00    0.0
2018/03/15 14:11:58.000   78.251301849   16.154706250   561.3546   5   8   3.1767   2.0823  15.0638  -1.1210  -2.9505   6.3616   0.00    0.0
2018/03/15 14:11:59.000   78.251310456   16.154703702   567.1368   5   8   3.1758   2.0821  15.0583  -1.1200  -2.9484   6.3591   0.00    0.0
2018/03/15 14:12:00.000   78.251304627   16.154751527   564.4895   5   8   3.1748   2.0819  15.0528  -1.1189  -2.9462   6.3567   0.00    0.0
2018/03/15 14:12:01.000   78.251301372   16.154740420   564.3505   5   8   3.1739   2.0817  15.0472  -1.1179  -2.9441   6.3542   0.00    0.0
2018/03/15 14:12:02.000   78.251296070   16.154752653   558.4818   5   8   3.1730   2.0815  15.0417  -1.1168  -2.9419   6.3518   0.00    0.0
2018/03/15 14:12:03.000   78.251302722   16.154764334   561.0632   5   8   3.1721   2.0813  15.0362  -1.1158  -2.9397   6.3493   0.00    0.0
2018/03/15 14:12:04.000   78.251293874   16.154750089   558.8007   5   8   3.1712   2.0812  15.0307  -1.1147  -2.9376   6.3468   0.00    0.0
2018/03/15 14:12:05.000   78.251300738   16.154763293   559.7083   5   8   3.1703   2.0810  15.0251  -1.1137  -2.9354   6.3444   0.00    0.0
2018/03/15 14:12:06.000   78.251299644   16.154751767   559.8920   5   8   3.1694   2.0808  15.0196  -1.1126  -2.9333   6.3419   0.00    0.0
2018/03/15 14:12:07.000   78.251303131   16.154738352   561.9123   5   8   3.1685   2.0806  15.0140  -1.1116  -2.9311   6.3394   0.00    0.0
2018/03/15 14:12:08.000   78.251307441   16.154725080   562.7532   5   8   3.1676   2.0804  15.0085  -1.1105  -2.9290   6.3369   0.00    0.0
2018/03/15 14:12:09.000   78.251316656   16.154701917   568.6070   5   9   1.8644   2.0799   7.6246  -1.0675  -2.8469   2.6557   0.00    0.0
2018/03/15 14:12:10.000   78.251311034   16.154724576   567.8170   5   9   1.8644   2.0797   7.6248  -1.0674  -2.8465   2.6557   0.00    0.0
2018/03/15 14:12:11.000   78.251312073   16.154754967   567.3384   5   9   1.8644   2.0795   7.6250  -1.0673  -2.8462   2.6557   0.00    0.0
2018/03/15 14:12:12.000   78.251311119   16.154734990   567.1279   5   9   1.8645   2.0793   7.6252  -1.0671  -2.8458   2.6558   0.00    0.0
2018/03/15 14:12:13.000   78.251306473   16.154762255   566.2581   5   9   1.8645   2.0792   7.6254  -1.0670  -2.8454   2.6558   0.00    0.0
2018/03/15 14:12:14.000   78.251306884   16.154747710   565.2303   5   9   1.8645   2.0790   7.6256  -1.0669  -2.8450   2.6559   0.00    0.0
2018/03/15 14:12:15.000   78.251308122   16.154748686   562.8009   5   9   1.8645   2.0788   7.6258  -1.0668  -2.8447   2.6559   0.00    0.0
2018/03/15 14:12:16.000   78.251303294   16.154765012   561.2733   5   9   1.8645   2.0786   7.6260  -1.0667  -2.8443   2.6560   0.00    0.0
2018/03/15 14:12:17.000   78.251301703   16.154729988   561.5571   5   9   1.8646   2.0784   7.6262  -1.0665  -2.8439   2.6560   0.00    0.0
2018/03/15 14:12:18.000   78.251300388   16.154759673   558.8983   5   9   1.8646   2.0782   7.6264  -1.0664  -2.8435   2.6560   0.00    0.0
2018/03/15 14:12:19.000   78.251301334   16.154738578   560.2638   5   9   1.8646   2.0781   7.6266  -1.0663  -2.8431   2.6561   0.00    0.0
2018/03/15 14:12:20.000   78.251302411   16.154714694   564.0882   5   9   1.8646   2.0779   7.6268  -1.0662  -2.8428   2.6561   0.00    0.0
2018/03/15 14:12:21.000   78.251306769   16.154751910   561.9468   5   9   1.8646   2.0777   7.6270  -1.0661  -2.8424   2.6562   0.00    0.0
2018/03/15 14:12:22.000   78.251307206   16.154711251   566.4852   5   9   1.8647   2.0775   7.6272  -1.0659  -2.8420   2.6562   0.00    0.0
2018/03/15 14:12:23.000   78.251306361   16.154731706   564.3540   5   9   1.8647   2.0773   7.6274  -1.0658  -2.8416   2.6562   0.00    0.0
2018/03/15 14:12:24.000   78.251305858   16.154759305   562.4822   5   9   1.8647   2.0772   7.6276  -1.0657  -2.8412   2.6563   0.00    0.0
2018/03/15 14:12:25.000   78.251305655   16.154750738   565.8652   5   9   1.8647   2.0770   7.6278  -1.0656  -2.8409   2.6563   0.00    0.0
2018/03/15 14:12:26.000   78.251302667   16.154778463   562.5351   5   9   1.8647   2.0768   7.6280  -1.0654  -2.8405   2.6564   0.00    0.0
2018/03/15 14:12:27.000   78.251309300   16.154764185   564.7771   5   9   1.8647   2.0766   7.6282  -1.0653  -2.8401   2.6564   0.00    0.0
2018/03/15 14:12:28.000   78.251306087   16.154740219   564.6573   5   9   1.8648   2.0764   7.6284  -1.0652  -2.8397   2.6564   0.00    0.0
2018/03/15 14:12:29.000   78.251311906   16.154729500   565.3942   5   9   1.8648   2.0762   7.6286  -1.0651  -2.8393   2.6565   0.00    0.0
2018/03/15 14:12:30.000   78.251312135   16.154724900   566.8940   5   9   1.8648   2.0761   7.6288  -1.0650  -2.8389   2.6565   0.00    0.0
2018/03/15 14:12:31.000   78.251310687   16.154733278   567.3389   5   9   1.8648   2.0759   7.6290  -1.0648  -2.8386   2.6565   0.00    0.0
2018/03/15 14:12:32.000   78.251310028   16.154742789   566.3259   5   9   1.8648   2.0757   7.6291  -1.0647  -2.8382   2.6566   0.00    0.0
2018/03/15 14:12:33.000   78.251308730   16.154736998   566.9153   5   9   1.8649   2.0755   7.6293  -1.0646  -2.8378   2.6566   0.00    0.0
2018/03/15 14:12:34.000   78.251309412   16.154756255   566.6075   5   9   1.8649   2.0753   7.6295  -1.0645  -2.8374   2.6566   0.00    0.0
2018/03/15 14:12:35.000   78.251310682   16.154748527   566.4035   5   9   1.8649   2.0752   7.6297  -1.0643  -2.8370   2.6567   0.00    0.0
2018/03/15 14:12:36.000   78.251310582   16.154748503   566.3747   5   9   1.8649   2.0750   7.6299  -1.0642  -2.8366   2.6567   0.00    0.0
2018/03/15 14:12:37.000   78.251312292   16.154760515   565.8431   5   9   1.8649   2.0748   7.6301  -1.0641  -2.8362   2.6568   0.00    0.0
2018/03/15 14:12:38.000   78.251311878   16.154745718   567.7192   5   9   1.8649   2.0746   7.6303  -1.0640  -2.8358   2.6568   0.00    0.0
2018/03/15 14:12:39.000   78.251314631   16.154747877   566.2503   5   9   1.8650   2.0744   7.6304  -1.0638  -2.8354   2.6568   0.00    0.0
2018/03/15 14:12:40.000   78.251311667   16.154735479   565.9212   5   9   1.8650   2.0742   7.6306  -1.0637  -2.8351   2.6569   0.00    0.0
2018/03/15 14:12:41.000   78.251313547   16.154740561   566.8800   5   9   1.8650   2.0741   7.6308  -1.0636  -2.8347   2.6569   0.00    0.0
2018/03/15 14:12:42.000   78.251309178   16.154740439   565.2328   5   9   1.8650   2.0739   7.6310  -1.0635  -2.8343   2.6569   0.00    0.0
2018/03/15 14:12:43.000   78.251312302   16.154722318   566.4575   5   9   1.8650   2.0737   7.6312  -1.0633  -2.8339   2.6570   0.00    0.0
2018/03/15 14:12:44.000   78.251308928   16.154734341   565.0800   5   9   1.8651   2.0735   7.6313  -1.0632  -2.8335   2.6570   0.00    0.0
2018/03/15 14:12:45.000   78.251305892   16.154768942   563.4615   5   9   1.8651   2.0733   7.6315  -1.0631  -2.8331   2.6570   0.00    0.0
2018/03/15 14:12:46.000   78.251304272   16.154756476   563.8355   5   9   1.8651   2.0731   7.6317  -1.0630  -2.8327   2.6571   0.00    0.0
2018/03/15 14:12:47.000   78.251303598   16.154749324   563.0129   5   9   1.8651   2.0730   7.6319  -1.0628  -2.8323   2.6571   0.00    0.0
2018/03/15 14:12:48.000   78.251304851   16.154750426   561.4009   5   9   1.8651   2.0728   7.6320  -1.0627  -2.8319   2.6571   0.00    0.0
2018/03/15 14:12:49.000   78.251301164   16.154748307   560.9070   5   9   1.8651   2.0726   7.6322  -1.0626  -2.8315   2.6572   0.00    0.0
2018/03/15 14:12:50.000   78.251305944   16.154743237   562.1091   5   9   1.8652   2.0724   7.6324  -1.0625  -2.8311   2.6572   0.00    0.0
2018/03/15 14:12:51.000   78.251303994   16.154738814   562.0297   5   9   1.8652   2.0722   7.6325  -1.0623  -2.8307   2.6572   0.00    0.0
2018/03/15 14:12:52.000   78.251304222   16.154732923   562.4472   5   9   1.8652   2.0720   7.6327  -1.0622  -2.8303   2.6573   0.00    0.0
2018/03/15 14:12:53.000   78.251311526   16.154730169   564.9703   5   9   1.8652   2.0718   7.6329  -1.0621  -2.8299   2.6573   0.00    0.0
2018/03/15 14:12:54.000   78.251306717   16.154722926   565.7268   5   9   1.8652   2.0717   7.6330  -1.0619  -2.8295   2.6573   0.00    0.0
2018/03/15 14:12:55.000   78.251308351   16.154736665   564.3063   5   9   1.8652   2.0715   7.6332  -1.0618  -2.8291   2.6573   0.00    0.0
2018/03/15 14:12:56.000   78.251306667   16.154741623   564.7374   5   9   1.8653   2.0713   7.6334  -1.0617  -2.8287   2.6574   0.00    0.0
2018/03/15 14:12:57.000   78.251305899   16.154749344   565.3143   5   9   1.8653   2.0711   7.6335  -1.0616  -2.8283   2.6574   0.00    0.0
2018/03/15 14:12:58.000   78.251309591   16.154748438   566.0142   5   9   1.8653   2.0709   7.6337  -1.0614  -2.8279   2.6574   0.00    0.0
2018/03/15 14:12:59.000   78.251308586   16.154751576   564.4802   5   9   1.8653   2.0707   7.6339  -1.0613  -2.8275   2.6575   0.00    0.0
2018/03/15 14:13:00.000   78.251307712   16.154755356   565.0794   5   9   1.8653   2.0705   7.6340  -1.0612  -2.8271   2.6575   0.00    0.0
2018/03/15 14:13:01.000   78.251310838   16.154754549   564.9965   5   9   1.8654   2.0704   7.6342  -1.0610  -2.8267   2.6575   0.00    0.0
2018/03/15 14:13:02.000   78.251310213   16.154744773   565.0771   5   9   1.8654   2.0702   7.6343  -1.0609  -2.8263   2.6575   0.00    0.0
2018/03/15 14:13:03.000   78.251309303   16.154743063   565.5582   5   9   1.8654   2.0700   7.6345  -1.0608  -2.8259   2.6576   0.00    0.0
2018/03/15 14:13:04.000   78.251309157   16.154751518   564.9751   5   9   1.8654   2.0698   7.6347  -1.0607  -2.8255   2.6576   0.00    0.0
2018/03/15 14:13:05.000   78.251310064   16.154734737   566.9968   5   9   1.8654   2.0696   7.6348  -1.0605  -2.8251   2.6576   0.00    0.0
2018/03/15 14:13:06.000   78.251308871   16.154766099   565.4817   5   9   1.8654   2.0694   7.6350  -1.0604  -2.8247   2.6577   0.00    0.0
2018/03/15 14:13:07.000   78.251309565   16.154744169   566.1070   5   9   1.8655   2.0692   7.6351  -1.0603  -2.8243   2.6577   0.00    0.0
2018/03/15 14:13:08.000   78.251307396   16.154758260   564.1375   5   9   1.8655   2.0691   7.6353  -1.0601  -2.8238   2.6577   0.00    0.0
2018/03/15 14:13:09.000   78.251310360   16.154749236   564.3777   5   9   1.8655   2.0689   7.6354  -1.0600  -2.8234   2.6577   0.00    0.0
2018/03/15 14:13:10.000   78.251311191   16.154747639   565.5817   5   9   1.8655   2.0687   7.6356  -1.0599  -2.8230   2.6578   0.00    0.0
2018/03/15 14:13:11.000   78.251310943   16.154751588   565.4387   5   9   1.8655   2.0685   7.6357  -1.0598  -2.8226   2.6578   0.00    0.0
2018/03/15 14:13:12.000   78.251310982   16.154748764   564.8023   5   9   1.8655   2.0683   7.6359  -1.0596  -2.8222   2.6578   0.00    0.0
2018/03/15 14:13:13.000   78.251310097   16.154732746   567.0749   5   9   1.8656   2.0681   7.6360  -1.0595  -2.8218   2.6578   0.00    0.0
2018/03/15 14:13:14.000   78.251310559   16.154746601   565.6340   5   9   1.8656   2.0679   7.6362  -1.0594  -2.8214   2.6579   0.00    0.0
2018/03/15 14:13:15.000   78.251309995   16.154740966   565.1058   5   9   1.8656   2.0678   7.6363  -1.0592  -2.8210   2.6579   0.00    0.0
2018/03/15 14:13:16.000   78.251308651   16.154741459   566.0671   5   9   1.8656   2.0676   7.6365  -1.0591  -2.8205   2.6579   0.00    0.0
2018/03/15 14:13:17.000   78.251305611   16.154756519   565.0100   5   9   1.8656   2.0674   7.6366  -1.0590  -2.8201   2.6579   0.00    0.0
2018/03/15 14:13:18.000   78.251307359   16.154754150   564.0808   5   9   1.8656   2.0672   7.6368  -1.0588  -2.8197   2.6580   0.00    0.0
2018/03/15 14:13:19.000   78.251306100   16.154730380   563.5399   5   9   1.8657   2.0670   7.6369  -1.0587  -2.8193   2.6580   0.00    0.0
2018/03/15 14:13:20.000   78.251303850   16.154741019   563.0494   5   9   1.8657   2.0668   7.6370  -1.0586  -2.8189   2.6580   0.00    0.0
2018/03/15 14:13:21.000   78.251307044   16.154743981   562.0546   5   9   1.8657   2.0666   7.6372  -1.0584  -2.8185   2.6580   0.00    0.0
2018/03/15 14:13:22.000   78.251303076   16.154751971   562.0117   5   9   1.8657   2.0664   7.6373  -1.0583  -2.8181   2.6580   0.00    0.0
2018/03/15 14:13:23.000   78.251301774   16.154745355   564.0230   5   9   1.8657   2.0663   7.6375  -1.0582  -2.8176   2.6581   0.00    0.0
2018/03/15 14:13:24.000   78.251305127   16.154757572   560.4816   5   9   1.8657   2.0661   7.6376  -1.0580  -2.8172   2.6581   0.00    0.0
2018/03/15 14:13:25.000   78.251302911   16.154752562   561.0949   5   9   1.8658   2.0659   7.6377  -1.0579  -2.8168   2.6581   0.00    0.0
2018/03/15 14:13:26.000   78.251303439   16.154739123   562.7728   5   9   1.8658   2.0657   7.6379  -1.0578  -2.8164   2.6581   0.00    0.0
2018/03/15 14:13:27.000   78.251304054   16.154762323   563.4191   5   9   1.8658   2.0655   7.6380  -1.0576  -2.8160   2.6582   0.00    0.0
2018/03/15 14:13:28.000   78.251304427   16.154750579   562.4515   5   9   1.8658   2.0653   7.6381  -1.0575  -2.8155   2.6582   0.00    0.0
2018/03/15 14:13:29.000   78.251302673   16.154735795   563.7803   5   9   1.8658   2.0651   7.6383  -1.0574  -2.8151   2.6582   0.00    0.0
2018/03/15 14:13:30.000   78.251309891   16.154722716   565.8040   5   9   1.8658   2.0649   7.6384  -1.0572  -2.8147   2.6582   0.00    0.0
2018/03/15 14:13:31.000   78.251310153   16.154726190   565.6532   5   9   1.8658   2.0648   7.6385  -1.0571  -2.8143   2.6582   0.00    0.0
2018/03/15 14:13:32.000   78.251310117   16.154729544   566.3758   5   9   1.8659   2.0646   7.6387  -1.0570  -2.8138   2.6582   0.00    0.0
2018/03/15 14:13:33.000   78.251312403   16.154733727   567.0780   5   9   1.8659   2.0644   7.6388  -1.0568  -2.8134   2.6583   0.00    0.0
2018/03/15 14:13:34.000   78.251311417   16.154747267   566.1087   5   9   1.8659   2.0642   7.6389  -1.0567  -2.8130   2.6583   0.00    0.0
2018/03/15 14:13:35.000   78.251308169   16.154750225   565.6221   5   9   1.8659   2.0640   7.6390  -1.0566  -2.8126   2.6583   0.00    0.0
2018/03/15 14:13:36.000   78.251314116   16.154730907   567.2540   5   9   1.8659   2.0638   7.6392  -1.0564  -2.8121   2.6583   0.00    0.0
2018/03/15 14:13:37.000   78.251310196   16.154748879   566.0142   5   9   1.8659   2.0636   7.6393  -1.0563  -2.8117   2.6583   0.00    0.0
2018/03/15 14:13:38.000   78.251311607   16.154749091   566.8642   5   9   1.8660   2.0634   7.6394  -1.0562  -2.8113   2.6584   0.00    0.0
2018/03/15 14:13:39.000   78.251311218   16.154739954   566.2003   5   9   1.8660   2.0632   7.6395  -1.0560  -2.8109   2.6584   0.00    0.0
2018/03/15 14:13:40.000   78.251314168   16.154743729   566.2846   5   9   1.8660   2.0631   7.6397  -1.0559  -2.8104   2.6584   0.00    0.0
2018/03/15 14:13:41.000   78.251311849   16.154751704   566.4897   5   9   1.8660   2.0629   7.6398  -1.0558  -2.8100   2.6584   0.00    0.0
2018/03/15 14:13:42.000   78.251310957   16.154751708   565.3100   5   9   1.8660   2.0627   7.6399  -1.0556  -2.8096   2.6584   0.00    0.0
2018/03/15 14:13:43.000   78.251311081   16.154754384   565.2451   5   9   1.8660   2.0625   7.6400  -1.0555  -2.8091   2.6584   0.00    0.0
2018/03/15 14:13:44.000   78.251311636   16.154741173   566.8364   5   9   1.8660   2.0623   7.6401  -1.0554  -2.8087   2.6585   0.00    0.0
2018/03/15 14:13:45.000   78.251309578   16.154742835   566.4310   5   9   1.8661   2.0621   7.6402  -1.0552  -2.8083   2.6585   0.00    0.0
2018/03/15 14:13:46.000   78.251313263   16.154744533   566.3473   5   9   1.8661   2.0619   7.6404  -1.0551  -2.8079   2.6585   0.00    0.0
2018/03/15 14:13:47.000   78.251308895   16.154739221   565.7639   5   9   1.8661   2.0617   7.6405  -1.0549  -2.8074   2.6585   0.00    0.0
2018/03/15 14:13:48.000   78.251307522   16.154743062   564.1241   5   9   1.8661   2.0615   7.6406  -1.0548  -2.8070   2.6585   0.00    0.0
2018/03/15 14:13:49.000   78.251306799   16.154749264   562.6760   5   9   1.8661   2.0613   7.6407  -1.0547  -2.8066   2.6585   0.00    0.0
2018/03/15 14:13:50.000   78.251302966   16.154734525   562.7350   5   9   1.8661   2.0612   7.6408  -1.0545  -2.8061   2.6585   0.00    0.0
2018/03/15 14:13:51.000   78.251305373   16.154722883   562.3847   5   9   1.8662   2.0610   7.6409  -1.0544  -2.8057   2.6586   0.00    0.0
2018/03/15 14:13:52.000   78.251303233   16.154720858   562.6424   5   9   1.8662   2.0608   7.6410  -1.0543  -2.8052   2.6586   0.00    0.0
2018/03/15 14:13:53.000   78.251305774   16.154721920   561.9513   5   9   1.8662   2.0606   7.6411  -1.0541  -2.8048   2.6586   0.00    0.0
2018/03/15 14:13:54.000   78.251303433   16.154739407   562.5308   5   9   1.8662   2.0604   7.6412  -1.0540  -2.8044   2.6586   0.00    0.0
2018/03/15 14:13:55.000   78.251304656   16.154732102   564.0114   5   9   1.8662   2.0602   7.6414  -1.0538  -2.8039   2.6586   0.00    0.0
2018/03/15 14:13:56.000   78.251305428   16.154761325   563.3906   5   9   1.8662   2.0600   7.6415  -1.0537  -2.8035   2.6586   0.00    0.0
2018/03/15 14:13:57.000   78.251305246   16.154766354   563.1942   5   9   1.8662   2.0598   7.6416  -1.0536  -2.8031   2.6586   0.00    0.0
2018/03/15 14:13:58.000   78.251308364   16.154720709   566.7819   5   9   1.8663   2.0596   7.6417  -1.0534  -2.8026   2.6586   0.00    0.0
2018/03/15 14:13:59.000   78.251309751   16.154751714   565.3762   5   9   1.8663   2.0594   7.6418  -1.0533  -2.8022   2.6587   0.00    0.0
2018/03/15 14:14:00.000   78.251312238   16.154736911   565.2868   5   9   1.8663   2.0593   7.6419  -1.0531  -2.8017   2.6587   0.00    0.0
2018/03/15 14:14:01.000   78.251312052   16.154746169   565.9661   5   9   1.8663   2.0591   7.6420  -1.0530  -2.8013   2.6587   0.00    0.0
2018/03/15 14:14:02.000   78.251309175   16.154729079   566.6766   5   9   1.8663   2.0589   7.6421  -1.0529  -2.8009   2.6587   0.00    0.0
2018/03/15 14:14:03.000   78.251316346   16.154746565   565.8686   5   9   1.8663   2.0587   7.6422  -1.0527  -2.8004   2.6587   0.00    0.0
2018/03/15 14:14:04.000   78.251311799   16.154738472   567.4546   5   9   1.8663   2.0585   7.6423  -1.0526  -2.8000   2.6587   0.00    0.0
2018/03/15 14:14:05.000   78.251311340   16.154731481   567.7122   5   9   1.8664   2.0583   7.6424  -1.0525  -2.7995   2.6587   0.00    0.0
2018/03/15 14:14:06.000   78.251311713   16.154759410   565.7790   5   9   1.8664   2.0581   7.6425  -1.0523  -2.7991   2.6587   0.00    0.0
2018/03/15 14:14:07.000   78.251311043   16.154731961   568.8392   5   9   1.8664   2.0579   7.6425  -1.0522  -2.7986   2.6587   0.00    0.0
2018/03/15 14:14:08.000   78.251314018   16.154747417   566.6363   5   9   1.8664   2.0577   7.6426  -1.0520  -2.7982   2.6587   0.00    0.0
2018/03/15 14:14:09.000   78.251315865   16.154762284   566.3208   5   9   1.8664   2.0575   7.6427  -1.0519  -2.7977   2.6588   0.00    0.0
2018/03/15 14:14:10.000   78.251308486   16.154745244   567.6972   5   9   1.8664   2.0573   7.6428  -1.0518  -2.7973   2.6588   0.00    0.0
2018/03/15 14:14:11.000   78.251312639   16.154739678   566.7176   5   9   1.8665   2.0571   7.6429  -1.0516  -2.7969   2.6588   0.00    0.0
2018/03/15 14:14:12.000   78.251315583   16.154750922   565.3757   5   9   1.8665   2.0570   7.6430  -1.0515  -2.7964   2.6588   0.00    0.0
2018/03/15 14:14:13.000   78.251311722   16.154699020   568.7528   5   9   1.8665   2.0568   7.6431  -1.0513  -2.7960   2.6588   0.00    0.0
2018/03/15 14:14:14.000   78.251312703   16.154725916   565.5939   5   9   1.8665   2.0566   7.6432  -1.0512  -2.7955   2.6588   0.00    0.0
2018/03/15 14:14:15.000   78.251310382   16.154754736   565.3055   5   9   1.8665   2.0564   7.6433  -1.0510  -2.7951   2.6588   0.00    0.0
2018/03/15 14:14:16.000   78.251308853   16.154727417   566.6788   5   9   1.8665   2.0562   7.6434  -1.0509  -2.7946   2.6588   0.00    0.0
2018/03/15 14:14:17.000   78.251307704   16.154739308   564.8046   5   9   1.8665   2.0560   7.6434  -1.0508  -2.7942   2.6588   0.00    0.0
2018/03/15 14:14:18.000   78.251312336   16.154715046   565.0199   5   9   1.8665   2.0558   7.6435  -1.0506  -2.7937   2.6588   0.00    0.0
2018/03/15 14:14:19.000   78.251306683   16.154728646   563.7297   5   9   1.8666   2.0556   7.6436  -1.0505  -2.7933   2.6588   0.00    0.0
2018/03/15 14:14:20.000   78.251302992   16.154749786   562.4972   5   9   1.8666   2.0554   7.6437  -1.0503  -2.7928   2.6588   0.00    0.0
2018/03/15 14:14:21.000   78.251301897   16.154751188   560.7480   5   9   1.8666   2.0552   7.6438  -1.0502  -2.7923   2.6588   0.00    0.0
2018/03/15 14:14:22.000   78.251302341   16.154732172   561.0545   5   9   1.8666   2.0550   7.6438  -1.0501  -2.7919   2.6588   0.00    0.0
2018/03/15 14:14:23.000   78.251302507   16.154731248   560.4016   5   9   1.8666   2.0548   7.6439  -1.0499  -2.7914   2.6588   0.00    0.0
2018/03/15 14:14:24.000   78.251305315   16.154753742   561.0084   5   9   1.8666   2.0546   7.6440  -1.0498  -2.7910   2.6588   0.00    0.0
2018/03/15 14:14:25.000   78.251305471   16.154739554   562.5937   5   9   1.8666   2.0545   7.6441  -1.0496  -2.7905   2.6589   0.00    0.0
2018/03/15 14:14:26.000   78.251309103   16.154752901   564.6068   5   9   1.8667   2.0543   7.6442  -1.0495  -2.7901   2.6589   0.00    0.0
2018/03/15 14:14:27.000   78.251309846   16.154754933   564.5564   5   9   1.8667   2.0541   7.6442  -1.0493  -2.7896   2.6589   0.00    0.0
2018/03/15 14:14:28.000   78.251308540   16.154761671   565.3241   5   9   1.8667   2.0539   7.6443  -1.0492  -2.7892   2.6589   0.00    0.0
2018/03/15 14:14:29.000   78.251307323   16.154763650   565.4255   5   9   1.8667   2.0537   7.6444  -1.0490  -2.7887   2.6589   0.00    0.0
2018/03/15 14:14:30.000   78.251309539   16.154770591   565.5454   5   9   1.8667   2.0535   7.6444  -1.0489  -2.7882   2.6589   0.00    0.0
2018/03/15 14:14:31.000   78.251310596   16.154743453   565.8629   5   9   1.8667   2.0533   7.6445  -1.0488  -2.7878   2.6589   0.00    0.0
2018/03/15 14:14:32.000   78.251311517   16.154753594   567.0204   5   9   1.8667   2.0531   7.6446  -1.0486  -2.7873   2.6589   0.00    0.0
2018/03/15 14:14:33.000   78.251313396   16.154739636   567.8973   5   9   1.8668   2.0529   7.6447  -1.0485  -2.7869   2.6589   0.00    0.0
2018/03/15 14:14:34.000   78.251317279   16.154738394   566.6235   5   9   1.8668   2.0527   7.6447  -1.0483  -2.7864   2.6589   0.00    0.0
2018/03/15 14:14:35.000   78.251314189   16.154736256   567.9935   5   9   1.8668   2.0525   7.6448  -1.0482  -2.7859   2.6589   0.00    0.0
2018/03/15 14:14:36.000   78.251313323   16.154725270   568.4073   5   9   1.8668   2.0523   7.6449  -1.0480  -2.7855   2.6589   0.00    0.0
2018/03/15 14:14:37.000   78.251313431   16.154737109   567.0062   5   9   1.8668   2.0521   7.6449  -1.0479  -2.7850   2.6589   0.00    0.0
2018/03/15 14:14:38.000   78.251311753   16.154737957   567.9082   5   9   1.8668   2.0519   7.6450  -1.0477  -2.7845   2.6589   0.00    0.0
2018/03/15 14:14:39.000   78.251311093   16.154725806   568.0403   5   9   1.8668   2.0517   7.6450  -1.0476  -2.7841   2.6589   0.00    0.0
2018/03/15 14:14:40.000   78.251311318   16.154755360   566.0226   5   9   1.8669   2.0515   7.6451  -1.0475  -2.7836   2.6589   0.00    0.0
2018/03/15 14:14:41.000   78.251309806   16.154745857   566.3865   5   9   1.8669   2.0514   7.6452  -1.0473  -2.7831   2.6589   0.00    0.0
2018/03/15 14:14:42.000   78.251313345   16.154748279   568.3343   5   9   1.8669   2.0512   7.6452  -1.0472  -2.7827   2.6589   0.00    0.0
2018/03/15 14:14:43.000   78.251316604   16.154753195   567.6455   5   9   1.8669   2.0510   7.6453  -1.0470  -2.7822   2.6589   0.00    0.0
2018/03/15 14:14:44.000   78.251312404   16.154742211   566.3387   5   9   1.8669   2.0508   7.6453  -1.0469  -2.7817   2.6589   0.00    0.0
2018/03/15 14:14:45.000   78.251314278   16.154741752   566.5517   5   9   1.8669   2.0506   7.6454  -1.0467  -2.7813   2.6589   0.00    0.0
2018/03/15 14:14:46.000   78.251311840   16.154746301   565.3466   5   9   1.8669   2.0504   7.6455  -1.0466  -2.7808   2.6589   0.00    0.0
