% program   : RTKPOST ver.2.4.2
% inp file  : Z:\home\linda\Documents\Spring18\GitHub_Unis\data\processed_data\46250749.obs
% inp file  : Z:\home\linda\Documents\Spring18\GitHub_Unis\data\base_station_data\lyrs0740.18o
% inp file  : Z:\home\linda\Documents\Spring18\GitHub_Unis\data\processed_data\46250749.nav
% obs start : 2018/03/15 10:09:16.0 GPST (week1992 382156.0s)
% obs end   : 2018/03/15 10:24:33.0 GPST (week1992 383073.0s)
% pos mode  : static
% freqs     : L1+L2
% solution  : forward
% elev mask : 15.0 deg
% dynamics  : on
% tidecorr  : off
% ionos opt : broadcast
% tropo opt : saastamoinen
% ephemeris : broadcast
% navi sys  : gps glonass galileo qzss sbas
% amb res   : fix and hold
% amb glo   : on
% val thres : 3.0
% antenna1  :                       ( 0.0000  0.0000  0.0000)
% antenna2  :                       ( 0.0000  0.0000  0.0000)
% ref pos   : 78.228825638   15.397310064   495.6816
%
% (lat/lon/height=WGS84/ellipsoidal,Q=1:fix,2:float,3:sbas,4:dgps,5:single,6:ppp,ns=# of satellites)
%  GPST                  latitude(deg) longitude(deg)  height(m)   Q  ns   sdn(m)   sde(m)   sdu(m)  sdne(m)  sdeu(m)  sdun(m) age(s)  ratio
2018/03/15 10:09:16.000   78.247134297   16.013800973   438.3539   1   9   0.0060   0.0032   0.0200   0.0018   0.0039   0.0088   0.00    3.1
2018/03/15 10:09:17.000   78.247134314   16.013800945   438.3557   1   9   0.0042   0.0023   0.0142   0.0013   0.0028   0.0062   0.00    3.2
2018/03/15 10:09:18.000   78.247134338   16.013800973   438.3596   1   9   0.0034   0.0019   0.0116   0.0011   0.0023   0.0051   0.00    3.4
2018/03/15 10:09:19.000   78.247134358   16.013800996   438.3636   1   9   0.0030   0.0016   0.0100   0.0009   0.0020   0.0044   0.00    3.7
2018/03/15 10:09:20.000   78.247134378   16.013801018   438.3684   1   9   0.0027   0.0014   0.0090   0.0008   0.0017   0.0039   0.00    3.8
2018/03/15 10:09:21.000   78.247134389   16.013801032   438.3697   1   9   0.0024   0.0013   0.0082   0.0007   0.0016   0.0036   0.00    4.2
2018/03/15 10:09:22.000   78.247134400   16.013801034   438.3730   1   9   0.0023   0.0012   0.0076   0.0007   0.0015   0.0033   0.00    4.4
2018/03/15 10:09:23.000   78.247134408   16.013801033   438.3773   1   9   0.0021   0.0011   0.0071   0.0006   0.0014   0.0031   0.00    5.3
2018/03/15 10:09:24.000   78.247134411   16.013801036   438.3793   1   9   0.0020   0.0011   0.0067   0.0006   0.0013   0.0029   0.00    5.7
2018/03/15 10:09:25.000   78.247134408   16.013801030   438.3806   1   9   0.0019   0.0010   0.0063   0.0006   0.0012   0.0028   0.00    6.0
2018/03/15 10:09:26.000   78.247134407   16.013801020   438.3815   1   9   0.0018   0.0010   0.0060   0.0006   0.0012   0.0027   0.00   28.6
2018/03/15 10:09:27.000   78.247134407   16.013801000   438.3818   1   9   0.0017   0.0009   0.0058   0.0005   0.0011   0.0025   0.00   39.4
2018/03/15 10:09:28.000   78.247134409   16.013800982   438.3829   1   9   0.0017   0.0009   0.0056   0.0005   0.0011   0.0024   0.00   52.1
2018/03/15 10:09:29.000   78.247134408   16.013800959   438.3832   1   9   0.0016   0.0009   0.0054   0.0005   0.0010   0.0024   0.00   66.0
2018/03/15 10:09:30.000   78.247134404   16.013800924   438.3811   1   9   0.0015   0.0008   0.0052   0.0005   0.0010   0.0023   0.00   83.5
2018/03/15 10:09:31.000   78.247134402   16.013800892   438.3810   1   9   0.0015   0.0008   0.0050   0.0005   0.0010   0.0022   0.00  104.5
2018/03/15 10:09:32.000   78.247134398   16.013800860   438.3795   1   9   0.0014   0.0008   0.0049   0.0004   0.0009   0.0021   0.00  116.0
2018/03/15 10:09:33.000   78.247134392   16.013800834   438.3774   1   9   0.0014   0.0008   0.0047   0.0004   0.0009   0.0021   0.00  124.5
2018/03/15 10:09:34.000   78.247134392   16.013800806   438.3777   1   9   0.0014   0.0007   0.0046   0.0004   0.0009   0.0020   0.00  129.6
2018/03/15 10:09:35.000   78.247134390   16.013800780   438.3773   1   9   0.0013   0.0007   0.0045   0.0004   0.0009   0.0020   0.00  131.9
2018/03/15 10:09:36.000   78.247134384   16.013800754   438.3755   1   9   0.0013   0.0007   0.0044   0.0004   0.0009   0.0019   0.00  131.5
2018/03/15 10:09:37.000   78.247134377   16.013800722   438.3734   1   9   0.0013   0.0007   0.0043   0.0004   0.0008   0.0019   0.00  132.0
2018/03/15 10:09:38.000   78.247134370   16.013800692   438.3712   1   9   0.0012   0.0007   0.0042   0.0004   0.0008   0.0018   0.00  129.1
2018/03/15 10:09:39.000   78.247134364   16.013800659   438.3689   1   9   0.0012   0.0007   0.0041   0.0004   0.0008   0.0018   0.00  125.3
2018/03/15 10:09:40.000   78.247134361   16.013800626   438.3670   1   9   0.0012   0.0006   0.0040   0.0004   0.0008   0.0018   0.00  121.3
2018/03/15 10:09:41.000   78.247134358   16.013800597   438.3654   1   9   0.0012   0.0006   0.0039   0.0004   0.0008   0.0017   0.00  117.0
2018/03/15 10:09:42.000   78.247134355   16.013800573   438.3637   1   9   0.0012   0.0006   0.0039   0.0004   0.0008   0.0017   0.00  116.0
2018/03/15 10:09:43.000   78.247134351   16.013800556   438.3610   1   9   0.0011   0.0006   0.0038   0.0003   0.0007   0.0017   0.00  115.4
2018/03/15 10:09:44.000   78.247134342   16.013800542   438.3575   1   9   0.0011   0.0006   0.0037   0.0003   0.0007   0.0016   0.00  113.4
2018/03/15 10:09:45.000   78.247134338   16.013800520   438.3550   1   9   0.0011   0.0006   0.0037   0.0003   0.0007   0.0016   0.00  109.5
2018/03/15 10:09:46.000   78.247134335   16.013800506   438.3522   1   9   0.0011   0.0006   0.0036   0.0003   0.0007   0.0016   0.00  106.7
2018/03/15 10:09:47.000   78.247134334   16.013800494   438.3496   1   9   0.0011   0.0006   0.0035   0.0003   0.0007   0.0016   0.00  103.2
2018/03/15 10:09:48.000   78.247134334   16.013800484   438.3471   1   9   0.0010   0.0006   0.0035   0.0003   0.0007   0.0015   0.00   99.4
2018/03/15 10:09:49.000   78.247134334   16.013800475   438.3445   1   9   0.0010   0.0006   0.0034   0.0003   0.0007   0.0015   0.00   96.9
2018/03/15 10:09:50.000   78.247134332   16.013800474   438.3416   1   9   0.0010   0.0005   0.0034   0.0003   0.0007   0.0015   0.00   94.9
2018/03/15 10:09:51.000   78.247134331   16.013800475   438.3393   1   9   0.0010   0.0005   0.0033   0.0003   0.0007   0.0015   0.00   92.8
2018/03/15 10:09:52.000   78.247134331   16.013800475   438.3376   1   9   0.0010   0.0005   0.0033   0.0003   0.0006   0.0015   0.00   91.2
2018/03/15 10:09:53.000   78.247134334   16.013800477   438.3360   1   9   0.0010   0.0005   0.0033   0.0003   0.0006   0.0014   0.00   89.3
2018/03/15 10:09:54.000   78.247134337   16.013800484   438.3353   1   9   0.0010   0.0005   0.0032   0.0003   0.0006   0.0014   0.00   88.5
2018/03/15 10:09:55.000   78.247134340   16.013800487   438.3340   1   9   0.0009   0.0005   0.0032   0.0003   0.0006   0.0014   0.00   88.7
2018/03/15 10:09:56.000   78.247134342   16.013800490   438.3324   1   9   0.0009   0.0005   0.0031   0.0003   0.0006   0.0014   0.00   89.8
2018/03/15 10:09:57.000   78.247134345   16.013800496   438.3310   1   9   0.0009   0.0005   0.0031   0.0003   0.0006   0.0014   0.00   91.1
2018/03/15 10:09:58.000   78.247134348   16.013800500   438.3296   1   9   0.0009   0.0005   0.0031   0.0003   0.0006   0.0014   0.00   92.7
2018/03/15 10:09:59.000   78.247134352   16.013800508   438.3287   1   9   0.0009   0.0005   0.0030   0.0003   0.0006   0.0013   0.00   93.7
2018/03/15 10:10:00.000   78.247134356   16.013800509   438.3278   1   9   0.0009   0.0005   0.0030   0.0003   0.0006   0.0013   0.00   95.0
2018/03/15 10:10:01.000   78.247134360   16.013800510   438.3275   1   9   0.0009   0.0005   0.0030   0.0003   0.0006   0.0013   0.00   95.7
2018/03/15 10:10:02.000   78.247134363   16.013800509   438.3271   1   9   0.0009   0.0005   0.0029   0.0003   0.0006   0.0013   0.00   94.6
2018/03/15 10:10:03.000   78.247134366   16.013800502   438.3271   1   9   0.0009   0.0005   0.0029   0.0003   0.0006   0.0013   0.00   92.2
2018/03/15 10:10:04.000   78.247134368   16.013800497   438.3269   1   9   0.0009   0.0005   0.0029   0.0003   0.0006   0.0013   0.00   89.6
2018/03/15 10:10:05.000   78.247134368   16.013800491   438.3270   1   9   0.0008   0.0005   0.0028   0.0003   0.0006   0.0013   0.00   87.1
2018/03/15 10:10:06.000   78.247134369   16.013800485   438.3268   1   9   0.0008   0.0005   0.0028   0.0003   0.0005   0.0012   0.00   84.4
2018/03/15 10:10:07.000   78.247134372   16.013800479   438.3272   1   9   0.0008   0.0005   0.0028   0.0003   0.0005   0.0012   0.00   81.4
2018/03/15 10:10:08.000   78.247134375   16.013800475   438.3274   1   9   0.0008   0.0004   0.0028   0.0003   0.0005   0.0012   0.00   78.3
2018/03/15 10:10:09.000   78.247134376   16.013800470   438.3271   1   9   0.0008   0.0004   0.0027   0.0003   0.0005   0.0012   0.00   75.8
2018/03/15 10:10:10.000   78.247134374   16.013800466   438.3259   1   9   0.0008   0.0004   0.0027   0.0002   0.0005   0.0012   0.00   73.1
2018/03/15 10:10:11.000   78.247134373   16.013800462   438.3245   1   9   0.0008   0.0004   0.0027   0.0002   0.0005   0.0012   0.00   70.6
2018/03/15 10:10:12.000   78.247134372   16.013800459   438.3233   1   9   0.0008   0.0004   0.0027   0.0002   0.0005   0.0012   0.00   68.0
2018/03/15 10:10:13.000   78.247134373   16.013800461   438.3220   1   9   0.0008   0.0004   0.0026   0.0002   0.0005   0.0012   0.00   65.9
2018/03/15 10:10:14.000   78.247134374   16.013800464   438.3209   1   9   0.0008   0.0004   0.0026   0.0002   0.0005   0.0012   0.00   64.2
2018/03/15 10:10:15.000   78.247134375   16.013800468   438.3196   1   9   0.0008   0.0004   0.0026   0.0002   0.0005   0.0011   0.00   62.9
2018/03/15 10:10:16.000   78.247134377   16.013800475   438.3183   1   9   0.0008   0.0004   0.0026   0.0002   0.0005   0.0011   0.00   61.5
2018/03/15 10:10:17.000   78.247134376   16.013800485   438.3165   1   9   0.0008   0.0004   0.0026   0.0002   0.0005   0.0011   0.00   60.4
2018/03/15 10:10:18.000   78.247134375   16.013800494   438.3143   1   9   0.0008   0.0004   0.0025   0.0002   0.0005   0.0011   0.00   59.9
2018/03/15 10:10:19.000   78.247134374   16.013800499   438.3121   1   9   0.0008   0.0004   0.0025   0.0002   0.0005   0.0011   0.00   59.1
2018/03/15 10:10:20.000   78.247134374   16.013800505   438.3100   1   9   0.0007   0.0004   0.0025   0.0002   0.0005   0.0011   0.00   58.9
2018/03/15 10:10:21.000   78.247134373   16.013800511   438.3084   1   9   0.0007   0.0004   0.0025   0.0002   0.0005   0.0011   0.00   58.8
2018/03/15 10:10:22.000   78.247134371   16.013800515   438.3068   1   9   0.0007   0.0004   0.0025   0.0002   0.0005   0.0011   0.00   58.8
2018/03/15 10:10:23.000   78.247134370   16.013800515   438.3054   1   9   0.0007   0.0004   0.0024   0.0002   0.0005   0.0011   0.00   58.4
2018/03/15 10:10:24.000   78.247134368   16.013800517   438.3038   1   9   0.0007   0.0004   0.0024   0.0002   0.0005   0.0011   0.00   58.4
2018/03/15 10:10:25.000   78.247134366   16.013800519   438.3023   1   9   0.0007   0.0004   0.0024   0.0002   0.0005   0.0011   0.00   58.2
2018/03/15 10:10:26.000   78.247134364   16.013800520   438.3011   1   9   0.0007   0.0004   0.0024   0.0002   0.0005   0.0011   0.00   58.1
2018/03/15 10:10:27.000   78.247134364   16.013800522   438.3004   1   9   0.0007   0.0004   0.0024   0.0002   0.0005   0.0010   0.00   57.8
2018/03/15 10:10:28.000   78.247134365   16.013800525   438.3000   1   9   0.0007   0.0004   0.0024   0.0002   0.0005   0.0010   0.00   57.8
2018/03/15 10:10:29.000   78.247134366   16.013800528   438.2999   1   9   0.0007   0.0004   0.0023   0.0002   0.0005   0.0010   0.00   57.8
2018/03/15 10:10:30.000   78.247134367   16.013800531   438.2999   1   9   0.0007   0.0004   0.0023   0.0002   0.0005   0.0010   0.00   57.7
2018/03/15 10:10:31.000   78.247134368   16.013800535   438.2999   1   9   0.0007   0.0004   0.0023   0.0002   0.0005   0.0010   0.00   57.7
2018/03/15 10:10:32.000   78.247134368   16.013800538   438.2999   1   9   0.0007   0.0004   0.0023   0.0002   0.0004   0.0010   0.00   57.5
2018/03/15 10:10:33.000   78.247134369   16.013800536   438.3001   1   9   0.0007   0.0004   0.0023   0.0002   0.0004   0.0010   0.00   57.4
2018/03/15 10:10:34.000   78.247134369   16.013800533   438.3004   1   9   0.0007   0.0004   0.0023   0.0002   0.0004   0.0010   0.00   56.8
2018/03/15 10:10:35.000   78.247134369   16.013800529   438.3005   1   9   0.0007   0.0004   0.0023   0.0002   0.0004   0.0010   0.00   56.3
2018/03/15 10:10:36.000   78.247134371   16.013800525   438.3007   1   9   0.0007   0.0004   0.0022   0.0002   0.0004   0.0010   0.00   55.7
2018/03/15 10:10:37.000   78.247134372   16.013800522   438.3008   1   9   0.0007   0.0004   0.0022   0.0002   0.0004   0.0010   0.00   55.0
2018/03/15 10:10:38.000   78.247134373   16.013800517   438.3009   1   9   0.0007   0.0004   0.0022   0.0002   0.0004   0.0010   0.00   54.0
2018/03/15 10:10:39.000   78.247134375   16.013800511   438.3008   1   9   0.0007   0.0004   0.0022   0.0002   0.0004   0.0010   0.00   52.8
2018/03/15 10:10:40.000   78.247134377   16.013800506   438.3011   1   9   0.0007   0.0004   0.0022   0.0002   0.0004   0.0010   0.00   51.3
2018/03/15 10:10:41.000   78.247134380   16.013800500   438.3014   1   9   0.0007   0.0004   0.0022   0.0002   0.0004   0.0010   0.00   49.7
2018/03/15 10:10:42.000   78.247134383   16.013800496   438.3015   1   9   0.0006   0.0004   0.0022   0.0002   0.0004   0.0010   0.00   48.1
2018/03/15 10:10:43.000   78.247134386   16.013800492   438.3015   1   9   0.0006   0.0003   0.0022   0.0002   0.0004   0.0010   0.00   46.7
2018/03/15 10:10:44.000   78.247134388   16.013800488   438.3015   1   9   0.0006   0.0003   0.0021   0.0002   0.0004   0.0009   0.00   45.3
2018/03/15 10:10:45.000   78.247134389   16.013800483   438.3013   1   9   0.0006   0.0003   0.0021   0.0002   0.0004   0.0009   0.00   44.0
2018/03/15 10:10:46.000   78.247134389   16.013800480   438.3010   1   9   0.0006   0.0003   0.0021   0.0002   0.0004   0.0009   0.00   42.6
2018/03/15 10:10:47.000   78.247134391   16.013800476   438.3015   1   9   0.0006   0.0003   0.0021   0.0002   0.0004   0.0009   0.00   41.6
2018/03/15 10:10:48.000   78.247134392   16.013800474   438.3020   1   9   0.0006   0.0003   0.0021   0.0002   0.0004   0.0009   0.00   40.8
2018/03/15 10:10:49.000   78.247134394   16.013800472   438.3027   1   9   0.0006   0.0003   0.0021   0.0002   0.0004   0.0009   0.00   40.3
2018/03/15 10:10:50.000   78.247134395   16.013800471   438.3032   1   9   0.0006   0.0003   0.0021   0.0002   0.0004   0.0009   0.00   40.1
2018/03/15 10:10:51.000   78.247134396   16.013800470   438.3039   1   9   0.0006   0.0003   0.0021   0.0002   0.0004   0.0009   0.00   40.1
2018/03/15 10:10:52.000   78.247134396   16.013800469   438.3047   1   9   0.0006   0.0003   0.0021   0.0002   0.0004   0.0009   0.00   40.2
2018/03/15 10:10:53.000   78.247134397   16.013800467   438.3058   1   9   0.0006   0.0003   0.0020   0.0002   0.0004   0.0009   0.00   40.3
2018/03/15 10:10:54.000   78.247134397   16.013800465   438.3071   1   9   0.0006   0.0003   0.0020   0.0002   0.0004   0.0009   0.00   40.5
2018/03/15 10:10:55.000   78.247134398   16.013800461   438.3087   1   9   0.0006   0.0003   0.0020   0.0002   0.0004   0.0009   0.00   40.6
2018/03/15 10:10:56.000   78.247134398   16.013800456   438.3107   1   9   0.0006   0.0003   0.0020   0.0002   0.0004   0.0009   0.00   40.6
2018/03/15 10:10:57.000   78.247134398   16.013800450   438.3127   1   9   0.0006   0.0003   0.0020   0.0002   0.0004   0.0009   0.00   40.6
2018/03/15 10:10:58.000   78.247134398   16.013800443   438.3149   1   9   0.0006   0.0003   0.0020   0.0002   0.0004   0.0009   0.00   40.7
2018/03/15 10:10:59.000   78.247134398   16.013800437   438.3174   1   9   0.0006   0.0003   0.0020   0.0002   0.0004   0.0009   0.00   40.8
2018/03/15 10:11:00.000   78.247134397   16.013800431   438.3198   1   9   0.0006   0.0003   0.0020   0.0002   0.0004   0.0009   0.00   40.9
2018/03/15 10:11:01.000   78.247134396   16.013800425   438.3222   1   9   0.0006   0.0003   0.0020   0.0002   0.0004   0.0009   0.00   41.0
2018/03/15 10:11:02.000   78.247134394   16.013800419   438.3244   1   9   0.0006   0.0003   0.0020   0.0002   0.0004   0.0009   0.00   40.9
2018/03/15 10:11:03.000   78.247134392   16.013800416   438.3268   1   9   0.0006   0.0003   0.0020   0.0002   0.0004   0.0009   0.00   40.8
2018/03/15 10:11:04.000   78.247134390   16.013800414   438.3289   1   9   0.0006   0.0003   0.0019   0.0002   0.0004   0.0009   0.00   40.7
2018/03/15 10:11:05.000   78.247134389   16.013800415   438.3311   1   9   0.0006   0.0003   0.0019   0.0002   0.0004   0.0009   0.00   40.7
2018/03/15 10:11:06.000   78.247134388   16.013800417   438.3330   1   9   0.0006   0.0003   0.0019   0.0002   0.0004   0.0009   0.00   40.8
2018/03/15 10:11:07.000   78.247134386   16.013800421   438.3346   1   9   0.0006   0.0003   0.0019   0.0002   0.0004   0.0008   0.00   41.1
2018/03/15 10:11:08.000   78.247134385   16.013800425   438.3357   1   9   0.0006   0.0003   0.0019   0.0002   0.0004   0.0008   0.00   41.4
2018/03/15 10:11:09.000   78.247134384   16.013800431   438.3366   1   9   0.0006   0.0003   0.0019   0.0002   0.0004   0.0008   0.00   41.7
2018/03/15 10:11:10.000   78.247134383   16.013800438   438.3373   1   9   0.0006   0.0003   0.0019   0.0002   0.0004   0.0008   0.00   42.1
2018/03/15 10:11:11.000   78.247134384   16.013800447   438.3376   1   9   0.0006   0.0003   0.0019   0.0002   0.0004   0.0008   0.00   42.4
2018/03/15 10:11:12.000   78.247134384   16.013800459   438.3375   1   9   0.0006   0.0003   0.0019   0.0002   0.0004   0.0008   0.00   42.8
2018/03/15 10:11:13.000   78.247134385   16.013800475   438.3372   1   9   0.0006   0.0003   0.0019   0.0002   0.0004   0.0008   0.00   43.2
2018/03/15 10:11:14.000   78.247134387   16.013800494   438.3370   1   9   0.0006   0.0003   0.0019   0.0002   0.0004   0.0008   0.00   43.6
2018/03/15 10:11:15.000   78.247134389   16.013800514   438.3369   1   9   0.0006   0.0003   0.0019   0.0002   0.0004   0.0008   0.00   44.0
2018/03/15 10:11:16.000   78.247134391   16.013800534   438.3367   1   9   0.0006   0.0003   0.0019   0.0002   0.0004   0.0008   0.00   44.4
2018/03/15 10:11:17.000   78.247134394   16.013800555   438.3368   1   9   0.0006   0.0003   0.0018   0.0002   0.0004   0.0008   0.00   45.0
2018/03/15 10:11:18.000   78.247134397   16.013800576   438.3369   1   9   0.0005   0.0003   0.0018   0.0002   0.0004   0.0008   0.00   45.5
2018/03/15 10:11:19.000   78.247134399   16.013800595   438.3368   1   9   0.0005   0.0003   0.0018   0.0002   0.0004   0.0008   0.00   46.4
2018/03/15 10:11:20.000   78.247134401   16.013800611   438.3364   1   9   0.0005   0.0003   0.0018   0.0002   0.0004   0.0008   0.00   47.6
2018/03/15 10:11:21.000   78.247134403   16.013800623   438.3360   1   9   0.0005   0.0003   0.0018   0.0002   0.0004   0.0008   0.00   49.0
2018/03/15 10:11:22.000   78.247134405   16.013800637   438.3358   1   9   0.0005   0.0003   0.0018   0.0002   0.0004   0.0008   0.00   50.6
2018/03/15 10:11:23.000   78.247134406   16.013800650   438.3354   1   9   0.0005   0.0003   0.0018   0.0002   0.0004   0.0008   0.00   52.4
2018/03/15 10:11:24.000   78.247134408   16.013800664   438.3349   1   9   0.0005   0.0003   0.0018   0.0002   0.0003   0.0008   0.00   54.2
2018/03/15 10:11:25.000   78.247134409   16.013800678   438.3342   1   9   0.0005   0.0003   0.0018   0.0002   0.0003   0.0008   0.00   56.0
2018/03/15 10:11:26.000   78.247134410   16.013800691   438.3333   1   9   0.0005   0.0003   0.0018   0.0002   0.0003   0.0008   0.00   57.8
2018/03/15 10:11:27.000   78.247134411   16.013800703   438.3322   1   9   0.0005   0.0003   0.0018   0.0002   0.0003   0.0008   0.00   59.5
2018/03/15 10:11:28.000   78.247134412   16.013800714   438.3308   1   9   0.0005   0.0003   0.0018   0.0002   0.0003   0.0008   0.00   61.4
2018/03/15 10:11:29.000   78.247134413   16.013800723   438.3295   1   9   0.0005   0.0003   0.0018   0.0002   0.0003   0.0008   0.00   63.3
2018/03/15 10:11:30.000   78.247134414   16.013800731   438.3283   1   9   0.0005   0.0003   0.0018   0.0002   0.0003   0.0008   0.00   65.3
2018/03/15 10:11:31.000   78.247134415   16.013800739   438.3273   1   9   0.0005   0.0003   0.0018   0.0002   0.0003   0.0008   0.00   67.2
2018/03/15 10:11:32.000   78.247134416   16.013800745   438.3265   1   9   0.0005   0.0003   0.0017   0.0002   0.0003   0.0008   0.00   69.0
2018/03/15 10:11:33.000   78.247134417   16.013800750   438.3258   1   9   0.0005   0.0003   0.0017   0.0002   0.0003   0.0008   0.00   70.5
2018/03/15 10:11:34.000   78.247134417   16.013800756   438.3253   1   9   0.0005   0.0003   0.0017   0.0002   0.0003   0.0008   0.00   72.3
2018/03/15 10:11:35.000   78.247134417   16.013800759   438.3249   1   9   0.0005   0.0003   0.0017   0.0002   0.0003   0.0008   0.00   74.4
2018/03/15 10:11:36.000   78.247134417   16.013800761   438.3246   1   9   0.0005   0.0003   0.0017   0.0002   0.0003   0.0008   0.00   76.6
2018/03/15 10:11:37.000   78.247134417   16.013800762   438.3243   1   9   0.0005   0.0003   0.0017   0.0002   0.0003   0.0008   0.00   78.8
2018/03/15 10:11:38.000   78.247134416   16.013800762   438.3238   1   9   0.0005   0.0003   0.0017   0.0002   0.0003   0.0008   0.00   80.8
2018/03/15 10:11:39.000   78.247134414   16.013800761   438.3235   1   9   0.0005   0.0003   0.0017   0.0002   0.0003   0.0008   0.00   83.0
2018/03/15 10:11:40.000   78.247134412   16.013800758   438.3231   1   9   0.0005   0.0003   0.0017   0.0002   0.0003   0.0008   0.00   85.4
2018/03/15 10:11:41.000   78.247134410   16.013800754   438.3229   1   9   0.0005   0.0003   0.0017   0.0002   0.0003   0.0008   0.00   87.7
2018/03/15 10:11:42.000   78.247134407   16.013800750   438.3229   1   9   0.0005   0.0003   0.0017   0.0002   0.0003   0.0007   0.00   89.8
2018/03/15 10:11:43.000   78.247134405   16.013800746   438.3228   1   9   0.0005   0.0003   0.0017   0.0002   0.0003   0.0007   0.00   91.8
2018/03/15 10:11:44.000   78.247134402   16.013800740   438.3226   1   9   0.0005   0.0003   0.0017   0.0002   0.0003   0.0007   0.00   93.7
2018/03/15 10:11:45.000   78.247134400   16.013800735   438.3225   1   9   0.0005   0.0003   0.0017   0.0002   0.0003   0.0007   0.00   95.7
2018/03/15 10:11:46.000   78.247134397   16.013800729   438.3221   1   9   0.0005   0.0003   0.0017   0.0002   0.0003   0.0007   0.00   97.7
2018/03/15 10:11:47.000   78.247134393   16.013800723   438.3215   1   9   0.0005   0.0003   0.0017   0.0002   0.0003   0.0007   0.00   99.4
2018/03/15 10:11:48.000   78.247134390   16.013800715   438.3208   1   9   0.0005   0.0003   0.0017   0.0002   0.0003   0.0007   0.00  101.2
2018/03/15 10:11:49.000   78.247134386   16.013800705   438.3202   1   9   0.0005   0.0003   0.0017   0.0002   0.0003   0.0007   0.00  103.1
2018/03/15 10:11:50.000   78.247134383   16.013800695   438.3199   1   9   0.0005   0.0003   0.0016   0.0002   0.0003   0.0007   0.00  104.9
2018/03/15 10:11:51.000   78.247134380   16.013800684   438.3197   1   9   0.0005   0.0003   0.0016   0.0001   0.0003   0.0007   0.00  106.4
2018/03/15 10:11:52.000   78.247134377   16.013800675   438.3197   1   9   0.0005   0.0003   0.0016   0.0001   0.0003   0.0007   0.00  107.6
2018/03/15 10:11:53.000   78.247134374   16.013800666   438.3198   1   9   0.0005   0.0003   0.0016   0.0001   0.0003   0.0007   0.00  108.4
2018/03/15 10:11:54.000   78.247134371   16.013800657   438.3199   1   9   0.0005   0.0003   0.0016   0.0001   0.0003   0.0007   0.00  108.7
2018/03/15 10:11:55.000   78.247134368   16.013800646   438.3201   1   9   0.0005   0.0003   0.0016   0.0001   0.0003   0.0007   0.00  109.3
2018/03/15 10:11:56.000   78.247134365   16.013800635   438.3205   1   9   0.0005   0.0003   0.0016   0.0001   0.0003   0.0007   0.00  109.6
2018/03/15 10:11:57.000   78.247134362   16.013800625   438.3207   1   9   0.0005   0.0003   0.0016   0.0001   0.0003   0.0007   0.00  110.2
2018/03/15 10:11:58.000   78.247134359   16.013800615   438.3210   1   9   0.0005   0.0003   0.0016   0.0001   0.0003   0.0007   0.00  110.3
2018/03/15 10:11:59.000   78.247134355   16.013800606   438.3212   1   9   0.0005   0.0003   0.0016   0.0001   0.0003   0.0007   0.00  110.1
2018/03/15 10:12:00.000   78.247134352   16.013800597   438.3214   1   9   0.0005   0.0003   0.0016   0.0001   0.0003   0.0007   0.00  109.7
2018/03/15 10:12:01.000   78.247134349   16.013800590   438.3216   1   9   0.0005   0.0003   0.0016   0.0001   0.0003   0.0007   0.00  109.1
2018/03/15 10:12:02.000   78.247134346   16.013800583   438.3216   1   9   0.0005   0.0003   0.0016   0.0001   0.0003   0.0007   0.00  108.0
2018/03/15 10:12:03.000   78.247134343   16.013800577   438.3216   1   9   0.0005   0.0003   0.0016   0.0001   0.0003   0.0007   0.00  106.5
2018/03/15 10:12:04.000   78.247134341   16.013800570   438.3215   1   9   0.0005   0.0003   0.0016   0.0001   0.0003   0.0007   0.00  105.3
2018/03/15 10:12:05.000   78.247134338   16.013800566   438.3213   1   9   0.0005   0.0003   0.0016   0.0001   0.0003   0.0007   0.00  104.1
2018/03/15 10:12:06.000   78.247134336   16.013800561   438.3216   1   9   0.0005   0.0003   0.0016   0.0001   0.0003   0.0007   0.00  103.2
2018/03/15 10:12:07.000   78.247134334   16.013800557   438.3222   1   9   0.0005   0.0003   0.0016   0.0001   0.0003   0.0007   0.00  102.7
2018/03/15 10:12:08.000   78.247134333   16.013800553   438.3231   1   9   0.0005   0.0003   0.0016   0.0001   0.0003   0.0007   0.00  102.1
2018/03/15 10:12:09.000   78.247134332   16.013800550   438.3241   1   9   0.0005   0.0003   0.0016   0.0001   0.0003   0.0007   0.00  101.6
2018/03/15 10:12:10.000   78.247134332   16.013800547   438.3251   1   9   0.0005   0.0003   0.0016   0.0001   0.0003   0.0007   0.00  101.1
2018/03/15 10:12:11.000   78.247134331   16.013800545   438.3260   1   9   0.0005   0.0003   0.0016   0.0001   0.0003   0.0007   0.00  100.7
2018/03/15 10:12:12.000   78.247134330   16.013800542   438.3268   1   9   0.0005   0.0003   0.0016   0.0001   0.0003   0.0007   0.00  100.1
2018/03/15 10:12:13.000   78.247134330   16.013800539   438.3276   1   9   0.0005   0.0003   0.0015   0.0001   0.0003   0.0007   0.00   99.0
2018/03/15 10:12:14.000   78.247134331   16.013800537   438.3283   1   9   0.0005   0.0003   0.0015   0.0001   0.0003   0.0007   0.00   98.0
2018/03/15 10:12:15.000   78.247134331   16.013800535   438.3288   1   9   0.0005   0.0002   0.0015   0.0001   0.0003   0.0007   0.00   97.1
2018/03/15 10:12:16.000   78.247134332   16.013800531   438.3290   1   9   0.0005   0.0002   0.0015   0.0001   0.0003   0.0007   0.00   96.6
2018/03/15 10:12:17.000   78.247134332   16.013800528   438.3291   1   9   0.0005   0.0002   0.0015   0.0001   0.0003   0.0007   0.00   96.1
2018/03/15 10:12:18.000   78.247134332   16.013800525   438.3291   1   9   0.0005   0.0002   0.0015   0.0001   0.0003   0.0007   0.00   95.9
2018/03/15 10:12:19.000   78.247134332   16.013800524   438.3291   1   9   0.0005   0.0002   0.0015   0.0001   0.0003   0.0007   0.00   96.0
2018/03/15 10:12:20.000   78.247134333   16.013800524   438.3290   1   9   0.0005   0.0002   0.0015   0.0001   0.0003   0.0007   0.00   96.2
2018/03/15 10:12:21.000   78.247134333   16.013800527   438.3289   1   9   0.0005   0.0002   0.0015   0.0001   0.0003   0.0007   0.00   96.5
2018/03/15 10:12:22.000   78.247134333   16.013800529   438.3284   1   9   0.0005   0.0002   0.0015   0.0001   0.0003   0.0007   0.00   97.2
2018/03/15 10:12:23.000   78.247134333   16.013800533   438.3278   1   9   0.0005   0.0002   0.0015   0.0001   0.0003   0.0007   0.00   97.9
2018/03/15 10:12:24.000   78.247134332   16.013800537   438.3271   1   9   0.0005   0.0002   0.0015   0.0001   0.0003   0.0007   0.00   98.7
2018/03/15 10:12:25.000   78.247134332   16.013800540   438.3263   1   9   0.0005   0.0002   0.0015   0.0001   0.0003   0.0007   0.00   99.6
2018/03/15 10:12:26.000   78.247134331   16.013800543   438.3257   1   9   0.0004   0.0002   0.0015   0.0001   0.0003   0.0007   0.00   99.9
2018/03/15 10:12:27.000   78.247134331   16.013800545   438.3253   1   9   0.0004   0.0002   0.0015   0.0001   0.0003   0.0007   0.00  100.5
2018/03/15 10:12:28.000   78.247134331   16.013800547   438.3249   1   9   0.0004   0.0002   0.0015   0.0001   0.0003   0.0007   0.00  101.2
2018/03/15 10:12:29.000   78.247134330   16.013800548   438.3246   1   9   0.0004   0.0002   0.0015   0.0001   0.0003   0.0007   0.00  101.6
2018/03/15 10:12:30.000   78.247134329   16.013800548   438.3245   1   9   0.0004   0.0002   0.0015   0.0001   0.0003   0.0007   0.00  102.3
2018/03/15 10:12:31.000   78.247134329   16.013800547   438.3245   1   9   0.0004   0.0002   0.0015   0.0001   0.0003   0.0007   0.00  103.3
2018/03/15 10:12:32.000   78.247134328   16.013800547   438.3248   1   9   0.0004   0.0002   0.0015   0.0001   0.0003   0.0007   0.00  104.8
2018/03/15 10:12:33.000   78.247134328   16.013800545   438.3251   1   9   0.0004   0.0002   0.0015   0.0001   0.0003   0.0007   0.00  106.2
2018/03/15 10:12:34.000   78.247134328   16.013800543   438.3255   1   9   0.0004   0.0002   0.0015   0.0001   0.0003   0.0007   0.00  108.0
2018/03/15 10:12:35.000   78.247134328   16.013800540   438.3260   1   9   0.0004   0.0002   0.0015   0.0001   0.0003   0.0007   0.00  110.0
2018/03/15 10:12:36.000   78.247134328   16.013800537   438.3266   1   9   0.0004   0.0002   0.0015   0.0001   0.0003   0.0007   0.00  112.4
2018/03/15 10:12:37.000   78.247134327   16.013800533   438.3272   1   9   0.0004   0.0002   0.0015   0.0001   0.0003   0.0007   0.00  114.9
2018/03/15 10:12:38.000   78.247134328   16.013800530   438.3280   1   9   0.0004   0.0002   0.0015   0.0001   0.0003   0.0006   0.00  116.8
2018/03/15 10:12:39.000   78.247134328   16.013800526   438.3287   1   9   0.0004   0.0002   0.0015   0.0001   0.0003   0.0006   0.00  117.9
2018/03/15 10:12:40.000   78.247134327   16.013800523   438.3293   1   9   0.0004   0.0002   0.0015   0.0001   0.0003   0.0006   0.00  118.2
2018/03/15 10:12:41.000   78.247134327   16.013800520   438.3298   1   9   0.0004   0.0002   0.0015   0.0001   0.0003   0.0006   0.00  118.3
2018/03/15 10:12:42.000   78.247134327   16.013800518   438.3302   1   9   0.0004   0.0002   0.0014   0.0001   0.0003   0.0006   0.00  118.0
2018/03/15 10:12:43.000   78.247134326   16.013800517   438.3306   1   9   0.0004   0.0002   0.0014   0.0001   0.0003   0.0006   0.00  117.2
2018/03/15 10:12:44.000   78.247134326   16.013800515   438.3307   1   9   0.0004   0.0002   0.0014   0.0001   0.0003   0.0006   0.00  115.9
2018/03/15 10:12:45.000   78.247134325   16.013800514   438.3307   1   9   0.0004   0.0002   0.0014   0.0001   0.0003   0.0006   0.00  114.6
2018/03/15 10:12:46.000   78.247134325   16.013800514   438.3303   1   9   0.0004   0.0002   0.0014   0.0001   0.0003   0.0006   0.00  113.0
2018/03/15 10:12:47.000   78.247134324   16.013800515   438.3298   1   9   0.0004   0.0002   0.0014   0.0001   0.0003   0.0006   0.00  111.4
2018/03/15 10:12:48.000   78.247134323   16.013800515   438.3291   1   9   0.0004   0.0002   0.0014   0.0001   0.0003   0.0006   0.00  109.5
2018/03/15 10:12:49.000   78.247134322   16.013800515   438.3285   1   9   0.0004   0.0002   0.0014   0.0001   0.0003   0.0006   0.00  107.8
2018/03/15 10:12:50.000   78.247134321   16.013800514   438.3278   1   9   0.0004   0.0002   0.0014   0.0001   0.0003   0.0006   0.00  106.0
2018/03/15 10:12:51.000   78.247134320   16.013800513   438.3273   1   9   0.0004   0.0002   0.0014   0.0001   0.0003   0.0006   0.00  104.5
2018/03/15 10:12:52.000   78.247134319   16.013800512   438.3269   1   9   0.0004   0.0002   0.0014   0.0001   0.0003   0.0006   0.00  103.1
2018/03/15 10:12:53.000   78.247134318   16.013800511   438.3265   1   9   0.0004   0.0002   0.0014   0.0001   0.0003   0.0006   0.00  102.2
2018/03/15 10:12:54.000   78.247134316   16.013800509   438.3261   1   9   0.0004   0.0002   0.0014   0.0001   0.0003   0.0006   0.00  101.3
2018/03/15 10:12:55.000   78.247134315   16.013800506   438.3258   1   9   0.0004   0.0002   0.0014   0.0001   0.0003   0.0006   0.00  100.6
2018/03/15 10:12:56.000   78.247134314   16.013800503   438.3256   1   9   0.0004   0.0002   0.0014   0.0001   0.0003   0.0006   0.00  100.0
2018/03/15 10:12:57.000   78.247134314   16.013800498   438.3254   1   9   0.0004   0.0002   0.0014   0.0001   0.0003   0.0006   0.00   99.6
2018/03/15 10:12:58.000   78.247134313   16.013800493   438.3254   1   9   0.0004   0.0002   0.0014   0.0001   0.0003   0.0006   0.00   99.4
2018/03/15 10:12:59.000   78.247134311   16.013800486   438.3254   1   9   0.0004   0.0002   0.0014   0.0001   0.0003   0.0006   0.00   99.8
2018/03/15 10:13:00.000   78.247134311   16.013800480   438.3257   1   9   0.0004   0.0002   0.0014   0.0001   0.0003   0.0006   0.00  100.5
2018/03/15 10:13:01.000   78.247134310   16.013800473   438.3266   1   9   0.0004   0.0002   0.0014   0.0001   0.0003   0.0006   0.00  101.6
2018/03/15 10:13:02.000   78.247134311   16.013800468   438.3280   1   9   0.0004   0.0002   0.0014   0.0001   0.0003   0.0006   0.00  103.0
2018/03/15 10:13:03.000   78.247134311   16.013800463   438.3297   1   9   0.0004   0.0002   0.0014   0.0001   0.0003   0.0006   0.00  104.7
2018/03/15 10:13:04.000   78.247134311   16.013800460   438.3318   1   9   0.0004   0.0002   0.0014   0.0001   0.0003   0.0006   0.00  106.9
2018/03/15 10:13:05.000   78.247134312   16.013800459   438.3344   1   9   0.0004   0.0002   0.0014   0.0001   0.0003   0.0006   0.00  109.3
2018/03/15 10:13:06.000   78.247134312   16.013800458   438.3373   1   9   0.0004   0.0002   0.0014   0.0001   0.0003   0.0006   0.00  111.7
2018/03/15 10:13:07.000   78.247134313   16.013800456   438.3404   1   9   0.0004   0.0002   0.0014   0.0001   0.0003   0.0006   0.00  113.9
2018/03/15 10:13:08.000   78.247134314   16.013800455   438.3436   1   9   0.0004   0.0002   0.0014   0.0001   0.0003   0.0006   0.00  115.8
2018/03/15 10:13:09.000   78.247134316   16.013800453   438.3469   1   9   0.0004   0.0002   0.0014   0.0001   0.0003   0.0006   0.00  117.3
2018/03/15 10:13:10.000   78.247134317   16.013800451   438.3499   1   9   0.0004   0.0002   0.0014   0.0001   0.0003   0.0006   0.00  118.2
2018/03/15 10:13:11.000   78.247134318   16.013800448   438.3529   1   9   0.0004   0.0002   0.0014   0.0001   0.0003   0.0006   0.00  118.0
2018/03/15 10:13:12.000   78.247134319   16.013800445   438.3557   1   9   0.0004   0.0002   0.0014   0.0001   0.0003   0.0006   0.00  117.2
2018/03/15 10:13:13.000   78.247134320   16.013800442   438.3585   1   9   0.0004   0.0002   0.0014   0.0001   0.0003   0.0006   0.00  116.1
2018/03/15 10:13:14.000   78.247134321   16.013800438   438.3610   1   9   0.0004   0.0002   0.0014   0.0001   0.0003   0.0006   0.00  114.8
2018/03/15 10:13:15.000   78.247134323   16.013800433   438.3634   1   9   0.0004   0.0002   0.0014   0.0001   0.0003   0.0006   0.00  113.3
2018/03/15 10:13:16.000   78.247134324   16.013800428   438.3656   1   9   0.0004   0.0002   0.0014   0.0001   0.0003   0.0006   0.00  111.5
2018/03/15 10:13:17.000   78.247134325   16.013800422   438.3677   1   9   0.0004   0.0002   0.0014   0.0001   0.0003   0.0006   0.00  109.2
2018/03/15 10:13:18.000   78.247134326   16.013800417   438.3698   1   9   0.0004   0.0002   0.0014   0.0001   0.0003   0.0006   0.00  106.7
2018/03/15 10:13:19.000   78.247134327   16.013800411   438.3719   1   9   0.0004   0.0002   0.0013   0.0001   0.0003   0.0006   0.00  103.7
2018/03/15 10:13:20.000   78.247134329   16.013800405   438.3738   1   9   0.0004   0.0002   0.0013   0.0001   0.0003   0.0006   0.00  100.8
2018/03/15 10:13:21.000   78.247134330   16.013800400   438.3755   1   9   0.0004   0.0002   0.0013   0.0001   0.0003   0.0006   0.00   97.6
2018/03/15 10:13:22.000   78.247134331   16.013800395   438.3769   1   9   0.0004   0.0002   0.0013   0.0001   0.0003   0.0006   0.00   94.8
2018/03/15 10:13:23.000   78.247134331   16.013800390   438.3783   1   9   0.0004   0.0002   0.0013   0.0001   0.0003   0.0006   0.00   92.1
2018/03/15 10:13:24.000   78.247134332   16.013800386   438.3793   1   9   0.0004   0.0002   0.0013   0.0001   0.0003   0.0006   0.00   89.8
2018/03/15 10:13:25.000   78.247134333   16.013800383   438.3799   1   9   0.0004   0.0002   0.0013   0.0001   0.0003   0.0006   0.00   87.5
2018/03/15 10:13:26.000   78.247134334   16.013800380   438.3803   1   9   0.0004   0.0002   0.0013   0.0001   0.0003   0.0006   0.00   85.8
2018/03/15 10:13:27.000   78.247134334   16.013800378   438.3801   1   9   0.0004   0.0002   0.0013   0.0001   0.0003   0.0006   0.00   84.5
2018/03/15 10:13:28.000   78.247134333   16.013800376   438.3794   1   9   0.0004   0.0002   0.0013   0.0001   0.0003   0.0006   0.00   83.7
2018/03/15 10:13:29.000   78.247134332   16.013800375   438.3783   1   9   0.0004   0.0002   0.0013   0.0001   0.0003   0.0006   0.00   83.2
2018/03/15 10:13:30.000   78.247134330   16.013800374   438.3771   1   9   0.0004   0.0002   0.0013   0.0001   0.0003   0.0006   0.00   82.9
2018/03/15 10:13:31.000   78.247134329   16.013800374   438.3757   1   9   0.0004   0.0002   0.0013   0.0001   0.0003   0.0006   0.00   82.7
2018/03/15 10:13:32.000   78.247134328   16.013800374   438.3741   1   9   0.0004   0.0002   0.0013   0.0001   0.0003   0.0006   0.00   82.5
2018/03/15 10:13:33.000   78.247134326   16.013800375   438.3724   1   9   0.0004   0.0002   0.0013   0.0001   0.0003   0.0006   0.00   82.5
2018/03/15 10:13:34.000   78.247134324   16.013800376   438.3706   1   9   0.0004   0.0002   0.0013   0.0001   0.0003   0.0006   0.00   82.5
2018/03/15 10:13:35.000   78.247134322   16.013800378   438.3689   1   9   0.0004   0.0002   0.0013   0.0001   0.0003   0.0006   0.00   82.6
2018/03/15 10:13:36.000   78.247134321   16.013800379   438.3673   1   9   0.0004   0.0002   0.0013   0.0001   0.0003   0.0006   0.00   82.7
2018/03/15 10:13:37.000   78.247134320   16.013800380   438.3659   1   9   0.0004   0.0002   0.0013   0.0001   0.0003   0.0006   0.00   82.9
2018/03/15 10:13:38.000   78.247134319   16.013800381   438.3649   1   9   0.0004   0.0002   0.0013   0.0001   0.0003   0.0006   0.00   83.3
2018/03/15 10:13:39.000   78.247134318   16.013800382   438.3640   1   9   0.0004   0.0002   0.0013   0.0001   0.0003   0.0006   0.00   83.8
2018/03/15 10:13:40.000   78.247134318   16.013800382   438.3636   1   9   0.0004   0.0002   0.0013   0.0001   0.0003   0.0006   0.00   84.3
2018/03/15 10:13:41.000   78.247134318   16.013800382   438.3636   1   9   0.0004   0.0002   0.0013   0.0001   0.0003   0.0006   0.00   84.9
2018/03/15 10:13:42.000   78.247134318   16.013800383   438.3639   1   9   0.0004   0.0002   0.0013   0.0001   0.0003   0.0006   0.00   85.6
2018/03/15 10:13:43.000   78.247134318   16.013800384   438.3643   1   9   0.0004   0.0002   0.0013   0.0001   0.0003   0.0006   0.00   86.2
2018/03/15 10:13:44.000   78.247134319   16.013800386   438.3647   1   9   0.0004   0.0002   0.0013   0.0001   0.0003   0.0006   0.00   86.7
2018/03/15 10:13:45.000   78.247134319   16.013800388   438.3652   1   9   0.0004   0.0002   0.0013   0.0001   0.0003   0.0006   0.00   86.9
2018/03/15 10:13:46.000   78.247134320   16.013800389   438.3656   1   9   0.0004   0.0002   0.0013   0.0001   0.0003   0.0006   0.00   87.1
2018/03/15 10:13:47.000   78.247134321   16.013800390   438.3660   1   9   0.0004   0.0002   0.0013   0.0001   0.0003   0.0006   0.00   87.2
2018/03/15 10:13:48.000   78.247134321   16.013800392   438.3664   1   9   0.0004   0.0002   0.0013   0.0001   0.0003   0.0006   0.00   87.2
2018/03/15 10:13:49.000   78.247134322   16.013800393   438.3668   1   9   0.0004   0.0002   0.0013   0.0001   0.0003   0.0006   0.00   87.1
2018/03/15 10:13:50.000   78.247134323   16.013800394   438.3674   1   9   0.0004   0.0002   0.0013   0.0001   0.0003   0.0006   0.00   86.8
2018/03/15 10:13:51.000   78.247134323   16.013800396   438.3681   1   9   0.0004   0.0002   0.0013   0.0001   0.0003   0.0006   0.00   86.4
2018/03/15 10:13:52.000   78.247134324   16.013800397   438.3686   1   9   0.0004   0.0002   0.0013   0.0001   0.0003   0.0006   0.00   85.8
2018/03/15 10:13:53.000   78.247134324   16.013800397   438.3689   1   9   0.0004   0.0002   0.0013   0.0001   0.0002   0.0006   0.00   85.1
2018/03/15 10:13:54.000   78.247134324   16.013800396   438.3691   1   9   0.0004   0.0002   0.0013   0.0001   0.0002   0.0006   0.00   84.4
2018/03/15 10:13:55.000   78.247134324   16.013800395   438.3691   1   9   0.0004   0.0002   0.0013   0.0001   0.0002   0.0006   0.00   83.7
2018/03/15 10:13:56.000   78.247134324   16.013800395   438.3690   1   9   0.0004   0.0002   0.0013   0.0001   0.0002   0.0006   0.00   83.2
2018/03/15 10:13:57.000   78.247134323   16.013800394   438.3688   1   9   0.0004   0.0002   0.0013   0.0001   0.0002   0.0006   0.00   82.8
2018/03/15 10:13:58.000   78.247134323   16.013800394   438.3685   1   9   0.0004   0.0002   0.0013   0.0001   0.0002   0.0006   0.00   82.5
2018/03/15 10:13:59.000   78.247134323   16.013800393   438.3684   1   9   0.0004   0.0002   0.0013   0.0001   0.0002   0.0006   0.00   82.5
2018/03/15 10:14:00.000   78.247134322   16.013800392   438.3683   1   9   0.0004   0.0002   0.0013   0.0001   0.0002   0.0006   0.00   82.4
2018/03/15 10:14:01.000   78.247134322   16.013800391   438.3681   1   9   0.0004   0.0002   0.0013   0.0001   0.0002   0.0006   0.00   82.6
2018/03/15 10:14:02.000   78.247134321   16.013800391   438.3677   1   9   0.0004   0.0002   0.0013   0.0001   0.0002   0.0006   0.00   83.0
2018/03/15 10:14:03.000   78.247134320   16.013800391   438.3674   1   9   0.0004   0.0002   0.0013   0.0001   0.0002   0.0006   0.00   83.4
2018/03/15 10:14:04.000   78.247134320   16.013800391   438.3670   1   9   0.0004   0.0002   0.0013   0.0001   0.0002   0.0006   0.00   83.8
2018/03/15 10:14:05.000   78.247134320   16.013800390   438.3667   1   9   0.0004   0.0002   0.0013   0.0001   0.0002   0.0006   0.00   84.3
2018/03/15 10:14:06.000   78.247134320   16.013800389   438.3664   1   9   0.0004   0.0002   0.0013   0.0001   0.0002   0.0006   0.00   84.5
2018/03/15 10:14:07.000   78.247134319   16.013800386   438.3661   1   9   0.0004   0.0002   0.0012   0.0001   0.0002   0.0006   0.00   84.6
2018/03/15 10:14:08.000   78.247134319   16.013800384   438.3658   1   9   0.0004   0.0002   0.0012   0.0001   0.0002   0.0006   0.00   84.4
2018/03/15 10:14:09.000   78.247134319   16.013800382   438.3655   1   9   0.0004   0.0002   0.0012   0.0001   0.0002   0.0006   0.00   84.0
2018/03/15 10:14:10.000   78.247134319   16.013800379   438.3653   1   9   0.0004   0.0002   0.0012   0.0001   0.0002   0.0006   0.00   83.4
2018/03/15 10:14:11.000   78.247134319   16.013800377   438.3651   1   9   0.0004   0.0002   0.0012   0.0001   0.0002   0.0006   0.00   82.8
2018/03/15 10:14:12.000   78.247134319   16.013800374   438.3648   1   9   0.0004   0.0002   0.0012   0.0001   0.0002   0.0006   0.00   82.1
2018/03/15 10:14:13.000   78.247134319   16.013800371   438.3642   1   9   0.0004   0.0002   0.0012   0.0001   0.0002   0.0006   0.00   81.4
2018/03/15 10:14:14.000   78.247134319   16.013800368   438.3637   1   9   0.0004   0.0002   0.0012   0.0001   0.0002   0.0006   0.00   80.8
2018/03/15 10:14:15.000   78.247134319   16.013800365   438.3632   1   9   0.0004   0.0002   0.0012   0.0001   0.0002   0.0006   0.00   80.0
2018/03/15 10:14:16.000   78.247134318   16.013800361   438.3627   1   9   0.0004   0.0002   0.0012   0.0001   0.0002   0.0005   0.00   79.3
2018/03/15 10:14:17.000   78.247134318   16.013800357   438.3622   1   9   0.0004   0.0002   0.0012   0.0001   0.0002   0.0005   0.00   78.6
2018/03/15 10:14:18.000   78.247134318   16.013800353   438.3617   1   9   0.0004   0.0002   0.0012   0.0001   0.0002   0.0005   0.00   78.2
2018/03/15 10:14:19.000   78.247134318   16.013800349   438.3611   1   9   0.0004   0.0002   0.0012   0.0001   0.0002   0.0005   0.00   78.0
2018/03/15 10:14:20.000   78.247134317   16.013800347   438.3604   1   9   0.0004   0.0002   0.0012   0.0001   0.0002   0.0005   0.00   77.6
2018/03/15 10:14:21.000   78.247134317   16.013800345   438.3598   1   9   0.0004   0.0002   0.0012   0.0001   0.0002   0.0005   0.00   77.3
2018/03/15 10:14:22.000   78.247134317   16.013800344   438.3591   1   9   0.0004   0.0002   0.0012   0.0001   0.0002   0.0005   0.00   76.8
2018/03/15 10:14:23.000   78.247134316   16.013800342   438.3582   1   9   0.0004   0.0002   0.0012   0.0001   0.0002   0.0005   0.00   76.4
2018/03/15 10:14:24.000   78.247134316   16.013800340   438.3573   1   9   0.0004   0.0002   0.0012   0.0001   0.0002   0.0005   0.00   76.1
2018/03/15 10:14:25.000   78.247134315   16.013800338   438.3562   1   9   0.0004   0.0002   0.0012   0.0001   0.0002   0.0005   0.00   76.2
2018/03/15 10:14:26.000   78.247134314   16.013800337   438.3549   1   9   0.0004   0.0002   0.0012   0.0001   0.0002   0.0005   0.00   76.7
2018/03/15 10:14:27.000   78.247134313   16.013800335   438.3537   1   9   0.0004   0.0002   0.0012   0.0001   0.0002   0.0005   0.00   77.7
2018/03/15 10:14:28.000   78.247134312   16.013800333   438.3526   1   9   0.0004   0.0002   0.0012   0.0001   0.0002   0.0005   0.00   78.8
2018/03/15 10:14:29.000   78.247134312   16.013800332   438.3516   1   9   0.0004   0.0002   0.0012   0.0001   0.0002   0.0005   0.00   79.9
2018/03/15 10:14:30.000   78.247134312   16.013800333   438.3506   1   9   0.0004   0.0002   0.0012   0.0001   0.0002   0.0005   0.00   80.8
2018/03/15 10:14:31.000   78.247134311   16.013800334   438.3498   1   9   0.0004   0.0002   0.0012   0.0001   0.0002   0.0005   0.00   81.5
2018/03/15 10:14:32.000   78.247134311   16.013800336   438.3492   1   9   0.0004   0.0002   0.0012   0.0001   0.0002   0.0005   0.00   82.0
2018/03/15 10:14:33.000   78.247134311   16.013800339   438.3489   1   9   0.0004   0.0002   0.0012   0.0001   0.0002   0.0005   0.00   82.3
2018/03/15 10:14:34.000   78.247134311   16.013800344   438.3489   1   9   0.0004   0.0002   0.0012   0.0001   0.0002   0.0005   0.00   82.4
2018/03/15 10:14:35.000   78.247134312   16.013800348   438.3491   1   9   0.0004   0.0002   0.0012   0.0001   0.0002   0.0005   0.00   82.4
2018/03/15 10:14:36.000   78.247134311   16.013800353   438.3494   1   9   0.0004   0.0002   0.0012   0.0001   0.0002   0.0005   0.00   82.4
2018/03/15 10:14:37.000   78.247134311   16.013800356   438.3499   1   9   0.0004   0.0002   0.0012   0.0001   0.0002   0.0005   0.00   82.6
2018/03/15 10:14:38.000   78.247134311   16.013800359   438.3505   1   9   0.0004   0.0002   0.0012   0.0001   0.0002   0.0005   0.00   83.1
2018/03/15 10:14:39.000   78.247134311   16.013800361   438.3510   1   9   0.0004   0.0002   0.0012   0.0001   0.0002   0.0005   0.00   83.6
2018/03/15 10:14:40.000   78.247134311   16.013800363   438.3516   1   9   0.0004   0.0002   0.0012   0.0001   0.0002   0.0005   0.00   84.2
2018/03/15 10:14:41.000   78.247134310   16.013800365   438.3522   1   9   0.0004   0.0002   0.0012   0.0001   0.0002   0.0005   0.00   84.7
2018/03/15 10:14:42.000   78.247134310   16.013800367   438.3527   1   9   0.0004   0.0002   0.0012   0.0001   0.0002   0.0005   0.00   85.2
2018/03/15 10:14:43.000   78.247134309   16.013800369   438.3532   1   9   0.0004   0.0002   0.0012   0.0001   0.0002   0.0005   0.00   85.5
2018/03/15 10:14:44.000   78.247134309   16.013800371   438.3536   1   9   0.0004   0.0002   0.0012   0.0001   0.0002   0.0005   0.00   85.9
2018/03/15 10:14:45.000   78.247134309   16.013800373   438.3540   1   9   0.0004   0.0002   0.0012   0.0001   0.0002   0.0005   0.00   86.4
2018/03/15 10:14:46.000   78.247134308   16.013800376   438.3543   1   9   0.0004   0.0002   0.0012   0.0001   0.0002   0.0005   0.00   86.7
2018/03/15 10:14:47.000   78.247134308   16.013800380   438.3543   1   9   0.0004   0.0002   0.0012   0.0001   0.0002   0.0005   0.00   87.1
2018/03/15 10:14:48.000   78.247134308   16.013800382   438.3541   1   9   0.0004   0.0002   0.0012   0.0001   0.0002   0.0005   0.00   87.6
2018/03/15 10:14:49.000   78.247134307   16.013800384   438.3536   1   9   0.0004   0.0002   0.0012   0.0001   0.0002   0.0005   0.00   88.1
2018/03/15 10:14:50.000   78.247134307   16.013800385   438.3529   1   9   0.0004   0.0002   0.0012   0.0001   0.0002   0.0005   0.00   88.4
2018/03/15 10:14:51.000   78.247134306   16.013800385   438.3521   1   9   0.0004   0.0002   0.0012   0.0001   0.0002   0.0005   0.00   88.8
2018/03/15 10:14:52.000   78.247134306   16.013800386   438.3511   1   9   0.0004   0.0002   0.0012   0.0001   0.0002   0.0005   0.00   89.4
2018/03/15 10:14:53.000   78.247134304   16.013800385   438.3501   1   9   0.0004   0.0002   0.0012   0.0001   0.0002   0.0005   0.00   90.1
2018/03/15 10:14:54.000   78.247134304   16.013800384   438.3490   1   9   0.0004   0.0002   0.0012   0.0001   0.0002   0.0005   0.00   90.6
2018/03/15 10:14:55.000   78.247134303   16.013800383   438.3481   1   9   0.0004   0.0002   0.0012   0.0001   0.0002   0.0005   0.00   91.3
2018/03/15 10:14:56.000   78.247134302   16.013800381   438.3473   1   9   0.0004   0.0002   0.0012   0.0001   0.0002   0.0005   0.00   92.2
2018/03/15 10:14:57.000   78.247134301   16.013800379   438.3465   1   9   0.0004   0.0002   0.0012   0.0001   0.0002   0.0005   0.00   93.3
2018/03/15 10:14:58.000   78.247134300   16.013800376   438.3457   1   9   0.0004   0.0002   0.0012   0.0001   0.0002   0.0005   0.00   94.5
2018/03/15 10:14:59.000   78.247134299   16.013800372   438.3449   1   9   0.0004   0.0002   0.0012   0.0001   0.0002   0.0005   0.00   95.7
2018/03/15 10:15:00.000   78.247134298   16.013800366   438.3442   1   9   0.0004   0.0002   0.0012   0.0001   0.0002   0.0005   0.00   96.7
2018/03/15 10:15:01.000   78.247134297   16.013800362   438.3437   1   9   0.0004   0.0002   0.0012   0.0001   0.0002   0.0005   0.00   97.7
2018/03/15 10:15:02.000   78.247134296   16.013800357   438.3433   1   9   0.0004   0.0002   0.0012   0.0001   0.0002   0.0005   0.00   98.5
2018/03/15 10:15:03.000   78.247134296   16.013800354   438.3430   1   9   0.0004   0.0002   0.0012   0.0001   0.0002   0.0005   0.00   99.5
2018/03/15 10:15:04.000   78.247134295   16.013800352   438.3428   1   9   0.0003   0.0002   0.0012   0.0001   0.0002   0.0005   0.00  100.5
2018/03/15 10:15:05.000   78.247134295   16.013800351   438.3427   1   9   0.0003   0.0002   0.0012   0.0001   0.0002   0.0005   0.00  101.6
2018/03/15 10:15:06.000   78.247134295   16.013800351   438.3427   1   9   0.0003   0.0002   0.0012   0.0001   0.0002   0.0005   0.00  102.5
2018/03/15 10:15:07.000   78.247134295   16.013800350   438.3428   1   9   0.0003   0.0002   0.0012   0.0001   0.0002   0.0005   0.00  103.3
2018/03/15 10:15:08.000   78.247134295   16.013800349   438.3431   1   9   0.0003   0.0002   0.0012   0.0001   0.0002   0.0005   0.00  103.9
2018/03/15 10:15:09.000   78.247134295   16.013800350   438.3435   1   9   0.0003   0.0002   0.0012   0.0001   0.0002   0.0005   0.00  104.9
2018/03/15 10:15:10.000   78.247134295   16.013800350   438.3438   1   9   0.0003   0.0002   0.0012   0.0001   0.0002   0.0005   0.00  106.0
2018/03/15 10:15:11.000   78.247134295   16.013800351   438.3443   1   9   0.0003   0.0002   0.0011   0.0001   0.0002   0.0005   0.00  106.9
2018/03/15 10:15:12.000   78.247134295   16.013800351   438.3448   1   9   0.0003   0.0002   0.0011   0.0001   0.0002   0.0005   0.00  107.5
2018/03/15 10:15:13.000   78.247134296   16.013800351   438.3453   1   9   0.0003   0.0002   0.0011   0.0001   0.0002   0.0005   0.00  108.1
2018/03/15 10:15:14.000   78.247134296   16.013800350   438.3457   1   9   0.0003   0.0002   0.0011   0.0001   0.0002   0.0005   0.00  108.2
2018/03/15 10:15:15.000   78.247134297   16.013800347   438.3459   1   9   0.0003   0.0002   0.0011   0.0001   0.0002   0.0005   0.00  108.4
2018/03/15 10:15:16.000   78.247134297   16.013800344   438.3459   1   9   0.0003   0.0002   0.0011   0.0001   0.0002   0.0005   0.00  108.3
2018/03/15 10:15:17.000   78.247134297   16.013800341   438.3459   1   9   0.0003   0.0002   0.0011   0.0001   0.0002   0.0005   0.00  108.0
2018/03/15 10:15:18.000   78.247134297   16.013800337   438.3458   1   9   0.0003   0.0002   0.0011   0.0001   0.0002   0.0005   0.00  107.7
2018/03/15 10:15:19.000   78.247134298   16.013800334   438.3457   1   9   0.0003   0.0002   0.0011   0.0001   0.0002   0.0005   0.00  107.3
2018/03/15 10:15:20.000   78.247134298   16.013800329   438.3454   1   9   0.0003   0.0002   0.0011   0.0001   0.0002   0.0005   0.00  106.7
2018/03/15 10:15:21.000   78.247134298   16.013800323   438.3448   1   9   0.0003   0.0002   0.0011   0.0001   0.0002   0.0005   0.00  106.1
2018/03/15 10:15:22.000   78.247134298   16.013800317   438.3442   1   9   0.0003   0.0002   0.0011   0.0001   0.0002   0.0005   0.00  105.3
2018/03/15 10:15:23.000   78.247134298   16.013800310   438.3435   1   9   0.0003   0.0002   0.0011   0.0001   0.0002   0.0005   0.00  104.5
2018/03/15 10:15:24.000   78.247134298   16.013800305   438.3430   1   9   0.0003   0.0002   0.0011   0.0001   0.0002   0.0005   0.00  103.9
2018/03/15 10:15:25.000   78.247134298   16.013800301   438.3426   1   9   0.0003   0.0002   0.0011   0.0001   0.0002   0.0005   0.00  103.2
2018/03/15 10:15:26.000   78.247134298   16.013800297   438.3424   1   9   0.0003   0.0002   0.0011   0.0001   0.0002   0.0005   0.00  102.7
2018/03/15 10:15:27.000   78.247134298   16.013800295   438.3423   1   9   0.0003   0.0002   0.0011   0.0001   0.0002   0.0005   0.00  102.3
2018/03/15 10:15:28.000   78.247134299   16.013800294   438.3424   1   9   0.0003   0.0002   0.0011   0.0001   0.0002   0.0005   0.00  101.9
2018/03/15 10:15:29.000   78.247134299   16.013800292   438.3425   1   9   0.0003   0.0002   0.0011   0.0001   0.0002   0.0005   0.00  101.5
2018/03/15 10:15:30.000   78.247134299   16.013800290   438.3427   1   9   0.0003   0.0002   0.0011   0.0001   0.0002   0.0005   0.00  100.8
2018/03/15 10:15:31.000   78.247134299   16.013800287   438.3428   1   9   0.0003   0.0002   0.0011   0.0001   0.0002   0.0005   0.00  100.1
2018/03/15 10:15:32.000   78.247134299   16.013800283   438.3429   1   9   0.0003   0.0002   0.0011   0.0001   0.0002   0.0005   0.00   99.6
2018/03/15 10:15:33.000   78.247134299   16.013800278   438.3429   1   9   0.0003   0.0002   0.0011   0.0001   0.0002   0.0005   0.00   99.2
2018/03/15 10:15:34.000   78.247134299   16.013800273   438.3429   1   9   0.0003   0.0002   0.0011   0.0001   0.0002   0.0005   0.00   99.2
2018/03/15 10:15:35.000   78.247134299   16.013800267   438.3428   1   9   0.0003   0.0002   0.0011   0.0001   0.0002   0.0005   0.00   99.2
2018/03/15 10:15:36.000   78.247134299   16.013800262   438.3427   1   9   0.0003   0.0002   0.0011   0.0001   0.0002   0.0005   0.00   99.3
2018/03/15 10:15:37.000   78.247134298   16.013800255   438.3424   1   9   0.0003   0.0002   0.0011   0.0001   0.0002   0.0005   0.00   99.3
2018/03/15 10:15:38.000   78.247134298   16.013800248   438.3421   1   9   0.0003   0.0002   0.0011   0.0001   0.0002   0.0005   0.00   99.1
2018/03/15 10:15:39.000   78.247134298   16.013800241   438.3418   1   9   0.0003   0.0002   0.0011   0.0001   0.0002   0.0005   0.00   98.9
2018/03/15 10:15:40.000   78.247134298   16.013800234   438.3414   1   9   0.0003   0.0002   0.0011   0.0001   0.0002   0.0005   0.00   98.7
2018/03/15 10:15:41.000   78.247134297   16.013800227   438.3410   1   9   0.0003   0.0002   0.0011   0.0001   0.0002   0.0005   0.00   98.4
2018/03/15 10:15:42.000   78.247134297   16.013800221   438.3405   1   9   0.0003   0.0002   0.0011   0.0001   0.0002   0.0005   0.00   98.1
2018/03/15 10:15:43.000   78.247134296   16.013800215   438.3402   1   9   0.0003   0.0002   0.0011   0.0001   0.0002   0.0005   0.00   97.7
2018/03/15 10:15:44.000   78.247134295   16.013800210   438.3398   1   9   0.0003   0.0002   0.0011   0.0001   0.0002   0.0005   0.00   97.2
2018/03/15 10:15:45.000   78.247134295   16.013800205   438.3394   1   9   0.0003   0.0002   0.0011   0.0001   0.0002   0.0005   0.00   96.6
2018/03/15 10:15:46.000   78.247134294   16.013800200   438.3391   1   9   0.0003   0.0002   0.0011   0.0001   0.0002   0.0005   0.00   96.0
2018/03/15 10:15:47.000   78.247134294   16.013800196   438.3388   1   9   0.0003   0.0002   0.0011   0.0001   0.0002   0.0005   0.00   95.6
2018/03/15 10:15:48.000   78.247134293   16.013800194   438.3386   1   9   0.0003   0.0002   0.0011   0.0001   0.0002   0.0005   0.00   95.4
2018/03/15 10:15:49.000   78.247134292   16.013800191   438.3384   1   9   0.0003   0.0002   0.0011   0.0001   0.0002   0.0005   0.00   95.3
2018/03/15 10:15:50.000   78.247134292   16.013800189   438.3384   1   9   0.0003   0.0002   0.0011   0.0001   0.0002   0.0005   0.00   95.4
2018/03/15 10:15:51.000   78.247134292   16.013800188   438.3384   1   9   0.0003   0.0002   0.0011   0.0001   0.0002   0.0005   0.00   95.6
2018/03/15 10:15:52.000   78.247134292   16.013800189   438.3386   1   9   0.0003   0.0002   0.0011   0.0001   0.0002   0.0005   0.00   95.8
2018/03/15 10:15:53.000   78.247134292   16.013800190   438.3389   1   9   0.0003   0.0002   0.0011   0.0001   0.0002   0.0005   0.00   95.7
2018/03/15 10:15:54.000   78.247134292   16.013800192   438.3393   1   9   0.0003   0.0002   0.0011   0.0001   0.0002   0.0005   0.00   95.7
2018/03/15 10:15:55.000   78.247134292   16.013800194   438.3396   1   9   0.0003   0.0002   0.0011   0.0001   0.0002   0.0005   0.00   95.9
2018/03/15 10:15:56.000   78.247134292   16.013800196   438.3399   1   9   0.0003   0.0002   0.0011   0.0001   0.0002   0.0005   0.00   96.3
2018/03/15 10:15:57.000   78.247134293   16.013800199   438.3403   1   9   0.0003   0.0002   0.0011   0.0001   0.0002   0.0005   0.00   96.6
2018/03/15 10:15:58.000   78.247134293   16.013800202   438.3405   1   9   0.0003   0.0002   0.0011   0.0001   0.0002   0.0005   0.00   96.7
2018/03/15 10:15:59.000   78.247134293   16.013800204   438.3407   1   9   0.0003   0.0002   0.0011   0.0001   0.0002   0.0005   0.00   96.6
2018/03/15 10:16:00.000   78.247134293   16.013800205   438.3408   1   9   0.0003   0.0002   0.0011   0.0001   0.0002   0.0005   0.00   96.3
2018/03/15 10:16:01.000   78.247134293   16.013800206   438.3408   1   9   0.0003   0.0002   0.0011   0.0001   0.0002   0.0005   0.00   95.7
2018/03/15 10:16:02.000   78.247134292   16.013800206   438.3408   1   9   0.0003   0.0002   0.0011   0.0001   0.0002   0.0005   0.00   94.7
2018/03/15 10:16:03.000   78.247134292   16.013800206   438.3408   1   9   0.0003   0.0002   0.0011   0.0001   0.0002   0.0005   0.00   93.4
2018/03/15 10:16:04.000   78.247134292   16.013800206   438.3407   1   9   0.0003   0.0002   0.0011   0.0001   0.0002   0.0005   0.00   92.0
2018/03/15 10:16:05.000   78.247134292   16.013800205   438.3407   1   9   0.0003   0.0002   0.0011   0.0001   0.0002   0.0005   0.00   90.4
2018/03/15 10:16:06.000   78.247134292   16.013800203   438.3406   1   9   0.0003   0.0002   0.0011   0.0001   0.0002   0.0005   0.00   88.6
2018/03/15 10:16:07.000   78.247134292   16.013800201   438.3405   1   9   0.0003   0.0002   0.0011   0.0001   0.0002   0.0005   0.00   86.8
2018/03/15 10:16:08.000   78.247134292   16.013800199   438.3405   1   9   0.0003   0.0002   0.0011   0.0001   0.0002   0.0005   0.00   85.0
2018/03/15 10:16:09.000   78.247134292   16.013800197   438.3404   1   9   0.0003   0.0002   0.0011   0.0001   0.0002   0.0005   0.00   83.5
