% program   : RTKPOST ver.2.4.2
% inp file  : Z:\home\linda\Documents\Spring18\GitHub_Unis\data\processed_data\4625074H.obs
% inp file  : Z:\home\linda\Documents\Spring18\GitHub_Unis\data\base_station_data\lyrs0740.18o
% inp file  : Z:\home\linda\Documents\Spring18\GitHub_Unis\data\processed_data\4625074H.nav
% obs start : 2018/03/15 13:41:43.0 GPST (week1992 394903.0s)
% obs end   : 2018/03/15 13:57:08.0 GPST (week1992 395828.0s)
% pos mode  : static
% freqs     : L1+L2
% solution  : forward
% elev mask : 15.0 deg
% dynamics  : on
% tidecorr  : off
% ionos opt : broadcast
% tropo opt : saastamoinen
% ephemeris : broadcast
% navi sys  : gps glonass galileo qzss sbas
% amb res   : fix and hold
% amb glo   : on
% val thres : 3.0
% antenna1  :                       ( 0.0000  0.0000  0.0000)
% antenna2  :                       ( 0.0000  0.0000  0.0000)
% ref pos   : 78.228825638   15.397310064   495.6816
%
% (lat/lon/height=WGS84/ellipsoidal,Q=1:fix,2:float,3:sbas,4:dgps,5:single,6:ppp,ns=# of satellites)
%  GPST                  latitude(deg) longitude(deg)  height(m)   Q  ns   sdn(m)   sde(m)   sdu(m)  sdne(m)  sdeu(m)  sdun(m) age(s)  ratio
2018/03/15 13:41:43.000   78.253586464   16.174468595   540.0761   2   6   0.5427   0.4923   3.0073  -0.2565  -0.8184   0.9755   0.00    1.1
2018/03/15 13:41:44.000   78.253583825   16.174481736   538.2428   2   6   0.4023   0.3726   2.1672  -0.2193  -0.6194   0.7222   0.00    1.0
2018/03/15 13:41:45.000   78.253583321   16.174489383   538.1660   2   6   0.3238   0.2976   1.7628  -0.1684  -0.4948   0.5817   0.00    1.4
2018/03/15 13:41:46.000   78.253584099   16.174489425   538.5070   2   6   0.2785   0.2550   1.5227  -0.1414  -0.4239   0.5001   0.00    1.5
2018/03/15 13:41:47.000   78.253584003   16.174486091   538.1865   2   6   0.2480   0.2267   1.3584  -0.1239  -0.3763   0.4449   0.00    1.5
2018/03/15 13:41:48.000   78.253583798   16.174487838   537.5154   2   6   0.2288   0.2105   1.2419  -0.1186  -0.3486   0.4096   0.00    1.7
2018/03/15 13:41:49.000   78.253583559   16.174487543   537.4517   2   6   0.2134   0.1973   1.1499  -0.1135  -0.3260   0.3811   0.00    1.8
2018/03/15 13:41:50.000   78.253583268   16.174489136   537.6110   2   6   0.2007   0.1863   1.0744  -0.1086  -0.3070   0.3575   0.00    1.9
2018/03/15 13:41:51.000   78.253583123   16.174487208   537.6789   2   6   0.1921   0.1773   1.0242  -0.1031  -0.2887   0.3441   0.00    2.1
2018/03/15 13:41:52.000   78.253583192   16.174486944   537.9278   2   6   0.1844   0.1694   0.9799  -0.0982  -0.2730   0.3318   0.00    1.3
2018/03/15 13:41:53.000   78.253583161   16.174488560   537.6570   2   6   0.1758   0.1622   0.9312  -0.0948  -0.2614   0.3154   0.00    1.8
2018/03/15 13:41:54.000   78.253583251   16.174489161   537.6605   2   6   0.1692   0.1559   0.8898  -0.0915  -0.2511   0.2997   0.00    1.6
2018/03/15 13:41:55.000   78.253582836   16.174490448   537.5596   2   7   0.1642   0.1504   0.8559  -0.0877  -0.2404   0.2897   0.00    1.2
2018/03/15 13:41:56.000   78.253584691   16.174479295   537.6415   2   6   0.1601   0.1437   0.8311  -0.0814  -0.2288   0.2836   0.00    1.5
2018/03/15 13:41:57.000   78.253584971   16.174477127   537.4978   2   7   0.1548   0.1379   0.8021  -0.0763  -0.2191   0.2739   0.00    1.0
2018/03/15 13:41:58.000   78.253585411   16.174477018   537.6552   2   7   0.1500   0.1327   0.7754  -0.0718  -0.2103   0.2650   0.00    1.1
2018/03/15 13:41:59.000   78.253585408   16.174475573   537.6789   2   7   0.1459   0.1285   0.7540  -0.0678  -0.2040   0.2572   0.00    2.1
2018/03/15 13:42:00.000   78.253585020   16.174475380   537.5402   2   7   0.1423   0.1244   0.7340  -0.0648  -0.1978   0.2510   0.00    1.3
2018/03/15 13:42:01.000   78.253584925   16.174476215   537.4081   2   7   0.1389   0.1208   0.7156  -0.0621  -0.1921   0.2452   0.00    1.3
2018/03/15 13:42:02.000   78.253584879   16.174476903   537.4903   2   7   0.1357   0.1174   0.6984  -0.0596  -0.1868   0.2397   0.00    1.3
2018/03/15 13:42:03.000   78.253584788   16.174478178   537.4684   2   6   0.1332   0.1150   0.6846  -0.0586  -0.1823   0.2347   0.00    1.0
2018/03/15 13:42:04.000   78.253584502   16.174478934   537.2201   2   6   0.1308   0.1128   0.6715  -0.0575  -0.1780   0.2299   0.00    1.4
2018/03/15 13:42:05.000   78.253584306   16.174479921   537.0571   2   6   0.1285   0.1107   0.6588  -0.0565  -0.1739   0.2253   0.00    1.3
2018/03/15 13:42:06.000   78.253584207   16.174480652   536.8732   2   6   0.1263   0.1087   0.6466  -0.0556  -0.1700   0.2208   0.00    1.3
2018/03/15 13:42:07.000   78.253584285   16.174480505   536.8379   2   6   0.1238   0.1062   0.6347  -0.0536  -0.1659   0.2163   0.00    1.1
2018/03/15 13:42:08.000   78.253584477   16.174480594   536.9375   2   6   0.1205   0.1038   0.6195  -0.0523  -0.1622   0.2105   0.00    1.1
2018/03/15 13:42:09.000   78.253584442   16.174480708   536.9810   2   6   0.1175   0.1015   0.6051  -0.0511  -0.1587   0.2051   0.00    1.5
2018/03/15 13:42:10.000   78.253584449   16.174480887   536.9787   2   6   0.1147   0.0994   0.5914  -0.0499  -0.1554   0.2000   0.00    1.9
2018/03/15 13:42:11.000   78.253584597   16.174481458   536.9794   2   6   0.1121   0.0973   0.5784  -0.0487  -0.1521   0.1951   0.00    2.2
2018/03/15 13:42:12.000   78.253584734   16.174481273   536.9556   2   6   0.1096   0.0954   0.5659  -0.0476  -0.1490   0.1905   0.00    2.6
2018/03/15 13:42:13.000   78.253584892   16.174481960   536.9297   2   6   0.1072   0.0936   0.5539  -0.0466  -0.1459   0.1860   0.00    2.8
2018/03/15 13:42:14.000   78.253583198   16.174509822   535.6987   1   6   0.0017   0.0015   0.0091  -0.0007  -0.0020   0.0027   0.00    3.0
2018/03/15 13:42:15.000   78.253583198   16.174509825   535.6988   1   6   0.0016   0.0014   0.0087  -0.0007  -0.0019   0.0026   0.00    3.1
2018/03/15 13:42:16.000   78.253583205   16.174509806   535.6985   1   6   0.0015   0.0013   0.0084  -0.0007  -0.0019   0.0025   0.00    3.2
2018/03/15 13:42:17.000   78.253583211   16.174509786   535.6988   1   6   0.0015   0.0013   0.0081  -0.0006  -0.0019   0.0024   0.00    3.3
2018/03/15 13:42:18.000   78.253583219   16.174509762   535.6999   1   6   0.0014   0.0013   0.0078  -0.0006  -0.0018   0.0024   0.00    3.4
2018/03/15 13:42:19.000   78.253583223   16.174509738   535.7023   1   6   0.0014   0.0012   0.0076  -0.0006  -0.0018   0.0023   0.00    3.5
2018/03/15 13:42:20.000   78.253583224   16.174509720   535.7065   1   6   0.0013   0.0012   0.0073  -0.0006  -0.0018   0.0023   0.00    3.5
2018/03/15 13:42:21.000   78.253585069   16.174486466   536.5210   2   7   0.0917   0.0818   0.4698  -0.0389  -0.1245   0.1556   0.00    1.8
2018/03/15 13:42:22.000   78.253584984   16.174486837   536.5646   2   7   0.0901   0.0805   0.4598  -0.0380  -0.1222   0.1523   0.00    1.8
2018/03/15 13:42:23.000   78.253584918   16.174487129   536.5639   2   7   0.0886   0.0794   0.4501  -0.0372  -0.1199   0.1491   0.00    1.6
2018/03/15 13:42:24.000   78.253584903   16.174487516   536.6040   2   7   0.0871   0.0782   0.4407  -0.0363  -0.1176   0.1460   0.00    1.7
2018/03/15 13:42:25.000   78.253584889   16.174488016   536.5757   2   7   0.0856   0.0771   0.4316  -0.0355  -0.1154   0.1430   0.00    1.3
2018/03/15 13:42:26.000   78.253584827   16.174488299   536.6189   2   7   0.0842   0.0760   0.4228  -0.0347  -0.1132   0.1400   0.00    1.1
2018/03/15 13:42:27.000   78.253584918   16.174488284   536.6766   2   7   0.0828   0.0750   0.4141  -0.0339  -0.1111   0.1371   0.00    1.1
2018/03/15 13:42:28.000   78.253585064   16.174488337   536.7104   2   7   0.0815   0.0740   0.4058  -0.0331  -0.1090   0.1342   0.00    1.2
2018/03/15 13:42:29.000   78.253585071   16.174488870   536.6771   2   7   0.0802   0.0730   0.3976  -0.0323  -0.1069   0.1315   0.00    1.3
2018/03/15 13:42:30.000   78.253585128   16.174488750   536.7630   2   7   0.0790   0.0721   0.3896  -0.0316  -0.1049   0.1287   0.00    1.4
2018/03/15 13:42:31.000   78.253585169   16.174488546   536.7905   2   7   0.0778   0.0712   0.3819  -0.0308  -0.1030   0.1261   0.00    1.4
2018/03/15 13:42:32.000   78.253585141   16.174488782   536.7741   2   7   0.0766   0.0703   0.3743  -0.0301  -0.1010   0.1234   0.00    1.5
2018/03/15 13:42:33.000   78.253585149   16.174488757   536.7979   2   7   0.0754   0.0694   0.3669  -0.0293  -0.0991   0.1209   0.00    1.7
2018/03/15 13:42:34.000   78.253585183   16.174488913   536.8337   2   7   0.0743   0.0686   0.3597  -0.0286  -0.0973   0.1184   0.00    1.3
2018/03/15 13:42:35.000   78.253585215   16.174489252   536.8902   2   7   0.0733   0.0678   0.3527  -0.0279  -0.0955   0.1160   0.00    1.2
2018/03/15 13:42:36.000   78.253585264   16.174489106   536.9523   2   7   0.0722   0.0670   0.3459  -0.0272  -0.0937   0.1136   0.00    1.1
2018/03/15 13:42:37.000   78.253585314   16.174489353   536.9558   2   7   0.0712   0.0662   0.3392  -0.0265  -0.0920   0.1112   0.00    1.2
2018/03/15 13:42:38.000   78.253585364   16.174489806   537.0019   2   7   0.0702   0.0654   0.3327  -0.0259  -0.0902   0.1089   0.00    1.5
2018/03/15 13:42:39.000   78.253585432   16.174490041   537.0494   2   7   0.0692   0.0647   0.3263  -0.0252  -0.0886   0.1067   0.00    1.9
2018/03/15 13:42:40.000   78.253585497   16.174490372   537.0467   2   7   0.0683   0.0640   0.3201  -0.0246  -0.0869   0.1045   0.00    2.2
2018/03/15 13:42:41.000   78.253585586   16.174490614   537.0376   2   7   0.0673   0.0633   0.3141  -0.0239  -0.0853   0.1024   0.00    2.5
2018/03/15 13:42:42.000   78.253585646   16.174490821   537.0393   2   7   0.0664   0.0626   0.3082  -0.0233  -0.0838   0.1003   0.00    2.9
2018/03/15 13:42:43.000   78.253583248   16.174509598   535.7618   1   7   0.0009   0.0008   0.0048  -0.0004  -0.0013   0.0016   0.00    3.3
2018/03/15 13:42:44.000   78.253583246   16.174509619   535.7609   1   7   0.0009   0.0008   0.0047  -0.0004  -0.0013   0.0015   0.00    3.6
2018/03/15 13:42:45.000   78.253583246   16.174509647   535.7600   1   7   0.0009   0.0008   0.0047  -0.0004  -0.0012   0.0015   0.00    3.7
2018/03/15 13:42:46.000   78.253583244   16.174509670   535.7586   1   7   0.0008   0.0008   0.0046  -0.0004  -0.0012   0.0015   0.00    3.9
2018/03/15 13:42:47.000   78.253585791   16.174492003   536.7199   2   7   0.0623   0.0595   0.2808  -0.0203  -0.0764   0.0905   0.00    1.9
2018/03/15 13:42:48.000   78.253585820   16.174492242   536.6772   2   7   0.0615   0.0589   0.2758  -0.0197  -0.0750   0.0887   0.00    2.7
2018/03/15 13:42:49.000   78.253585880   16.174492637   536.6334   2   7   0.0608   0.0583   0.2710  -0.0191  -0.0737   0.0870   0.00    2.7
2018/03/15 13:42:50.000   78.253585900   16.174492798   536.6010   2   7   0.0601   0.0578   0.2662  -0.0186  -0.0723   0.0852   0.00    1.1
2018/03/15 13:42:51.000   78.253585939   16.174492823   536.5771   2   7   0.0593   0.0572   0.2616  -0.0180  -0.0710   0.0836   0.00    1.1
2018/03/15 13:42:52.000   78.253586029   16.174492980   536.5815   2   7   0.0586   0.0567   0.2571  -0.0174  -0.0698   0.0819   0.00    1.0
2018/03/15 13:42:53.000   78.253585918   16.174493252   536.4498   2   7   0.0580   0.0562   0.2526  -0.0169  -0.0685   0.0803   0.00    1.1
2018/03/15 13:42:54.000   78.253585870   16.174493578   536.3753   2   7   0.0573   0.0557   0.2483  -0.0164  -0.0673   0.0787   0.00    1.0
2018/03/15 13:42:55.000   78.253585833   16.174493690   536.3591   2   7   0.0566   0.0552   0.2441  -0.0158  -0.0661   0.0772   0.00    1.3
2018/03/15 13:42:56.000   78.253585840   16.174493633   536.3386   2   7   0.0560   0.0547   0.2400  -0.0153  -0.0650   0.0757   0.00    1.6
2018/03/15 13:42:57.000   78.253585741   16.174494010   536.2426   2   7   0.0554   0.0542   0.2360  -0.0148  -0.0638   0.0742   0.00    1.9
2018/03/15 13:42:58.000   78.253585801   16.174494196   536.2563   2   7   0.0548   0.0538   0.2320  -0.0143  -0.0627   0.0728   0.00    2.1
2018/03/15 13:42:59.000   78.253585818   16.174494259   536.2447   2   7   0.0542   0.0533   0.2282  -0.0138  -0.0616   0.0713   0.00    2.3
2018/03/15 13:43:00.000   78.253585870   16.174494236   536.2657   2   7   0.0536   0.0529   0.2244  -0.0133  -0.0606   0.0700   0.00    2.5
2018/03/15 13:43:01.000   78.253585908   16.174494350   536.2703   2   7   0.0530   0.0524   0.2207  -0.0128  -0.0595   0.0686   0.00    2.7
2018/03/15 13:43:02.000   78.253585948   16.174494158   536.3139   2   7   0.0525   0.0520   0.2171  -0.0123  -0.0585   0.0673   0.00    2.8
2018/03/15 13:43:03.000   78.253585950   16.174494150   536.3228   2   7   0.0519   0.0516   0.2136  -0.0118  -0.0575   0.0660   0.00    3.0
2018/03/15 13:43:04.000   78.253583246   16.174509966   535.7518   1   7   0.0007   0.0006   0.0040  -0.0003  -0.0011   0.0012   0.00    3.1
2018/03/15 13:43:05.000   78.253583249   16.174509973   535.7523   1   7   0.0007   0.0006   0.0040  -0.0003  -0.0011   0.0012   0.00    3.1
2018/03/15 13:43:06.000   78.253583252   16.174509979   535.7528   1   7   0.0007   0.0006   0.0039  -0.0003  -0.0011   0.0012   0.00    3.0
2018/03/15 13:43:07.000   78.253585832   16.174493502   536.2352   2   7   0.0499   0.0500   0.2003  -0.0098  -0.0538   0.0611   0.00    2.9
2018/03/15 13:43:08.000   78.253585781   16.174493416   536.1801   2   7   0.0494   0.0496   0.1972  -0.0093  -0.0529   0.0599   0.00    2.9
2018/03/15 13:43:09.000   78.253585767   16.174493346   536.1229   2   7   0.0489   0.0492   0.1941  -0.0088  -0.0520   0.0588   0.00    2.8
2018/03/15 13:43:10.000   78.253585718   16.174493173   536.0586   2   7   0.0484   0.0489   0.1911  -0.0083  -0.0511   0.0577   0.00    2.6
2018/03/15 13:43:11.000   78.253585757   16.174492993   536.0121   2   7   0.0480   0.0485   0.1882  -0.0078  -0.0503   0.0566   0.00    2.5
2018/03/15 13:43:12.000   78.253585762   16.174492710   535.9611   2   7   0.0475   0.0482   0.1853  -0.0073  -0.0495   0.0555   0.00    2.3
2018/03/15 13:43:13.000   78.253585772   16.174492355   535.9175   2   7   0.0471   0.0478   0.1825  -0.0067  -0.0487   0.0545   0.00    2.2
2018/03/15 13:43:14.000   78.253585822   16.174492124   535.9074   2   7   0.0467   0.0475   0.1798  -0.0062  -0.0479   0.0535   0.00    1.1
2018/03/15 13:43:15.000   78.253585863   16.174491931   535.8970   2   7   0.0462   0.0471   0.1771  -0.0056  -0.0471   0.0525   0.00    1.1
2018/03/15 13:43:16.000   78.253585969   16.174491813   535.8962   2   7   0.0458   0.0468   0.1745  -0.0049  -0.0464   0.0515   0.00    1.1
2018/03/15 13:43:17.000   78.253586054   16.174491563   535.8931   2   7   0.0454   0.0465   0.1719  -0.0043  -0.0456   0.0505   0.00    1.2
2018/03/15 13:43:18.000   78.253586099   16.174491385   535.8848   2   7   0.0450   0.0462   0.1694  -0.0035  -0.0449   0.0496   0.00    1.2
2018/03/15 13:43:19.000   78.253586160   16.174491424   535.8787   2   7   0.0446   0.0459   0.1670  -0.0025  -0.0442   0.0487   0.00    1.3
2018/03/15 13:43:20.000   78.253586183   16.174491539   535.8458   2   7   0.0442   0.0456   0.1646  -0.0010  -0.0435   0.0478   0.00    1.2
2018/03/15 13:43:21.000   78.253586158   16.174491671   535.8021   2   7   0.0438   0.0453   0.1623   0.0021  -0.0428   0.0469   0.00    1.2
2018/03/15 13:43:22.000   78.253586166   16.174491922   535.7772   2   7   0.0435   0.0450   0.1600   0.0030  -0.0422   0.0461   0.00    1.2
2018/03/15 13:43:23.000   78.253586199   16.174491939   535.7416   2   7   0.0431   0.0447   0.1577   0.0039  -0.0415   0.0452   0.00    1.2
2018/03/15 13:43:24.000   78.253586187   16.174491961   535.7111   2   7   0.0428   0.0444   0.1556   0.0045  -0.0409   0.0443   0.00    1.2
2018/03/15 13:43:25.000   78.253586189   16.174491769   535.7122   2   7   0.0425   0.0441   0.1534   0.0051  -0.0403   0.0434   0.00    1.2
2018/03/15 13:43:26.000   78.253586214   16.174491718   535.6980   2   7   0.0422   0.0438   0.1513   0.0055  -0.0397   0.0426   0.00    1.2
2018/03/15 13:43:27.000   78.253586191   16.174491716   535.6755   2   7   0.0418   0.0436   0.1493   0.0060  -0.0391   0.0418   0.00    1.2
2018/03/15 13:43:28.000   78.253586115   16.174491871   535.6371   2   7   0.0415   0.0433   0.1473   0.0063  -0.0386   0.0410   0.00    1.8
2018/03/15 13:43:29.000   78.253586059   16.174491848   535.6083   2   7   0.0412   0.0430   0.1453   0.0067  -0.0380   0.0402   0.00    1.7
2018/03/15 13:43:30.000   78.253586015   16.174491842   535.5863   2   7   0.0409   0.0428   0.1434   0.0070  -0.0374   0.0394   0.00    1.7
2018/03/15 13:43:31.000   78.253585951   16.174491831   535.5476   2   7   0.0406   0.0425   0.1415   0.0072  -0.0369   0.0387   0.00    1.7
2018/03/15 13:43:32.000   78.253585884   16.174491756   535.5323   2   7   0.0403   0.0423   0.1397   0.0075  -0.0364   0.0379   0.00    1.6
2018/03/15 13:43:33.000   78.253585799   16.174491700   535.4985   2   7   0.0401   0.0420   0.1379   0.0077  -0.0359   0.0372   0.00    1.6
2018/03/15 13:43:34.000   78.253585752   16.174491748   535.4872   2   7   0.0398   0.0418   0.1361   0.0079  -0.0353   0.0365   0.00    1.5
2018/03/15 13:43:35.000   78.253585680   16.174491628   535.4679   2   7   0.0395   0.0415   0.1344   0.0081  -0.0348   0.0358   0.00    1.5
2018/03/15 13:43:36.000   78.253585630   16.174491602   535.4583   2   7   0.0392   0.0413   0.1327   0.0083  -0.0344   0.0351   0.00    1.5
2018/03/15 13:43:37.000   78.253585559   16.174491594   535.4465   2   7   0.0389   0.0411   0.1310   0.0085  -0.0339   0.0344   0.00    1.4
2018/03/15 13:43:38.000   78.253585534   16.174491521   535.4508   2   7   0.0387   0.0408   0.1294   0.0086  -0.0334   0.0338   0.00    1.4
2018/03/15 13:43:39.000   78.253585493   16.174491475   535.4499   2   7   0.0384   0.0406   0.1277   0.0088  -0.0329   0.0331   0.00    1.4
2018/03/15 13:43:40.000   78.253585463   16.174491434   535.4455   2   7   0.0382   0.0404   0.1262   0.0089  -0.0325   0.0325   0.00    1.3
2018/03/15 13:43:41.000   78.253585496   16.174491499   535.4711   2   7   0.0379   0.0402   0.1246   0.0091  -0.0320   0.0319   0.00    1.3
2018/03/15 13:43:42.000   78.253585523   16.174491566   535.4864   2   7   0.0376   0.0400   0.1231   0.0092  -0.0316   0.0313   0.00    1.2
2018/03/15 13:43:43.000   78.253585554   16.174491578   535.4922   2   7   0.0374   0.0397   0.1217   0.0093  -0.0312   0.0307   0.00    1.3
2018/03/15 13:43:44.000   78.253585548   16.174491654   535.4920   2   7   0.0371   0.0395   0.1202   0.0094  -0.0308   0.0301   0.00    1.3
2018/03/15 13:43:45.000   78.253585587   16.174491797   535.4979   2   7   0.0369   0.0393   0.1188   0.0095  -0.0304   0.0295   0.00    1.3
2018/03/15 13:43:46.000   78.253585607   16.174492010   535.4952   2   7   0.0367   0.0391   0.1174   0.0096  -0.0300   0.0289   0.00    1.3
2018/03/15 13:43:47.000   78.253585648   16.174492130   535.4999   2   7   0.0364   0.0389   0.1161   0.0097  -0.0296   0.0284   0.00    1.2
2018/03/15 13:43:48.000   78.253585691   16.174492322   535.5163   2   7   0.0362   0.0387   0.1147   0.0098  -0.0292   0.0278   0.00    1.2
2018/03/15 13:43:49.000   78.253585740   16.174492466   535.5271   2   7   0.0360   0.0385   0.1134   0.0098  -0.0288   0.0273   0.00    1.2
2018/03/15 13:43:50.000   78.253585802   16.174492628   535.5368   2   7   0.0357   0.0383   0.1121   0.0099  -0.0285   0.0268   0.00    1.2
2018/03/15 13:43:51.000   78.253585859   16.174492846   535.5239   2   7   0.0355   0.0381   0.1109   0.0100  -0.0281   0.0262   0.00    1.2
2018/03/15 13:43:52.000   78.253585899   16.174493079   535.5109   2   7   0.0353   0.0379   0.1096   0.0100  -0.0278   0.0257   0.00    1.2
2018/03/15 13:43:53.000   78.253585954   16.174493458   535.4970   2   7   0.0351   0.0377   0.1084   0.0101  -0.0274   0.0252   0.00    1.2
2018/03/15 13:43:54.000   78.253586066   16.174493872   535.5017   2   7   0.0348   0.0375   0.1072   0.0102  -0.0271   0.0247   0.00    1.1
2018/03/15 13:43:55.000   78.253586167   16.174494045   535.5033   2   7   0.0346   0.0374   0.1060   0.0102  -0.0267   0.0242   0.00    1.1
2018/03/15 13:43:56.000   78.253586231   16.174494238   535.4924   2   7   0.0344   0.0372   0.1049   0.0103  -0.0264   0.0238   0.00    1.1
2018/03/15 13:43:57.000   78.253586303   16.174494581   535.4863   2   7   0.0342   0.0370   0.1037   0.0103  -0.0261   0.0233   0.00    1.1
2018/03/15 13:43:58.000   78.253586347   16.174494687   535.4825   2   7   0.0340   0.0368   0.1026   0.0103  -0.0258   0.0228   0.00    1.0
2018/03/15 13:43:59.000   78.253586382   16.174494965   535.4724   2   7   0.0338   0.0366   0.1015   0.0104  -0.0254   0.0224   0.00    1.0
2018/03/15 13:44:00.000   78.253586426   16.174495147   535.4697   2   7   0.0336   0.0364   0.1004   0.0104  -0.0251   0.0219   0.00    1.1
2018/03/15 13:44:01.000   78.253586463   16.174495366   535.4600   2   7   0.0334   0.0363   0.0994   0.0104  -0.0248   0.0215   0.00    1.1
2018/03/15 13:44:02.000   78.253586499   16.174495469   535.4666   2   7   0.0332   0.0361   0.0983   0.0105  -0.0245   0.0210   0.00    1.1
2018/03/15 13:44:03.000   78.253586542   16.174495640   535.4614   2   7   0.0330   0.0359   0.0973   0.0105  -0.0242   0.0206   0.00    1.1
2018/03/15 13:44:04.000   78.253586548   16.174495616   535.4598   2   7   0.0328   0.0358   0.0963   0.0105  -0.0240   0.0202   0.00    1.1
2018/03/15 13:44:05.000   78.253586575   16.174495773   535.4701   2   7   0.0326   0.0356   0.0953   0.0106  -0.0237   0.0198   0.00    1.1
2018/03/15 13:44:06.000   78.253586564   16.174495861   535.4644   2   7   0.0324   0.0354   0.0943   0.0106  -0.0234   0.0193   0.00    1.1
2018/03/15 13:44:07.000   78.253586572   16.174495898   535.4763   2   7   0.0322   0.0353   0.0934   0.0106  -0.0231   0.0189   0.00    1.1
2018/03/15 13:44:08.000   78.253586580   16.174495891   535.4917   2   7   0.0320   0.0351   0.0924   0.0106  -0.0229   0.0185   0.00    1.1
2018/03/15 13:44:09.000   78.253586605   16.174496074   535.5116   2   7   0.0318   0.0349   0.0915   0.0106  -0.0226   0.0182   0.00    1.1
2018/03/15 13:44:10.000   78.253586625   16.174496090   535.5365   2   7   0.0316   0.0348   0.0906   0.0106  -0.0223   0.0178   0.00    1.1
2018/03/15 13:44:11.000   78.253586619   16.174496048   535.5540   2   7   0.0315   0.0346   0.0897   0.0106  -0.0221   0.0174   0.00    1.0
2018/03/15 13:44:12.000   78.253586611   16.174495996   535.5833   2   7   0.0313   0.0345   0.0888   0.0107  -0.0218   0.0170   0.00    1.0
2018/03/15 13:44:13.000   78.253586599   16.174495970   535.6163   2   7   0.0311   0.0343   0.0880   0.0107  -0.0216   0.0166   0.00    1.0
2018/03/15 13:44:14.000   78.253586562   16.174495765   535.6416   2   7   0.0309   0.0342   0.0871   0.0107  -0.0213   0.0163   0.00    1.0
2018/03/15 13:44:15.000   78.253586540   16.174495670   535.6733   2   7   0.0307   0.0340   0.0863   0.0107  -0.0211   0.0159   0.00    1.0
2018/03/15 13:44:16.000   78.253586516   16.174495461   535.6915   2   7   0.0306   0.0339   0.0854   0.0107  -0.0208   0.0155   0.00    1.0
2018/03/15 13:44:17.000   78.253586476   16.174495310   535.7049   2   7   0.0304   0.0337   0.0846   0.0107  -0.0206   0.0152   0.00    1.1
2018/03/15 13:44:18.000   78.253586458   16.174495205   535.7108   2   7   0.0302   0.0336   0.0838   0.0107  -0.0204   0.0148   0.00    1.1
2018/03/15 13:44:19.000   78.253586435   16.174494964   535.7104   2   7   0.0301   0.0334   0.0830   0.0107  -0.0202   0.0145   0.00    1.1
2018/03/15 13:44:20.000   78.253586418   16.174494688   535.7059   2   7   0.0299   0.0333   0.0822   0.0107  -0.0199   0.0142   0.00    1.1
2018/03/15 13:44:21.000   78.253586392   16.174494367   535.7166   2   7   0.0297   0.0331   0.0815   0.0107  -0.0197   0.0138   0.00    1.1
2018/03/15 13:44:22.000   78.253586382   16.174493899   535.7321   2   7   0.0296   0.0330   0.0807   0.0107  -0.0195   0.0135   0.00    1.1
2018/03/15 13:44:23.000   78.253586307   16.174493486   535.7295   2   7   0.0294   0.0328   0.0800   0.0107  -0.0193   0.0132   0.00    1.1
2018/03/15 13:44:24.000   78.253586259   16.174493082   535.7359   2   7   0.0292   0.0327   0.0793   0.0107  -0.0191   0.0128   0.00    1.1
2018/03/15 13:44:25.000   78.253586219   16.174492640   535.7467   2   7   0.0291   0.0326   0.0785   0.0107  -0.0189   0.0125   0.00    1.1
2018/03/15 13:44:26.000   78.253586168   16.174492181   535.7578   2   7   0.0289   0.0324   0.0778   0.0106  -0.0187   0.0122   0.00    1.1
2018/03/15 13:44:27.000   78.253586136   16.174491824   535.7604   2   7   0.0287   0.0323   0.0771   0.0106  -0.0185   0.0119   0.00    1.1
2018/03/15 13:44:28.000   78.253586093   16.174491405   535.7617   2   7   0.0286   0.0321   0.0764   0.0106  -0.0183   0.0116   0.00    1.1
2018/03/15 13:44:29.000   78.253586074   16.174490967   535.7686   2   7   0.0284   0.0320   0.0758   0.0106  -0.0181   0.0112   0.00    1.2
2018/03/15 13:44:30.000   78.253586034   16.174490538   535.7739   2   7   0.0283   0.0319   0.0751   0.0106  -0.0179   0.0109   0.00    1.2
2018/03/15 13:44:31.000   78.253585985   16.174490073   535.7601   2   7   0.0281   0.0317   0.0744   0.0106  -0.0177   0.0106   0.00    1.2
2018/03/15 13:44:32.000   78.253585897   16.174489614   535.7365   2   7   0.0280   0.0316   0.0738   0.0106  -0.0175   0.0103   0.00    1.2
2018/03/15 13:44:33.000   78.253585840   16.174489209   535.7239   2   7   0.0278   0.0315   0.0731   0.0106  -0.0173   0.0100   0.00    1.2
2018/03/15 13:44:34.000   78.253585788   16.174488847   535.7063   2   7   0.0277   0.0314   0.0725   0.0106  -0.0171   0.0097   0.00    1.2
2018/03/15 13:44:35.000   78.253585735   16.174488369   535.6928   2   7   0.0275   0.0312   0.0719   0.0105  -0.0170   0.0094   0.00    1.2
2018/03/15 13:44:36.000   78.253585710   16.174487917   535.6799   2   7   0.0274   0.0311   0.0713   0.0105  -0.0168   0.0091   0.00    1.3
2018/03/15 13:44:37.000   78.253585688   16.174487495   535.6595   2   7   0.0272   0.0310   0.0707   0.0105  -0.0166   0.0088   0.00    1.3
2018/03/15 13:44:38.000   78.253585662   16.174487121   535.6373   2   7   0.0271   0.0309   0.0701   0.0105  -0.0164   0.0085   0.00    1.3
2018/03/15 13:44:39.000   78.253585650   16.174486763   535.6162   2   7   0.0269   0.0307   0.0695   0.0105  -0.0163   0.0082   0.00    1.3
2018/03/15 13:44:40.000   78.253585673   16.174486369   535.6046   2   7   0.0268   0.0306   0.0689   0.0105  -0.0161   0.0079   0.00    1.3
2018/03/15 13:44:41.000   78.253585685   16.174486122   535.5821   2   7   0.0267   0.0305   0.0683   0.0104  -0.0160   0.0076   0.00    1.3
2018/03/15 13:44:42.000   78.253585709   16.174485803   535.5627   2   7   0.0265   0.0304   0.0677   0.0104  -0.0158   0.0073   0.00    1.4
2018/03/15 13:44:43.000   78.253585732   16.174485623   535.5450   2   7   0.0264   0.0302   0.0672   0.0104  -0.0156   0.0070   0.00    1.4
2018/03/15 13:44:44.000   78.253585763   16.174485389   535.5283   2   7   0.0262   0.0301   0.0666   0.0104  -0.0155   0.0067   0.00    1.4
2018/03/15 13:44:45.000   78.253585815   16.174485232   535.5102   2   7   0.0261   0.0300   0.0661   0.0104  -0.0153   0.0064   0.00    1.0
2018/03/15 13:44:46.000   78.253585878   16.174485078   535.4920   2   7   0.0260   0.0299   0.0656   0.0103  -0.0152   0.0061   0.00    1.0
2018/03/15 13:44:47.000   78.253585941   16.174485015   535.4676   2   7   0.0258   0.0298   0.0650   0.0103  -0.0150   0.0058   0.00    1.0
2018/03/15 13:44:48.000   78.253586013   16.174485015   535.4496   2   7   0.0257   0.0297   0.0645   0.0103  -0.0149   0.0055   0.00    1.1
2018/03/15 13:44:49.000   78.253586148   16.174484801   535.4566   2   7   0.0256   0.0295   0.0640   0.0103  -0.0147   0.0052   0.00    1.1
2018/03/15 13:44:50.000   78.253586266   16.174484593   535.4569   2   7   0.0254   0.0294   0.0635   0.0103  -0.0146   0.0048   0.00    1.2
2018/03/15 13:44:51.000   78.253586376   16.174484535   535.4473   2   7   0.0253   0.0293   0.0630   0.0102  -0.0144   0.0045   0.00    1.3
2018/03/15 13:44:52.000   78.253586515   16.174484386   535.4489   2   7   0.0252   0.0292   0.0625   0.0102  -0.0143   0.0041   0.00    1.3
2018/03/15 13:44:53.000   78.253586628   16.174484461   535.4386   2   7   0.0251   0.0291   0.0620   0.0102  -0.0142   0.0037   0.00    1.3
2018/03/15 13:44:54.000   78.253586741   16.174484423   535.4301   2   7   0.0249   0.0290   0.0615   0.0102  -0.0140   0.0033   0.00    1.4
2018/03/15 13:44:55.000   78.253586852   16.174484413   535.4269   2   7   0.0248   0.0289   0.0611   0.0102  -0.0139   0.0028   0.00    1.4
2018/03/15 13:44:56.000   78.253586934   16.174484592   535.4060   2   7   0.0247   0.0288   0.0606   0.0101  -0.0138   0.0023   0.00    1.5
2018/03/15 13:44:57.000   78.253586984   16.174484816   535.3476   2   7   0.0246   0.0286   0.0601   0.0101  -0.0136   0.0016   0.00    1.5
2018/03/15 13:44:58.000   78.253587040   16.174485072   535.3343   2   6   0.0244   0.0286   0.0599   0.0101  -0.0134   0.0011   0.00    1.5
2018/03/15 13:44:59.000   78.253587136   16.174485302   535.3253   2   6   0.0243   0.0285   0.0598   0.0100  -0.0134   0.0020   0.00    1.0
2018/03/15 13:45:00.000   78.253587200   16.174485506   535.3204   2   6   0.0243   0.0284   0.0597   0.0099  -0.0134   0.0026   0.00    1.0
2018/03/15 13:45:01.000   78.253587281   16.174485698   535.3142   2   6   0.0242   0.0284   0.0596   0.0098  -0.0134   0.0030   0.00    1.0
2018/03/15 13:45:02.000   78.253587379   16.174485964   535.3061   2   6   0.0241   0.0283   0.0595   0.0098  -0.0133   0.0034   0.00    1.0
2018/03/15 13:45:03.000   78.253587478   16.174486225   535.3004   2   6   0.0240   0.0282   0.0594   0.0097  -0.0133   0.0038   0.00    1.0
2018/03/15 13:45:04.000   78.253587583   16.174486424   535.2924   2   7   0.0239   0.0282   0.0593   0.0096  -0.0133   0.0042   0.00    1.1
2018/03/15 13:45:05.000   78.253587667   16.174486669   535.2886   2   7   0.0238   0.0281   0.0593   0.0095  -0.0133   0.0045   0.00    1.0
2018/03/15 13:45:06.000   78.253587712   16.174486854   535.2892   2   7   0.0237   0.0280   0.0592   0.0094  -0.0133   0.0047   0.00    1.0
2018/03/15 13:45:07.000   78.253587805   16.174487064   535.2865   2   7   0.0236   0.0280   0.0591   0.0093  -0.0133   0.0050   0.00    1.0
2018/03/15 13:45:08.000   78.253587887   16.174487282   535.2830   2   7   0.0235   0.0279   0.0590   0.0093  -0.0132   0.0053   0.00    1.0
2018/03/15 13:45:09.000   78.253587951   16.174487506   535.2848   2   7   0.0234   0.0278   0.0589   0.0092  -0.0132   0.0055   0.00    1.0
2018/03/15 13:45:10.000   78.253588036   16.174487717   535.2873   2   7   0.0233   0.0278   0.0588   0.0091  -0.0132   0.0058   0.00    1.0
2018/03/15 13:45:11.000   78.253588103   16.174487857   535.2880   2   7   0.0232   0.0277   0.0587   0.0090  -0.0132   0.0060   0.00    1.1
2018/03/15 13:45:12.000   78.253588157   16.174488038   535.2925   2   7   0.0231   0.0277   0.0586   0.0089  -0.0132   0.0062   0.00    1.1
2018/03/15 13:45:13.000   78.253588221   16.174488223   535.2995   2   7   0.0230   0.0276   0.0585   0.0089  -0.0132   0.0064   0.00    1.1
2018/03/15 13:45:14.000   78.253588254   16.174488301   535.3029   2   7   0.0229   0.0275   0.0584   0.0088  -0.0131   0.0066   0.00    1.2
2018/03/15 13:45:15.000   78.253588283   16.174488399   535.3041   2   7   0.0228   0.0275   0.0583   0.0087  -0.0131   0.0067   0.00    1.2
2018/03/15 13:45:16.000   78.253588294   16.174488506   535.3104   2   7   0.0228   0.0274   0.0582   0.0086  -0.0131   0.0069   0.00    1.3
2018/03/15 13:45:17.000   78.253588296   16.174488628   535.3194   2   7   0.0227   0.0273   0.0582   0.0085  -0.0131   0.0071   0.00    1.3
2018/03/15 13:45:18.000   78.253588321   16.174488756   535.3264   2   7   0.0226   0.0273   0.0581   0.0085  -0.0131   0.0072   0.00    1.3
2018/03/15 13:45:19.000   78.253588325   16.174488857   535.3325   2   7   0.0225   0.0272   0.0580   0.0084  -0.0131   0.0074   0.00    1.4
2018/03/15 13:45:20.000   78.253588343   16.174488967   535.3406   2   7   0.0224   0.0272   0.0579   0.0083  -0.0130   0.0075   0.00    1.4
2018/03/15 13:45:21.000   78.253588353   16.174489058   535.3493   2   7   0.0223   0.0271   0.0578   0.0082  -0.0130   0.0077   0.00    1.4
2018/03/15 13:45:22.000   78.253588347   16.174489136   535.3582   2   7   0.0222   0.0270   0.0577   0.0081  -0.0130   0.0078   0.00    1.4
2018/03/15 13:45:23.000   78.253588355   16.174489229   535.3675   2   7   0.0221   0.0270   0.0576   0.0081  -0.0130   0.0080   0.00    1.5
2018/03/15 13:45:24.000   78.253588331   16.174489262   535.3771   2   7   0.0220   0.0269   0.0575   0.0080  -0.0130   0.0081   0.00    1.5
2018/03/15 13:45:25.000   78.253588333   16.174489347   535.3806   2   7   0.0220   0.0269   0.0574   0.0079  -0.0130   0.0082   0.00    1.5
2018/03/15 13:45:26.000   78.253588334   16.174489401   535.3819   2   7   0.0219   0.0268   0.0573   0.0078  -0.0129   0.0083   0.00    1.5
2018/03/15 13:45:27.000   78.253588350   16.174489568   535.3849   2   7   0.0218   0.0268   0.0572   0.0077  -0.0129   0.0084   0.00    1.6
2018/03/15 13:45:28.000   78.253588348   16.174489632   535.3914   2   7   0.0217   0.0267   0.0571   0.0077  -0.0129   0.0086   0.00    1.6
2018/03/15 13:45:29.000   78.253588331   16.174489659   535.3942   2   7   0.0216   0.0266   0.0570   0.0076  -0.0129   0.0087   0.00    1.6
2018/03/15 13:45:30.000   78.253588319   16.174489692   535.3988   2   7   0.0215   0.0266   0.0569   0.0075  -0.0129   0.0088   0.00    1.6
2018/03/15 13:45:31.000   78.253588307   16.174489813   535.4033   2   7   0.0215   0.0265   0.0568   0.0074  -0.0129   0.0089   0.00    1.6
2018/03/15 13:45:32.000   78.253588291   16.174489851   535.4059   2   7   0.0214   0.0265   0.0567   0.0074  -0.0128   0.0090   0.00    1.6
2018/03/15 13:45:33.000   78.253588273   16.174489922   535.4133   2   7   0.0213   0.0264   0.0566   0.0073  -0.0128   0.0091   0.00    1.6
2018/03/15 13:45:34.000   78.253588254   16.174490028   535.4179   2   7   0.0212   0.0264   0.0565   0.0072  -0.0128   0.0092   0.00    1.5
2018/03/15 13:45:35.000   78.253588255   16.174490104   535.4185   2   7   0.0211   0.0263   0.0564   0.0071  -0.0128   0.0092   0.00    1.5
2018/03/15 13:45:36.000   78.253588272   16.174490229   535.4243   2   7   0.0211   0.0263   0.0563   0.0071  -0.0128   0.0093   0.00    1.5
2018/03/15 13:45:37.000   78.253588296   16.174490410   535.4266   2   7   0.0210   0.0262   0.0562   0.0070  -0.0128   0.0094   0.00    1.5
2018/03/15 13:45:38.000   78.253588330   16.174490596   535.4302   2   7   0.0209   0.0262   0.0561   0.0069  -0.0127   0.0095   0.00    1.0
2018/03/15 13:45:39.000   78.253588334   16.174490785   535.4323   2   7   0.0208   0.0261   0.0560   0.0068  -0.0127   0.0096   0.00    1.1
2018/03/15 13:45:40.000   78.253588361   16.174490921   535.4383   2   7   0.0207   0.0260   0.0559   0.0068  -0.0127   0.0096   0.00    1.1
2018/03/15 13:45:41.000   78.253588400   16.174491074   535.4381   2   7   0.0207   0.0260   0.0558   0.0067  -0.0127   0.0097   0.00    1.2
2018/03/15 13:45:42.000   78.253588453   16.174491281   535.4426   2   7   0.0206   0.0259   0.0556   0.0066  -0.0127   0.0098   0.00    1.2
2018/03/15 13:45:43.000   78.253588514   16.174491487   535.4408   2   7   0.0205   0.0259   0.0555   0.0065  -0.0127   0.0099   0.00    1.2
2018/03/15 13:45:44.000   78.253588567   16.174491659   535.4402   2   7   0.0204   0.0258   0.0554   0.0065  -0.0126   0.0099   0.00    1.3
2018/03/15 13:45:45.000   78.253588614   16.174491778   535.4452   2   7   0.0203   0.0258   0.0553   0.0064  -0.0126   0.0100   0.00    1.3
2018/03/15 13:45:46.000   78.253588649   16.174491952   535.4464   2   7   0.0203   0.0257   0.0552   0.0063  -0.0126   0.0100   0.00    1.3
2018/03/15 13:45:47.000   78.253588680   16.174492059   535.4459   2   7   0.0202   0.0257   0.0551   0.0063  -0.0126   0.0101   0.00    1.3
2018/03/15 13:45:48.000   78.253588708   16.174492232   535.4515   2   7   0.0201   0.0256   0.0550   0.0062  -0.0126   0.0102   0.00    1.4
2018/03/15 13:45:49.000   78.253588722   16.174492361   535.4558   2   7   0.0200   0.0256   0.0549   0.0061  -0.0126   0.0102   0.00    1.4
2018/03/15 13:45:50.000   78.253588731   16.174492485   535.4608   2   7   0.0200   0.0255   0.0548   0.0060  -0.0125   0.0103   0.00    1.4
2018/03/15 13:45:51.000   78.253588740   16.174492620   535.4636   2   7   0.0199   0.0255   0.0547   0.0060  -0.0125   0.0103   0.00    1.4
2018/03/15 13:45:52.000   78.253588730   16.174492685   535.4684   2   7   0.0198   0.0254   0.0545   0.0059  -0.0125   0.0104   0.00    1.4
2018/03/15 13:45:53.000   78.253588711   16.174492773   535.4723   2   7   0.0197   0.0254   0.0544   0.0058  -0.0125   0.0104   0.00    1.4
2018/03/15 13:45:54.000   78.253588700   16.174492879   535.4784   2   7   0.0197   0.0253   0.0543   0.0058  -0.0125   0.0105   0.00    1.5
2018/03/15 13:45:55.000   78.253588679   16.174492997   535.4809   2   7   0.0196   0.0253   0.0542   0.0057  -0.0124   0.0105   0.00    1.5
2018/03/15 13:45:56.000   78.253588651   16.174493059   535.4844   2   7   0.0195   0.0252   0.0541   0.0056  -0.0124   0.0105   0.00    1.5
2018/03/15 13:45:57.000   78.253588608   16.174493080   535.4897   2   7   0.0194   0.0252   0.0540   0.0055  -0.0124   0.0106   0.00    1.5
2018/03/15 13:45:58.000   78.253588558   16.174493087   535.4970   2   7   0.0194   0.0251   0.0538   0.0055  -0.0124   0.0106   0.00    1.5
2018/03/15 13:45:59.000   78.253588506   16.174493085   535.5000   2   7   0.0193   0.0251   0.0537   0.0054  -0.0123   0.0107   0.00    1.5
2018/03/15 13:46:00.000   78.253588485   16.174493200   535.5016   2   7   0.0192   0.0250   0.0536   0.0053  -0.0123   0.0107   0.00    1.5
2018/03/15 13:46:01.000   78.253588474   16.174493275   535.5026   2   7   0.0192   0.0250   0.0535   0.0053  -0.0123   0.0107   0.00    1.5
2018/03/15 13:46:02.000   78.253588463   16.174493376   535.5076   2   7   0.0191   0.0249   0.0534   0.0052  -0.0123   0.0108   0.00    1.5
2018/03/15 13:46:03.000   78.253588455   16.174493536   535.5134   2   7   0.0190   0.0249   0.0532   0.0051  -0.0123   0.0108   0.00    1.5
2018/03/15 13:46:04.000   78.253588434   16.174493621   535.5198   2   7   0.0190   0.0248   0.0531   0.0051  -0.0122   0.0108   0.00    1.5
2018/03/15 13:46:05.000   78.253588402   16.174493634   535.5256   2   7   0.0189   0.0248   0.0530   0.0050  -0.0122   0.0108   0.00    1.5
2018/03/15 13:46:06.000   78.253588380   16.174493700   535.5312   2   7   0.0188   0.0247   0.0529   0.0049  -0.0122   0.0109   0.00    1.5
2018/03/15 13:46:07.000   78.253588362   16.174493714   535.5369   2   7   0.0187   0.0247   0.0527   0.0049  -0.0122   0.0109   0.00    1.5
2018/03/15 13:46:08.000   78.253588345   16.174493745   535.5421   2   7   0.0187   0.0246   0.0526   0.0048  -0.0121   0.0109   0.00    1.5
2018/03/15 13:46:09.000   78.253588320   16.174493844   535.5432   2   7   0.0186   0.0246   0.0525   0.0047  -0.0121   0.0109   0.00    1.5
2018/03/15 13:46:10.000   78.253588304   16.174493883   535.5534   2   7   0.0185   0.0245   0.0523   0.0047  -0.0121   0.0110   0.00    1.5
2018/03/15 13:46:11.000   78.253588284   16.174494004   535.5571   2   7   0.0185   0.0245   0.0522   0.0046  -0.0121   0.0110   0.00    1.4
2018/03/15 13:46:12.000   78.253588270   16.174494176   535.5595   2   7   0.0184   0.0244   0.0521   0.0045  -0.0120   0.0110   0.00    1.4
2018/03/15 13:46:13.000   78.253588257   16.174494277   535.5630   2   8   0.0183   0.0244   0.0520   0.0044  -0.0120   0.0110   0.00    1.0
2018/03/15 13:46:14.000   78.253588245   16.174494414   535.5673   2   8   0.0183   0.0243   0.0518   0.0044  -0.0120   0.0110   0.00    1.0
2018/03/15 13:46:15.000   78.253588234   16.174494554   535.5657   2   8   0.0182   0.0243   0.0517   0.0043  -0.0120   0.0110   0.00    1.1
2018/03/15 13:46:16.000   78.253588207   16.174494642   535.5652   2   8   0.0181   0.0243   0.0515   0.0042  -0.0119   0.0111   0.00    1.2
2018/03/15 13:46:17.000   78.253588184   16.174494767   535.5660   2   8   0.0181   0.0242   0.0514   0.0042  -0.0119   0.0111   0.00    1.2
2018/03/15 13:46:18.000   78.253588143   16.174494827   535.5739   2   8   0.0180   0.0242   0.0513   0.0041  -0.0119   0.0111   0.00    1.3
2018/03/15 13:46:19.000   78.253588101   16.174494914   535.5789   2   8   0.0179   0.0241   0.0511   0.0040  -0.0118   0.0111   0.00    1.3
2018/03/15 13:46:20.000   78.253588053   16.174494949   535.5855   2   8   0.0179   0.0241   0.0510   0.0040  -0.0118   0.0111   0.00    1.3
2018/03/15 13:46:21.000   78.253588020   16.174494955   535.5908   2   8   0.0178   0.0240   0.0509   0.0039  -0.0118   0.0111   0.00    1.4
2018/03/15 13:46:22.000   78.253587988   16.174494969   535.5948   2   8   0.0177   0.0240   0.0507   0.0038  -0.0117   0.0111   0.00    1.4
2018/03/15 13:46:23.000   78.253587943   16.174495037   535.5974   2   8   0.0177   0.0239   0.0506   0.0037  -0.0117   0.0111   0.00    1.4
2018/03/15 13:46:24.000   78.253587868   16.174495124   535.6004   2   8   0.0176   0.0239   0.0504   0.0037  -0.0117   0.0112   0.00    1.4
2018/03/15 13:46:25.000   78.253587800   16.174495116   535.6050   2   8   0.0175   0.0238   0.0503   0.0036  -0.0117   0.0112   0.00    1.4
2018/03/15 13:46:26.000   78.253587734   16.174495126   535.6090   2   7   0.0175   0.0238   0.0502   0.0035  -0.0116   0.0112   0.00    1.1
2018/03/15 13:46:27.000   78.253587702   16.174495124   535.6256   2   6   0.0174   0.0237   0.0500   0.0035  -0.0116   0.0112   0.00    1.0
2018/03/15 13:46:28.000   78.253587635   16.174495047   535.6468   2   7   0.0173   0.0237   0.0499   0.0034  -0.0115   0.0112   0.00    1.0
2018/03/15 13:46:29.000   78.253587571   16.174494999   535.6655   2   6   0.0173   0.0237   0.0498   0.0033  -0.0115   0.0112   0.00    1.1
2018/03/15 13:46:30.000   78.253587512   16.174494972   535.6836   2   6   0.0172   0.0236   0.0496   0.0033  -0.0114   0.0112   0.00    1.1
2018/03/15 13:46:31.000   78.253587447   16.174494975   535.6946   2   6   0.0172   0.0236   0.0496   0.0032  -0.0114   0.0112   0.00    1.1
2018/03/15 13:46:32.000   78.253587421   16.174495075   535.6974   2   6   0.0171   0.0235   0.0495   0.0031  -0.0113   0.0112   0.00    1.1
2018/03/15 13:46:33.000   78.253587405   16.174495212   535.7029   2   5   0.0171   0.0235   0.0494   0.0031  -0.0113   0.0113   0.00    1.1
2018/03/15 13:46:34.000   78.253587378   16.174495280   535.7090   2   6   0.0170   0.0235   0.0493   0.0030  -0.0113   0.0113   0.00    1.0
2018/03/15 13:46:35.000   78.253587347   16.174495355   535.7159   2   5   0.0170   0.0234   0.0492   0.0029  -0.0112   0.0113   0.00    1.0
2018/03/15 13:46:36.000   78.253587304   16.174495463   535.7252   2   5   0.0169   0.0234   0.0491   0.0029  -0.0112   0.0114   0.00    1.0
2018/03/15 13:46:37.000   78.253587261   16.174495537   535.7343   2   5   0.0169   0.0234   0.0490   0.0028  -0.0111   0.0114   0.00    1.0
2018/03/15 13:46:38.000   78.253587215   16.174495571   535.7430   2   6   0.0168   0.0233   0.0489   0.0027  -0.0111   0.0114   0.00    1.0
2018/03/15 13:46:39.000   78.253587172   16.174495607   535.7525   2   6   0.0168   0.0233   0.0488   0.0027  -0.0110   0.0115   0.00    1.1
2018/03/15 13:46:40.000   78.253587091   16.174495498   535.7738   2   6   0.0167   0.0233   0.0487   0.0026  -0.0110   0.0115   0.00    1.1
2018/03/15 13:46:41.000   78.253587052   16.174495495   535.7802   2   6   0.0167   0.0232   0.0486   0.0025  -0.0109   0.0115   0.00    1.3
2018/03/15 13:46:42.000   78.253586985   16.174495516   535.7888   2   6   0.0166   0.0232   0.0486   0.0024  -0.0109   0.0116   0.00    1.3
2018/03/15 13:46:43.000   78.253586927   16.174495510   535.7925   2   6   0.0166   0.0232   0.0485   0.0024  -0.0108   0.0116   0.00    1.3
2018/03/15 13:46:44.000   78.253586878   16.174495517   535.8025   2   7   0.0165   0.0231   0.0484   0.0023  -0.0108   0.0117   0.00    1.2
2018/03/15 13:46:45.000   78.253586835   16.174495512   535.8107   2   7   0.0165   0.0231   0.0484   0.0022  -0.0107   0.0117   0.00    1.1
2018/03/15 13:46:46.000   78.253586797   16.174495530   535.8176   2   7   0.0165   0.0230   0.0483   0.0021  -0.0107   0.0118   0.00    1.1
2018/03/15 13:46:47.000   78.253586749   16.174495458   535.8303   2   8   0.0164   0.0230   0.0483   0.0020  -0.0106   0.0119   0.00    1.1
2018/03/15 13:46:48.000   78.253586686   16.174495376   535.8440   2   8   0.0164   0.0230   0.0482   0.0020  -0.0106   0.0119   0.00    1.0
2018/03/15 13:46:49.000   78.253586628   16.174495315   535.8563   2   8   0.0163   0.0229   0.0482   0.0019  -0.0105   0.0120   0.00    1.0
2018/03/15 13:46:50.000   78.253586577   16.174495315   535.8639   2   8   0.0163   0.0229   0.0481   0.0018  -0.0105   0.0121   0.00    1.0
2018/03/15 13:46:51.000   78.253586515   16.174495254   535.8751   2   8   0.0163   0.0228   0.0481   0.0017  -0.0104   0.0122   0.00    1.1
2018/03/15 13:46:52.000   78.253586447   16.174495189   535.8885   2   8   0.0162   0.0228   0.0480   0.0016  -0.0104   0.0122   0.00    1.0
2018/03/15 13:46:53.000   78.253586365   16.174495013   535.9061   2   8   0.0162   0.0228   0.0480   0.0015  -0.0103   0.0123   0.00    1.0
2018/03/15 13:46:54.000   78.253586294   16.174494863   535.9229   2   8   0.0161   0.0227   0.0479   0.0014  -0.0103   0.0124   0.00    1.1
2018/03/15 13:46:55.000   78.253586224   16.174494723   535.9399   2   8   0.0161   0.0227   0.0479   0.0013  -0.0102   0.0124   0.00    1.1
2018/03/15 13:46:56.000   78.253586157   16.174494634   535.9544   2   8   0.0161   0.0226   0.0478   0.0012  -0.0102   0.0125   0.00    1.1
2018/03/15 13:46:57.000   78.253586100   16.174494528   535.9678   2   8   0.0160   0.0226   0.0478   0.0010  -0.0101   0.0125   0.00    1.1
2018/03/15 13:46:58.000   78.253586030   16.174494493   535.9813   2   8   0.0160   0.0226   0.0477   0.0009  -0.0101   0.0126   0.00    1.1
2018/03/15 13:46:59.000   78.253585962   16.174494470   535.9944   2   8   0.0160   0.0225   0.0477   0.0008  -0.0100   0.0127   0.00    1.1
2018/03/15 13:47:00.000   78.253585899   16.174494430   536.0068   2   8   0.0159   0.0225   0.0476   0.0006  -0.0100   0.0127   0.00    1.2
2018/03/15 13:47:01.000   78.253585835   16.174494370   536.0184   2   8   0.0159   0.0224   0.0476   0.0003  -0.0099   0.0128   0.00    1.3
2018/03/15 13:47:02.000   78.253585772   16.174494333   536.0306   2   8   0.0158   0.0224   0.0475  -0.0004  -0.0098   0.0128   0.00    1.3
2018/03/15 13:47:03.000   78.253585709   16.174494270   536.0439   2   8   0.0158   0.0224   0.0475  -0.0006  -0.0098   0.0129   0.00    1.4
2018/03/15 13:47:04.000   78.253585656   16.174494252   536.0544   2   8   0.0158   0.0223   0.0474  -0.0008  -0.0097   0.0129   0.00    1.4
2018/03/15 13:47:05.000   78.253585602   16.174494272   536.0622   2   8   0.0157   0.0223   0.0473  -0.0009  -0.0097   0.0130   0.00    1.2
2018/03/15 13:47:06.000   78.253585552   16.174494289   536.0706   2   8   0.0157   0.0222   0.0473  -0.0010  -0.0096   0.0130   0.00    1.2
2018/03/15 13:47:07.000   78.253585512   16.174494287   536.0766   2   8   0.0157   0.0222   0.0472  -0.0011  -0.0095   0.0131   0.00    1.3
2018/03/15 13:47:08.000   78.253585481   16.174494309   536.0814   2   8   0.0156   0.0221   0.0472  -0.0012  -0.0095   0.0131   0.00    1.5
2018/03/15 13:47:09.000   78.253585439   16.174494317   536.0862   2   8   0.0156   0.0221   0.0471  -0.0013  -0.0094   0.0132   0.00    1.6
2018/03/15 13:47:10.000   78.253585398   16.174494402   536.0901   2   8   0.0155   0.0221   0.0471  -0.0013  -0.0094   0.0132   0.00    1.6
2018/03/15 13:47:11.000   78.253585364   16.174494530   536.0924   2   8   0.0155   0.0220   0.0470  -0.0014  -0.0093   0.0132   0.00    1.2
2018/03/15 13:47:12.000   78.253585333   16.174494616   536.0960   2   8   0.0155   0.0220   0.0469  -0.0015  -0.0092   0.0133   0.00    1.3
2018/03/15 13:47:13.000   78.253585298   16.174494709   536.1000   2   8   0.0154   0.0219   0.0469  -0.0015  -0.0092   0.0133   0.00    1.4
2018/03/15 13:47:14.000   78.253585270   16.174494756   536.1050   2   8   0.0154   0.0219   0.0468  -0.0016  -0.0091   0.0134   0.00    1.1
2018/03/15 13:47:15.000   78.253585232   16.174494837   536.1087   2   8   0.0154   0.0219   0.0468  -0.0016  -0.0091   0.0134   0.00    1.3
2018/03/15 13:47:16.000   78.253585196   16.174494884   536.1139   2   8   0.0153   0.0218   0.0467  -0.0017  -0.0090   0.0134   0.00    1.4
2018/03/15 13:47:17.000   78.253585154   16.174494936   536.1202   2   8   0.0153   0.0218   0.0466  -0.0017  -0.0089   0.0135   0.00    1.2
2018/03/15 13:47:18.000   78.253585114   16.174495027   536.1245   2   8   0.0153   0.0217   0.0466  -0.0017  -0.0089   0.0135   0.00    1.3
2018/03/15 13:47:19.000   78.253585082   16.174495049   536.1307   2   8   0.0152   0.0217   0.0465  -0.0018  -0.0088   0.0135   0.00    1.4
2018/03/15 13:47:20.000   78.253585049   16.174495123   536.1329   2   8   0.0152   0.0217   0.0465  -0.0018  -0.0087   0.0136   0.00    1.5
2018/03/15 13:47:21.000   78.253585010   16.174495206   536.1350   2   8   0.0151   0.0216   0.0464  -0.0018  -0.0087   0.0136   0.00    1.7
2018/03/15 13:47:22.000   78.253584967   16.174495329   536.1359   2   8   0.0151   0.0216   0.0463  -0.0019  -0.0086   0.0136   0.00    1.1
2018/03/15 13:47:23.000   78.253584925   16.174495371   536.1406   2   8   0.0151   0.0216   0.0463  -0.0019  -0.0085   0.0137   0.00    1.2
2018/03/15 13:47:24.000   78.253584883   16.174495479   536.1413   2   8   0.0150   0.0215   0.0462  -0.0019  -0.0085   0.0137   0.00    1.3
2018/03/15 13:47:25.000   78.253584847   16.174495574   536.1438   2   8   0.0150   0.0215   0.0461  -0.0020  -0.0084   0.0137   0.00    1.4
2018/03/15 13:47:26.000   78.253584815   16.174495658   536.1432   2   8   0.0150   0.0214   0.0461  -0.0020  -0.0083   0.0137   0.00    1.1
2018/03/15 13:47:27.000   78.253584792   16.174495768   536.1413   2   7   0.0149   0.0214   0.0460  -0.0020  -0.0083   0.0138   0.00    1.1
2018/03/15 13:47:28.000   78.253584760   16.174495844   536.1432   2   8   0.0149   0.0214   0.0459  -0.0020  -0.0082   0.0138   0.00    1.2
2018/03/15 13:47:29.000   78.253584731   16.174495957   536.1417   2   8   0.0149   0.0213   0.0459  -0.0020  -0.0081   0.0138   0.00    1.1
2018/03/15 13:47:30.000   78.253584720   16.174495968   536.1456   2   7   0.0148   0.0213   0.0458  -0.0021  -0.0080   0.0138   0.00    1.1
2018/03/15 13:47:31.000   78.253584689   16.174496053   536.1437   2   8   0.0148   0.0212   0.0457  -0.0021  -0.0080   0.0138   0.00    1.2
2018/03/15 13:47:32.000   78.253584666   16.174496121   536.1423   2   8   0.0148   0.0212   0.0457  -0.0021  -0.0079   0.0139   0.00    1.2
2018/03/15 13:47:33.000   78.253584645   16.174496203   536.1426   2   8   0.0147   0.0212   0.0456  -0.0021  -0.0078   0.0139   0.00    1.0
2018/03/15 13:47:34.000   78.253584636   16.174496195   536.1466   2   8   0.0147   0.0211   0.0455  -0.0021  -0.0077   0.0139   0.00    1.0
2018/03/15 13:47:35.000   78.253584618   16.174496322   536.1443   2   8   0.0147   0.0211   0.0454  -0.0021  -0.0077   0.0139   0.00    1.0
2018/03/15 13:47:36.000   78.253584605   16.174496457   536.1418   2   8   0.0146   0.0211   0.0454  -0.0021  -0.0076   0.0139   0.00    1.0
2018/03/15 13:47:37.000   78.253584599   16.174496591   536.1416   2   8   0.0146   0.0210   0.0453  -0.0021  -0.0075   0.0139   0.00    1.1
2018/03/15 13:47:38.000   78.253584590   16.174496637   536.1431   2   8   0.0146   0.0210   0.0452  -0.0022  -0.0074   0.0140   0.00    1.0
2018/03/15 13:47:39.000   78.253584567   16.174496803   536.1417   2   8   0.0145   0.0209   0.0452  -0.0022  -0.0074   0.0140   0.00    1.0
2018/03/15 13:47:40.000   78.253584556   16.174496987   536.1412   2   8   0.0145   0.0209   0.0451  -0.0022  -0.0073   0.0140   0.00    1.1
2018/03/15 13:47:41.000   78.253584540   16.174497101   536.1398   2   8   0.0145   0.0209   0.0450  -0.0022  -0.0072   0.0140   0.00    1.3
2018/03/15 13:47:42.000   78.253584526   16.174497235   536.1361   2   8   0.0144   0.0208   0.0450  -0.0022  -0.0071   0.0140   0.00    1.5
2018/03/15 13:47:43.000   78.253584505   16.174497381   536.1347   2   8   0.0144   0.0208   0.0449  -0.0022  -0.0070   0.0140   0.00    2.0
2018/03/15 13:47:44.000   78.253584488   16.174497482   536.1334   2   8   0.0144   0.0208   0.0448  -0.0022  -0.0069   0.0140   0.00    2.2
2018/03/15 13:47:45.000   78.253584470   16.174497607   536.1319   2   8   0.0143   0.0207   0.0448  -0.0022  -0.0068   0.0141   0.00    2.3
2018/03/15 13:47:46.000   78.253584452   16.174497698   536.1308   2   8   0.0143   0.0207   0.0447  -0.0022  -0.0067   0.0141   0.00    2.4
2018/03/15 13:47:47.000   78.253584429   16.174497795   536.1303   2   8   0.0143   0.0206   0.0446  -0.0022  -0.0066   0.0141   0.00    2.5
2018/03/15 13:47:48.000   78.253584412   16.174497937   536.1273   2   8   0.0142   0.0206   0.0446  -0.0022  -0.0066   0.0141   0.00    2.6
2018/03/15 13:47:49.000   78.253584394   16.174498046   536.1265   2   8   0.0142   0.0206   0.0445  -0.0022  -0.0065   0.0141   0.00    2.7
2018/03/15 13:47:50.000   78.253584376   16.174498151   536.1243   2   8   0.0142   0.0205   0.0444  -0.0022  -0.0064   0.0141   0.00    2.8
2018/03/15 13:47:51.000   78.253584357   16.174498251   536.1207   2   8   0.0141   0.0205   0.0444  -0.0022  -0.0063   0.0141   0.00    3.0
2018/03/15 13:47:52.000   78.253583352   16.174510897   535.6984   1   8   0.0010   0.0004   0.0061  -0.0004  -0.0013   0.0023   0.00    3.0
2018/03/15 13:47:53.000   78.253583343   16.174510900   535.6934   1   8   0.0010   0.0004   0.0059  -0.0004  -0.0013   0.0022   0.00    3.1
2018/03/15 13:47:54.000   78.253583336   16.174510903   535.6895   1   8   0.0009   0.0004   0.0058  -0.0004  -0.0012   0.0022   0.00    3.2
2018/03/15 13:47:55.000   78.253583329   16.174510906   535.6856   1   8   0.0009   0.0004   0.0057  -0.0004  -0.0012   0.0021   0.00    3.3
2018/03/15 13:47:56.000   78.253583324   16.174510908   535.6826   1   8   0.0009   0.0004   0.0056  -0.0004  -0.0012   0.0021   0.00    3.4
2018/03/15 13:47:57.000   78.253583317   16.174510911   535.6789   1   8   0.0009   0.0004   0.0055  -0.0004  -0.0012   0.0021   0.00    3.4
2018/03/15 13:47:58.000   78.253583310   16.174510914   535.6751   1   8   0.0009   0.0004   0.0054  -0.0004  -0.0012   0.0020   0.00    3.4
2018/03/15 13:47:59.000   78.253584264   16.174499156   536.0825   2   8   0.0139   0.0202   0.0438  -0.0021  -0.0054   0.0142   0.00    1.1
2018/03/15 13:48:00.000   78.253584265   16.174499330   536.0744   2   8   0.0138   0.0202   0.0437  -0.0021  -0.0053   0.0142   0.00    1.0
2018/03/15 13:48:01.000   78.253584259   16.174499428   536.0664   2   8   0.0138   0.0201   0.0436  -0.0021  -0.0052   0.0142   0.00    1.1
2018/03/15 13:48:02.000   78.253584248   16.174499571   536.0590   2   8   0.0138   0.0201   0.0436  -0.0021  -0.0051   0.0142   0.00    1.3
2018/03/15 13:48:03.000   78.253584235   16.174499654   536.0533   2   8   0.0137   0.0201   0.0435  -0.0020  -0.0049   0.0142   0.00    1.4
2018/03/15 13:48:04.000   78.253584229   16.174499736   536.0473   2   8   0.0137   0.0200   0.0434  -0.0020  -0.0048   0.0142   0.00    1.1
2018/03/15 13:48:05.000   78.253584216   16.174499795   536.0433   2   8   0.0137   0.0200   0.0433  -0.0020  -0.0047   0.0142   0.00    1.1
2018/03/15 13:48:06.000   78.253584201   16.174499893   536.0388   2   8   0.0136   0.0200   0.0433  -0.0020  -0.0045   0.0142   0.00    1.1
2018/03/15 13:48:07.000   78.253584181   16.174499981   536.0366   2   8   0.0136   0.0199   0.0432  -0.0020  -0.0044   0.0141   0.00    1.1
2018/03/15 13:48:08.000   78.253584158   16.174500037   536.0333   2   8   0.0136   0.0199   0.0431  -0.0020  -0.0043   0.0141   0.00    1.2
2018/03/15 13:48:09.000   78.253584139   16.174500116   536.0323   2   8   0.0135   0.0198   0.0430  -0.0020  -0.0041   0.0141   0.00    1.3
2018/03/15 13:48:10.000   78.253584116   16.174500179   536.0308   2   8   0.0135   0.0198   0.0430  -0.0019  -0.0040   0.0141   0.00    1.4
2018/03/15 13:48:11.000   78.253584086   16.174500213   536.0313   2   8   0.0135   0.0198   0.0429  -0.0019  -0.0038   0.0141   0.00    1.5
2018/03/15 13:48:12.000   78.253584060   16.174500224   536.0310   2   8   0.0135   0.0197   0.0428  -0.0019  -0.0037   0.0141   0.00    1.6
2018/03/15 13:48:13.000   78.253584033   16.174500215   536.0329   2   8   0.0134   0.0197   0.0427  -0.0019  -0.0035   0.0141   0.00    1.7
2018/03/15 13:48:14.000   78.253584005   16.174500192   536.0349   2   8   0.0134   0.0197   0.0426  -0.0019  -0.0033   0.0141   0.00    1.0
2018/03/15 13:48:15.000   78.253583979   16.174500212   536.0314   2   8   0.0134   0.0196   0.0426  -0.0018  -0.0031   0.0141   0.00    1.1
2018/03/15 13:48:16.000   78.253583966   16.174500289   536.0277   2   8   0.0133   0.0196   0.0425  -0.0018  -0.0029   0.0141   0.00    1.2
2018/03/15 13:48:17.000   78.253583951   16.174500350   536.0247   2   8   0.0133   0.0196   0.0424  -0.0018  -0.0027   0.0141   0.00    1.3
2018/03/15 13:48:18.000   78.253583931   16.174500407   536.0215   2   8   0.0133   0.0195   0.0423  -0.0018  -0.0025   0.0141   0.00    1.5
2018/03/15 13:48:19.000   78.253583915   16.174500453   536.0182   2   8   0.0132   0.0195   0.0422  -0.0017  -0.0023   0.0141   0.00    1.6
2018/03/15 13:48:20.000   78.253583895   16.174500469   536.0156   2   8   0.0132   0.0195   0.0421  -0.0017  -0.0020   0.0141   0.00    1.1
2018/03/15 13:48:21.000   78.253583875   16.174500488   536.0141   2   8   0.0132   0.0194   0.0421  -0.0017  -0.0017   0.0140   0.00    1.0
2018/03/15 13:48:22.000   78.253583857   16.174500530   536.0124   2   8   0.0131   0.0194   0.0420  -0.0017  -0.0013   0.0140   0.00    1.1
2018/03/15 13:48:23.000   78.253583837   16.174500519   536.0128   2   8   0.0131   0.0194   0.0419  -0.0016  -0.0007   0.0140   0.00    1.2
2018/03/15 13:48:24.000   78.253583817   16.174500512   536.0108   2   8   0.0131   0.0193   0.0418  -0.0016   0.0008   0.0140   0.00    1.4
2018/03/15 13:48:25.000   78.253583798   16.174500511   536.0109   2   8   0.0130   0.0193   0.0417  -0.0016   0.0013   0.0140   0.00    1.5
2018/03/15 13:48:26.000   78.253583777   16.174500492   536.0103   2   8   0.0130   0.0193   0.0416  -0.0015   0.0017   0.0140   0.00    1.2
2018/03/15 13:48:27.000   78.253583761   16.174500502   536.0097   2   8   0.0130   0.0192   0.0415  -0.0015   0.0020   0.0140   0.00    1.3
2018/03/15 13:48:28.000   78.253583745   16.174500508   536.0086   2   8   0.0129   0.0192   0.0415  -0.0015   0.0022   0.0139   0.00    1.0
2018/03/15 13:48:29.000   78.253583728   16.174500535   536.0068   2   8   0.0129   0.0192   0.0414  -0.0014   0.0025   0.0139   0.00    1.1
2018/03/15 13:48:30.000   78.253583710   16.174500542   536.0049   2   8   0.0129   0.0191   0.0413  -0.0014   0.0027   0.0139   0.00    1.3
2018/03/15 13:48:31.000   78.253583698   16.174500577   536.0019   2   8   0.0128   0.0191   0.0412  -0.0014   0.0029   0.0139   0.00    1.5
2018/03/15 13:48:32.000   78.253583681   16.174500587   535.9995   2   8   0.0128   0.0191   0.0411  -0.0013   0.0031   0.0139   0.00    1.6
2018/03/15 13:48:33.000   78.253583666   16.174500632   535.9971   2   8   0.0128   0.0190   0.0410  -0.0013   0.0032   0.0139   0.00    1.8
2018/03/15 13:48:34.000   78.253583650   16.174500638   535.9959   2   8   0.0128   0.0190   0.0409  -0.0013   0.0034   0.0138   0.00    1.9
2018/03/15 13:48:35.000   78.253583637   16.174500685   535.9928   2   8   0.0127   0.0190   0.0408  -0.0012   0.0035   0.0138   0.00    2.0
2018/03/15 13:48:36.000   78.253583628   16.174500707   535.9915   2   8   0.0127   0.0189   0.0407  -0.0012   0.0037   0.0138   0.00    2.1
