     2.11           OBSERVATION DATA    M (MIXED)           RINEX VERSION / TYPE
teqc  2018Mar15                         20180319 14:17:33UTCPGM / RUN BY / DATE
Linux 2.6.32-573.12.1.x86_64|x86_64|gcc -static|Linux 64|=+ COMMENT
END OF STATIC MODE OBSERVATION                              COMMENT
BIT 2 OF LLI FLAGS DATA COLLECTED UNDER A/S CONDITION       COMMENT
-Unknown-                                                   MARKER NAME
4625                                                        MARKER NUMBER
-Unknown-           -Unknown-                               OBSERVER / AGENCY
5127468778          TRIMBLE             4.63                REC # / TYPE / VERS
47477114                            NONE                    ANT # / TYPE
   227767.8360   284595.8898 -6346362.4605                  APPROX POSITION XYZ
        0.0000        0.0000        0.0000                  ANTENNA: DELTA H/E/N
     1     1                                                WAVELENGTH FACT L1/2
     7    L1    L2    C1    P1    P2    S1    S2            # / TYPES OF OBSERV
    18                                                      LEAP SECONDS
 SNR is mapped to RINEX snr flag value [0-9]                COMMENT
  L1 & L2: min(max(int(snr_dBHz/6), 0), 9)                  COMMENT
  2018     3    13    14    13    0.0000000     GPS         TIME OF FIRST OBS
                                                            END OF HEADER
 18  3 13 14 13  0.0000000  0 18R08R07G14G22R09G03R16R17R18R01R24G19
                                G25G12G32G24G17G01
                  86174201.695 6  20690265.523                    20690266.805
                        40.700
                  95006000.774 6  22818753.820                    22818757.332
                        37.000
 122087157.119 6  95132901.77942  23232423.977                    23232427.426
        38.700          16.900
 123964368.099 6  96595600.47942  23589629.672                    23589631.242
        37.400          16.900
                  82691369.909 7  19909849.328                    19909850.258
                        44.300
 126237511.647 6  98366895.41142  24022194.328                    24022201.484
        36.900          14.800
                  85037322.085 6  20467499.180                    20467499.930
                        39.700
                  85060468.604 6  20437178.648                    20437180.887
                        41.500
                  86602237.287 7  20858805.547                    20858807.813
                        43.400
                  90315788.130 5  21722700.180                    21722703.598
                        31.500
                                  23426037.742

 112641160.594 8  87772420.42346  21434918.859                    21434920.461
        49.900          37.200
 129309850.94515                  24606853.797
        31.900
 113220075.722 8  88223361.04245  21545040.555                    21545044.332
        48.800          34.000
 116620230.961 8  90872875.26745  22192092.211                    22192097.973
        48.000          34.200
 114251577.491 7  89027194.71845  21741353.852                    21741360.609
        45.300          31.200
 115967148.252 8  90364120.69446  22067839.953                    22067843.523
        49.700          36.500
 122193707.973 5                  23252698.445
        32.900
 18  3 13 14 13  1.0000000  0 18R08R07G14G22R09G03R16R17R18R01R24G19
                                G25G12G32G24G17G01
                  86175210.459 6  20690507.797                    20690508.438
                        41.100
                  95009560.629 6  22819608.945                    22819612.574
                        36.800
 122085204.723 6  95131380.43842  23232052.945                    23232055.484
        37.400          16.300
 123963327.285 6  96594789.44842  23589432.492                    23589433.715
        37.800          17.400
                  82690282.313 7  19909587.984                    19909588.203
                        44.700
 126235136.068 6  98365044.30842  24021742.875                    24021749.488
        38.100          15.600
                  85039867.277 6  20468110.859                    20468112.480
                        39.700
                  85061850.241 6  20437511.438                    20437512.965
                        41.800
                  86600337.307 7  20858348.203                    20858349.914
                        43.200
                  90313874.862 5  21722240.984                    21722242.523
                        32.000
                                  23426932.070

 112640968.446 8  87772270.69246  21434882.391                    21434884.176
        50.000          37.600
 129306263.385 5                  24606171.039
        35.800
 113218004.516 8  88221747.12445  21544646.609                    21544650.262
        48.300          33.200
 116620025.304 7  90872715.00945  22192052.734                    22192059.176
        47.500          34.000
 114254116.214 7  89029172.94945  21741837.078                    21741843.535
        46.300          32.600
 115968442.509 8  90365129.20046  22068085.945                    22068089.938
        50.400          37.400
 122196425.854 5                  23253215.086
        32.500
 18  3 13 14 13  2.0000000  0 18R08R07G14G22R09G03R16R17R18R01R24G19
                                G25G12G32G24G17G01
                  86176219.916 6  20690750.086                    20690750.930
                        41.500
                  95013120.693 6  22820463.563                    22820468.035
                        36.000
 122083252.731 6  95129859.40742  23231680.781                    23231683.688
        36.600          16.300
 123962287.037 6  96593978.85042  23589234.750                    23589235.492
        38.700          17.800
                  82689195.319 7  19909326.391                    19909326.199
                        44.600
 126232760.971 6  98363193.56842  24021290.570                    24021297.457
        37.700          15.600
                  85042413.016 6  20468723.375                    20468725.102
                        39.300
                  85063232.601 7  20437843.125                    20437845.535
                        42.600
                  86598437.863 7  20857890.383                    20857892.688
                        42.300
                  90311962.125 5  21721780.344                    21721783.344
                        32.500
                                  23427827.336

 112640777.030 8  87772121.53646  21434845.797                    21434847.352
        49.500          36.500
 129302675.945 5                  24605489.023
        33.900
 113215933.877 8  88220133.64645  21544252.563                    21544256.383
        49.500          35.900
 116619820.363 7  90872555.29845  22192013.695                    22192020.125
        47.500          33.500
 114256655.564 7  89031151.66745  21742320.758                    21742326.820
        45.000          30.800
 115969737.356 8  90366138.16246  22068332.844                    22068336.469
        50.500          37.500
 122199144.414 5                  23253733.180
        33.700
 18  3 13 14 13  3.0000000  0 19R10R08R07G14G22R09G03R16R17R18R01R24
                                G19G25G12G32G24G17G01
                                  23507979.281

                  86177230.147 6  20690992.984                    20690994.086
                        41.500
                  95016681.172 6  22821318.555                    22821322.961
                        37.100
 122081301.405 6  95128338.89442  23231310.844                    23231312.988
        36.300          15.600
 123961247.337 6  96593168.69943  23589036.164                    23589037.855
        38.400          18.600
                  82688108.899 7  19909064.672                    19909064.863
                        45.100
 126230386.234 5  98361343.14142  24020838.953                    24020846.156
        35.600          16.300
                  85044959.259 6  20469335.680                    20469338.105
                        39.900
                  85064615.667 7  20438175.156                    20438177.246
                        42.200
                  86596538.993 7  20857433.313                    20857434.906
                        43.000
                  90310050.006 5  21721320.930                    21721323.988
                        33.100
                                  23428723.117

 112640586.419 8  87771973.02146  21434809.461                    21434811.305
        48.900          37.500
 129299088.943 5                  24604805.594
        30.300
 113213863.827 8  88218520.60146  21543858.383                    21543861.941
        50.500          37.300
 116619616.072 7  90872396.10145  22191974.789                    22191981.102
        47.200          33.900
 114259195.351 7  89033130.72345  21742803.898                    21742810.102
        47.400          34.800
 115971032.858 8  90367147.64446  22068579.297                    22068583.102
        49.900          37.900
 122201863.459 5                  23254250.000
        34.400
 18  3 13 14 13  4.0000000  0 19R10R08R07G14G22R09G03R16R17R18R01R24
                                G19G25G12G32G24G17G01
                                  23507213.844

                  86178241.072 6  20691234.672                    20691236.520
                        41.600
                  95020241.982 5  22822173.297                    22822177.676
                        34.300
 122079350.458 5  95126818.64842  23230939.445                    23230941.785
        35.100          15.600
 123960208.363 6  96592359.14443  23588838.883                    23588840.363
        39.400          19.000
                  82687023.136 7  19908803.258                    19908803.363
                        44.400
 126228012.186 5  98359493.26342  24020386.977                    24020394.102
        35.400          15.600
                  85047506.039 6  20469949.641                    20469951.227
                        39.200
                  85065999.487 7  20438508.172                    20438509.762
                        42.200
                  86594640.727 7  20856976.250                    20856977.719
                        43.000
                  90308138.461 5  21720860.578                    21720863.566
                        32.200
                                  23429617.102

 112640396.634 8  87771825.13246  21434773.086                    21434774.961
        49.000          38.100
 129295501.957 5                  24604123.664
        35.700
 113211794.336 8  88216908.01045  21543464.461                    21543468.121
        49.500          34.400
 116619412.564 7  90872237.52245  22191936.133                    22191942.391
        47.300          33.200
 114261735.836 7  89035110.32245  21743286.977                    21743293.422
        46.400          33.200
 115972329.023 8  90368157.64246  22068825.859                    22068829.430
        49.600          38.100
 122204583.212 5                  23254768.648
        35.500
 18  3 13 14 13  5.0000000  0 19R10R08R07G14G22R09G03R16R17R18R01R24
                                G19G25G12G32G24G17G01
                                  23506447.555

                  86179252.749 7  20691478.063                    20691479.559
                        42.000
                  95023803.047 5  22823029.805                    22823033.441
                        35.800
 122077400.041 5  95125298.82242  23230566.758                    23230570.523
        34.600          15.600
 123959169.914 6  96591549.96143  23588640.906                    23588642.617
        38.600          18.600
                  82685937.961 7  19908542.281                    19908542.371
                        44.500
 126225638.443 6  98357643.58042  24019936.039                    24019942.188
        36.100          15.600
                  85050053.333 6  20470562.547                    20470564.004
                        39.500
                  85067383.991 7  20438840.484                    20438842.602
                        42.200
                  86592743.049 7  20856519.023                    20856520.680
                        43.100
                  90306227.489 5  21720400.727                    21720403.820
                        32.700
                                  23430511.563

 112640207.595 8  87771677.81546  21434737.188                    21434739.074
        49.100          37.800
 129291915.112 5                  24603442.453
        33.400
 113209725.439 8  88215295.89445  21543070.680                    21543074.891
        49.400          35.100
 116619209.768 7  90872079.49645  22191897.211                    22191903.680
        47.600          34.300
 114264276.899 7  89037090.37245  21743770.961                    21743776.578
        47.300          34.000
 115973625.815 8  90369168.12346  22069072.727                    22069076.473
        49.300          38.400
 122207303.542 5                  23255285.195
        35.200
 18  3 13 14 13  6.0000000  0 19R10R08R07G14G22R09G03R16R17R18R01R24
                                G19G25G12G32G24G17G01
                                  23505681.813

                  86180265.104 6  20691721.492                    20691722.629
                        40.600
                  95027364.533 6  22823884.797                    22823888.645
                        37.000
 122075450.100 5  95123779.38842  23230195.859                    23230199.613
        35.400          16.300
 123958132.028 6  96590741.23942  23588443.055                    23588445.113
        39.100          17.800
                  82684853.389 7  19908280.859                    19908281.898
                        44.800
 126223265.192 5  98355794.31342  24019484.320                    24019490.770
        35.500          16.300
                  85052601.066 6  20471176.477                    20471177.172
                        40.200
                  85068769.203 7  20439173.008                    20439175.723
                        42.100
                  86590845.937 7  20856061.453                    20856063.289
                        44.000
                  90304317.032 5  21719942.750                    21719944.422
                        33.600
                                  23431407.242

 112640019.336 8  87771531.11846  21434701.844                    21434703.648
        49.700          38.100
 129288328.482 5                  24602758.906
        34.300
 113207657.095 8  88213684.19546  21542677.336                    21542680.805
        50.900          38.200
 116619007.655 7  90871922.01445  22191859.102                    22191865.586
        47.800          34.500
 114266818.511 8  89039070.84346  21744254.547                    21744260.387
        48.000          36.000
 115974923.216 8  90370179.08046  22069319.594                    22069323.402
        49.900          39.500
 122210024.478 5                  23255803.016
        35.200
 18  3 13 14 13  7.0000000  0 19R10R08R07G14G22R09G03R16R17R18R01R24
                                G19G25G12G32G24G17G01
                                  23504916.602

                  86181278.212 6  20691964.523                    20691965.832
                        41.700
                  95030926.336 6  22824740.945                    22824743.762
                        36.800
 122073500.692 5  95122260.37442  23229824.688                    23229827.969
        35.400          16.300
 123957094.771 6  96589932.99942  23588246.469                    23588247.445
        39.500          17.400
                  82683769.406 7  19908019.969                    19908020.059
                        44.600
 126220892.441 5  98353945.47342  24019031.828                    24019039.543
        33.900          16.900
                  85055149.285 6  20471788.258                    20471790.480
                        39.400
                  85070155.109 7  20439506.750                    20439508.465
                        42.100
                  86588949.391 7  20855604.945                    20855607.434
                        43.800
                  90302407.147 5  21719483.516                    21719485.324
                        31.800
                                  23432302.141

 112639831.839 8  87771385.02346  21434665.992                    21434667.660
        50.000          37.500
 129284742.074 5                  24602076.484
        33.900
 113205589.316 8  88212072.92346  21542283.734                    21542287.160
        51.200          38.200
 116618806.274 7  90871765.09945  22191821.023                    22191827.148
        47.800          33.900
 114269360.705 7  89041051.76545  21744737.789                    21744744.207
        47.000          35.600
 115976221.258 8  90371190.54546  22069566.656                    22069570.191
        49.600          38.900
 122212745.966 5                  23256321.313
        34.700
 18  3 13 14 13  8.0000000  0 19R10R08R07G14G22R09G03R16R17R18R01R24
                                G19G25G12G32G24G17G01
                  97448065.85513  23504149.320                    23504155.113
                        22.100
                  86182292.102 6  20692208.078                    20692209.082
                        41.200
                  95034488.392 6  22825596.172                    22825599.594
                        36.900
 122071551.790 5  95120741.70642  23229454.508                    23229457.535
        34.400          16.300
 123956058.055 6  96589125.16142  23588048.805                    23588050.238
        39.400          17.400
                  82682686.018 7  19907759.273                    19907759.422
                        44.700
 126218520.130 5  98352096.93542  24018580.273                    24018587.875
        34.200          16.300
                  85057698.010 6  20472401.703                    20472403.902
                        39.200
                  85071541.715 7  20439840.047                    20439841.465
                        42.100
                  86587053.434 7  20855148.711                    20855150.168
                        43.400
                  90300497.817 5  21719023.195                    21719025.660
                        31.700
                                  23433196.391

 112639645.131 8  87771239.54946  21434630.367                    21434631.984
        49.500          37.900
 129281155.760 5                  24601393.469
        33.800
 113203522.092 8  88210462.09146  21541890.766                    21541893.773
        50.900          37.900
 116618605.560 7  90871608.70845  22191782.711                    22191789.031
        47.900          33.700
 114271903.457 7  89043033.12345  21745221.797                    21745228.188
        47.200          35.700
 115977519.885 8  90372202.45946  22069813.836                    22069817.473
        50.000          38.700
 122215468.050 5                  23256839.469
        35.000
 18  3 13 14 13  9.0000000  0 19R10R08R07G14G22R09G03R16R17R18R01R24
                                G19G25G12G32G24G17G01
                  97444890.54013  23503382.617                    23503389.469
                        22.700
                  86183306.729 6  20692451.219                    20692452.234
                        41.500
                  95038050.707 6  22826452.469                    22826455.094
                        37.100
 122069603.260 5  95119223.33542  23229083.133                    23229086.602
        33.800          16.900
 123955021.932 6  96588317.78142  23587852.844                    23587852.836
        38.500          17.800
                  82681603.248 7  19907498.461                    19907498.906
                        44.700
 126216148.387 5  98350248.80842  24018129.016                    24018136.691
        34.600          16.300
                  85060247.241 6  20473016.711                    20473017.348
                        39.400
                  85072929.014 7  20440173.313                    20440174.680
                        42.000
                  86585158.065 7  20854692.453                    20854694.129
                        42.700
                  90298589.028 5  21718563.438                    21718566.508
                        31.000
                                  23434093.297

 112639459.177 8  87771094.66246  21434595.047                    21434597.043
        49.500          37.500
 129277569.646 5                  24600710.625
        32.600
 113201455.423 8  88208851.70446  21541497.391                    21541500.621
        51.100          38.000
 116618405.543 8  90871452.86845  22191744.508                    22191751.074
        48.000          34.200
 114274446.770 7  89045014.93045  21745705.844                    21745712.387
        47.200          34.900
 115978819.185 8  90373214.89746  22070060.695                    22070064.707
        50.200          38.800
 122218190.654 5                  23257357.852
        33.400
 18  3 13 14 13 10.0000000  0 18R10R08R07G14G22R09G03R16R17R18R01G19
                                G25G12G32G24G17G01
                  97441715.817 4  23502617.688                    23502623.207
                        25.000
                  86184322.071 6  20692695.406                    20692696.727
                        41.700
                  95041613.302 6  22827308.391                    22827310.613
                        37.300
 122067655.265 5  95117705.42142  23228713.211                    23228715.727
        34.100          14.800
 123953986.352 6  96587510.79743  23587655.453                    23587656.137
        39.500          18.300
                  82680521.046 7  19907237.945                    19907237.855
                        44.800
 126213776.899 6  98348400.87542  24017678.227                    24017685.430
        36.300          16.300
                  85062796.957 6  20473630.313                    20473631.266
                        40.000
                  85074317.013 7  20440506.969                    20440508.336
                        42.800
                  86583263.248 7  20854235.578                    20854237.102
                        43.500
                  90296680.798 5  21718104.234                    21718107.898
                        31.900
 112639273.986 8  87770950.36946  21434559.969                    21434561.809
        49.300          38.100
 129273983.677 5                  24600029.086
        35.200
 113199389.262 8  88207241.71246  21541104.523                    21541107.535
        51.200          38.200
 116618206.160 7  90871297.51945  22191706.828                    22191713.195
        47.500          35.100
 114276990.594 7  89046997.13245  21746190.414                    21746196.242
        47.000          35.300
 115980119.075 8  90374227.78546  22070308.133                    22070311.914
        50.200          39.700
 122220913.804 5                  23257876.008
        33.900
 18  3 13 14 13 11.0000000  0 18R10R08R07G14G22R09G03R16R17R18R01G19
                                G25G12G32G24G17G01
                  97438541.293 3  23501850.969                    23501857.316
                        22.800
                  86185338.100 7  20692938.430                    20692940.281
                        42.300
                  95045176.216 6  22828163.109                    22828166.066
                        36.100
 122065707.720 5  95116187.85642  23228342.117                    23228345.547
        33.600          14.800
 123952951.386 6  96586704.34143  23587457.969                    23587458.672
        39.500          19.300
                  82679439.445 7  19906977.352                    19906977.094
                        45.100
 126211405.987 5  98346553.41242  24017227.367                    24017234.512
        34.600          16.900
                  85065347.179 6  20474244.359                    20474245.070
                        39.800
                  85075705.712 7  20440839.773                    20440841.340
                        42.900
                  86581368.997 7  20853778.766                    20853780.762
                        43.500
                  90294773.172 5  21717645.273                    21717648.535
                        32.700
 112639089.575 8  87770806.66846  21434524.563                    21434526.238
        49.600          38.500
 129270397.867 5                  24599346.609
        34.200
 113197323.697 8  88205632.17746  21540711.359                    21540714.469
        50.400          36.600
 116618007.529 7  90871142.74245  22191668.852                    22191674.957
        47.700          35.100
 114279534.994 7  89048979.78845  21746674.305                    21746680.121
        46.700          34.500
 115981419.593 8  90375241.16546  22070555.883                    22070559.605
        50.400          39.600
 122223637.620 5                  23258393.781
        33.500
 18  3 13 14 13 12.0000000  0 18R10R08R07G14G22R09G03R16R17R18R01G19
                                G25G12G32G24G17G01
                  97435366.824 3  23501086.367                    23501092.211
                        22.300
                  86186354.873 6  20693183.898                    20693184.301
                        41.100
                  95048739.404 6  22829018.813                    22829022.477
                        36.800
 122063760.782 5  95114670.76242  23227972.906                    23227975.082
        34.600          16.300
 123951917.020 6  96585898.33943  23587261.188                    23587261.559
        39.900          19.000
                  82678358.429 7  19906717.125                    19906717.219
                        44.700
 126209035.497 6  98344706.27742  24016776.234                    24016783.090
        36.000          16.300
                  85067897.900 6  20474857.883                    20474858.676
                        39.600
                  85077095.104 7  20441173.938                    20441176.094
                        42.100
                  86579475.298 7  20853323.305                    20853325.160
                        43.200
                  90292866.096 5  21717186.938                    21717190.520
                        32.000
 112638905.921 8  87770663.56146  21434490.086                    21434491.313
        50.200          38.800
 129266812.251 5                  24598664.188
        35.200
 113195258.675 8  88204023.07146  21540318.125                    21540321.746
        50.700          37.500
 116617809.562 7  90870988.46045  22191631.422                    22191637.668
        47.400          34.400
 114282079.937 7  89050962.86845  21747158.703                    21747164.285
        47.400          35.500
 115982720.734 8  90376255.03546  22070803.023                    22070807.063
        50.200          38.900
 122226362.014 5                  23258911.273
        34.600
 18  3 13 14 13 13.0000000  0 19R10R08R07G14G22R09G03R16R17R18R01R24
                                G19G25G12G32G24G17G01
                  97432192.546 3  23500320.578                    23500326.918
                        22.700
                  86187372.399 6  20693428.023                    20693428.492
                        41.000
                  95052302.938 6  22829874.875                    22829878.496
                        37.800
 122061814.196 5  95113153.90042  23227601.016                    23227604.934
        31.900          16.300
 123950883.180 6  96585092.75142  23587064.734                    23587065.254
        39.500          17.800
                  82677278.051 7  19906456.625                    19906457.125
                        44.400
 126206665.524 5  98342859.52942  24016324.930                    24016331.637
        35.600          15.600
                  85070449.129 6  20475472.289                    20475473.555
                        40.200
                  85078485.220 6  20441508.109                    20441510.332
                        41.900
                  86577582.188 7  20852866.703                    20852869.309
                        42.500
                  90290959.561 5  21716728.063                    21716731.672
                        31.200
                                  23437673.758

 112638723.073 8  87770521.08146  21434454.805                    21434456.438
        50.200          38.500
 129263226.841 5                  24597981.828
        35.700
 113193194.273 8  88202414.44446  21539925.297                    21539928.262
        51.000          38.100
 116617612.334 7  90870834.76045  22191593.391                    22191599.746
        47.400          34.800
 114284625.469 7  89052946.40345  21747642.828                    21747648.781
        47.400          35.400
 115984022.526 8  90377269.41646  22071051.039                    22071054.828
        49.500          38.100
 122229086.982 5                  23259430.250
        33.900
 18  3 13 14 13 14.0000000  0 19R10R08R07G14G22R09G03R16R17R18R01R24
                                G19G25G12G32G24G17G01
                  97429018.465 3  23499555.555                    23499561.309
                        22.100
                  86188390.670 6  20693672.195                    20693673.348
                        41.300
                  95055866.771 6  22830729.750                    22830734.500
                        37.100
 122059868.263 5  95111637.56142  23227231.055                    23227234.441
        30.700          15.600
 123949849.957 6  96584287.63343  23586867.188                    23586868.371
        39.400          18.300
                  82676198.239 7  19906197.078                    19906197.215
                        44.300
 126204296.025 5  98341013.17842  24015874.555                    24015881.332
        33.600          15.600
                  85073000.842 6  20476086.180                    20476087.117
                        39.600
                  85079876.034 6  20441842.602                    20441843.723
                        41.600
                  86575689.680 7  20852411.555                    20852413.395
                        42.600
                  90289053.543 5  21716270.273                    21716273.504
                        31.600
                                  23438568.242

 112638540.991 8  87770379.20346  21434420.461                    21434422.246
        50.800          37.700
 129259641.545 5                  24597299.305
        34.700
 113191130.392 8  88200806.22646  21539532.422                    21539535.730
        51.000          37.600
 116617415.797 7  90870681.60845  22191556.172                    22191562.172
        47.100          33.900
 114287171.583 7  89054930.39545  21748127.609                    21748133.895
        47.500          34.400
 115985324.944 8  90378284.28646  22071298.867                    22071302.398
        49.400          37.100
 122231812.563 5                  23259949.391
        34.600
 18  3 13 14 13 15.0000000  0 19R10R08R07G14G22R09G03R16R17R18R01R24
                                G19G25G12G32G24G17G01
                  97425844.420 3  23498789.367                    23498795.555
                        22.300
                  86189409.618 6  20693917.070                    20693917.973
                        40.900
                  95059430.863 6  22831587.094                    22831590.570
                        38.100
 122057922.604 5  95110121.50542  23226860.250                    23226864.160
        31.000          14.800
 123948817.294 6  96583482.96143  23586670.594                    23586671.855
        39.400          18.300
                  82675119.002 7  19905936.945                    19905937.363
                        44.100
 126201926.902 5  98339167.10742  24015423.313                    24015430.020
        34.200          14.800
                  85075553.030 6  20476700.563                    20476701.281
                        39.100
                  85081267.514 6  20442175.992                    20442178.414
                        41.700
                  86573797.746 7  20851955.914                    20851958.117
                        42.400
                  90287148.048 5  21715810.922                    21715814.750
                        31.800
                                  23439462.836

 112638359.663 8  87770237.91546  21434385.539                    21434387.492
        50.500          37.600
 129256056.406 5                  24596617.352
        35.000
 113189067.032 8  88199198.42546  21539139.898                    21539143.027
        50.500          36.900
 116617219.900 7  90870528.95545  22191519.164                    22191525.410
        47.200          34.600
 114289718.217 7  89056914.77945  21748611.883                    21748618.383
        47.500          34.200
 115986627.945 8  90379299.60746  22071546.891                    22071550.504
        49.800          37.200
 122234538.613 5                  23260467.313
        33.700
 18  3 13 14 13 16.0000000  0 19R10R08R07G14G22R09G03R16R17R18R01R24
                                G19G25G12G32G24G17G01
                  97422670.533 3  23498025.156                    23498030.309
                        21.600
                  86190429.282 6  20694161.898                    20694162.773
                        41.000
                  95062995.272 6  22832442.844                    22832445.539
                        38.000
 122055977.552 5  95108605.86342  23226490.422                    23226494.059
        32.200          16.300
 123947785.208 6  96582678.74843  23586475.344                    23586475.797
        39.800          18.300
                  82674040.360 7  19905677.266                    19905677.234
                        44.400
 126199558.249 5  98337321.38642  24014972.625                    24014979.613
        34.500          14.800
                  85078105.719 6  20477315.664                    20477315.340
                        39.100
                  85082659.691 6  20442510.688                    20442512.422
                        41.500
                  86571906.386 7  20851500.031                    20851502.141
                        42.400
                  90285243.170 5  21715353.969                    21715356.113
                        31.400
                                  23440357.336

 112638179.117 8  87770097.25346  21434351.578                    21434353.297
        49.800          37.900
 129252471.421 5                  24595935.398
        32.400
 113187004.275 8  88197591.09446  21538747.133                    21538750.652
        50.600          37.300
 116617024.757 7  90870376.89245  22191481.828                    22191487.840
        47.300          34.200
 114292265.387 7  89058899.58045  21749096.938                    21749102.859
        47.500          34.400
 115987931.578 8  90380315.41646  22071794.883                    22071798.922
        49.800          37.100
 122237265.243 5                  23260987.031
        34.400
 18  3 13 14 13 17.0000000  0 19R10R08R07G14G22R09G03R16R17R18R01R24
                                G19G25G12G32G24G17G01
                  97419496.745 3  23497260.055                    23497264.762
                        21.100
                  86191449.685 6  20694407.508                    20694407.848
                        40.700
                  95066559.985 6  22833299.680                    22833302.203
                        37.600
 122054032.971 5  95107090.60042  23226120.578                    23226124.340
        31.300          14.800
 123946753.726 6  96581875.00842  23586278.695                    23586279.215
        39.700          17.800
                  82672962.300 7  19905417.641                    19905417.684
                        44.400
 126197190.102 5  98335476.09442  24014521.844                    24014528.598
        35.900          13.900
                  85080658.877 6  20477929.648                    20477930.355
                        39.300
                  85084052.578 6  20442845.422                    20442847.316
                        41.900
                  86570015.555 7  20851044.508                    20851046.480
                        42.600
                  90283338.783 5  21714895.430                    21714898.273
                        31.300
                                  23441253.258

 112637999.332 8  87769957.16646  21434317.102                    21434318.715
        49.000          38.100
 129248886.577 5                  24595252.641
        32.900
 113184942.049 8  88195984.16546  21538355.281                    21538358.195
        51.100          37.400
 116616830.256 7  90870225.33045  22191444.828                    22191451.051
        47.200          34.200
 114294813.118 7  89060884.83145  21749581.625                    21749587.379
        47.300          33.900
 115989235.813 8  90381331.70946  22072043.266                    22072047.098
        49.900          37.600
 122239992.479 5                  23261505.508
        31.200
 18  3 13 14 13 18.0000000  0 19R10R08R07G14G22R09G03R16R17R18R01R24
                                G19G25G12G32G24G17G01
                                  23496494.391

                  86192470.779 6  20694652.336                    20694653.625
                        41.300
                  95070125.065 6  22834156.289                    22834158.840
                        37.500
 122052088.761 5  95105575.64142  23225750.188                    23225754.406
        33.000          13.900
 123945722.776 6  96581071.64543  23586082.539                    23586083.328
        40.300          18.600
                  82671884.845 7  19905158.117                    19905158.391
                        43.900
 126194822.363 6  98333631.09342  24014072.555                    24014077.957
        36.300          13.900
                  85083212.549 6  20478544.094                    20478544.566
                        38.500
                  85085446.166 6  20443180.516                    20443182.281
                        41.400
                  86568125.313 7  20850589.195                    20850591.539
                        42.800
                  90281434.959 5  21714437.586                    21714440.887
                        31.000
                                  23442150.820

 112637820.260 8  87769817.63546  21434282.977                    21434284.992
        49.100          37.500
 129245302.017 5                  24594570.945
        33.900
 113182880.387 8  88194377.68245  21537963.039                    21537966.180
        50.000          35.900
 116616636.479 7  90870074.35045  22191407.891                    22191414.195
        47.100          33.200
 114297361.405 7  89062870.51145  21750066.445                    21750072.621
        46.800          34.300
 115990540.694 8  90382348.51546  22072291.258                    22072295.426
        50.100          37.900
 122242720.336 5                  23262024.953
        33.100
 18  3 13 14 13 19.0000000  0 19R10R08R07G14G22R09G03R16R17R18R01R24
                                G19G25G12G32G24G17G01
                                  23495727.969

                  86193492.648 6  20694897.492                    20694898.906
                        40.400
                  95073690.374 5  22835012.266                    22835014.957
                        35.300
 122050145.254 5  95104061.23542  23225381.547                    23225384.477
        33.800          14.800
 123944692.427 6  96580268.77942  23585886.359                    23585887.148
        40.600          17.400
                  82670808.021 7  19904898.664                    19904899.254
                        44.400
 126192455.102 6  98331786.49242  24013621.742                    24013628.145
        36.700          14.800
                  85085766.750 6  20479158.586                    20479159.359
                        38.300
                  85086840.445 6  20443515.445                    20443517.730
                        41.600
                  86566235.629 6  20850134.602                    20850136.383
                        41.900
                  90279531.735 5  21713979.266                    21713982.809
                        31.500
                                  23443046.531

 112637642.016 8  87769678.74546  21434249.469                    21434250.652
        49.200          38.400
 129241717.583 5                  24593888.852
        33.400
 113180819.308 8  88192771.64845  21537570.586                    21537573.738
        50.100          35.800
 116616443.416 7  90869923.92145  22191370.992                    22191377.801
        46.700          34.000
 114299910.283 8  89064856.64546  21750551.641                    21750557.621
        49.300          38.000
 115991846.232 8  90383365.82946  22072539.898                    22072543.578
        49.700          38.500
 122245448.741 5                  23262543.820
        33.200
 18  3 13 14 13 20.0000000  0 19R10R08R07G14G22R09G03R16R17R18R01R24
                                G19G25G12G32G24G17G01
                                  23494963.297

                  86194515.203 6  20695143.586                    20695144.805
                        40.800
                  95077255.985 5  22835868.727                    22835871.527
                        35.800
 122048202.119 5  95102547.10242  23225010.898                    23225014.875
        34.100          16.300
 123943662.691 6  96579466.41442  23585690.344                    23585691.535
        41.000          16.900
                  82669731.750 7  19904639.516                    19904640.043
                        44.400
 126190088.316 6  98329942.27042  24013171.297                    24013177.996
        36.600          15.600
                  85088321.473 6  20479774.125                    20479774.742
                        38.700
                  85088235.433 6  20443850.633                    20443852.309
                        41.400
                  86564346.557 7  20849679.047                    20849681.320
                        42.300
                  90277629.033 5  21713521.492                    21713524.629
                        30.200
                                  23443943.852

 112637464.524 8  87769540.44446  21434215.375                    21434217.094
        49.000          38.000
 129238133.306 5                  24593206.953
        33.500
 113178758.772 8  88191166.03046  21537178.375                    21537181.324
        50.800          36.600
 116616251.033 7  90869774.01545  22191334.469                    22191340.824
        46.900          34.200
 114302459.704 8  89066843.20746  21751036.688                    21751042.641
        50.300          39.000
 115993152.351 8  90384383.58846  22072788.734                    22072792.363
        50.000          38.100
 122248177.712 5                  23263062.148
        32.600
 18  3 13 14 13 21.0000000  0 19R10R08R07G14G22R09G03R16R17R18R01R24
                                G19G25G12G32G24G17G01
                                  23494198.602

                  86195538.511 6  20695389.133                    20695389.734
                        40.800
                  95080821.973 5  22836724.461                    22836728.094
                        34.300
 122046259.533 5  95101033.37842  23224640.523                    23224645.285
        33.700          16.300
 123942633.553 6  96578664.49142  23585494.578                    23585495.949
        40.400          17.400
                  82668656.118 7  19904380.984                    19904381.324
                        44.300
 126187721.958 6  98328098.35042  24012720.148                    24012727.184
        36.000          16.900
                  85090876.679 6  20480389.109                    20480389.484
                        38.600
                  85089631.129 6  20444185.492                    20444187.832
                        41.600
                  86562458.072 6  20849224.344                    20849226.430
                        41.900
                  90275726.929 5  21713064.328                    21713067.246
                        31.700
                                  23444837.289

 112637287.823 8  87769402.74046  21434181.914                    21434183.199
        49.100          38.400
 129234549.222 5                  24592525.547
        33.800
 113176698.860 8  88189560.90346  21536786.602                    21536789.617
        50.200          36.800
 116616059.380 7  90869624.67345  22191298.117                    22191304.570
        47.000          33.100
 114305009.721 8  89068830.23646  21751522.094                    21751528.059
        50.300          39.100
 115994459.142 8  90385401.85746  22073037.047                    22073040.844
        49.700          37.600
 122250907.321 5                  23263583.195
        33.300
 18  3 13 14 13 22.0000000  0 19R10R08R07G14G22R09G03R16R17R18R01R24
                                G19G25G12G32G24G17G01
                                  23493434.234

                  86196562.548 6  20695634.938                    20695635.418
                        40.600
                  95084388.213 5  22837581.188                    22837584.477
                        34.600
 122044317.448 5  95099520.06642  23224271.883                    23224275.574
        33.700          16.300
 123941604.979 6  96577863.03543  23585299.078                    23585299.887
        39.800          18.600
                  82667581.088 7  19904121.656                    19904122.145
                        44.500
 126185356.103 6  98326254.84442  24012270.813                    24012277.109
        36.500          16.900
                  85093432.362 6  20481003.641                    20481004.797
                        39.000
                  85091027.517 6  20444521.445                    20444523.074
                        41.800
                  86560570.109 7  20848769.602                    20848771.676
                        42.500
                  90273825.343 5  21712608.000                    21712609.918
                        30.100
                                  23445732.664

 112637111.859 8  87769265.61646  21434148.328                    21434149.914
        48.800          37.600
 129230965.255 5                  24591842.789
        33.700
 113174639.465 8  88187956.18846  21536394.023                    21536397.461
        50.200          36.600
 116615868.405 7  90869475.84945  22191261.734                    22191268.594
        47.300          33.200
 114307560.296 8  89070817.71246  21752007.250                    21752013.531
        49.900          38.500
 115995766.542 8  90386420.60246  22073285.797                    22073289.156
        49.400          37.500
 122253637.480 5                  23264102.617
        32.600
 18  3 13 14 13 23.0000000  0 19R10R08R07G14G22R09G03R16R17R18R01R24
                                G19G25G12G32G24G17G01
                  97400471.49113  23492669.141                    23492675.336
                        21.900
                  86197587.316 6  20695880.078                    20695881.125
                        41.200
                  95087954.781 5  22838437.547                    22838440.777
                        34.600
 122042375.838 5  95098007.12242  23223902.094                    23223906.195
        34.700          14.800
 123940576.924 6  96577061.92542  23585103.453                    23585103.988
        39.500          17.800
                  82666506.613 7  19903863.047                    19903863.809
                        44.400
 126182990.682 6  98324411.66542  24011820.344                    24011826.863
        37.200          16.900
                  85095988.516 6  20481618.773                    20481619.723
                        39.100
                  85092424.621 6  20444857.586                    20444859.598
                        41.800
                  86558682.735 7  20848314.883                    20848316.949
                        42.200
                  90271924.313 5  21712151.063                    21712152.637
                        31.500
                                  23446627.383

 112636936.646 8  87769129.07446  21434115.078                    21434116.246
        49.200          37.800
 129227381.528 5                  24591160.664
        35.000
 113172580.621 8  88186351.89646  21536002.508                    21536005.934
        50.100          37.000
 116615678.130 7  90869327.58245  22191225.570                    22191232.004
        47.000          33.400
 114310111.416 8  89072805.59946  21752493.023                    21752498.848
        50.200          38.900
 115997074.563 8  90387439.83746  22073534.938                    22073538.434
        49.500          37.700
 122256368.206 5                  23264620.945
        31.900
 18  3 13 14 13 24.0000000  0 19R10R08R07G14G22R09G03R16R17R18R01R24
                                G19G25G12G32G24G17G01
                                  23491903.594

                  86198612.852 6  20696126.875                    20696127.945
                        41.500
                  95091521.629 5  22839294.539                    22839297.887
                        35.400
 122040434.702 5  95096494.54142  23223533.633                    23223536.906
        34.600          16.300
 123939549.543 6  96576261.33243  23584907.414                    23584908.664
        39.400          18.300
                  82665432.776 7  19903604.914                    19903604.750
                        44.200
 126180625.742 5  98322568.85842  24011370.430                    24011376.820
        35.900          15.600
                  85098545.168 6  20482234.477                    20482234.594
                        39.500
                  85093822.446 6  20445193.453                    20445194.906
                        41.800
                  86556795.987 7  20847861.086                    20847862.887
                        42.800
                  90270023.869 5  21711694.094                    21711695.445
                        31.200
                                  23447522.836

 112636762.241 8  87768993.15946  21434081.930                    21434083.391
        48.900          37.600
 129223797.952 5                  24590478.922
        35.800
 113170522.387 8  88184748.08146  21535610.859                    21535613.766
        50.700          37.900
 116615488.584 7  90869179.88645  22191189.219                    22191195.766
        47.000          34.000
 114312663.118 8  89074793.93246  21752978.523                    21752984.402
        50.000          38.900
 115998383.237 8  90388459.57946  22073783.930                    22073787.887
        49.300          37.400
 122259099.563 5                  23265141.469
        33.700
 18  3 13 14 13 25.0000000  0 19R10R08R07G14G22R09G03R16R17R18R01R24
                                G19G25G12G32G24G17G01
                                  23491137.805

                  86199639.042 6  20696373.398                    20696374.563
                        41.200
                  95095088.727 5  22840150.961                    22840154.230
                        34.400
 122038494.000 5  95094982.27042  23223163.469                    23223167.426
        34.200          15.600
 123938522.650 6  96575461.12442  23584712.961                    23584713.109
        39.700          17.800
                  82664359.487 7  19903345.859                    19903346.750
                        44.400
 126178261.242 5  98320726.38442  24010921.117                    24010926.754
        35.000          16.300
                  85101102.282 6  20482849.453                    20482850.359
                        39.500
                  85095220.885 6  20445529.250                    20445530.902
                        41.800
                  86554909.738 7  20847406.328                    20847408.711
                        42.600
                  90268123.975 5  21711236.563                    21711239.230
                        31.400
                                  23448418.570

 112636588.542 8  87768857.80046  21434049.039                    21434050.227
        48.800          37.700
 129220214.475 5                  24589796.875
        35.600
 113168464.623 8  88183144.63146  21535219.352                    21535222.457
        50.900          37.700
 116615299.661 7  90869032.68045  22191153.742                    22191160.059
        47.100          33.600
 114315215.303 8  89076782.63946  21753464.195                    21753469.910
        50.300          38.400
 115999692.465 8  90389479.76246  22074032.844                    22074036.816
        49.200          37.500
 122261831.443 5                  23265661.227
        33.200
 18  3 13 14 13 26.0000000  0 19R10R08R07G14G22R09G03R16R17R18R01R24
                                G19G25G12G32G24G17G01
                                  23490374.844

                  86200665.948 6  20696619.656                    20696621.426
                        41.200
                  95098656.131 5  22841007.414                    22841011.230
                        34.700
 122036553.775 5  95093470.41242  23222794.141                    23222798.430
        32.800          16.300
 123937496.365 6  96574661.43742  23584516.758                    23584517.855
        39.900          17.800
                  82663286.790 7  19903087.961                    19903088.473
                        44.200
 126175897.193 5  98318884.22642  24010470.625                    24010477.234
        34.200          16.900
                  85103659.903 6  20483465.484                    20483466.215
                        39.200
                  85096620.059 6  20445865.227                    20445866.898
                        41.900
                  86553024.063 7  20846952.164                    20846954.309
                        42.600
                  90266224.597 5  21710779.281                    21710782.578
                        31.600
                                  23449317.719

 112636415.676 8  87768723.09046  21434016.000                    21434017.703
        48.800          37.900
 129216631.183 5                  24589114.594
        35.000
 113166407.432 8  88181541.62146  21534827.609                    21534831.105
        50.900          37.500
 116615111.454 7  90868886.03945  22191117.695                    22191124.066
        47.300          34.100
 114317768.062 8  89078771.80546  21753949.914                    21753955.668
        50.000          38.100
 116001002.323 8  90390500.43546  22074282.266                    22074285.730
        49.300          37.600
 122264563.909 5                  23266181.500
        32.600
 18  3 13 14 13 27.0000000  0 19R10R08R07G14G22R09G03R16R17R18R01R24
                                G19G25G12G32G24G17G01
                                  23489608.547

                  86201693.584 6  20696866.672                    20696868.098
                        41.200
                  95102223.869 5  22841865.578                    22841868.070
                        33.800
 122034613.991 5  95091958.86042  23222425.313                    23222429.324
        31.500          15.600
 123936470.594 6  96573862.14143  23584321.930                    23584322.680
        39.200          18.300
                  82662214.689 7  19902829.750                    19902829.766
                        44.600
 126173533.593 5  98317042.44542  24010020.703                    24010027.410
        34.600          17.400
                  85106218.030 6  20484081.922                    20484082.180
                        39.500
                  85098019.934 7  20446201.305                    20446203.676
                        42.300
                  86551138.962 7  20846498.492                    20846500.391
                        42.800
                  90264325.777 5  21710322.781                    21710325.039
                        32.600
                                  23450214.156

 112636243.572 8  87768588.98446  21433983.109                    21433984.805
        48.300          38.800
 129213048.104 5                  24588432.367
        30.500
 113164350.847 8  88179939.09045  21534436.375                    21534439.711
        48.500          34.300
 116614923.943 7  90868739.93445  22191082.242                    22191088.438
        46.800          34.600
 114320321.394 8  89080761.41446  21754435.672                    21754442.020
        49.400          38.400
 116002312.793 8  90391521.58346  22074531.430                    22074535.449
        49.100          38.700
 122267296.870 5                  23266701.727
        33.400
 18  3 13 14 13 28.0000000  0 19R10R08R07G14G22R09G03R16R17R18R01R24
                                G19G25G12G32G24G17G01
                                  23488842.477

                  86202721.943 6  20697112.906                    20697114.527
                        41.100
                  95105791.899 5  22842722.531                    22842725.133
                        33.100
 122032674.812 5  95090447.82942  23222056.414                    23222060.535
        33.500          16.300
 123935445.508 6  96573063.40043  23584126.563                    23584127.223
        40.500          18.300
                  82661143.180 7  19902571.203                    19902572.195
                        44.400
 126171170.496 5  98315201.09542  24009570.461                    24009577.707
        35.100          17.800
                  85108776.679 6  20484697.742                    20484698.090
                        39.500
                  85099420.503 7  20446538.609                    20446539.523
                        42.600
                  86549254.449 7  20846043.836                    20846046.527
                        43.200
                  90262427.523 5  21709866.828                    21709869.730
                        32.700
                                  23451111.609

 112636072.250 8  87768455.50546  21433950.422                    21433951.984
        48.400          38.700
 129209465.068 4                  24587751.258
        28.900
 113162294.749 8  88178336.94945  21534045.234                    21534048.703
        48.500          33.600
 116614737.135 7  90868594.37245  22191046.195                    22191052.918
        46.700          33.900
 114322875.287 7  89082751.46145  21754921.813                    21754927.703
        47.300          35.400
 116003623.889 8  90392543.21946  22074781.031                    22074784.684
        49.500          39.600
 122270030.474 5                  23267222.852
        34.000
 18  3 13 14 13 29.0000000  0 19R10R08R07G14G22R09G03R16R17R18R01R24
                                G19G25G12G32G24G17G01
                                  23488076.797

                  86203751.047 6  20697360.406                    20697361.520
                        41.600
                  95109360.241 5  22843578.734                    22843581.676
                        35.300
