% program   : RTKPOST ver.2.4.2
% inp file  : Z:\home\linda\Documents\Spring18\GitHub_Unis\data\processed_data\4625074D.obs
% inp file  : Z:\home\linda\Documents\Spring18\GitHub_Unis\data\processed_data\4625074D.nav
% obs start : 2018/03/15 11:50:00.0 GPST (week1992 388200.0s)
% obs end   : 2018/03/15 12:34:24.0 GPST (week1992 390864.0s)
% pos mode  : single
% elev mask : 15.0 deg
% ionos opt : broadcast
% tropo opt : saastamoinen
% ephemeris : broadcast
% navi sys  : gps glonass galileo qzss sbas
%
% (lat/lon/height=WGS84/ellipsoidal,Q=1:fix,2:float,3:sbas,4:dgps,5:single,6:ppp,ns=# of satellites)
%  GPST                  latitude(deg) longitude(deg)  height(m)   Q  ns   sdn(m)   sde(m)   sdu(m)  sdne(m)  sdeu(m)  sdun(m) age(s)  ratio
2018/03/15 11:50:00.000   78.246495241   16.063412551   574.3732   5   9   1.7569   2.1790   8.2230  -0.4605   2.8310   1.8961   0.00    0.0
2018/03/15 11:50:01.000   78.246495322   16.063439940   575.1303   5   9   1.7568   2.1790   8.2239  -0.4607   2.8312   1.8959   0.00    0.0
2018/03/15 11:50:02.000   78.246497343   16.063447168   574.3223   5   9   1.7567   2.1791   8.2249  -0.4609   2.8314   1.8956   0.00    0.0
2018/03/15 11:50:03.000   78.246507123   16.063444116   576.7273   5   9   1.7567   2.1791   8.2258  -0.4610   2.8316   1.8954   0.00    0.0
2018/03/15 11:50:04.000   78.246515442   16.063376632   576.7894   5   9   1.7566   2.1791   8.2267  -0.4612   2.8318   1.8951   0.00    0.0
2018/03/15 11:50:05.000   78.246506956   16.063350653   575.0004   5   9   1.7565   2.1791   8.2276  -0.4614   2.8320   1.8949   0.00    0.0
2018/03/15 11:50:06.000   78.246489540   16.063374150   572.8210   5   9   1.7564   2.1791   8.2285  -0.4615   2.8321   1.8946   0.00    0.0
2018/03/15 11:50:07.000   78.246489527   16.063401247   573.2785   5   9   1.7563   2.1791   8.2294  -0.4617   2.8323   1.8944   0.00    0.0
2018/03/15 11:50:08.000   78.246495311   16.063404717   573.4027   5   9   1.7562   2.1791   8.2303  -0.4619   2.8325   1.8941   0.00    0.0
2018/03/15 11:50:09.000   78.246499413   16.063373449   572.1485   5   9   1.7561   2.1792   8.2312  -0.4620   2.8327   1.8938   0.00    0.0
2018/03/15 11:50:10.000   78.246499597   16.063354602   572.2024   5   9   1.7561   2.1792   8.2321  -0.4622   2.8329   1.8936   0.00    0.0
2018/03/15 11:50:11.000   78.246498834   16.063356169   573.8700   5   9   1.7560   2.1792   8.2330  -0.4624   2.8330   1.8933   0.00    0.0
2018/03/15 11:50:12.000   78.246502060   16.063365240   574.3650   5   9   1.7559   2.1792   8.2339  -0.4625   2.8332   1.8931   0.00    0.0
2018/03/15 11:50:13.000   78.246501851   16.063386959   573.2753   5   9   1.7558   2.1792   8.2348  -0.4627   2.8334   1.8928   0.00    0.0
2018/03/15 11:50:14.000   78.246503267   16.063374693   573.0101   5   9   1.7557   2.1792   8.2356  -0.4629   2.8336   1.8925   0.00    0.0
2018/03/15 11:50:15.000   78.246502596   16.063390734   574.0337   5   9   1.7556   2.1792   8.2365  -0.4630   2.8337   1.8923   0.00    0.0
2018/03/15 11:50:16.000   78.246496665   16.063384262   575.0911   5   9   1.7556   2.1793   8.2374  -0.4632   2.8339   1.8920   0.00    0.0
2018/03/15 11:50:17.000   78.246500591   16.063384570   575.7789   5   9   1.7555   2.1793   8.2383  -0.4634   2.8341   1.8918   0.00    0.0
2018/03/15 11:50:18.000   78.246507403   16.063346854   574.0665   5   9   1.7554   2.1793   8.2392  -0.4636   2.8343   1.8915   0.00    0.0
2018/03/15 11:50:19.000   78.246505155   16.063356988   573.9014   5   9   1.7553   2.1793   8.2401  -0.4637   2.8344   1.8912   0.00    0.0
2018/03/15 11:50:20.000   78.246499371   16.063388126   574.6142   5   9   1.7552   2.1793   8.2410  -0.4639   2.8346   1.8910   0.00    0.0
2018/03/15 11:50:21.000   78.246496175   16.063409766   574.4000   5   9   1.7551   2.1793   8.2418  -0.4641   2.8348   1.8907   0.00    0.0
2018/03/15 11:50:22.000   78.246494621   16.063395807   574.2756   5   9   1.7551   2.1793   8.2427  -0.4642   2.8349   1.8905   0.00    0.0
2018/03/15 11:50:23.000   78.246494730   16.063376030   574.3870   5   9   1.7550   2.1793   8.2436  -0.4644   2.8351   1.8902   0.00    0.0
2018/03/15 11:50:24.000   78.246500821   16.063371860   575.4273   5   9   1.7549   2.1794   8.2445  -0.4646   2.8353   1.8899   0.00    0.0
2018/03/15 11:50:25.000   78.246505071   16.063387028   575.7603   5   9   1.7548   2.1794   8.2453  -0.4648   2.8354   1.8897   0.00    0.0
2018/03/15 11:50:26.000   78.246506188   16.063361249   574.5530   5   9   1.7547   2.1794   8.2462  -0.4649   2.8356   1.8894   0.00    0.0
2018/03/15 11:50:27.000   78.246506938   16.063375168   573.7437   5   9   1.7546   2.1794   8.2471  -0.4651   2.8358   1.8891   0.00    0.0
2018/03/15 11:50:28.000   78.246499756   16.063376733   574.1448   5   9   1.7545   2.1794   8.2479  -0.4653   2.8359   1.8889   0.00    0.0
2018/03/15 11:50:29.000   78.246496795   16.063403386   575.0442   5   9   1.7545   2.1794   8.2488  -0.4654   2.8361   1.8886   0.00    0.0
2018/03/15 11:50:30.000   78.246501010   16.063388476   574.4670   5   9   1.7544   2.1794   8.2497  -0.4656   2.8363   1.8883   0.00    0.0
2018/03/15 11:50:31.000   78.246506906   16.063358159   574.5901   5   9   1.7543   2.1794   8.2505  -0.4658   2.8364   1.8881   0.00    0.0
2018/03/15 11:50:32.000   78.246508367   16.063343466   573.9680   5   9   1.7542   2.1794   8.2514  -0.4660   2.8366   1.8878   0.00    0.0
2018/03/15 11:50:33.000   78.246496548   16.063413704   573.8705   5   9   1.7541   2.1795   8.2523  -0.4661   2.8367   1.8875   0.00    0.0
2018/03/15 11:50:34.000   78.246494357   16.063423929   573.7279   5   9   1.7540   2.1795   8.2531  -0.4663   2.8369   1.8873   0.00    0.0
2018/03/15 11:50:35.000   78.246499186   16.063382008   574.1287   5   9   1.7540   2.1795   8.2540  -0.4665   2.8371   1.8870   0.00    0.0
2018/03/15 11:50:36.000   78.246499722   16.063366617   574.9388   5   9   1.7539   2.1795   8.2548  -0.4667   2.8372   1.8867   0.00    0.0
2018/03/15 11:50:37.000   78.246505245   16.063387025   576.2911   5   9   1.7538   2.1795   8.2557  -0.4668   2.8374   1.8864   0.00    0.0
2018/03/15 11:50:38.000   78.246503684   16.063382636   573.8585   5   9   1.7537   2.1795   8.2565  -0.4670   2.8375   1.8862   0.00    0.0
2018/03/15 11:50:39.000   78.246500318   16.063369410   573.6377   5   9   1.7536   2.1795   8.2574  -0.4672   2.8377   1.8859   0.00    0.0
2018/03/15 11:50:40.000   78.246497009   16.063337463   574.2775   5   9   1.7535   2.1795   8.2582  -0.4674   2.8379   1.8856   0.00    0.0
2018/03/15 11:50:41.000   78.246497372   16.063371093   574.9537   5   9   1.7535   2.1795   8.2591  -0.4675   2.8380   1.8854   0.00    0.0
2018/03/15 11:50:42.000   78.246499195   16.063402549   574.4987   5   9   1.7534   2.1796   8.2599  -0.4677   2.8382   1.8851   0.00    0.0
2018/03/15 11:50:43.000   78.246498673   16.063384624   572.4621   5   9   1.7533   2.1796   8.2608  -0.4679   2.8383   1.8848   0.00    0.0
2018/03/15 11:50:44.000   78.246496860   16.063376142   572.3091   5   9   1.7532   2.1796   8.2616  -0.4681   2.8385   1.8845   0.00    0.0
2018/03/15 11:50:45.000   78.246498982   16.063370530   574.3360   5   9   1.7531   2.1796   8.2625  -0.4682   2.8386   1.8843   0.00    0.0
2018/03/15 11:50:46.000   78.246502152   16.063355414   576.0281   5   9   1.7530   2.1796   8.2633  -0.4684   2.8388   1.8840   0.00    0.0
2018/03/15 11:50:47.000   78.246506560   16.063329887   574.6101   5   9   1.7530   2.1796   8.2641  -0.4686   2.8389   1.8837   0.00    0.0
2018/03/15 11:50:48.000   78.246500317   16.063352884   572.3206   5   9   1.7529   2.1796   8.2650  -0.4688   2.8391   1.8834   0.00    0.0
2018/03/15 11:50:49.000   78.246494277   16.063403491   571.3564   5   9   1.7528   2.1796   8.2658  -0.4690   2.8392   1.8832   0.00    0.0
2018/03/15 11:50:50.000   78.246494214   16.063421583   572.0741   5   9   1.7527   2.1796   8.2666  -0.4691   2.8394   1.8829   0.00    0.0
2018/03/15 11:50:51.000   78.246496389   16.063409526   573.6808   5   9   1.7526   2.1796   8.2675  -0.4693   2.8395   1.8826   0.00    0.0
2018/03/15 11:50:52.000   78.246499176   16.063355945   573.6700   5   9   1.7525   2.1797   8.2683  -0.4695   2.8397   1.8823   0.00    0.0
2018/03/15 11:50:53.000   78.246504831   16.063339186   574.0115   5   9   1.7525   2.1797   8.2691  -0.4697   2.8398   1.8821   0.00    0.0
2018/03/15 11:50:54.000   78.246499300   16.063366885   574.3807   5   9   1.7524   2.1797   8.2700  -0.4698   2.8400   1.8818   0.00    0.0
2018/03/15 11:50:55.000   78.246498809   16.063395293   573.6141   5   9   1.7523   2.1797   8.2708  -0.4700   2.8401   1.8815   0.00    0.0
2018/03/15 11:50:56.000   78.246497055   16.063385454   574.6433   5   9   1.7522   2.1797   8.2716  -0.4702   2.8403   1.8812   0.00    0.0
2018/03/15 11:50:57.000   78.246495756   16.063349506   573.6948   5   9   1.7521   2.1797   8.2724  -0.4704   2.8404   1.8810   0.00    0.0
2018/03/15 11:50:58.000   78.246497725   16.063361820   575.4645   5   9   1.7520   2.1797   8.2732  -0.4706   2.8405   1.8807   0.00    0.0
2018/03/15 11:50:59.000   78.246500748   16.063373126   574.5571   5   9   1.7520   2.1797   8.2741  -0.4707   2.8407   1.8804   0.00    0.0
2018/03/15 11:51:00.000   78.246502052   16.063377535   575.0908   5   9   1.7519   2.1797   8.2749  -0.4709   2.8408   1.8801   0.00    0.0
2018/03/15 11:51:01.000   78.246499166   16.063347162   573.4069   5   9   1.7518   2.1797   8.2757  -0.4711   2.8410   1.8798   0.00    0.0
2018/03/15 11:51:02.000   78.246498692   16.063326628   572.9258   5   9   1.7517   2.1797   8.2765  -0.4713   2.8411   1.8796   0.00    0.0
2018/03/15 11:51:03.000   78.246496372   16.063367018   572.6064   5   9   1.7516   2.1797   8.2773  -0.4715   2.8412   1.8793   0.00    0.0
2018/03/15 11:51:04.000   78.246497217   16.063387616   574.0052   5   9   1.7515   2.1798   8.2781  -0.4716   2.8414   1.8790   0.00    0.0
2018/03/15 11:51:05.000   78.246498820   16.063364713   573.0911   5   9   1.7515   2.1798   8.2789  -0.4718   2.8415   1.8787   0.00    0.0
2018/03/15 11:51:06.000   78.246499329   16.063339339   573.9954   5   9   1.7514   2.1798   8.2797  -0.4720   2.8417   1.8784   0.00    0.0
2018/03/15 11:51:07.000   78.246501017   16.063354343   573.7574   5   9   1.7513   2.1798   8.2805  -0.4722   2.8418   1.8781   0.00    0.0
2018/03/15 11:51:08.000   78.246502224   16.063362119   572.8889   5   9   1.7512   2.1798   8.2813  -0.4724   2.8419   1.8779   0.00    0.0
2018/03/15 11:51:09.000   78.246498953   16.063373675   573.4618   5   9   1.7511   2.1798   8.2821  -0.4726   2.8421   1.8776   0.00    0.0
2018/03/15 11:51:10.000   78.246494578   16.063396333   573.3858   5   9   1.7510   2.1798   8.2829  -0.4727   2.8422   1.8773   0.00    0.0
2018/03/15 11:51:11.000   78.246495600   16.063394095   573.3214   5   9   1.7510   2.1798   8.2837  -0.4729   2.8423   1.8770   0.00    0.0
2018/03/15 11:51:12.000   78.246497732   16.063363781   572.6123   5   9   1.7509   2.1798   8.2845  -0.4731   2.8425   1.8767   0.00    0.0
2018/03/15 11:51:13.000   78.246504831   16.063325902   572.4475   5   9   1.7508   2.1798   8.2853  -0.4733   2.8426   1.8764   0.00    0.0
2018/03/15 11:51:14.000   78.246502778   16.063345721   573.6637   5   9   1.7507   2.1798   8.2861  -0.4735   2.8427   1.8761   0.00    0.0
2018/03/15 11:51:15.000   78.246498777   16.063367069   573.8267   5   9   1.7506   2.1798   8.2869  -0.4736   2.8428   1.8759   0.00    0.0
2018/03/15 11:51:16.000   78.246494075   16.063383759   574.5849   5   9   1.7506   2.1798   8.2877  -0.4738   2.8430   1.8756   0.00    0.0
2018/03/15 11:51:17.000   78.246494460   16.063365960   572.8525   5   9   1.7505   2.1798   8.2885  -0.4740   2.8431   1.8753   0.00    0.0
2018/03/15 11:51:18.000   78.246498557   16.063376783   573.6501   5   9   1.7504   2.1798   8.2893  -0.4742   2.8432   1.8750   0.00    0.0
2018/03/15 11:51:19.000   78.246501465   16.063361517   574.5031   5   9   1.7503   2.1799   8.2901  -0.4744   2.8434   1.8747   0.00    0.0
2018/03/15 11:51:20.000   78.246505657   16.063349290   575.2431   5   9   1.7502   2.1799   8.2908  -0.4746   2.8435   1.8744   0.00    0.0
2018/03/15 11:51:21.000   78.246504233   16.063349999   575.2956   5   9   1.7501   2.1799   8.2916  -0.4748   2.8436   1.8741   0.00    0.0
2018/03/15 11:51:22.000   78.246499666   16.063362085   572.1453   5   9   1.7501   2.1799   8.2924  -0.4749   2.8437   1.8738   0.00    0.0
2018/03/15 11:51:23.000   78.246496747   16.063384077   572.8875   5   9   1.7500   2.1799   8.2932  -0.4751   2.8439   1.8735   0.00    0.0
2018/03/15 11:51:24.000   78.246496601   16.063393050   572.5739   5   9   1.7499   2.1799   8.2940  -0.4753   2.8440   1.8732   0.00    0.0
2018/03/15 11:51:25.000   78.246498524   16.063384639   573.2030   5   9   1.7498   2.1799   8.2947  -0.4755   2.8441   1.8730   0.00    0.0
2018/03/15 11:51:26.000   78.246501128   16.063364341   573.2762   5   9   1.7497   2.1799   8.2955  -0.4757   2.8442   1.8727   0.00    0.0
2018/03/15 11:51:27.000   78.246500772   16.063348347   573.9083   5   9   1.7497   2.1799   8.2963  -0.4759   2.8443   1.8724   0.00    0.0
2018/03/15 11:51:28.000   78.246503006   16.063375295   574.5588   5   9   1.7496   2.1799   8.2970  -0.4761   2.8445   1.8721   0.00    0.0
2018/03/15 11:51:29.000   78.246503417   16.063361344   572.6404   5   9   1.7495   2.1799   8.2978  -0.4762   2.8446   1.8718   0.00    0.0
2018/03/15 11:51:30.000   78.246501586   16.063366221   573.6713   5   9   1.7494   2.1799   8.2986  -0.4764   2.8447   1.8715   0.00    0.0
2018/03/15 11:51:31.000   78.246501613   16.063360744   573.8634   5   9   1.7493   2.1799   8.2993  -0.4766   2.8448   1.8712   0.00    0.0
2018/03/15 11:51:32.000   78.246502694   16.063357566   573.9445   5   9   1.7492   2.1799   8.3001  -0.4768   2.8449   1.8709   0.00    0.0
2018/03/15 11:51:33.000   78.246502398   16.063361376   574.7334   5   9   1.7492   2.1799   8.3009  -0.4770   2.8451   1.8706   0.00    0.0
2018/03/15 11:51:34.000   78.246500305   16.063359371   574.3613   5   9   1.7491   2.1799   8.3016  -0.4772   2.8452   1.8703   0.00    0.0
2018/03/15 11:51:35.000   78.246501784   16.063364683   574.3122   5   9   1.7490   2.1799   8.3024  -0.4774   2.8453   1.8700   0.00    0.0
2018/03/15 11:51:36.000   78.246501320   16.063369595   573.7044   5   9   1.7489   2.1799   8.3031  -0.4775   2.8454   1.8697   0.00    0.0
2018/03/15 11:51:37.000   78.246500081   16.063357844   574.0842   5   9   1.7488   2.1799   8.3039  -0.4777   2.8455   1.8694   0.00    0.0
2018/03/15 11:51:38.000   78.246500761   16.063375078   573.5143   5   9   1.7488   2.1799   8.3046  -0.4779   2.8456   1.8691   0.00    0.0
2018/03/15 11:51:39.000   78.246499435   16.063370858   575.7609   5   9   1.7487   2.1800   8.3054  -0.4781   2.8457   1.8688   0.00    0.0
2018/03/15 11:51:40.000   78.246501616   16.063365558   574.1778   5   9   1.7486   2.1800   8.3061  -0.4783   2.8458   1.8685   0.00    0.0
2018/03/15 11:51:41.000   78.246498902   16.063388314   573.8281   5   9   1.7485   2.1800   8.3069  -0.4785   2.8460   1.8682   0.00    0.0
2018/03/15 11:51:42.000   78.246498052   16.063389395   573.9428   5   9   1.7484   2.1800   8.3076  -0.4787   2.8461   1.8679   0.00    0.0
2018/03/15 11:51:43.000   78.246500101   16.063392038   574.1352   5   9   1.7484   2.1800   8.3084  -0.4789   2.8462   1.8676   0.00    0.0
2018/03/15 11:51:44.000   78.246502504   16.063374574   573.1640   5   9   1.7483   2.1800   8.3091  -0.4791   2.8463   1.8673   0.00    0.0
2018/03/15 11:51:45.000   78.246503400   16.063354948   573.4535   5   9   1.7482   2.1800   8.3098  -0.4792   2.8464   1.8670   0.00    0.0
2018/03/15 11:51:46.000   78.246502202   16.063350103   572.6985   5   9   1.7481   2.1800   8.3106  -0.4794   2.8465   1.8667   0.00    0.0
2018/03/15 11:51:47.000   78.246499770   16.063363967   573.3665   5   9   1.7480   2.1800   8.3113  -0.4796   2.8466   1.8664   0.00    0.0
2018/03/15 11:51:48.000   78.246500639   16.063373522   574.5487   5   9   1.7480   2.1800   8.3121  -0.4798   2.8467   1.8661   0.00    0.0
2018/03/15 11:51:49.000   78.246501199   16.063351577   573.8890   5   9   1.7479   2.1800   8.3128  -0.4800   2.8468   1.8658   0.00    0.0
2018/03/15 11:51:50.000   78.246502583   16.063346490   574.4830   5   9   1.7478   2.1800   8.3135  -0.4802   2.8469   1.8655   0.00    0.0
2018/03/15 11:51:51.000   78.246501143   16.063355010   573.2086   5   9   1.7477   2.1800   8.3142  -0.4804   2.8470   1.8652   0.00    0.0
2018/03/15 11:51:52.000   78.246500692   16.063377994   574.3763   5   9   1.7476   2.1800   8.3150  -0.4806   2.8471   1.8649   0.00    0.0
2018/03/15 11:51:53.000   78.246499364   16.063383925   574.5878   5   9   1.7476   2.1800   8.3157  -0.4808   2.8472   1.8646   0.00    0.0
2018/03/15 11:51:54.000   78.246501770   16.063371260   574.4811   5   9   1.7475   2.1800   8.3164  -0.4810   2.8473   1.8643   0.00    0.0
2018/03/15 11:51:55.000   78.246498476   16.063367692   574.7572   5   9   1.7474   2.1800   8.3171  -0.4812   2.8474   1.8640   0.00    0.0
2018/03/15 11:51:56.000   78.246497785   16.063386131   574.7669   5   9   1.7473   2.1800   8.3179  -0.4813   2.8475   1.8637   0.00    0.0
2018/03/15 11:51:57.000   78.246496059   16.063389747   574.3879   5   9   1.7472   2.1800   8.3186  -0.4815   2.8476   1.8634   0.00    0.0
2018/03/15 11:51:58.000   78.246498870   16.063384586   573.3353   5   9   1.7471   2.1800   8.3193  -0.4817   2.8477   1.8631   0.00    0.0
2018/03/15 11:51:59.000   78.246503409   16.063353110   574.4154   5   9   1.7471   2.1800   8.3200  -0.4819   2.8478   1.8628   0.00    0.0
2018/03/15 11:52:00.000   78.246504366   16.063366830   574.2863   5   9   1.7470   2.1800   8.3207  -0.4821   2.8479   1.8625   0.00    0.0
2018/03/15 11:52:01.000   78.246502936   16.063376468   575.4551   5   9   1.7469   2.1800   8.3214  -0.4823   2.8480   1.8622   0.00    0.0
2018/03/15 11:52:02.000   78.246502131   16.063360675   573.8910   5   9   1.7468   2.1800   8.3221  -0.4825   2.8481   1.8618   0.00    0.0
2018/03/15 11:52:03.000   78.246502785   16.063357442   573.9779   5   9   1.7467   2.1800   8.3229  -0.4827   2.8482   1.8615   0.00    0.0
2018/03/15 11:52:04.000   78.246505727   16.063353359   573.9850   5   9   1.7467   2.1800   8.3236  -0.4829   2.8483   1.8612   0.00    0.0
2018/03/15 11:52:05.000   78.246502062   16.063341994   573.9847   5   9   1.7466   2.1800   8.3243  -0.4831   2.8484   1.8609   0.00    0.0
2018/03/15 11:52:06.000   78.246497229   16.063358054   573.9477   5   9   1.7465   2.1800   8.3250  -0.4833   2.8484   1.8606   0.00    0.0
2018/03/15 11:52:07.000   78.246495215   16.063382321   573.8244   5   9   1.7464   2.1800   8.3257  -0.4835   2.8485   1.8603   0.00    0.0
2018/03/15 11:52:08.000   78.246499100   16.063389670   574.0614   5   9   1.7463   2.1800   8.3264  -0.4837   2.8486   1.8600   0.00    0.0
2018/03/15 11:52:09.000   78.246499035   16.063364288   573.3525   5   9   1.7463   2.1800   8.3271  -0.4839   2.8487   1.8597   0.00    0.0
2018/03/15 11:52:10.000   78.246498563   16.063346372   573.6565   5   9   1.7462   2.1800   8.3278  -0.4841   2.8488   1.8594   0.00    0.0
2018/03/15 11:52:11.000   78.246495792   16.063351074   574.1955   5   9   1.7461   2.1800   8.3285  -0.4842   2.8489   1.8590   0.00    0.0
2018/03/15 11:52:12.000   78.246497799   16.063355482   573.6392   5   9   1.7460   2.1800   8.3291  -0.4844   2.8490   1.8587   0.00    0.0
2018/03/15 11:52:13.000   78.246500863   16.063358553   574.2598   5   9   1.7460   2.1800   8.3298  -0.4846   2.8491   1.8584   0.00    0.0
2018/03/15 11:52:14.000   78.246502401   16.063356775   573.6791   5   9   1.7459   2.1800   8.3305  -0.4848   2.8491   1.8581   0.00    0.0
2018/03/15 11:52:15.000   78.246504369   16.063345943   573.7033   5   9   1.7458   2.1800   8.3312  -0.4850   2.8492   1.8578   0.00    0.0
2018/03/15 11:52:16.000   78.246500187   16.063332668   573.9561   5   9   1.7457   2.1800   8.3319  -0.4852   2.8493   1.8575   0.00    0.0
2018/03/15 11:52:17.000   78.246498545   16.063342310   573.1279   5   9   1.7456   2.1800   8.3326  -0.4854   2.8494   1.8572   0.00    0.0
2018/03/15 11:52:18.000   78.246498868   16.063358289   573.6678   5   9   1.7456   2.1800   8.3333  -0.4856   2.8495   1.8568   0.00    0.0
2018/03/15 11:52:19.000   78.246500190   16.063355635   572.8948   5   9   1.7455   2.1800   8.3339  -0.4858   2.8495   1.8565   0.00    0.0
2018/03/15 11:52:20.000   78.246499779   16.063355388   573.0721   5   9   1.7454   2.1800   8.3346  -0.4860   2.8496   1.8562   0.00    0.0
2018/03/15 11:52:21.000   78.246501104   16.063358918   572.7664   5   9   1.7453   2.1800   8.3353  -0.4862   2.8497   1.8559   0.00    0.0
2018/03/15 11:52:22.000   78.246498179   16.063376331   573.7108   5   9   1.7452   2.1800   8.3360  -0.4864   2.8498   1.8556   0.00    0.0
2018/03/15 11:52:23.000   78.246500427   16.063357784   573.0060   5   9   1.7452   2.1800   8.3366  -0.4866   2.8499   1.8553   0.00    0.0
2018/03/15 11:52:24.000   78.246499961   16.063333193   572.6548   5   9   1.7451   2.1800   8.3373  -0.4868   2.8499   1.8549   0.00    0.0
2018/03/15 11:52:25.000   78.246498457   16.063353802   572.1135   5   9   1.7450   2.1800   8.3380  -0.4870   2.8500   1.8546   0.00    0.0
2018/03/15 11:52:26.000   78.246498345   16.063384817   573.3055   5   9   1.7449   2.1800   8.3386  -0.4872   2.8501   1.8543   0.00    0.0
2018/03/15 11:52:27.000   78.246498856   16.063374000   573.9690   5   9   1.7448   2.1800   8.3393  -0.4874   2.8502   1.8540   0.00    0.0
2018/03/15 11:52:28.000   78.246498748   16.063334278   574.1232   5   9   1.7448   2.1800   8.3400  -0.4876   2.8502   1.8537   0.00    0.0
2018/03/15 11:52:29.000   78.246501028   16.063298316   573.3766   5   9   1.7447   2.1800   8.3406  -0.4878   2.8503   1.8533   0.00    0.0
2018/03/15 11:52:30.000   78.246499118   16.063355198   573.2503   5   9   1.7446   2.1800   8.3413  -0.4880   2.8504   1.8530   0.00    0.0
2018/03/15 11:52:31.000   78.246495364   16.063384337   573.5346   5   9   1.7445   2.1800   8.3419  -0.4882   2.8504   1.8527   0.00    0.0
2018/03/15 11:52:32.000   78.246495721   16.063377316   573.7255   5   9   1.7444   2.1800   8.3426  -0.4884   2.8505   1.8524   0.00    0.0
2018/03/15 11:52:33.000   78.246497687   16.063346185   573.4224   5   9   1.7444   2.1800   8.3432  -0.4886   2.8506   1.8521   0.00    0.0
2018/03/15 11:52:34.000   78.246499367   16.063350719   573.8715   5   9   1.7443   2.1800   8.3439  -0.4888   2.8506   1.8517   0.00    0.0
2018/03/15 11:52:35.000   78.246502400   16.063358444   574.9733   5   9   1.7442   2.1800   8.3445  -0.4890   2.8507   1.8514   0.00    0.0
2018/03/15 11:52:36.000   78.246500335   16.063351227   574.4439   5   9   1.7441   2.1800   8.3452  -0.4892   2.8508   1.8511   0.00    0.0
2018/03/15 11:52:37.000   78.246501344   16.063332037   572.5107   5   9   1.7441   2.1800   8.3458  -0.4894   2.8508   1.8508   0.00    0.0
2018/03/15 11:52:38.000   78.246504150   16.063338095   573.2154   5   9   1.7440   2.1800   8.3465  -0.4896   2.8509   1.8504   0.00    0.0
2018/03/15 11:52:39.000   78.246501166   16.063357521   573.5698   5   9   1.7439   2.1800   8.3471  -0.4898   2.8510   1.8501   0.00    0.0
2018/03/15 11:52:40.000   78.246501762   16.063384864   574.1334   5   9   1.7438   2.1800   8.3478  -0.4900   2.8510   1.8498   0.00    0.0
2018/03/15 11:52:41.000   78.246499735   16.063383683   572.6905   5   9   1.7437   2.1800   8.3484  -0.4902   2.8511   1.8495   0.00    0.0
2018/03/15 11:52:42.000   78.246498514   16.063367910   573.0101   5   9   1.7437   2.1800   8.3490  -0.4904   2.8512   1.8491   0.00    0.0
2018/03/15 11:52:43.000   78.246500200   16.063360117   572.9513   5   9   1.7436   2.1800   8.3497  -0.4906   2.8512   1.8488   0.00    0.0
2018/03/15 11:52:44.000   78.246504748   16.063334966   574.6185   5   9   1.7435   2.1799   8.3503  -0.4908   2.8513   1.8485   0.00    0.0
2018/03/15 11:52:45.000   78.246503722   16.063337254   574.5057   5   9   1.7434   2.1799   8.3509  -0.4910   2.8513   1.8481   0.00    0.0
2018/03/15 11:52:46.000   78.246501309   16.063364524   572.9769   5   9   1.7434   2.1799   8.3516  -0.4912   2.8514   1.8478   0.00    0.0
2018/03/15 11:52:47.000   78.246501845   16.063350922   571.7687   5   9   1.7433   2.1799   8.3522  -0.4914   2.8515   1.8475   0.00    0.0
2018/03/15 11:52:48.000   78.246501414   16.063354860   572.3828   5   9   1.7432   2.1799   8.3528  -0.4916   2.8515   1.8472   0.00    0.0
2018/03/15 11:52:49.000   78.246502501   16.063337891   573.1571   5   9   1.7431   2.1799   8.3535  -0.4918   2.8516   1.8468   0.00    0.0
2018/03/15 11:52:50.000   78.246501568   16.063348894   573.6576   5   9   1.7430   2.1799   8.3541  -0.4920   2.8516   1.8465   0.00    0.0
2018/03/15 11:52:51.000   78.246498432   16.063343859   571.7717   5   9   1.7430   2.1799   8.3547  -0.4922   2.8517   1.8462   0.00    0.0
2018/03/15 11:52:52.000   78.246500813   16.063342521   571.8810   5   9   1.7429   2.1799   8.3553  -0.4924   2.8517   1.8458   0.00    0.0
2018/03/15 11:52:53.000   78.246505718   16.063341661   573.2095   5   9   1.7428   2.1799   8.3559  -0.4926   2.8518   1.8455   0.00    0.0
2018/03/15 11:52:54.000   78.246504458   16.063366679   574.9178   5   9   1.7427   2.1799   8.3565  -0.4928   2.8518   1.8452   0.00    0.0
2018/03/15 11:52:55.000   78.246500336   16.063382146   574.4398   5   9   1.7427   2.1799   8.3572  -0.4930   2.8519   1.8448   0.00    0.0
2018/03/15 11:52:56.000   78.246500525   16.063369161   573.1348   5   9   1.7426   2.1799   8.3578  -0.4932   2.8519   1.8445   0.00    0.0
2018/03/15 11:52:57.000   78.246500452   16.063353429   572.5408   5   9   1.7425   2.1799   8.3584  -0.4934   2.8520   1.8442   0.00    0.0
2018/03/15 11:52:58.000   78.246503992   16.063364244   574.5566   5   9   1.7424   2.1799   8.3590  -0.4936   2.8520   1.8438   0.00    0.0
2018/03/15 11:52:59.000   78.246507147   16.063358646   573.9113   5   9   1.7423   2.1799   8.3596  -0.4938   2.8521   1.8435   0.00    0.0
2018/03/15 11:53:00.000   78.246504649   16.063367093   574.0949   5   9   1.7423   2.1799   8.3602  -0.4940   2.8521   1.8432   0.00    0.0
2018/03/15 11:53:01.000   78.246501276   16.063359439   575.9429   5   9   1.7422   2.1799   8.3608  -0.4942   2.8522   1.8428   0.00    0.0
2018/03/15 11:53:02.000   78.246502231   16.063358082   573.9954   5   9   1.7421   2.1799   8.3614  -0.4944   2.8522   1.8425   0.00    0.0
2018/03/15 11:53:03.000   78.246500275   16.063357289   574.7643   5   9   1.7420   2.1799   8.3620  -0.4946   2.8523   1.8422   0.00    0.0
2018/03/15 11:53:04.000   78.246504389   16.063358904   573.4765   5   9   1.7420   2.1798   8.3626  -0.4948   2.8523   1.8418   0.00    0.0
2018/03/15 11:53:05.000   78.246499571   16.063362532   574.1041   5   9   1.7419   2.1798   8.3632  -0.4950   2.8523   1.8415   0.00    0.0
2018/03/15 11:53:06.000   78.246499440   16.063373180   573.4726   5   9   1.7418   2.1798   8.3638  -0.4952   2.8524   1.8411   0.00    0.0
2018/03/15 11:53:07.000   78.246501794   16.063368570   573.6584   5   9   1.7417   2.1798   8.3644  -0.4954   2.8524   1.8408   0.00    0.0
2018/03/15 11:53:08.000   78.246505127   16.063346170   574.3534   5   9   1.7416   2.1798   8.3650  -0.4957   2.8525   1.8405   0.00    0.0
2018/03/15 11:53:09.000   78.246501456   16.063339723   574.1560   5   9   1.7416   2.1798   8.3655  -0.4959   2.8525   1.8401   0.00    0.0
2018/03/15 11:53:10.000   78.246499059   16.063341683   573.4498   5   9   1.7415   2.1798   8.3661  -0.4961   2.8526   1.8398   0.00    0.0
2018/03/15 11:53:11.000   78.246493523   16.063385538   572.9189   5   9   1.7414   2.1798   8.3667  -0.4963   2.8526   1.8394   0.00    0.0
2018/03/15 11:53:12.000   78.246493934   16.063384762   572.7805   5   9   1.7413   2.1798   8.3673  -0.4965   2.8526   1.8391   0.00    0.0
2018/03/15 11:53:13.000   78.246500876   16.063370030   571.7676   5   9   1.7413   2.1798   8.3679  -0.4967   2.8527   1.8388   0.00    0.0
2018/03/15 11:53:14.000   78.246506379   16.063331065   574.0787   5   9   1.7412   2.1798   8.3685  -0.4969   2.8527   1.8384   0.00    0.0
2018/03/15 11:53:15.000   78.246501480   16.063333134   573.9561   5   9   1.7411   2.1798   8.3690  -0.4971   2.8527   1.8381   0.00    0.0
2018/03/15 11:53:16.000   78.246503228   16.063356720   572.5528   5   9   1.7410   2.1798   8.3696  -0.4973   2.8528   1.8377   0.00    0.0
2018/03/15 11:53:17.000   78.246503593   16.063370722   572.8776   5   9   1.7410   2.1798   8.3702  -0.4975   2.8528   1.8374   0.00    0.0
2018/03/15 11:53:18.000   78.246502015   16.063359783   574.2022   5   9   1.7409   2.1797   8.3707  -0.4977   2.8528   1.8370   0.00    0.0
2018/03/15 11:53:19.000   78.246506462   16.063330763   574.8519   5   9   1.7408   2.1797   8.3713  -0.4979   2.8529   1.8367   0.00    0.0
2018/03/15 11:53:20.000   78.246506714   16.063354817   574.3230   5   9   1.7407   2.1797   8.3719  -0.4981   2.8529   1.8364   0.00    0.0
2018/03/15 11:53:21.000   78.246503149   16.063386441   573.4048   5   9   1.7407   2.1797   8.3724  -0.4983   2.8529   1.8360   0.00    0.0
2018/03/15 11:53:22.000   78.246497424   16.063400188   572.7385   5   9   1.7406   2.1797   8.3730  -0.4985   2.8530   1.8357   0.00    0.0
2018/03/15 11:53:23.000   78.246500135   16.063381582   574.1680   5   9   1.7405   2.1797   8.3736  -0.4987   2.8530   1.8353   0.00    0.0
2018/03/15 11:53:24.000   78.246496567   16.063373601   576.4973   5   9   1.7404   2.1797   8.3741  -0.4990   2.8530   1.8350   0.00    0.0
2018/03/15 11:53:25.000   78.246499204   16.063336791   576.3307   5   9   1.7403   2.1797   8.3747  -0.4992   2.8530   1.8346   0.00    0.0
2018/03/15 11:53:26.000   78.246505680   16.063312131   574.7612   5   9   1.7403   2.1797   8.3752  -0.4994   2.8531   1.8343   0.00    0.0
2018/03/15 11:53:27.000   78.246505487   16.063353273   573.8517   5   9   1.7402   2.1797   8.3758  -0.4996   2.8531   1.8339   0.00    0.0
2018/03/15 11:53:28.000   78.246503221   16.063382025   573.8904   5   9   1.7401   2.1797   8.3763  -0.4998   2.8531   1.8336   0.00    0.0
2018/03/15 11:53:29.000   78.246499447   16.063380459   573.5588   5   9   1.7400   2.1797   8.3769  -0.5000   2.8531   1.8332   0.00    0.0
2018/03/15 11:53:30.000   78.246500196   16.063342646   573.8402   5   9   1.7400   2.1796   8.3774  -0.5002   2.8532   1.8329   0.00    0.0
2018/03/15 11:53:31.000   78.246500398   16.063333198   574.5014   5   9   1.7399   2.1796   8.3780  -0.5004   2.8532   1.8325   0.00    0.0
2018/03/15 11:53:32.000   78.246504617   16.063341410   573.3412   5   9   1.7398   2.1796   8.3785  -0.5006   2.8532   1.8322   0.00    0.0
2018/03/15 11:53:33.000   78.246501175   16.063366183   572.8704   5   9   1.7397   2.1796   8.3791  -0.5008   2.8532   1.8318   0.00    0.0
2018/03/15 11:53:34.000   78.246497310   16.063369198   572.4947   5   9   1.7397   2.1796   8.3796  -0.5010   2.8532   1.8315   0.00    0.0
2018/03/15 11:53:35.000   78.246493773   16.063359947   571.9567   5   9   1.7396   2.1796   8.3801  -0.5012   2.8533   1.8311   0.00    0.0
2018/03/15 11:53:36.000   78.246497393   16.063370260   574.3015   5   9   1.7395   2.1796   8.3807  -0.5015   2.8533   1.8308   0.00    0.0
2018/03/15 11:53:37.000   78.246503982   16.063356204   574.5862   5   9   1.7394   2.1796   8.3812  -0.5017   2.8533   1.8304   0.00    0.0
2018/03/15 11:53:38.000   78.246502574   16.063363912   572.5283   5   9   1.7394   2.1796   8.3817  -0.5019   2.8533   1.8301   0.00    0.0
2018/03/15 11:53:39.000   78.246496527   16.063372259   572.4800   5   9   1.7393   2.1796   8.3823  -0.5021   2.8533   1.8297   0.00    0.0
2018/03/15 11:53:40.000   78.246495117   16.063371165   572.9126   5   9   1.7392   2.1795   8.3828  -0.5023   2.8533   1.8294   0.00    0.0
2018/03/15 11:53:41.000   78.246496845   16.063381089   574.2969   5   9   1.7391   2.1795   8.3833  -0.5025   2.8533   1.8290   0.00    0.0
2018/03/15 11:53:42.000   78.246502797   16.063369610   574.4465   5   9   1.7391   2.1795   8.3839  -0.5027   2.8534   1.8287   0.00    0.0
2018/03/15 11:53:43.000   78.246496807   16.063366132   574.6306   5   9   1.7390   2.1795   8.3844  -0.5029   2.8534   1.8283   0.00    0.0
2018/03/15 11:53:44.000   78.246499116   16.063353760   574.8693   5   9   1.7389   2.1795   8.3849  -0.5031   2.8534   1.8280   0.00    0.0
2018/03/15 11:53:45.000   78.246498756   16.063378476   574.5093   5   9   1.7388   2.1795   8.3854  -0.5034   2.8534   1.8276   0.00    0.0
2018/03/15 11:53:46.000   78.246500357   16.063365137   574.0026   5   9   1.7388   2.1795   8.3859  -0.5036   2.8534   1.8272   0.00    0.0
2018/03/15 11:53:47.000   78.246501129   16.063359742   573.9064   5   9   1.7387   2.1795   8.3864  -0.5038   2.8534   1.8269   0.00    0.0
2018/03/15 11:53:48.000   78.246498390   16.063368640   573.9438   5   9   1.7386   2.1795   8.3870  -0.5040   2.8534   1.8265   0.00    0.0
2018/03/15 11:53:49.000   78.246494678   16.063381833   575.3824   5   9   1.7385   2.1794   8.3875  -0.5042   2.8534   1.8262   0.00    0.0
2018/03/15 11:53:50.000   78.246497570   16.063389239   576.6624   5   9   1.7385   2.1794   8.3880  -0.5044   2.8534   1.8258   0.00    0.0
2018/03/15 11:53:51.000   78.246507594   16.063340255   575.0750   5   9   1.7384   2.1794   8.3885  -0.5046   2.8534   1.8254   0.00    0.0
2018/03/15 11:53:52.000   78.246510850   16.063320719   573.4986   5   9   1.7383   2.1794   8.3890  -0.5048   2.8534   1.8251   0.00    0.0
2018/03/15 11:53:53.000   78.246500747   16.063366014   573.8417   5   9   1.7382   2.1794   8.3895  -0.5050   2.8534   1.8247   0.00    0.0
2018/03/15 11:53:54.000   78.246495261   16.063387470   573.2143   5   9   1.7382   2.1794   8.3900  -0.5053   2.8534   1.8244   0.00    0.0
2018/03/15 11:53:55.000   78.246497339   16.063373778   572.5278   5   9   1.7381   2.1794   8.3905  -0.5055   2.8535   1.8240   0.00    0.0
2018/03/15 11:53:56.000   78.246503459   16.063351372   573.5374   5   9   1.7380   2.1794   8.3910  -0.5057   2.8535   1.8236   0.00    0.0
2018/03/15 11:53:57.000   78.246503094   16.063349917   573.7976   5   9   1.7379   2.1793   8.3915  -0.5059   2.8535   1.8233   0.00    0.0
2018/03/15 11:53:58.000   78.246498749   16.063368519   573.7765   5   9   1.7379   2.1793   8.3920  -0.5061   2.8535   1.8229   0.00    0.0
2018/03/15 11:53:59.000   78.246498876   16.063386349   575.0795   5   9   1.7378   2.1793   8.3925  -0.5063   2.8534   1.8226   0.00    0.0
2018/03/15 11:54:00.000   78.246498080   16.063372142   573.6221   5   9   1.7377   2.1793   8.3930  -0.5065   2.8534   1.8222   0.00    0.0
2018/03/15 11:54:01.000   78.246496434   16.063350547   573.1733   5   9   1.7376   2.1793   8.3934  -0.5067   2.8534   1.8218   0.00    0.0
2018/03/15 11:54:02.000   78.246498851   16.063348083   574.0242   5   9   1.7376   2.1793   8.3939  -0.5070   2.8534   1.8215   0.00    0.0
2018/03/15 11:54:03.000   78.246493927   16.063345200   574.8214   5   8   1.9600   2.2489   9.4605  -0.8723   3.2504  -0.8006   0.00    0.0
2018/03/15 11:54:04.000   78.246496921   16.063322367   574.8675   5   8   1.9599   2.2491   9.4632  -0.8728   3.2512  -0.8042   0.00    0.0
2018/03/15 11:54:05.000   78.246495571   16.063334129   573.8950   5   8   1.9599   2.2492   9.4658  -0.8732   3.2520  -0.8079   0.00    0.0
2018/03/15 11:54:06.000   78.246492214   16.063360926   575.2504   5   8   1.9599   2.2493   9.4684  -0.8737   3.2528  -0.8115   0.00    0.0
2018/03/15 11:54:07.000   78.246489523   16.063361486   575.5724   5   8   1.9598   2.2495   9.4711  -0.8741   3.2536  -0.8151   0.00    0.0
2018/03/15 11:54:08.000   78.246490113   16.063351805   574.7109   5   8   1.9598   2.2496   9.4737  -0.8746   3.2544  -0.8187   0.00    0.0
2018/03/15 11:54:09.000   78.246492906   16.063333933   575.4461   5   8   1.9597   2.2497   9.4763  -0.8750   3.2553  -0.8223   0.00    0.0
2018/03/15 11:54:10.000   78.246499301   16.063308562   575.4401   5   8   1.9597   2.2499   9.4790  -0.8755   3.2561  -0.8259   0.00    0.0
2018/03/15 11:54:11.000   78.246500176   16.063314998   574.4129   5   8   1.9597   2.2500   9.4816  -0.8760   3.2569  -0.8295   0.00    0.0
2018/03/15 11:54:12.000   78.246496092   16.063339266   573.6251   5   8   1.9596   2.2502   9.4842  -0.8764   3.2577  -0.8330   0.00    0.0
2018/03/15 11:54:13.000   78.246490617   16.063336758   573.4330   5   8   1.9596   2.2503   9.4869  -0.8769   3.2585  -0.8365   0.00    0.0
2018/03/15 11:54:14.000   78.246485352   16.063353298   573.1345   5   8   1.9595   2.2504   9.4895  -0.8773   3.2593  -0.8401   0.00    0.0
2018/03/15 11:54:15.000   78.246486871   16.063334384   575.0417   5   8   1.9595   2.2506   9.4921  -0.8778   3.2601  -0.8436   0.00    0.0
2018/03/15 11:54:16.000   78.246493400   16.063314430   573.7765   5   8   1.9594   2.2507   9.4948  -0.8782   3.2609  -0.8471   0.00    0.0
2018/03/15 11:54:17.000   78.246496943   16.063313327   570.7906   5   8   1.9594   2.2508   9.4974  -0.8787   3.2618  -0.8506   0.00    0.0
2018/03/15 11:54:18.000   78.246497118   16.063322210   571.8097   5   8   1.9594   2.2510   9.5000  -0.8792   3.2626  -0.8541   0.00    0.0
2018/03/15 11:54:19.000   78.246494701   16.063325977   574.7883   5   8   1.9593   2.2511   9.5027  -0.8796   3.2634  -0.8576   0.00    0.0
2018/03/15 11:54:20.000   78.246491897   16.063333599   576.3497   5   8   1.9593   2.2513   9.5053  -0.8801   3.2642  -0.8610   0.00    0.0
2018/03/15 11:54:21.000   78.246487636   16.063325081   576.4962   5   8   1.9592   2.2514   9.5080  -0.8805   3.2650  -0.8645   0.00    0.0
2018/03/15 11:54:22.000   78.246488437   16.063330207   574.4738   5   8   1.9592   2.2515   9.5106  -0.8810   3.2658  -0.8679   0.00    0.0
2018/03/15 11:54:23.000   78.246490074   16.063335358   573.5576   5   8   1.9592   2.2517   9.5132  -0.8814   3.2666  -0.8713   0.00    0.0
2018/03/15 11:54:24.000   78.246486452   16.063335953   574.5705   5   8   1.9591   2.2518   9.5159  -0.8819   3.2674  -0.8747   0.00    0.0
2018/03/15 11:54:25.000   78.246487750   16.063318194   574.6608   5   8   1.9591   2.2519   9.5185  -0.8823   3.2682  -0.8781   0.00    0.0
2018/03/15 11:54:26.000   78.246490333   16.063314106   575.4107   5   8   1.9591   2.2521   9.5212  -0.8828   3.2691  -0.8815   0.00    0.0
2018/03/15 11:54:27.000   78.246495554   16.063313320   573.7131   5   8   1.9590   2.2522   9.5238  -0.8833   3.2699  -0.8849   0.00    0.0
2018/03/15 11:54:28.000   78.246497777   16.063332720   574.0978   5   8   1.9590   2.2524   9.5264  -0.8837   3.2707  -0.8883   0.00    0.0
2018/03/15 11:54:29.000   78.246495945   16.063336276   575.7522   5   8   1.9589   2.2525   9.5291  -0.8842   3.2715  -0.8917   0.00    0.0
2018/03/15 11:54:30.000   78.246490977   16.063340577   574.5417   5   8   1.9589   2.2526   9.5317  -0.8846   3.2723  -0.8950   0.00    0.0
2018/03/15 11:54:31.000   78.246493365   16.063330162   576.3950   5   8   1.9589   2.2528   9.5344  -0.8851   3.2731  -0.8984   0.00    0.0
2018/03/15 11:54:32.000   78.246492015   16.063347649   574.0274   5   8   1.9588   2.2529   9.5370  -0.8855   3.2739  -0.9017   0.00    0.0
2018/03/15 11:54:33.000   78.246498052   16.063356141   572.6366   5   8   1.9588   2.2530   9.5396  -0.8860   3.2747  -0.9050   0.00    0.0
2018/03/15 11:54:34.000   78.246499376   16.063348816   573.6161   5   8   1.9588   2.2532   9.5423  -0.8865   3.2756  -0.9083   0.00    0.0
2018/03/15 11:54:35.000   78.246496610   16.063318214   572.8060   5   8   1.9587   2.2533   9.5449  -0.8869   3.2764  -0.9116   0.00    0.0
2018/03/15 11:54:36.000   78.246499550   16.063325146   573.8769   5   8   1.9587   2.2535   9.5476  -0.8874   3.2772  -0.9149   0.00    0.0
2018/03/15 11:54:37.000   78.246492256   16.063368961   573.6381   5   8   1.9587   2.2536   9.5502  -0.8878   3.2780  -0.9182   0.00    0.0
2018/03/15 11:54:38.000   78.246486229   16.063419200   574.0015   5   8   1.9586   2.2537   9.5529  -0.8883   3.2788  -0.9215   0.00    0.0
2018/03/15 11:54:39.000   78.246489489   16.063426285   574.4131   5   8   1.9586   2.2539   9.5555  -0.8887   3.2796  -0.9248   0.00    0.0
2018/03/15 11:54:40.000   78.246492640   16.063403898   575.3822   5   8   1.9585   2.2540   9.5582  -0.8892   3.2804  -0.9280   0.00    0.0
2018/03/15 11:54:41.000   78.246497671   16.063366304   575.9606   5   8   1.9585   2.2542   9.5608  -0.8897   3.2812  -0.9313   0.00    0.0
2018/03/15 11:54:42.000   78.246506818   16.063335837   575.8944   5   8   1.9585   2.2543   9.5634  -0.8901   3.2820  -0.9345   0.00    0.0
2018/03/15 11:54:43.000   78.246509247   16.063325014   574.0055   5   8   1.9584   2.2544   9.5661  -0.8906   3.2829  -0.9377   0.00    0.0
2018/03/15 11:54:44.000   78.246499988   16.063351571   573.9078   5   8   1.9584   2.2546   9.5687  -0.8910   3.2837  -0.9410   0.00    0.0
2018/03/15 11:54:45.000   78.246496381   16.063370700   574.9917   5   8   1.9584   2.2547   9.5714  -0.8915   3.2845  -0.9442   0.00    0.0
2018/03/15 11:54:46.000   78.246492830   16.063373760   576.2847   5   8   1.9583   2.2548   9.5740  -0.8919   3.2853  -0.9474   0.00    0.0
2018/03/15 11:54:47.000   78.246495043   16.063367456   576.2224   5   8   1.9583   2.2550   9.5767  -0.8924   3.2861  -0.9506   0.00    0.0
2018/03/15 11:54:48.000   78.246498991   16.063357525   575.0232   5   8   1.9583   2.2551   9.5793  -0.8929   3.2869  -0.9538   0.00    0.0
2018/03/15 11:54:49.000   78.246501493   16.063343263   575.1365   5   8   1.9582   2.2553   9.5820  -0.8933   3.2877  -0.9569   0.00    0.0
2018/03/15 11:54:50.000   78.246500919   16.063341475   576.6139   5   8   1.9582   2.2554   9.5846  -0.8938   3.2885  -0.9601   0.00    0.0
2018/03/15 11:54:51.000   78.246496009   16.063339486   575.2237   5   8   1.9582   2.2555   9.5873  -0.8942   3.2893  -0.9633   0.00    0.0
2018/03/15 11:54:52.000   78.246496128   16.063360031   574.5323   5   8   1.9581   2.2557   9.5899  -0.8947   3.2902  -0.9664   0.00    0.0
2018/03/15 11:54:53.000   78.246494023   16.063354994   574.6540   5   8   1.9581   2.2558   9.5926  -0.8951   3.2910  -0.9696   0.00    0.0
2018/03/15 11:54:54.000   78.246495669   16.063369223   576.2455   5   8   1.9581   2.2560   9.5952  -0.8956   3.2918  -0.9727   0.00    0.0
2018/03/15 11:54:55.000   78.246494205   16.063394321   576.7837   5   8   1.9581   2.2561   9.5979  -0.8961   3.2926  -0.9759   0.00    0.0
2018/03/15 11:54:56.000   78.246492225   16.063406239   575.0184   5   8   1.9580   2.2562   9.6005  -0.8965   3.2934  -0.9790   0.00    0.0
2018/03/15 11:54:57.000   78.246492123   16.063388220   574.8682   5   8   1.9580   2.2564   9.6032  -0.8970   3.2942  -0.9821   0.00    0.0
2018/03/15 11:54:58.000   78.246498455   16.063340322   572.9082   5   8   1.9580   2.2565   9.6058  -0.8974   3.2950  -0.9852   0.00    0.0
2018/03/15 11:54:59.000   78.246506324   16.063309508   573.1357   5   8   1.9579   2.2567   9.6085  -0.8979   3.2958  -0.9883   0.00    0.0
2018/03/15 11:55:00.000   78.246502899   16.063331131   574.2332   5   8   1.9579   2.2568   9.6111  -0.8983   3.2967  -0.9914   0.00    0.0
2018/03/15 11:55:01.000   78.246493059   16.063374715   575.1458   5   8   1.9579   2.2569   9.6138  -0.8988   3.2975  -0.9945   0.00    0.0
2018/03/15 11:55:02.000   78.246492826   16.063379030   575.3699   5   8   1.9578   2.2571   9.6164  -0.8993   3.2983  -0.9976   0.00    0.0
2018/03/15 11:55:03.000   78.246496828   16.063337667   575.4661   5   8   1.9578   2.2572   9.6191  -0.8997   3.2991  -1.0007   0.00    0.0
2018/03/15 11:55:04.000   78.246500057   16.063322377   575.2215   5   8   1.9578   2.2573   9.6217  -0.9002   3.2999  -1.0037   0.00    0.0
2018/03/15 11:55:05.000   78.246498384   16.063343325   575.4133   5   8   1.9578   2.2575   9.6244  -0.9006   3.3007  -1.0068   0.00    0.0
2018/03/15 11:55:06.000   78.246495637   16.063351203   575.8527   5   8   1.9577   2.2576   9.6270  -0.9011   3.3015  -1.0098   0.00    0.0
2018/03/15 11:55:07.000   78.246495702   16.063342775   576.2519   5   8   1.9577   2.2578   9.6297  -0.9016   3.3023  -1.0129   0.00    0.0
2018/03/15 11:55:08.000   78.246501085   16.063334204   575.7546   5   8   1.9577   2.2579   9.6324  -0.9020   3.3031  -1.0159   0.00    0.0
2018/03/15 11:55:09.000   78.246499759   16.063332732   574.8857   5   8   1.9576   2.2580   9.6350  -0.9025   3.3040  -1.0189   0.00    0.0
2018/03/15 11:55:10.000   78.246492497   16.063347260   575.3328   5   8   1.9576   2.2582   9.6377  -0.9029   3.3048  -1.0220   0.00    0.0
2018/03/15 11:55:11.000   78.246487876   16.063351264   577.7354   5   8   1.9576   2.2583   9.6403  -0.9034   3.3056  -1.0250   0.00    0.0
2018/03/15 11:55:12.000   78.246492347   16.063351769   576.9995   5   8   1.9576   2.2585   9.6430  -0.9038   3.3064  -1.0280   0.00    0.0
2018/03/15 11:55:13.000   78.246492932   16.063349195   573.9246   5   8   1.9575   2.2586   9.6456  -0.9043   3.3072  -1.0310   0.00    0.0
2018/03/15 11:55:14.000   78.246502234   16.063369667   575.3951   5   8   1.9575   2.2587   9.6483  -0.9048   3.3080  -1.0340   0.00    0.0
2018/03/15 11:55:15.000   78.246497938   16.063358203   576.6429   5   8   1.9575   2.2589   9.6509  -0.9052   3.3088  -1.0370   0.00    0.0
2018/03/15 11:55:16.000   78.246497890   16.063345352   575.8667   5   8   1.9575   2.2590   9.6536  -0.9057   3.3096  -1.0400   0.00    0.0
2018/03/15 11:55:17.000   78.246502441   16.063350521   574.2667   5   8   1.9574   2.2592   9.6563  -0.9061   3.3104  -1.0430   0.00    0.0
2018/03/15 11:55:18.000   78.246503370   16.063372491   574.1177   5   8   1.9574   2.2593   9.6589  -0.9066   3.3112  -1.0459   0.00    0.0
2018/03/15 11:55:19.000   78.246496458   16.063396183   575.0489   5   8   1.9574   2.2594   9.6616  -0.9070   3.3121  -1.0489   0.00    0.0
2018/03/15 11:55:20.000   78.246495372   16.063359412   574.6548   5   8   1.9573   2.2596   9.6642  -0.9075   3.3129  -1.0519   0.00    0.0
2018/03/15 11:55:21.000   78.246494991   16.063332857   574.9485   5   8   1.9573   2.2597   9.6669  -0.9080   3.3137  -1.0548   0.00    0.0
2018/03/15 11:55:22.000   78.246499591   16.063352222   574.4462   5   8   1.9573   2.2598   9.6695  -0.9084   3.3145  -1.0578   0.00    0.0
2018/03/15 11:55:23.000   78.246500391   16.063358864   575.4387   5   8   1.9573   2.2600   9.6722  -0.9089   3.3153  -1.0607   0.00    0.0
2018/03/15 11:55:24.000   78.246495275   16.063365627   575.9183   5   8   1.9573   2.2601   9.6749  -0.9093   3.3161  -1.0636   0.00    0.0
2018/03/15 11:55:25.000   78.246496547   16.063341551   578.3257   5   8   1.9572   2.2603   9.6775  -0.9098   3.3169  -1.0666   0.00    0.0
2018/03/15 11:55:26.000   78.246503676   16.063310786   576.0746   5   8   1.9572   2.2604   9.6802  -0.9103   3.3177  -1.0695   0.00    0.0
2018/03/15 11:55:27.000   78.246502183   16.063356132   576.0278   5   8   1.9572   2.2605   9.6828  -0.9107   3.3185  -1.0724   0.00    0.0
2018/03/15 11:55:28.000   78.246493293   16.063392429   576.4395   5   8   1.9572   2.2607   9.6855  -0.9112   3.3193  -1.0753   0.00    0.0
2018/03/15 11:55:29.000   78.246491849   16.063387369   578.3232   5   8   1.9571   2.2608   9.6882  -0.9116   3.3202  -1.0782   0.00    0.0
2018/03/15 11:55:30.000   78.246492743   16.063347599   577.1077   5   8   1.9571   2.2610   9.6908  -0.9121   3.3210  -1.0811   0.00    0.0
2018/03/15 11:55:31.000   78.246502134   16.063313601   575.8257   5   8   1.9571   2.2611   9.6935  -0.9125   3.3218  -1.0840   0.00    0.0
2018/03/15 11:55:32.000   78.246503189   16.063331589   573.9489   5   8   1.9571   2.2612   9.6961  -0.9130   3.3226  -1.0869   0.00    0.0
2018/03/15 11:55:33.000   78.246493778   16.063379729   575.7651   5   8   1.9570   2.2614   9.6988  -0.9135   3.3234  -1.0898   0.00    0.0
2018/03/15 11:55:34.000   78.246491643   16.063389143   575.0493   5   8   1.9570   2.2615   9.7015  -0.9139   3.3242  -1.0927   0.00    0.0
2018/03/15 11:55:35.000   78.246493030   16.063373554   576.2441   5   8   1.9570   2.2617   9.7041  -0.9144   3.3250  -1.0956   0.00    0.0
2018/03/15 11:55:36.000   78.246499617   16.063359644   577.4338   5   8   1.9570   2.2618   9.7068  -0.9148   3.3258  -1.0984   0.00    0.0
2018/03/15 11:55:37.000   78.246507960   16.063343659   573.4027   5   8   1.9570   2.2619   9.7095  -0.9153   3.3266  -1.1013   0.00    0.0
2018/03/15 11:55:38.000   78.246508703   16.063343771   572.2720   5   8   1.9569   2.2621   9.7121  -0.9158   3.3274  -1.1041   0.00    0.0
2018/03/15 11:55:39.000   78.246505156   16.063362229   572.3957   5   8   1.9569   2.2622   9.7148  -0.9162   3.3283  -1.1070   0.00    0.0
2018/03/15 11:55:40.000   78.246495258   16.063375078   574.8738   5   8   1.9569   2.2624   9.7174  -0.9167   3.3291  -1.1098   0.00    0.0
2018/03/15 11:55:41.000   78.246491764   16.063359511   576.3721   5   8   1.9569   2.2625   9.7201  -0.9171   3.3299  -1.1127   0.00    0.0
2018/03/15 11:55:42.000   78.246497212   16.063326439   576.4111   5   8   1.9569   2.2626   9.7228  -0.9176   3.3307  -1.1155   0.00    0.0
2018/03/15 11:55:43.000   78.246504087   16.063341405   573.7570   5   8   1.9568   2.2628   9.7254  -0.9181   3.3315  -1.1183   0.00    0.0
2018/03/15 11:55:44.000   78.246499865   16.063360483   573.4112   5   8   1.9568   2.2629   9.7281  -0.9185   3.3323  -1.1212   0.00    0.0
2018/03/15 11:55:45.000   78.246489256   16.063380122   575.4857   5   8   1.9568   2.2631   9.7308  -0.9190   3.3331  -1.1240   0.00    0.0
2018/03/15 11:55:46.000   78.246486123   16.063383712   577.5853   5   8   1.9568   2.2632   9.7334  -0.9194   3.3339  -1.1268   0.00    0.0
2018/03/15 11:55:47.000   78.246494258   16.063354667   576.5752   5   8   1.9568   2.2633   9.7361  -0.9199   3.3347  -1.1296   0.00    0.0
2018/03/15 11:55:48.000   78.246505020   16.063324952   575.3072   5   8   1.9567   2.2635   9.7387  -0.9203   3.3355  -1.1324   0.00    0.0
2018/03/15 11:55:49.000   78.246513846   16.063294284   574.8790   5   8   1.9567   2.2636   9.7414  -0.9208   3.3363  -1.1352   0.00    0.0
2018/03/15 11:55:50.000   78.246496956   16.063360644   577.4366   5   8   1.9567   2.2637   9.7441  -0.9213   3.3372  -1.1380   0.00    0.0
2018/03/15 11:55:51.000   78.246487513   16.063394537   578.1060   5   8   1.9567   2.2639   9.7467  -0.9217   3.3380  -1.1408   0.00    0.0
2018/03/15 11:55:52.000   78.246488429   16.063389197   576.9275   5   8   1.9567   2.2640   9.7494  -0.9222   3.3388  -1.1436   0.00    0.0
2018/03/15 11:55:53.000   78.246491595   16.063361255   573.8811   5   8   1.9567   2.2642   9.7521  -0.9226   3.3396  -1.1464   0.00    0.0
2018/03/15 11:55:54.000   78.246504476   16.063320539   573.5481   5   8   1.9566   2.2643   9.7547  -0.9231   3.3404  -1.1492   0.00    0.0
2018/03/15 11:55:55.000   78.246500999   16.063316816   574.5664   5   8   1.9566   2.2644   9.7574  -0.9236   3.3412  -1.1519   0.00    0.0
2018/03/15 11:55:56.000   78.246496623   16.063363614   577.2252   5   8   1.9566   2.2646   9.7601  -0.9240   3.3420  -1.1547   0.00    0.0
2018/03/15 11:55:57.000   78.246499705   16.063385035   575.4125   5   8   1.9566   2.2647   9.7627  -0.9245   3.3428  -1.1575   0.00    0.0
2018/03/15 11:55:58.000   78.246502846   16.063392942   576.1751   5   8   1.9566   2.2649   9.7654  -0.9249   3.3436  -1.1602   0.00    0.0
2018/03/15 11:55:59.000   78.246502832   16.063368026   574.3239   5   8   1.9566   2.2650   9.7681  -0.9254   3.3444  -1.1630   0.00    0.0
2018/03/15 11:56:00.000   78.246500940   16.063341034   576.2808   5   8   1.9565   2.2651   9.7707  -0.9259   3.3452  -1.1657   0.00    0.0
2018/03/15 11:56:01.000   78.246493997   16.063338871   575.0462   5   8   1.9565   2.2653   9.7734  -0.9263   3.3460  -1.1685   0.00    0.0
2018/03/15 11:56:02.000   78.246495455   16.063373741   573.6955   5   8   1.9565   2.2654   9.7761  -0.9268   3.3468  -1.1712   0.00    0.0
2018/03/15 11:56:03.000   78.246493601   16.063369492   572.9926   5   8   1.9565   2.2656   9.7787  -0.9272   3.3477  -1.1739   0.00    0.0
2018/03/15 11:56:04.000   78.246494795   16.063357246   574.0915   5   8   1.9565   2.2657   9.7814  -0.9277   3.3485  -1.1767   0.00    0.0
2018/03/15 11:56:05.000   78.246502960   16.063327890   575.6915   5   8   1.9565   2.2658   9.7841  -0.9282   3.3493  -1.1794   0.00    0.0
2018/03/15 11:56:06.000   78.246504785   16.063318129   575.0023   5   8   1.9564   2.2660   9.7867  -0.9286   3.3501  -1.1821   0.00    0.0
2018/03/15 11:56:07.000   78.246490957   16.063394915   575.3623   5   8   1.9564   2.2661   9.7894  -0.9291   3.3509  -1.1848   0.00    0.0
2018/03/15 11:56:08.000   78.246490347   16.063418420   577.2654   5   8   1.9564   2.2663   9.7921  -0.9295   3.3517  -1.1875   0.00    0.0
2018/03/15 11:56:09.000   78.246486834   16.063415805   576.4815   5   8   1.9564   2.2664   9.7947  -0.9300   3.3525  -1.1902   0.00    0.0
2018/03/15 11:56:10.000   78.246495433   16.063374297   575.8633   5   8   1.9564   2.2665   9.7974  -0.9304   3.3533  -1.1930   0.00    0.0
2018/03/15 11:56:11.000   78.246509120   16.063319102   574.5520   5   8   1.9564   2.2667   9.8001  -0.9309   3.3541  -1.1957   0.00    0.0
2018/03/15 11:56:12.000   78.246507833   16.063311766   573.7147   5   8   1.9564   2.2668   9.8027  -0.9314   3.3549  -1.1984   0.00    0.0
2018/03/15 11:56:13.000   78.246491032   16.063397786   575.5347   5   8   1.9564   2.2670   9.8054  -0.9318   3.3557  -1.2010   0.00    0.0
2018/03/15 11:56:14.000   78.246491314   16.063412494   575.8643   5   8   1.9563   2.2671   9.8081  -0.9323   3.3565  -1.2037   0.00    0.0
2018/03/15 11:56:15.000   78.246489136   16.063406072   574.8213   5   8   1.9563   2.2672   9.8107  -0.9327   3.3573  -1.2064   0.00    0.0
2018/03/15 11:56:16.000   78.246496746   16.063365418   573.4769   5   8   1.9563   2.2674   9.8134  -0.9332   3.3581  -1.2091   0.00    0.0
2018/03/15 11:56:17.000   78.246509155   16.063323908   572.4715   5   8   1.9563   2.2675   9.8161  -0.9337   3.3590  -1.2118   0.00    0.0
2018/03/15 11:56:18.000   78.246502092   16.063335540   573.3328   5   8   1.9563   2.2677   9.8187  -0.9341   3.3598  -1.2144   0.00    0.0
2018/03/15 11:56:19.000   78.246495524   16.063367296   576.4853   5   8   1.9563   2.2678   9.8214  -0.9346   3.3606  -1.2171   0.00    0.0
2018/03/15 11:56:20.000   78.246493451   16.063383710   576.3132   5   8   1.9563   2.2679   9.8241  -0.9350   3.3614  -1.2198   0.00    0.0
2018/03/15 11:56:21.000   78.246496093   16.063383829   576.3902   5   8   1.9563   2.2681   9.8267  -0.9355   3.3622  -1.2224   0.00    0.0
2018/03/15 11:56:22.000   78.246496758   16.063383347   574.9088   5   8   1.9563   2.2682   9.8294  -0.9360   3.3630  -1.2251   0.00    0.0
2018/03/15 11:56:23.000   78.246496182   16.063362842   574.8079   5   8   1.9562   2.2684   9.8321  -0.9364   3.3638  -1.2277   0.00    0.0
2018/03/15 11:56:24.000   78.246495119   16.063327229   574.4665   5   8   1.9562   2.2685   9.8347  -0.9369   3.3646  -1.2304   0.00    0.0
2018/03/15 11:56:25.000   78.246501548   16.063312272   574.2158   5   8   1.9562   2.2686   9.8374  -0.9373   3.3654  -1.2330   0.00    0.0
2018/03/15 11:56:26.000   78.246500112   16.063335668   574.3223   5   8   1.9562   2.2688   9.8401  -0.9378   3.3662  -1.2357   0.00    0.0
2018/03/15 11:56:27.000   78.246500297   16.063372553   574.9557   5   8   1.9562   2.2689   9.8427  -0.9383   3.3670  -1.2383   0.00    0.0
2018/03/15 11:56:28.000   78.246497205   16.063374060   576.3440   5   8   1.9562   2.2691   9.8454  -0.9387   3.3678  -1.2409   0.00    0.0
2018/03/15 11:56:29.000   78.246492180   16.063357507   575.3052   5   8   1.9562   2.2692   9.8481  -0.9392   3.3686  -1.2436   0.00    0.0
2018/03/15 11:56:30.000   78.246492633   16.063331760   575.3973   5   8   1.9562   2.2693   9.8507  -0.9396   3.3694  -1.2462   0.00    0.0
2018/03/15 11:56:31.000   78.246497646   16.063327027   575.0988   5   8   1.9562   2.2695   9.8534  -0.9401   3.3702  -1.2488   0.00    0.0
2018/03/15 11:56:32.000   78.246498248   16.063357023   574.2505   5   8   1.9562   2.2696   9.8561  -0.9406   3.3710  -1.2514   0.00    0.0
2018/03/15 11:56:33.000   78.246495076   16.063384785   575.5324   5   8   1.9562   2.2698   9.8588  -0.9410   3.3718  -1.2540   0.00    0.0
2018/03/15 11:56:34.000   78.246494565   16.063386630   576.4108   5   8   1.9562   2.2699   9.8614  -0.9415   3.3726  -1.2567   0.00    0.0
2018/03/15 11:56:35.000   78.246497425   16.063371991   574.9573   5   8   1.9562   2.2700   9.8641  -0.9419   3.3734  -1.2593   0.00    0.0
2018/03/15 11:56:36.000   78.246505469   16.063328559   573.2403   5   8   1.9561   2.2702   9.8668  -0.9424   3.3742  -1.2619   0.00    0.0
2018/03/15 11:56:37.000   78.246503173   16.063363603   572.0132   5   8   1.9561   2.2703   9.8694  -0.9429   3.3750  -1.2645   0.00    0.0
2018/03/15 11:56:38.000   78.246494404   16.063386841   572.6152   5   8   1.9561   2.2705   9.8721  -0.9433   3.3758  -1.2671   0.00    0.0
2018/03/15 11:56:39.000   78.246491420   16.063377027   574.5467   5   8   1.9561   2.2706   9.8748  -0.9438   3.3766  -1.2696   0.00    0.0
2018/03/15 11:56:40.000   78.246492726   16.063343409   577.3146   5   8   1.9561   2.2707   9.8774  -0.9442   3.3774  -1.2722   0.00    0.0
2018/03/15 11:56:41.000   78.246508454   16.063296200   575.3203   5   8   1.9561   2.2709   9.8801  -0.9447   3.3783  -1.2748   0.00    0.0
2018/03/15 11:56:42.000   78.246503533   16.063354306   575.2742   5   8   1.9561   2.2710   9.8828  -0.9451   3.3791  -1.2774   0.00    0.0
2018/03/15 11:56:43.000   78.246491578   16.063406893   576.5127   5   8   1.9561   2.2711   9.8854  -0.9456   3.3799  -1.2800   0.00    0.0
2018/03/15 11:56:44.000   78.246486558   16.063391726   578.6420   5   8   1.9561   2.2713   9.8881  -0.9461   3.3807  -1.2825   0.00    0.0
2018/03/15 11:56:45.000   78.246486887   16.063370933   576.5957   5   8   1.9561   2.2714   9.8908  -0.9465   3.3815  -1.2851   0.00    0.0
2018/03/15 11:56:46.000   78.246500396   16.063330688   576.6199   5   8   1.9561   2.2716   9.8934  -0.9470   3.3823  -1.2877   0.00    0.0
2018/03/15 11:56:47.000   78.246500747   16.063328814   576.1820   5   8   1.9561   2.2717   9.8961  -0.9474   3.3831  -1.2903   0.00    0.0
2018/03/15 11:56:48.000   78.246495077   16.063357329   577.8859   5   8   1.9561   2.2718   9.8988  -0.9479   3.3839  -1.2928   0.00    0.0
2018/03/15 11:56:49.000   78.246489490   16.063358713   579.4662   5   8   1.9561   2.2720   9.9015  -0.9484   3.3847  -1.2954   0.00    0.0
2018/03/15 11:56:50.000   78.246490799   16.063365235   580.2294   5   8   1.9561   2.2721   9.9041  -0.9488   3.3855  -1.2979   0.00    0.0
2018/03/15 11:56:51.000   78.246496328   16.063359381   579.4480   5   8   1.9561   2.2723   9.9068  -0.9493   3.3863  -1.3005   0.00    0.0
2018/03/15 11:56:52.000   78.246495779   16.063354836   577.4441   5   8   1.9561   2.2724   9.9095  -0.9497   3.3871  -1.3030   0.00    0.0
2018/03/15 11:56:53.000   78.246496568   16.063338491   578.0223   5   8   1.9561   2.2725   9.9121  -0.9502   3.3879  -1.3056   0.00    0.0
2018/03/15 11:56:54.000   78.246497521   16.063350976   578.0857   5   8   1.9561   2.2727   9.9148  -0.9507   3.3887  -1.3081   0.00    0.0
2018/03/15 11:56:55.000   78.246498713   16.063358391   577.1510   5   8   1.9561   2.2728   9.9175  -0.9511   3.3895  -1.3107   0.00    0.0
2018/03/15 11:56:56.000   78.246499799   16.063376607   574.9279   5   8   1.9561   2.2730   9.9201  -0.9516   3.3903  -1.3132   0.00    0.0
