% program   : RTKPOST ver.2.4.2
% inp file  : Z:\home\linda\Documents\Spring18\GitHub_Unis\data\processed_data\4625074D.obs
% inp file  : Z:\home\linda\Documents\Spring18\GitHub_Unis\data\base_station_data\lyrs0740.18o
% inp file  : Z:\home\linda\Documents\Spring18\GitHub_Unis\data\processed_data\4625074D.nav
% obs start : 2018/03/15 11:50:00.0 GPST (week1992 388200.0s)
% obs end   : 2018/03/15 12:34:24.0 GPST (week1992 390864.0s)
% pos mode  : static
% freqs     : L1+L2
% solution  : forward
% elev mask : 15.0 deg
% dynamics  : on
% tidecorr  : off
% ionos opt : broadcast
% tropo opt : saastamoinen
% ephemeris : broadcast
% navi sys  : gps glonass galileo qzss sbas
% amb res   : fix and hold
% amb glo   : on
% val thres : 3.0
% antenna1  :                       ( 0.0000  0.0000  0.0000)
% antenna2  :                       ( 0.0000  0.0000  0.0000)
% ref pos   : 78.228825638   15.397310064   495.6816
%
% (lat/lon/height=WGS84/ellipsoidal,Q=1:fix,2:float,3:sbas,4:dgps,5:single,6:ppp,ns=# of satellites)
%  GPST                  latitude(deg) longitude(deg)  height(m)   Q  ns   sdn(m)   sde(m)   sdu(m)  sdne(m)  sdeu(m)  sdun(m) age(s)  ratio
2018/03/15 11:50:00.000   78.246496341   16.063358504   575.4641   2   9   0.4135   0.3920   1.5483  -0.1582   0.2356   0.3508   0.00    1.1
2018/03/15 11:50:01.000   78.246495753   16.063361901   575.4320   2   9   0.2944   0.2786   1.1021  -0.1129   0.1641   0.2501   0.00    1.0
2018/03/15 11:50:02.000   78.246494661   16.063364038   574.8125   2   9   0.2409   0.2279   0.9015  -0.0924   0.1333   0.2046   0.00    1.0
2018/03/15 11:50:03.000   78.246496184   16.063366379   574.8522   2   9   0.2088   0.1975   0.7811  -0.0802   0.1151   0.1772   0.00    1.0
2018/03/15 11:50:04.000   78.246498206   16.063362528   574.9839   2   9   0.1869   0.1767   0.6984  -0.0718   0.1028   0.1584   0.00    1.0
2018/03/15 11:50:05.000   78.246498934   16.063357743   575.1148   2   9   0.1707   0.1614   0.6371  -0.0656   0.0938   0.1444   0.00    1.0
2018/03/15 11:50:06.000   78.246497823   16.063355207   575.0269   2   9   0.1580   0.1494   0.5892  -0.0607   0.0867   0.1335   0.00    1.1
2018/03/15 11:50:07.000   78.246496970   16.063355680   575.2081   2   9   0.1478   0.1398   0.5504  -0.0568   0.0811   0.1246   0.00    1.0
2018/03/15 11:50:08.000   78.246496697   16.063355054   575.2406   2   9   0.1393   0.1318   0.5180  -0.0536   0.0764   0.1171   0.00    1.0
2018/03/15 11:50:09.000   78.246496747   16.063354238   575.1907   2   9   0.1322   0.1250   0.4905  -0.0508   0.0724   0.1108   0.00    1.0
2018/03/15 11:50:10.000   78.246496862   16.063352488   575.1627   2   9   0.1260   0.1192   0.4666  -0.0485   0.0690   0.1053   0.00    1.0
2018/03/15 11:50:11.000   78.246496963   16.063350948   575.1979   2   9   0.1206   0.1141   0.4457  -0.0464   0.0661   0.1005   0.00    1.0
2018/03/15 11:50:12.000   78.246497123   16.063350291   575.2539   2   9   0.1158   0.1097   0.4271  -0.0446   0.0634   0.0961   0.00    1.0
2018/03/15 11:50:13.000   78.246497211   16.063350055   575.2317   2   9   0.1116   0.1057   0.4104  -0.0429   0.0611   0.0922   0.00    1.0
2018/03/15 11:50:14.000   78.246497398   16.063350004   575.2532   2   9   0.1078   0.1021   0.3952  -0.0415   0.0590   0.0887   0.00    1.0
2018/03/15 11:50:15.000   78.246497520   16.063350336   575.2495   2   9   0.1043   0.0988   0.3814  -0.0402   0.0571   0.0855   0.00    1.0
2018/03/15 11:50:16.000   78.246497326   16.063350323   575.2499   2   9   0.1011   0.0958   0.3687  -0.0390   0.0553   0.0825   0.00    1.0
2018/03/15 11:50:17.000   78.246497365   16.063350108   575.2653   2   9   0.0982   0.0931   0.3570  -0.0379   0.0537   0.0798   0.00    1.0
2018/03/15 11:50:18.000   78.246497566   16.063348735   575.2324   2   9   0.0956   0.0906   0.3462  -0.0368   0.0522   0.0772   0.00    1.0
2018/03/15 11:50:19.000   78.246497665   16.063347940   575.2878   2   9   0.0931   0.0883   0.3360  -0.0359   0.0508   0.0748   0.00    1.1
2018/03/15 11:50:20.000   78.246497609   16.063348282   575.3076   2   9   0.0908   0.0862   0.3265  -0.0350   0.0496   0.0726   0.00    1.1
2018/03/15 11:50:21.000   78.246497394   16.063348880   575.2875   2   9   0.0887   0.0842   0.3176  -0.0342   0.0484   0.0704   0.00    1.0
2018/03/15 11:50:22.000   78.246497288   16.063349157   575.3001   2   9   0.0867   0.0823   0.3092  -0.0334   0.0473   0.0684   0.00    1.0
2018/03/15 11:50:23.000   78.246497160   16.063348795   575.3014   2   9   0.0848   0.0806   0.3013  -0.0327   0.0462   0.0665   0.00    1.0
2018/03/15 11:50:24.000   78.246497143   16.063348290   575.3284   2   9   0.0830   0.0789   0.2937  -0.0321   0.0452   0.0647   0.00    1.0
2018/03/15 11:50:25.000   78.246497217   16.063348325   575.3387   2   9   0.0813   0.0774   0.2866  -0.0314   0.0443   0.0630   0.00    1.0
2018/03/15 11:50:26.000   78.246497375   16.063348133   575.3574   2   9   0.0798   0.0759   0.2798  -0.0308   0.0434   0.0614   0.00    1.0
2018/03/15 11:50:27.000   78.246497513   16.063348082   575.3506   2   9   0.0783   0.0745   0.2733  -0.0303   0.0426   0.0598   0.00    1.0
2018/03/15 11:50:28.000   78.246497544   16.063348092   575.3310   2   9   0.0769   0.0732   0.2670  -0.0297   0.0418   0.0583   0.00    1.1
2018/03/15 11:50:29.000   78.246497513   16.063348558   575.3151   2   9   0.0755   0.0719   0.2611  -0.0292   0.0410   0.0568   0.00    1.1
2018/03/15 11:50:30.000   78.246497564   16.063348698   575.3221   2   9   0.0742   0.0708   0.2554  -0.0287   0.0403   0.0554   0.00    1.1
2018/03/15 11:50:31.000   78.246497790   16.063348576   575.3223   2   9   0.0730   0.0696   0.2499  -0.0283   0.0396   0.0541   0.00    1.1
2018/03/15 11:50:32.000   78.246497956   16.063348214   575.3072   2   9   0.0718   0.0685   0.2446  -0.0278   0.0389   0.0528   0.00    1.1
2018/03/15 11:50:33.000   78.246497935   16.063348875   575.2943   2   9   0.0707   0.0675   0.2395  -0.0274   0.0383   0.0515   0.00    1.2
2018/03/15 11:50:34.000   78.246497850   16.063349524   575.2470   2   9   0.0696   0.0665   0.2346  -0.0270   0.0377   0.0503   0.00    1.2
2018/03/15 11:50:35.000   78.246497791   16.063349721   575.2214   2   9   0.0686   0.0655   0.2299  -0.0266   0.0371   0.0491   0.00    1.2
2018/03/15 11:50:36.000   78.246497790   16.063349671   575.2128   2   9   0.0676   0.0646   0.2253  -0.0262   0.0365   0.0480   0.00    1.2
2018/03/15 11:50:37.000   78.246497913   16.063349847   575.1870   2   9   0.0666   0.0638   0.2209  -0.0259   0.0360   0.0469   0.00    1.2
2018/03/15 11:50:38.000   78.246497984   16.063350529   575.1509   2   9   0.0657   0.0629   0.2166  -0.0255   0.0354   0.0458   0.00    1.3
2018/03/15 11:50:39.000   78.246498048   16.063350851   575.0669   2   9   0.0648   0.0621   0.2124  -0.0252   0.0349   0.0448   0.00    1.3
2018/03/15 11:50:40.000   78.246498078   16.063350810   575.0120   2   9   0.0640   0.0613   0.2084  -0.0249   0.0344   0.0438   0.00    1.3
2018/03/15 11:50:41.000   78.246498158   16.063350984   574.9893   2   9   0.0631   0.0605   0.2045  -0.0245   0.0340   0.0428   0.00    1.2
2018/03/15 11:50:42.000   78.246498272   16.063351805   574.9475   2   9   0.0623   0.0598   0.2008  -0.0242   0.0335   0.0419   0.00    1.2
2018/03/15 11:50:43.000   78.246498330   16.063352295   574.8432   2   9   0.0616   0.0591   0.1971  -0.0240   0.0331   0.0409   0.00    1.2
2018/03/15 11:50:44.000   78.246498337   16.063352809   574.7730   2   9   0.0608   0.0584   0.1935  -0.0237   0.0326   0.0400   0.00    1.2
2018/03/15 11:50:45.000   78.246498367   16.063353079   574.7229   2   9   0.0601   0.0578   0.1901  -0.0234   0.0322   0.0391   0.00    1.2
2018/03/15 11:50:46.000   78.246498453   16.063353117   574.6910   2   9   0.0594   0.0571   0.1867  -0.0231   0.0318   0.0383   0.00    1.2
2018/03/15 11:50:47.000   78.246498598   16.063352829   574.6580   2   9   0.0587   0.0565   0.1834  -0.0229   0.0314   0.0375   0.00    1.2
2018/03/15 11:50:48.000   78.246498669   16.063352571   574.6152   2   9   0.0580   0.0559   0.1802  -0.0226   0.0310   0.0366   0.00    1.2
2018/03/15 11:50:49.000   78.246498657   16.063353057   574.5478   2   9   0.0574   0.0553   0.1771  -0.0224   0.0306   0.0358   0.00    1.2
2018/03/15 11:50:50.000   78.246498642   16.063353507   574.4914   2   9   0.0568   0.0547   0.1741  -0.0221   0.0303   0.0351   0.00    1.2
2018/03/15 11:50:51.000   78.246498643   16.063354128   574.4372   2   9   0.0562   0.0542   0.1712  -0.0219   0.0299   0.0343   0.00    1.2
2018/03/15 11:50:52.000   78.246498654   16.063354026   574.3782   2   9   0.0556   0.0536   0.1683  -0.0217   0.0296   0.0336   0.00    1.3
2018/03/15 11:50:53.000   78.246498696   16.063353723   574.3425   2   9   0.0550   0.0531   0.1655  -0.0215   0.0293   0.0328   0.00    1.3
2018/03/15 11:50:54.000   78.246498699   16.063353565   574.3015   2   9   0.0544   0.0526   0.1628  -0.0212   0.0289   0.0321   0.00    1.3
2018/03/15 11:50:55.000   78.246498623   16.063353694   574.2433   2   9   0.0539   0.0521   0.1601  -0.0210   0.0286   0.0314   0.00    1.3
2018/03/15 11:50:56.000   78.246498547   16.063353655   574.2145   2   9   0.0533   0.0516   0.1576  -0.0208   0.0283   0.0308   0.00    1.3
2018/03/15 11:50:57.000   78.246498477   16.063353306   574.1900   2   9   0.0528   0.0511   0.1550  -0.0206   0.0280   0.0301   0.00    1.2
2018/03/15 11:50:58.000   78.246498416   16.063352955   574.1812   2   9   0.0523   0.0507   0.1526  -0.0204   0.0277   0.0295   0.00    1.2
2018/03/15 11:50:59.000   78.246498373   16.063352871   574.1586   2   9   0.0518   0.0502   0.1502  -0.0202   0.0274   0.0288   0.00    1.2
2018/03/15 11:51:00.000   78.246498354   16.063352851   574.1341   2   9   0.0513   0.0498   0.1478  -0.0201   0.0271   0.0282   0.00    1.2
2018/03/15 11:51:01.000   78.246498230   16.063352644   574.1075   2   9   0.0508   0.0493   0.1455  -0.0199   0.0269   0.0276   0.00    1.2
2018/03/15 11:51:02.000   78.246498134   16.063352348   574.0841   2   9   0.0504   0.0489   0.1433  -0.0197   0.0266   0.0270   0.00    1.2
2018/03/15 11:51:03.000   78.246498018   16.063352168   574.0777   2   9   0.0499   0.0485   0.1411  -0.0195   0.0263   0.0264   0.00    1.2
2018/03/15 11:51:04.000   78.246497879   16.063352306   574.0698   2   9   0.0495   0.0481   0.1389  -0.0194   0.0261   0.0259   0.00    1.2
2018/03/15 11:51:05.000   78.246497764   16.063352098   574.0367   2   9   0.0490   0.0477   0.1369  -0.0192   0.0258   0.0253   0.00    1.2
2018/03/15 11:51:06.000   78.246497651   16.063351492   574.0281   2   9   0.0486   0.0473   0.1348  -0.0190   0.0256   0.0248   0.00    1.1
2018/03/15 11:51:07.000   78.246497560   16.063350924   574.0158   2   9   0.0482   0.0469   0.1328  -0.0189   0.0253   0.0242   0.00    1.1
2018/03/15 11:51:08.000   78.246497464   16.063350284   573.9921   2   9   0.0478   0.0466   0.1309  -0.0187   0.0251   0.0237   0.00    1.1
2018/03/15 11:51:09.000   78.246497353   16.063349887   573.9760   2   9   0.0474   0.0462   0.1289  -0.0185   0.0249   0.0232   0.00    1.0
2018/03/15 11:51:10.000   78.246497181   16.063349767   573.9689   2   9   0.0470   0.0459   0.1271  -0.0184   0.0247   0.0227   0.00    1.0
2018/03/15 11:51:11.000   78.246497042   16.063349926   573.9553   2   9   0.0466   0.0455   0.1253  -0.0182   0.0244   0.0222   0.00    1.0
2018/03/15 11:51:12.000   78.246496975   16.063349745   573.9262   2   9   0.0462   0.0452   0.1235  -0.0181   0.0242   0.0217   0.00    1.0
2018/03/15 11:51:13.000   78.246496950   16.063349303   573.9081   2   9   0.0458   0.0448   0.1217  -0.0180   0.0240   0.0212   0.00    1.0
2018/03/15 11:51:14.000   78.246496902   16.063349120   573.8976   2   9   0.0455   0.0445   0.1200  -0.0178   0.0238   0.0207   0.00    1.1
2018/03/15 11:51:15.000   78.246496860   16.063348904   573.8832   2   9   0.0451   0.0442   0.1183  -0.0177   0.0236   0.0203   0.00    1.1
2018/03/15 11:51:16.000   78.246496812   16.063348824   573.8650   2   9   0.0448   0.0439   0.1167  -0.0175   0.0234   0.0198   0.00    1.1
2018/03/15 11:51:17.000   78.246496795   16.063348986   573.8375   2   9   0.0444   0.0435   0.1151  -0.0174   0.0232   0.0194   0.00    1.1
2018/03/15 11:51:18.000   78.246496821   16.063349157   573.8211   2   9   0.0441   0.0432   0.1135  -0.0173   0.0230   0.0189   0.00    1.1
2018/03/15 11:51:19.000   78.246496842   16.063349243   573.8033   2   9   0.0437   0.0429   0.1120  -0.0171   0.0228   0.0185   0.00    1.1
2018/03/15 11:51:20.000   78.246496914   16.063349073   573.7845   2   9   0.0434   0.0426   0.1105  -0.0170   0.0226   0.0181   0.00    1.1
2018/03/15 11:51:21.000   78.246496940   16.063348972   573.7738   2   9   0.0431   0.0423   0.1090  -0.0169   0.0224   0.0177   0.00    1.1
2018/03/15 11:51:22.000   78.246496970   16.063348914   573.7604   2   9   0.0428   0.0421   0.1075  -0.0168   0.0223   0.0173   0.00    1.1
2018/03/15 11:51:23.000   78.246497007   16.063349031   573.7636   2   9   0.0424   0.0418   0.1061  -0.0166   0.0221   0.0169   0.00    1.1
2018/03/15 11:51:24.000   78.246497029   16.063349313   573.7585   2   9   0.0421   0.0415   0.1047  -0.0165   0.0219   0.0165   0.00    1.1
2018/03/15 11:51:25.000   78.246497058   16.063349418   573.7499   2   9   0.0418   0.0412   0.1034  -0.0164   0.0217   0.0161   0.00    1.2
2018/03/15 11:51:26.000   78.246497090   16.063349450   573.7550   2   9   0.0415   0.0409   0.1020  -0.0163   0.0216   0.0157   0.00    1.2
2018/03/15 11:51:27.000   78.246497121   16.063349211   573.7593   2   9   0.0412   0.0407   0.1007  -0.0162   0.0214   0.0153   0.00    1.2
2018/03/15 11:51:28.000   78.246497153   16.063349121   573.7617   2   9   0.0409   0.0404   0.0994  -0.0160   0.0212   0.0149   0.00    1.2
2018/03/15 11:51:29.000   78.246497217   16.063349045   573.7551   2   9   0.0407   0.0402   0.0982  -0.0159   0.0211   0.0146   0.00    1.2
2018/03/15 11:51:30.000   78.246497298   16.063349042   573.7583   2   9   0.0404   0.0399   0.0969  -0.0158   0.0209   0.0142   0.00    1.2
2018/03/15 11:51:31.000   78.246497346   16.063349032   573.7517   2   9   0.0401   0.0397   0.0957  -0.0157   0.0208   0.0138   0.00    1.2
2018/03/15 11:51:32.000   78.246497405   16.063349115   573.7362   2   9   0.0398   0.0394   0.0945  -0.0156   0.0206   0.0135   0.00    1.2
2018/03/15 11:51:33.000   78.246497484   16.063349246   573.7221   2   9   0.0396   0.0392   0.0934  -0.0155   0.0205   0.0131   0.00    1.2
2018/03/15 11:51:34.000   78.246497531   16.063349432   573.7168   2   9   0.0393   0.0389   0.0922  -0.0154   0.0203   0.0128   0.00    1.2
2018/03/15 11:51:35.000   78.246497580   16.063349591   573.7067   2   9   0.0390   0.0387   0.0911  -0.0153   0.0202   0.0125   0.00    1.2
2018/03/15 11:51:36.000   78.246497629   16.063349679   573.6916   2   9   0.0388   0.0385   0.0900  -0.0152   0.0200   0.0121   0.00    1.2
2018/03/15 11:51:37.000   78.246497683   16.063349740   573.6746   2   9   0.0385   0.0382   0.0889  -0.0151   0.0199   0.0118   0.00    1.2
2018/03/15 11:51:38.000   78.246497733   16.063349810   573.6547   2   9   0.0383   0.0380   0.0879  -0.0150   0.0197   0.0115   0.00    1.2
2018/03/15 11:51:39.000   78.246497783   16.063349981   573.6439   2   9   0.0380   0.0378   0.0868  -0.0149   0.0196   0.0111   0.00    1.2
2018/03/15 11:51:40.000   78.246497872   16.063350229   573.6243   2   9   0.0378   0.0376   0.0858  -0.0148   0.0195   0.0108   0.00    1.2
2018/03/15 11:51:41.000   78.246497957   16.063350609   573.6121   2   9   0.0375   0.0373   0.0848  -0.0147   0.0193   0.0105   0.00    1.2
2018/03/15 11:51:42.000   78.246498038   16.063350998   573.5945   2   9   0.0373   0.0371   0.0838  -0.0146   0.0192   0.0102   0.00    1.2
2018/03/15 11:51:43.000   78.246498097   16.063351450   573.5808   2   9   0.0370   0.0369   0.0829  -0.0145   0.0191   0.0099   0.00    1.2
2018/03/15 11:51:44.000   78.246498162   16.063351801   573.5588   2   9   0.0368   0.0367   0.0819  -0.0144   0.0190   0.0096   0.00    1.2
2018/03/15 11:51:45.000   78.246498221   16.063351966   573.5338   2   9   0.0366   0.0365   0.0810  -0.0143   0.0188   0.0092   0.00    1.2
2018/03/15 11:51:46.000   78.246498255   16.063352138   573.5161   2   9   0.0363   0.0363   0.0801  -0.0142   0.0187   0.0089   0.00    1.1
2018/03/15 11:51:47.000   78.246498276   16.063352355   573.5026   2   9   0.0361   0.0361   0.0792  -0.0141   0.0186   0.0086   0.00    1.1
2018/03/15 11:51:48.000   78.246498282   16.063352549   573.4902   2   9   0.0359   0.0359   0.0783  -0.0140   0.0185   0.0083   0.00    1.1
2018/03/15 11:51:49.000   78.246498292   16.063352450   573.4785   2   9   0.0357   0.0357   0.0774  -0.0139   0.0183   0.0080   0.00    1.1
2018/03/15 11:51:50.000   78.246498282   16.063352390   573.4704   2   9   0.0355   0.0355   0.0766  -0.0138   0.0182   0.0077   0.00    1.2
2018/03/15 11:51:51.000   78.246498259   16.063352377   573.4695   2   9   0.0352   0.0353   0.0757  -0.0138   0.0181   0.0074   0.00    1.2
2018/03/15 11:51:52.000   78.246498248   16.063352568   573.4653   2   9   0.0350   0.0351   0.0749  -0.0137   0.0180   0.0071   0.00    1.2
2018/03/15 11:51:53.000   78.246498211   16.063352757   573.4612   2   9   0.0348   0.0349   0.0741  -0.0136   0.0179   0.0068   0.00    1.2
2018/03/15 11:51:54.000   78.246498191   16.063352843   573.4619   2   9   0.0346   0.0348   0.0733  -0.0135   0.0178   0.0065   0.00    1.2
2018/03/15 11:51:55.000   78.246498155   16.063352829   573.4778   2   9   0.0344   0.0346   0.0725  -0.0134   0.0177   0.0062   0.00    1.2
2018/03/15 11:51:56.000   78.246498118   16.063352818   573.4926   2   9   0.0342   0.0344   0.0718  -0.0133   0.0176   0.0059   0.00    1.2
2018/03/15 11:51:57.000   78.246498070   16.063352806   573.5153   2   9   0.0340   0.0342   0.0710  -0.0133   0.0174   0.0055   0.00    1.2
2018/03/15 11:51:58.000   78.246498037   16.063352709   573.5352   2   9   0.0338   0.0340   0.0703  -0.0132   0.0173   0.0052   0.00    1.2
2018/03/15 11:51:59.000   78.246498001   16.063352410   573.5618   2   9   0.0336   0.0339   0.0695  -0.0131   0.0172   0.0049   0.00    1.2
2018/03/15 11:52:00.000   78.246497911   16.063352245   573.5894   2   9   0.0334   0.0337   0.0688  -0.0130   0.0171   0.0045   0.00    1.2
2018/03/15 11:52:01.000   78.246497815   16.063351891   573.6192   2   9   0.0332   0.0335   0.0681  -0.0129   0.0170   0.0041   0.00    1.2
2018/03/15 11:52:02.000   78.246497721   16.063351322   573.6602   2   9   0.0330   0.0333   0.0674  -0.0129   0.0169   0.0038   0.00    1.2
2018/03/15 11:52:03.000   78.246497598   16.063350732   573.6989   2   9   0.0328   0.0332   0.0667  -0.0128   0.0168   0.0034   0.00    1.2
2018/03/15 11:52:04.000   78.246497500   16.063349999   573.7248   2   9   0.0327   0.0330   0.0660  -0.0127   0.0167   0.0029   0.00    1.2
2018/03/15 11:52:05.000   78.246497403   16.063349307   573.7577   2   9   0.0325   0.0328   0.0654  -0.0126   0.0166   0.0024   0.00    1.3
2018/03/15 11:52:06.000   78.246497299   16.063348713   573.7937   2   9   0.0323   0.0327   0.0647  -0.0126   0.0165   0.0018   0.00    1.3
2018/03/15 11:52:07.000   78.246497192   16.063348392   573.8246   2   9   0.0321   0.0325   0.0641  -0.0125   0.0164   0.0008   0.00    1.3
2018/03/15 11:52:08.000   78.246497129   16.063348242   573.8499   2   9   0.0319   0.0324   0.0634  -0.0124   0.0163  -0.0013   0.00    1.2
2018/03/15 11:52:09.000   78.246497071   16.063347916   573.8752   2   9   0.0318   0.0322   0.0628  -0.0123   0.0162  -0.0020   0.00    1.2
2018/03/15 11:52:10.000   78.246497007   16.063347437   573.8994   2   9   0.0316   0.0320   0.0622  -0.0123   0.0162  -0.0025   0.00    1.2
2018/03/15 11:52:11.000   78.246496914   16.063347117   573.9199   2   9   0.0314   0.0319   0.0616  -0.0122   0.0161  -0.0029   0.00    1.2
2018/03/15 11:52:12.000   78.246496857   16.063346987   573.9493   2   9   0.0312   0.0317   0.0610  -0.0121   0.0160  -0.0032   0.00    1.2
2018/03/15 11:52:13.000   78.246496819   16.063346794   573.9808   2   9   0.0311   0.0316   0.0604  -0.0121   0.0159  -0.0035   0.00    1.2
2018/03/15 11:52:14.000   78.246496795   16.063346500   574.0055   2   9   0.0309   0.0314   0.0599  -0.0120   0.0158  -0.0038   0.00    1.2
2018/03/15 11:52:15.000   78.246496802   16.063346260   574.0261   2   9   0.0307   0.0313   0.0593  -0.0119   0.0157  -0.0040   0.00    1.2
2018/03/15 11:52:16.000   78.246496798   16.063346001   574.0556   2   9   0.0306   0.0311   0.0587  -0.0118   0.0156  -0.0042   0.00    1.2
2018/03/15 11:52:17.000   78.246496785   16.063345741   574.0895   2   9   0.0304   0.0310   0.0582  -0.0118   0.0155  -0.0044   0.00    1.2
2018/03/15 11:52:18.000   78.246496784   16.063345464   574.1232   2   9   0.0302   0.0308   0.0576  -0.0117   0.0155  -0.0046   0.00    1.2
2018/03/15 11:52:19.000   78.246496752   16.063345088   574.1578   2   9   0.0301   0.0307   0.0571  -0.0116   0.0154  -0.0047   0.00    1.2
2018/03/15 11:52:20.000   78.246496714   16.063344774   574.1916   2   9   0.0299   0.0305   0.0566  -0.0116   0.0153  -0.0049   0.00    1.1
2018/03/15 11:52:21.000   78.246496673   16.063344573   574.2281   2   9   0.0298   0.0304   0.0561  -0.0115   0.0152  -0.0050   0.00    1.1
2018/03/15 11:52:22.000   78.246496651   16.063344328   574.2587   2   9   0.0296   0.0303   0.0556  -0.0114   0.0151  -0.0052   0.00    1.1
2018/03/15 11:52:23.000   78.246496638   16.063344112   574.2956   2   9   0.0295   0.0301   0.0551  -0.0114   0.0150  -0.0053   0.00    1.1
2018/03/15 11:52:24.000   78.246496624   16.063343800   574.3303   2   9   0.0293   0.0300   0.0546  -0.0113   0.0150  -0.0054   0.00    1.1
2018/03/15 11:52:25.000   78.246496592   16.063343535   574.3625   2   9   0.0291   0.0298   0.0541  -0.0113   0.0149  -0.0055   0.00    1.1
2018/03/15 11:52:26.000   78.246496540   16.063343437   574.3896   2   9   0.0290   0.0297   0.0536  -0.0112   0.0148  -0.0056   0.00    1.1
2018/03/15 11:52:27.000   78.246496500   16.063343324   574.4090   2   9   0.0288   0.0296   0.0531  -0.0111   0.0147  -0.0057   0.00    1.1
2018/03/15 11:52:28.000   78.246496451   16.063343014   574.4305   2   9   0.0287   0.0294   0.0527  -0.0111   0.0147  -0.0058   0.00    1.1
2018/03/15 11:52:29.000   78.246496392   16.063342492   574.4528   2   9   0.0286   0.0293   0.0522  -0.0110   0.0146  -0.0059   0.00    1.1
2018/03/15 11:52:30.000   78.246496335   16.063342230   574.4764   2   9   0.0284   0.0292   0.0517  -0.0109   0.0145  -0.0060   0.00    1.1
2018/03/15 11:52:31.000   78.246496269   16.063342118   574.4955   2   9   0.0283   0.0291   0.0513  -0.0109   0.0144  -0.0060   0.00    1.1
2018/03/15 11:52:32.000   78.246496212   16.063342133   574.5098   2   9   0.0281   0.0289   0.0508  -0.0108   0.0144  -0.0061   0.00    1.1
2018/03/15 11:52:33.000   78.246496159   16.063342013   574.5236   2   9   0.0280   0.0288   0.0504  -0.0108   0.0143  -0.0062   0.00    1.0
2018/03/15 11:52:34.000   78.246496088   16.063341879   574.5353   2   9   0.0278   0.0287   0.0500  -0.0107   0.0142  -0.0063   0.00    1.0
2018/03/15 11:52:35.000   78.246496009   16.063341828   574.5502   2   9   0.0277   0.0285   0.0496  -0.0106   0.0141  -0.0063   0.00    1.0
2018/03/15 11:52:36.000   78.246495907   16.063341695   574.5596   2   9   0.0276   0.0284   0.0491  -0.0106   0.0141  -0.0064   0.00    1.0
2018/03/15 11:52:37.000   78.246495813   16.063341497   574.5682   2   9   0.0274   0.0283   0.0487  -0.0105   0.0140  -0.0064   0.00    1.0
2018/03/15 11:52:38.000   78.246495733   16.063341353   574.5808   2   9   0.0273   0.0282   0.0483  -0.0105   0.0139  -0.0065   0.00    1.0
2018/03/15 11:52:39.000   78.246495663   16.063341263   574.5922   2   9   0.0272   0.0280   0.0479  -0.0104   0.0139  -0.0065   0.00    1.0
2018/03/15 11:52:40.000   78.246495613   16.063341263   574.6008   2   9   0.0270   0.0279   0.0475  -0.0104   0.0138  -0.0066   0.00    1.0
2018/03/15 11:52:41.000   78.246495562   16.063341334   574.6086   2   9   0.0269   0.0278   0.0471  -0.0103   0.0137  -0.0066   0.00    1.0
2018/03/15 11:52:42.000   78.246495535   16.063341325   574.6203   2   9   0.0268   0.0277   0.0468  -0.0103   0.0137  -0.0066   0.00    1.0
2018/03/15 11:52:43.000   78.246495523   16.063341285   574.6317   2   9   0.0266   0.0276   0.0464  -0.0102   0.0136  -0.0067   0.00    1.0
2018/03/15 11:52:44.000   78.246495519   16.063341244   574.6443   2   9   0.0265   0.0275   0.0460  -0.0101   0.0135  -0.0067   0.00    1.0
2018/03/15 11:52:45.000   78.246495520   16.063341100   574.6496   2   9   0.0264   0.0273   0.0456  -0.0101   0.0135  -0.0068   0.00    1.0
2018/03/15 11:52:46.000   78.246495533   16.063341134   574.6571   2   9   0.0262   0.0272   0.0453  -0.0100   0.0134  -0.0068   0.00    1.0
2018/03/15 11:52:47.000   78.246495553   16.063341225   574.6648   2   9   0.0261   0.0271   0.0449  -0.0100   0.0133  -0.0068   0.00    1.0
2018/03/15 11:52:48.000   78.246495577   16.063341299   574.6728   2   9   0.0260   0.0270   0.0446  -0.0099   0.0133  -0.0068   0.00    1.0
2018/03/15 11:52:49.000   78.246495607   16.063341352   574.6784   2   9   0.0259   0.0269   0.0442  -0.0099   0.0132  -0.0069   0.00    1.0
2018/03/15 11:52:50.000   78.246495653   16.063341396   574.6821   2   9   0.0257   0.0268   0.0439  -0.0098   0.0131  -0.0069   0.00    1.0
2018/03/15 11:52:51.000   78.246495691   16.063341495   574.6872   2   9   0.0256   0.0267   0.0435  -0.0098   0.0131  -0.0069   0.00    1.0
2018/03/15 11:52:52.000   78.246495733   16.063341632   574.6932   2   9   0.0255   0.0265   0.0432  -0.0097   0.0130  -0.0069   0.00    1.0
2018/03/15 11:52:53.000   78.246495801   16.063341860   574.6971   2   9   0.0254   0.0264   0.0428  -0.0097   0.0129  -0.0070   0.00    1.0
2018/03/15 11:52:54.000   78.246495893   16.063342064   574.6954   2   9   0.0253   0.0263   0.0425  -0.0096   0.0129  -0.0070   0.00    1.0
2018/03/15 11:52:55.000   78.246495988   16.063342348   574.6894   2   9   0.0251   0.0262   0.0422  -0.0096   0.0128  -0.0070   0.00    1.0
2018/03/15 11:52:56.000   78.246496089   16.063342581   574.6863   2   9   0.0250   0.0261   0.0419  -0.0095   0.0128  -0.0070   0.00    1.0
2018/03/15 11:52:57.000   78.246496190   16.063342889   574.6811   2   9   0.0249   0.0260   0.0416  -0.0095   0.0127  -0.0071   0.00    1.0
2018/03/15 11:52:58.000   78.246496289   16.063343175   574.6787   2   9   0.0248   0.0259   0.0413  -0.0094   0.0127  -0.0071   0.00    1.0
2018/03/15 11:52:59.000   78.246496392   16.063343398   574.6748   2   9   0.0247   0.0258   0.0410  -0.0094   0.0126  -0.0071   0.00    1.0
2018/03/15 11:53:00.000   78.246496479   16.063343537   574.6690   2   9   0.0246   0.0257   0.0407  -0.0093   0.0126  -0.0072   0.00    1.0
2018/03/15 11:53:01.000   78.246496540   16.063343548   574.6671   2   9   0.0245   0.0256   0.0404  -0.0093   0.0126  -0.0072   0.00    1.0
2018/03/15 11:53:02.000   78.246496577   16.063343426   574.6684   2   9   0.0244   0.0255   0.0401  -0.0093   0.0125  -0.0072   0.00    1.2
2018/03/15 11:53:03.000   78.246496601   16.063343285   574.6696   2   9   0.0243   0.0254   0.0398  -0.0092   0.0125  -0.0073   0.00    1.2
2018/03/15 11:53:04.000   78.246496618   16.063343067   574.6701   2   9   0.0241   0.0253   0.0396  -0.0092   0.0124  -0.0073   0.00    1.2
2018/03/15 11:53:05.000   78.246496613   16.063342845   574.6711   2   9   0.0240   0.0252   0.0393  -0.0091   0.0124  -0.0073   0.00    1.2
2018/03/15 11:53:06.000   78.246496593   16.063342578   574.6722   2   9   0.0239   0.0251   0.0390  -0.0091   0.0123  -0.0074   0.00    1.2
2018/03/15 11:53:07.000   78.246496581   16.063342414   574.6706   2   9   0.0238   0.0250   0.0387  -0.0091   0.0123  -0.0074   0.00    1.2
2018/03/15 11:53:08.000   78.246496557   16.063342150   574.6681   2   9   0.0237   0.0249   0.0385  -0.0090   0.0123  -0.0074   0.00    1.2
2018/03/15 11:53:09.000   78.246496491   16.063341737   574.6652   2   9   0.0236   0.0248   0.0382  -0.0090   0.0122  -0.0074   0.00    1.2
2018/03/15 11:53:10.000   78.246496397   16.063341267   574.6660   2   9   0.0235   0.0247   0.0380  -0.0089   0.0122  -0.0075   0.00    1.2
2018/03/15 11:53:11.000   78.246496288   16.063340837   574.6683   2   9   0.0234   0.0246   0.0377  -0.0089   0.0121  -0.0075   0.00    1.2
2018/03/15 11:53:12.000   78.246496178   16.063340353   574.6682   2   9   0.0233   0.0245   0.0374  -0.0088   0.0121  -0.0075   0.00    1.2
2018/03/15 11:53:13.000   78.246496080   16.063339891   574.6658   2   9   0.0232   0.0244   0.0372  -0.0088   0.0120  -0.0075   0.00    1.2
2018/03/15 11:53:14.000   78.246495998   16.063339379   574.6591   2   9   0.0231   0.0243   0.0369  -0.0088   0.0120  -0.0075   0.00    1.1
2018/03/15 11:53:15.000   78.246495928   16.063339025   574.6530   2   9   0.0230   0.0243   0.0367  -0.0087   0.0120  -0.0075   0.00    1.1
2018/03/15 11:53:16.000   78.246495898   16.063338922   574.6462   2   9   0.0229   0.0242   0.0364  -0.0087   0.0119  -0.0075   0.00    1.1
2018/03/15 11:53:17.000   78.246495888   16.063338912   574.6380   2   9   0.0228   0.0241   0.0362  -0.0087   0.0119  -0.0076   0.00    1.1
2018/03/15 11:53:18.000   78.246495877   16.063338958   574.6299   2   9   0.0227   0.0240   0.0360  -0.0086   0.0118  -0.0076   0.00    1.1
2018/03/15 11:53:19.000   78.246495868   16.063338934   574.6236   2   9   0.0226   0.0239   0.0357  -0.0086   0.0118  -0.0076   0.00    1.1
2018/03/15 11:53:20.000   78.246495870   16.063338900   574.6195   2   9   0.0225   0.0238   0.0355  -0.0085   0.0118  -0.0076   0.00    1.1
2018/03/15 11:53:21.000   78.246495848   16.063338990   574.6116   2   9   0.0224   0.0237   0.0353  -0.0085   0.0117  -0.0076   0.00    1.1
2018/03/15 11:53:22.000   78.246495813   16.063339181   574.6012   2   9   0.0224   0.0236   0.0350  -0.0085   0.0117  -0.0076   0.00    1.1
2018/03/15 11:53:23.000   78.246495787   16.063339464   574.5927   2   9   0.0223   0.0235   0.0348  -0.0084   0.0116  -0.0076   0.00    1.1
2018/03/15 11:53:24.000   78.246495754   16.063339802   574.5831   2   9   0.0222   0.0235   0.0346  -0.0084   0.0116  -0.0076   0.00    1.1
2018/03/15 11:53:25.000   78.246495715   16.063339963   574.5771   2   9   0.0221   0.0234   0.0344  -0.0084   0.0116  -0.0076   0.00    1.1
2018/03/15 11:53:26.000   78.246495680   16.063340099   574.5724   2   9   0.0220   0.0233   0.0342  -0.0083   0.0115  -0.0076   0.00    1.1
2018/03/15 11:53:27.000   78.246495651   16.063340274   574.5660   2   9   0.0219   0.0232   0.0339  -0.0083   0.0115  -0.0076   0.00    1.0
2018/03/15 11:53:28.000   78.246495618   16.063340560   574.5580   2   9   0.0218   0.0231   0.0337  -0.0083   0.0115  -0.0076   0.00    1.0
2018/03/15 11:53:29.000   78.246495581   16.063340916   574.5472   2   9   0.0217   0.0230   0.0335  -0.0082   0.0114  -0.0077   0.00    1.0
2018/03/15 11:53:30.000   78.246495573   16.063341298   574.5375   2   9   0.0216   0.0229   0.0333  -0.0082   0.0114  -0.0077   0.00    1.0
2018/03/15 11:53:31.000   78.246495563   16.063341713   574.5279   2   9   0.0215   0.0229   0.0331  -0.0082   0.0114  -0.0077   0.00    1.0
2018/03/15 11:53:32.000   78.246495554   16.063342039   574.5195   2   9   0.0214   0.0228   0.0330  -0.0081   0.0113  -0.0077   0.00    1.0
2018/03/15 11:53:33.000   78.246495525   16.063342362   574.5110   2   9   0.0214   0.0227   0.0328  -0.0081   0.0113  -0.0077   0.00    1.0
2018/03/15 11:53:34.000   78.246495484   16.063342719   574.4997   2   9   0.0213   0.0226   0.0326  -0.0081   0.0113  -0.0077   0.00    1.0
2018/03/15 11:53:35.000   78.246495442   16.063342996   574.4919   2   9   0.0212   0.0225   0.0324  -0.0080   0.0113  -0.0077   0.00    1.0
2018/03/15 11:53:36.000   78.246495395   16.063343233   574.4862   2   9   0.0211   0.0225   0.0322  -0.0080   0.0112  -0.0077   0.00    1.0
2018/03/15 11:53:37.000   78.246495349   16.063343397   574.4817   2   9   0.0210   0.0224   0.0320  -0.0080   0.0112  -0.0077   0.00    1.0
2018/03/15 11:53:38.000   78.246495280   16.063343499   574.4757   2   9   0.0209   0.0223   0.0318  -0.0079   0.0112  -0.0077   0.00    1.0
2018/03/15 11:53:39.000   78.246495207   16.063343667   574.4691   2   9   0.0209   0.0222   0.0316  -0.0079   0.0112  -0.0077   0.00    1.0
2018/03/15 11:53:40.000   78.246495129   16.063343794   574.4662   2   9   0.0208   0.0222   0.0314  -0.0079   0.0111  -0.0078   0.00    1.0
2018/03/15 11:53:41.000   78.246495057   16.063343845   574.4633   2   9   0.0207   0.0221   0.0313  -0.0079   0.0111  -0.0078   0.00    1.0
2018/03/15 11:53:42.000   78.246494997   16.063343798   574.4600   2   9   0.0206   0.0220   0.0311  -0.0078   0.0111  -0.0078   0.00    1.0
2018/03/15 11:53:43.000   78.246494918   16.063343639   574.4568   2   9   0.0205   0.0219   0.0309  -0.0078   0.0110  -0.0078   0.00    1.0
2018/03/15 11:53:44.000   78.246494823   16.063343395   574.4573   2   9   0.0204   0.0219   0.0307  -0.0078   0.0110  -0.0078   0.00    1.0
2018/03/15 11:53:45.000   78.246494731   16.063343132   574.4575   2   9   0.0204   0.0218   0.0306  -0.0077   0.0110  -0.0078   0.00    1.0
2018/03/15 11:53:46.000   78.246494617   16.063342814   574.4584   2   9   0.0203   0.0217   0.0304  -0.0077   0.0110  -0.0078   0.00    1.0
2018/03/15 11:53:47.000   78.246494480   16.063342337   574.4625   2   9   0.0202   0.0216   0.0302  -0.0077   0.0109  -0.0078   0.00    1.0
2018/03/15 11:53:48.000   78.246494351   16.063341870   574.4657   2   9   0.0201   0.0216   0.0301  -0.0077   0.0109  -0.0078   0.00    1.0
2018/03/15 11:53:49.000   78.246494246   16.063341509   574.4666   2   9   0.0200   0.0215   0.0299  -0.0076   0.0109  -0.0078   0.00    1.0
2018/03/15 11:53:50.000   78.246494165   16.063341150   574.4664   2   9   0.0200   0.0214   0.0297  -0.0076   0.0108  -0.0078   0.00    1.0
2018/03/15 11:53:51.000   78.246494109   16.063340770   574.4680   2   9   0.0199   0.0213   0.0296  -0.0076   0.0108  -0.0078   0.00    1.0
2018/03/15 11:53:52.000   78.246494061   16.063340323   574.4669   2   9   0.0198   0.0213   0.0294  -0.0075   0.0108  -0.0078   0.00    1.0
2018/03/15 11:53:53.000   78.246494009   16.063339981   574.4678   2   9   0.0197   0.0212   0.0292  -0.0075   0.0108  -0.0077   0.00    1.0
2018/03/15 11:53:54.000   78.246493972   16.063339745   574.4703   2   9   0.0197   0.0211   0.0291  -0.0075   0.0107  -0.0077   0.00    1.0
2018/03/15 11:53:55.000   78.246493945   16.063339458   574.4718   2   9   0.0196   0.0211   0.0289  -0.0075   0.0107  -0.0077   0.00    1.0
2018/03/15 11:53:56.000   78.246493928   16.063339130   574.4732   2   9   0.0195   0.0210   0.0288  -0.0074   0.0107  -0.0077   0.00    1.0
2018/03/15 11:53:57.000   78.246493902   16.063338734   574.4755   2   9   0.0194   0.0209   0.0286  -0.0074   0.0106  -0.0077   0.00    1.0
2018/03/15 11:53:58.000   78.246493869   16.063338347   574.4787   2   9   0.0194   0.0208   0.0284  -0.0074   0.0106  -0.0077   0.00    1.0
2018/03/15 11:53:59.000   78.246493842   16.063337973   574.4816   2   9   0.0193   0.0208   0.0283  -0.0074   0.0106  -0.0077   0.00    1.0
2018/03/15 11:54:00.000   78.246493796   16.063337522   574.4857   2   9   0.0192   0.0207   0.0281  -0.0073   0.0106  -0.0077   0.00    1.0
2018/03/15 11:54:01.000   78.246493737   16.063337032   574.4913   2   9   0.0191   0.0206   0.0280  -0.0073   0.0105  -0.0077   0.00    1.0
2018/03/15 11:54:02.000   78.246493666   16.063336451   574.4966   2   9   0.0191   0.0206   0.0278  -0.0073   0.0105  -0.0077   0.00    1.0
2018/03/15 11:54:03.000   78.246493575   16.063335792   574.5013   2   8   0.0190   0.0205   0.0277  -0.0073   0.0105  -0.0077   0.00    1.0
2018/03/15 11:54:04.000   78.246493477   16.063335092   574.5095   2   8   0.0189   0.0204   0.0276  -0.0072   0.0104  -0.0077   0.00    1.0
2018/03/15 11:54:05.000   78.246493358   16.063334341   574.5175   2   8   0.0189   0.0204   0.0274  -0.0072   0.0104  -0.0077   0.00    1.0
2018/03/15 11:54:06.000   78.246493231   16.063333578   574.5259   2   8   0.0188   0.0203   0.0273  -0.0072   0.0104  -0.0077   0.00    1.0
2018/03/15 11:54:07.000   78.246493090   16.063332789   574.5349   2   8   0.0187   0.0202   0.0271  -0.0072   0.0104  -0.0077   0.00    1.0
2018/03/15 11:54:08.000   78.246492950   16.063332015   574.5415   2   8   0.0187   0.0202   0.0270  -0.0071   0.0103  -0.0077   0.00    1.1
2018/03/15 11:54:09.000   78.246492806   16.063331246   574.5523   2   8   0.0186   0.0201   0.0268  -0.0071   0.0103  -0.0077   0.00    1.1
2018/03/15 11:54:10.000   78.246492671   16.063330405   574.5618   2   8   0.0185   0.0200   0.0267  -0.0071   0.0103  -0.0077   0.00    1.1
2018/03/15 11:54:11.000   78.246492532   16.063329555   574.5704   2   8   0.0184   0.0200   0.0266  -0.0071   0.0102  -0.0076   0.00    1.1
2018/03/15 11:54:12.000   78.246492410   16.063328790   574.5785   2   8   0.0184   0.0199   0.0264  -0.0070   0.0102  -0.0076   0.00    1.1
2018/03/15 11:54:13.000   78.246492283   16.063328109   574.5864   2   8   0.0183   0.0198   0.0263  -0.0070   0.0102  -0.0076   0.00    1.0
2018/03/15 11:54:14.000   78.246492144   16.063327451   574.5923   2   8   0.0182   0.0198   0.0262  -0.0070   0.0102  -0.0076   0.00    1.0
2018/03/15 11:54:15.000   78.246492022   16.063326775   574.5997   2   8   0.0182   0.0197   0.0260  -0.0070   0.0101  -0.0076   0.00    1.0
2018/03/15 11:54:16.000   78.246491927   16.063326102   574.6083   2   8   0.0181   0.0196   0.0259  -0.0069   0.0101  -0.0076   0.00    1.0
2018/03/15 11:54:17.000   78.246491833   16.063325500   574.6139   2   8   0.0181   0.0196   0.0258  -0.0069   0.0101  -0.0076   0.00    1.0
2018/03/15 11:54:18.000   78.246491754   16.063325034   574.6179   2   8   0.0180   0.0195   0.0256  -0.0069   0.0100  -0.0076   0.00    1.0
2018/03/15 11:54:19.000   78.246491694   16.063324703   574.6209   2   8   0.0179   0.0195   0.0255  -0.0069   0.0100  -0.0076   0.00    1.0
2018/03/15 11:54:20.000   78.246491645   16.063324421   574.6217   2   8   0.0179   0.0194   0.0254  -0.0068   0.0100  -0.0076   0.00    1.1
2018/03/15 11:54:21.000   78.246491609   16.063324161   574.6217   2   8   0.0178   0.0193   0.0253  -0.0068   0.0100  -0.0076   0.00    1.1
2018/03/15 11:54:22.000   78.246491584   16.063324005   574.6211   2   8   0.0177   0.0193   0.0251  -0.0068   0.0099  -0.0075   0.00    1.1
2018/03/15 11:54:23.000   78.246491557   16.063323902   574.6204   2   8   0.0177   0.0192   0.0250  -0.0068   0.0099  -0.0075   0.00    1.1
2018/03/15 11:54:24.000   78.246491547   16.063323888   574.6167   2   8   0.0176   0.0192   0.0249  -0.0067   0.0099  -0.0075   0.00    1.1
2018/03/15 11:54:25.000   78.246491548   16.063323905   574.6143   2   8   0.0175   0.0191   0.0248  -0.0067   0.0098  -0.0075   0.00    1.1
2018/03/15 11:54:26.000   78.246491550   16.063323906   574.6130   2   8   0.0175   0.0190   0.0246  -0.0067   0.0098  -0.0075   0.00    1.1
2018/03/15 11:54:27.000   78.246491551   16.063323896   574.6123   2   8   0.0174   0.0190   0.0245  -0.0067   0.0098  -0.0075   0.00    1.1
2018/03/15 11:54:28.000   78.246491551   16.063323926   574.6094   2   8   0.0174   0.0189   0.0244  -0.0066   0.0098  -0.0075   0.00    1.1
2018/03/15 11:54:29.000   78.246491543   16.063323965   574.6050   2   8   0.0173   0.0189   0.0243  -0.0066   0.0097  -0.0075   0.00    1.1
2018/03/15 11:54:30.000   78.246491535   16.063324017   574.6008   2   8   0.0172   0.0188   0.0242  -0.0066   0.0097  -0.0075   0.00    1.1
2018/03/15 11:54:31.000   78.246491531   16.063323999   574.5990   2   8   0.0172   0.0187   0.0240  -0.0066   0.0097  -0.0074   0.00    1.1
2018/03/15 11:54:32.000   78.246491522   16.063324068   574.5978   2   8   0.0171   0.0187   0.0239  -0.0066   0.0097  -0.0074   0.00    1.1
2018/03/15 11:54:33.000   78.246491512   16.063324116   574.5959   2   8   0.0171   0.0186   0.0238  -0.0065   0.0096  -0.0074   0.00    1.1
2018/03/15 11:54:34.000   78.246491499   16.063324213   574.5944   2   8   0.0170   0.0186   0.0237  -0.0065   0.0096  -0.0074   0.00    1.1
2018/03/15 11:54:35.000   78.246491481   16.063324225   574.5914   2   8   0.0169   0.0185   0.0236  -0.0065   0.0096  -0.0074   0.00    1.1
2018/03/15 11:54:36.000   78.246491460   16.063324137   574.5888   2   8   0.0169   0.0184   0.0235  -0.0065   0.0095  -0.0074   0.00    1.1
2018/03/15 11:54:37.000   78.246491441   16.063324100   574.5867   2   8   0.0168   0.0184   0.0234  -0.0064   0.0095  -0.0074   0.00    1.1
2018/03/15 11:54:38.000   78.246491429   16.063324233   574.5853   2   8   0.0168   0.0183   0.0233  -0.0064   0.0095  -0.0074   0.00    1.1
2018/03/15 11:54:39.000   78.246491441   16.063324452   574.5822   2   8   0.0167   0.0183   0.0231  -0.0064   0.0095  -0.0073   0.00    1.1
2018/03/15 11:54:40.000   78.246491466   16.063324696   574.5766   2   8   0.0166   0.0182   0.0230  -0.0064   0.0094  -0.0073   0.00    1.1
2018/03/15 11:54:41.000   78.246491497   16.063324935   574.5733   2   8   0.0166   0.0182   0.0229  -0.0064   0.0094  -0.0073   0.00    1.1
2018/03/15 11:54:42.000   78.246491522   16.063325081   574.5691   2   8   0.0165   0.0181   0.0228  -0.0063   0.0094  -0.0073   0.00    1.1
2018/03/15 11:54:43.000   78.246491557   16.063325236   574.5653   2   8   0.0165   0.0180   0.0227  -0.0063   0.0094  -0.0073   0.00    1.1
2018/03/15 11:54:44.000   78.246491583   16.063325398   574.5611   2   8   0.0164   0.0180   0.0226  -0.0063   0.0093  -0.0073   0.00    1.1
2018/03/15 11:54:45.000   78.246491616   16.063325586   574.5568   2   8   0.0164   0.0179   0.0225  -0.0063   0.0093  -0.0073   0.00    1.1
2018/03/15 11:54:46.000   78.246491649   16.063325787   574.5536   2   8   0.0163   0.0179   0.0224  -0.0062   0.0093  -0.0072   0.00    1.1
2018/03/15 11:54:47.000   78.246491699   16.063325967   574.5505   2   8   0.0162   0.0178   0.0223  -0.0062   0.0093  -0.0072   0.00    1.1
2018/03/15 11:54:48.000   78.246491746   16.063326096   574.5475   2   8   0.0162   0.0178   0.0222  -0.0062   0.0092  -0.0072   0.00    1.1
2018/03/15 11:54:49.000   78.246491788   16.063326256   574.5432   2   8   0.0161   0.0177   0.0221  -0.0062   0.0092  -0.0072   0.00    1.1
2018/03/15 11:54:50.000   78.246491829   16.063326386   574.5394   2   8   0.0161   0.0177   0.0220  -0.0062   0.0092  -0.0072   0.00    1.1
2018/03/15 11:54:51.000   78.246491871   16.063326502   574.5372   2   8   0.0160   0.0176   0.0219  -0.0061   0.0091  -0.0072   0.00    1.1
2018/03/15 11:54:52.000   78.246491922   16.063326591   574.5320   2   8   0.0160   0.0176   0.0218  -0.0061   0.0091  -0.0072   0.00    1.1
2018/03/15 11:54:53.000   78.246491962   16.063326744   574.5271   2   8   0.0159   0.0175   0.0217  -0.0061   0.0091  -0.0071   0.00    1.1
2018/03/15 11:54:54.000   78.246491999   16.063326876   574.5240   2   8   0.0159   0.0175   0.0216  -0.0061   0.0091  -0.0071   0.00    1.1
2018/03/15 11:54:55.000   78.246492047   16.063327143   574.5198   2   8   0.0158   0.0174   0.0215  -0.0061   0.0090  -0.0071   0.00    1.1
2018/03/15 11:54:56.000   78.246492096   16.063327453   574.5161   2   8   0.0158   0.0173   0.0214  -0.0060   0.0090  -0.0071   0.00    1.1
2018/03/15 11:54:57.000   78.246492159   16.063327814   574.5118   2   8   0.0157   0.0173   0.0213  -0.0060   0.0090  -0.0071   0.00    1.0
2018/03/15 11:54:58.000   78.246492233   16.063328152   574.5081   2   8   0.0157   0.0172   0.0212  -0.0060   0.0090  -0.0071   0.00    1.0
2018/03/15 11:54:59.000   78.246492318   16.063328408   574.5044   2   8   0.0156   0.0172   0.0211  -0.0060   0.0089  -0.0071   0.00    1.0
2018/03/15 11:55:00.000   78.246492381   16.063328580   574.5023   2   8   0.0156   0.0171   0.0210  -0.0060   0.0089  -0.0070   0.00    1.0
2018/03/15 11:55:01.000   78.246492442   16.063328729   574.4999   2   8   0.0155   0.0171   0.0209  -0.0059   0.0089  -0.0070   0.00    1.0
2018/03/15 11:55:02.000   78.246492495   16.063328843   574.4975   2   8   0.0154   0.0170   0.0208  -0.0059   0.0089  -0.0070   0.00    1.0
2018/03/15 11:55:03.000   78.246492552   16.063328871   574.4970   2   8   0.0154   0.0170   0.0208  -0.0059   0.0088  -0.0070   0.00    1.0
2018/03/15 11:55:04.000   78.246492600   16.063328841   574.4972   2   8   0.0153   0.0169   0.0207  -0.0059   0.0088  -0.0070   0.00    1.0
2018/03/15 11:55:05.000   78.246492643   16.063328787   574.4975   2   8   0.0153   0.0169   0.0206  -0.0059   0.0088  -0.0070   0.00    1.0
2018/03/15 11:55:06.000   78.246492689   16.063328719   574.4985   2   8   0.0152   0.0168   0.0205  -0.0058   0.0088  -0.0069   0.00    1.0
2018/03/15 11:55:07.000   78.246492748   16.063328682   574.4985   2   8   0.0152   0.0168   0.0204  -0.0058   0.0087  -0.0069   0.00    1.0
2018/03/15 11:55:08.000   78.246492803   16.063328604   574.4991   2   8   0.0151   0.0167   0.0203  -0.0058   0.0087  -0.0069   0.00    1.0
2018/03/15 11:55:09.000   78.246492855   16.063328520   574.4994   2   8   0.0151   0.0167   0.0202  -0.0058   0.0087  -0.0069   0.00    1.0
2018/03/15 11:55:10.000   78.246492900   16.063328404   574.4997   2   8   0.0150   0.0166   0.0201  -0.0058   0.0087  -0.0069   0.00    1.0
2018/03/15 11:55:11.000   78.246492950   16.063328317   574.5016   2   8   0.0150   0.0166   0.0200  -0.0057   0.0086  -0.0069   0.00    1.0
2018/03/15 11:55:12.000   78.246493011   16.063328232   574.5034   2   8   0.0149   0.0165   0.0200  -0.0057   0.0086  -0.0069   0.00    1.0
2018/03/15 11:55:13.000   78.246493071   16.063328182   574.5066   2   8   0.0149   0.0165   0.0199  -0.0057   0.0086  -0.0068   0.00    1.0
2018/03/15 11:55:14.000   78.246493148   16.063328151   574.5076   2   8   0.0149   0.0164   0.0198  -0.0057   0.0086  -0.0068   0.00    1.0
2018/03/15 11:55:15.000   78.246493222   16.063328133   574.5083   2   8   0.0148   0.0164   0.0197  -0.0057   0.0085  -0.0068   0.00    1.0
2018/03/15 11:55:16.000   78.246493305   16.063328139   574.5108   2   8   0.0148   0.0163   0.0196  -0.0057   0.0085  -0.0068   0.00    1.0
2018/03/15 11:55:17.000   78.246493401   16.063328178   574.5126   2   8   0.0147   0.0163   0.0195  -0.0056   0.0085  -0.0068   0.00    1.0
2018/03/15 11:55:18.000   78.246493504   16.063328294   574.5144   2   8   0.0147   0.0163   0.0195  -0.0056   0.0085  -0.0068   0.00    1.0
2018/03/15 11:55:19.000   78.246493611   16.063328441   574.5163   2   8   0.0146   0.0162   0.0194  -0.0056   0.0085  -0.0067   0.00    1.0
2018/03/15 11:55:20.000   78.246493729   16.063328620   574.5180   2   8   0.0146   0.0162   0.0193  -0.0056   0.0084  -0.0067   0.00    1.0
2018/03/15 11:55:21.000   78.246493862   16.063328795   574.5190   2   8   0.0145   0.0161   0.0192  -0.0056   0.0084  -0.0067   0.00    1.0
2018/03/15 11:55:22.000   78.246494004   16.063329062   574.5202   2   8   0.0145   0.0161   0.0191  -0.0055   0.0084  -0.0067   0.00    1.0
2018/03/15 11:55:23.000   78.246494141   16.063329358   574.5207   2   8   0.0144   0.0160   0.0191  -0.0055   0.0084  -0.0067   0.00    1.0
2018/03/15 11:55:24.000   78.246494276   16.063329710   574.5195   2   8   0.0144   0.0160   0.0190  -0.0055   0.0083  -0.0067   0.00    1.0
2018/03/15 11:55:25.000   78.246494416   16.063330125   574.5182   2   8   0.0143   0.0159   0.0189  -0.0055   0.0083  -0.0067   0.00    1.1
2018/03/15 11:55:26.000   78.246494562   16.063330530   574.5173   2   8   0.0143   0.0159   0.0188  -0.0055   0.0083  -0.0066   0.00    1.1
2018/03/15 11:55:27.000   78.246494703   16.063330989   574.5166   2   8   0.0142   0.0158   0.0188  -0.0055   0.0083  -0.0066   0.00    1.1
2018/03/15 11:55:28.000   78.246494841   16.063331502   574.5145   2   8   0.0142   0.0158   0.0187  -0.0054   0.0082  -0.0066   0.00    1.1
2018/03/15 11:55:29.000   78.246494979   16.063332022   574.5123   2   8   0.0142   0.0157   0.0186  -0.0054   0.0082  -0.0066   0.00    1.1
2018/03/15 11:55:30.000   78.246495122   16.063332562   574.5105   2   8   0.0141   0.0157   0.0185  -0.0054   0.0082  -0.0066   0.00    1.1
2018/03/15 11:55:31.000   78.246495271   16.063333026   574.5087   2   8   0.0141   0.0157   0.0184  -0.0054   0.0082  -0.0066   0.00    1.1
2018/03/15 11:55:32.000   78.246495407   16.063333439   574.5067   2   8   0.0140   0.0156   0.0184  -0.0054   0.0081  -0.0065   0.00    1.1
2018/03/15 11:55:33.000   78.246495535   16.063333880   574.5054   2   8   0.0140   0.0156   0.0183  -0.0053   0.0081  -0.0065   0.00    1.1
2018/03/15 11:55:34.000   78.246495666   16.063334282   574.5048   2   8   0.0139   0.0155   0.0182  -0.0053   0.0081  -0.0065   0.00    1.1
2018/03/15 11:55:35.000   78.246495794   16.063334617   574.5052   2   8   0.0139   0.0155   0.0182  -0.0053   0.0081  -0.0065   0.00    1.1
2018/03/15 11:55:36.000   78.246495929   16.063334880   574.5065   2   8   0.0139   0.0154   0.0181  -0.0053   0.0081  -0.0065   0.00    1.1
2018/03/15 11:55:37.000   78.246496056   16.063335027   574.5077   2   8   0.0138   0.0154   0.0180  -0.0053   0.0080  -0.0065   0.00    1.1
2018/03/15 11:55:38.000   78.246496182   16.063335132   574.5082   2   8   0.0138   0.0154   0.0179  -0.0053   0.0080  -0.0065   0.00    1.0
2018/03/15 11:55:39.000   78.246496298   16.063335257   574.5090   2   8   0.0137   0.0153   0.0179  -0.0052   0.0080  -0.0064   0.00    1.0
2018/03/15 11:55:40.000   78.246496411   16.063335370   574.5114   2   8   0.0137   0.0153   0.0178  -0.0052   0.0080  -0.0064   0.00    1.0
2018/03/15 11:55:41.000   78.246496526   16.063335480   574.5127   2   8   0.0136   0.0152   0.0177  -0.0052   0.0079  -0.0064   0.00    1.0
2018/03/15 11:55:42.000   78.246496635   16.063335491   574.5158   2   8   0.0136   0.0152   0.0177  -0.0052   0.0079  -0.0064   0.00    1.0
2018/03/15 11:55:43.000   78.246496730   16.063335473   574.5192   2   8   0.0136   0.0151   0.0176  -0.0052   0.0079  -0.0064   0.00    1.0
2018/03/15 11:55:44.000   78.246496819   16.063335497   574.5202   2   8   0.0135   0.0151   0.0175  -0.0052   0.0079  -0.0064   0.00    1.0
2018/03/15 11:55:45.000   78.246496899   16.063335520   574.5204   2   8   0.0135   0.0151   0.0175  -0.0051   0.0079  -0.0064   0.00    1.0
2018/03/15 11:55:46.000   78.246496977   16.063335561   574.5214   2   8   0.0134   0.0150   0.0174  -0.0051   0.0078  -0.0063   0.00    1.0
2018/03/15 11:55:47.000   78.246497057   16.063335605   574.5224   2   8   0.0134   0.0150   0.0173  -0.0051   0.0078  -0.0063   0.00    1.0
2018/03/15 11:55:48.000   78.246497118   16.063335583   574.5232   2   8   0.0133   0.0149   0.0173  -0.0051   0.0078  -0.0063   0.00    1.0
2018/03/15 11:55:49.000   78.246497158   16.063335470   574.5253   2   8   0.0133   0.0149   0.0172  -0.0051   0.0078  -0.0063   0.00    1.0
2018/03/15 11:55:50.000   78.246497189   16.063335383   574.5263   2   8   0.0133   0.0148   0.0171  -0.0051   0.0078  -0.0063   0.00    1.0
2018/03/15 11:55:51.000   78.246497220   16.063335323   574.5277   2   8   0.0132   0.0148   0.0171  -0.0051   0.0077  -0.0063   0.00    1.0
2018/03/15 11:55:52.000   78.246497266   16.063335313   574.5280   2   8   0.0132   0.0148   0.0170  -0.0050   0.0077  -0.0062   0.00    1.0
2018/03/15 11:55:53.000   78.246497311   16.063335313   574.5289   2   8   0.0131   0.0147   0.0169  -0.0050   0.0077  -0.0062   0.00    1.0
2018/03/15 11:55:54.000   78.246497349   16.063335310   574.5285   2   8   0.0131   0.0147   0.0169  -0.0050   0.0077  -0.0062   0.00    1.1
2018/03/15 11:55:55.000   78.246497384   16.063335286   574.5288   2   8   0.0131   0.0146   0.0168  -0.0050   0.0076  -0.0062   0.00    1.1
2018/03/15 11:55:56.000   78.246497426   16.063335312   574.5310   2   8   0.0130   0.0146   0.0167  -0.0050   0.0076  -0.0062   0.00    1.1
2018/03/15 11:55:57.000   78.246497464   16.063335360   574.5322   2   8   0.0130   0.0146   0.0167  -0.0050   0.0076  -0.0062   0.00    1.1
2018/03/15 11:55:58.000   78.246497512   16.063335481   574.5327   2   8   0.0130   0.0145   0.0166  -0.0049   0.0076  -0.0062   0.00    1.1
2018/03/15 11:55:59.000   78.246497555   16.063335547   574.5325   2   8   0.0129   0.0145   0.0165  -0.0049   0.0076  -0.0061   0.00    1.1
2018/03/15 11:56:00.000   78.246497605   16.063335597   574.5331   2   8   0.0129   0.0144   0.0165  -0.0049   0.0075  -0.0061   0.00    1.1
2018/03/15 11:56:01.000   78.246497658   16.063335688   574.5342   2   8   0.0128   0.0144   0.0164  -0.0049   0.0075  -0.0061   0.00    1.1
2018/03/15 11:56:02.000   78.246497730   16.063335901   574.5351   2   8   0.0128   0.0144   0.0164  -0.0049   0.0075  -0.0061   0.00    1.1
2018/03/15 11:56:03.000   78.246497802   16.063336143   574.5352   2   8   0.0128   0.0143   0.0163  -0.0049   0.0075  -0.0061   0.00    1.1
2018/03/15 11:56:04.000   78.246497860   16.063336372   574.5361   2   8   0.0127   0.0143   0.0162  -0.0048   0.0075  -0.0061   0.00    1.1
2018/03/15 11:56:05.000   78.246497916   16.063336567   574.5374   2   8   0.0127   0.0143   0.0162  -0.0048   0.0074  -0.0061   0.00    1.1
2018/03/15 11:56:06.000   78.246497958   16.063336621   574.5382   2   8   0.0127   0.0142   0.0161  -0.0048   0.0074  -0.0060   0.00    1.1
2018/03/15 11:56:07.000   78.246497986   16.063336698   574.5397   2   8   0.0126   0.0142   0.0161  -0.0048   0.0074  -0.0060   0.00    1.1
2018/03/15 11:56:08.000   78.246498018   16.063336813   574.5396   2   8   0.0126   0.0141   0.0160  -0.0048   0.0074  -0.0060   0.00    1.1
2018/03/15 11:56:09.000   78.246498051   16.063336952   574.5402   2   8   0.0125   0.0141   0.0159  -0.0048   0.0074  -0.0060   0.00    1.1
2018/03/15 11:56:10.000   78.246498085   16.063337099   574.5412   2   8   0.0125   0.0141   0.0159  -0.0048   0.0073  -0.0060   0.00    1.1
2018/03/15 11:56:11.000   78.246498115   16.063337159   574.5432   2   8   0.0125   0.0140   0.0158  -0.0047   0.0073  -0.0060   0.00    1.1
2018/03/15 11:56:12.000   78.246498140   16.063337210   574.5446   2   8   0.0124   0.0140   0.0158  -0.0047   0.0073  -0.0060   0.00    1.1
2018/03/15 11:56:13.000   78.246498162   16.063337374   574.5455   2   8   0.0124   0.0140   0.0157  -0.0047   0.0073  -0.0059   0.00    1.1
2018/03/15 11:56:14.000   78.246498195   16.063337617   574.5461   2   8   0.0124   0.0139   0.0157  -0.0047   0.0073  -0.0059   0.00    1.1
2018/03/15 11:56:15.000   78.246498231   16.063337874   574.5469   2   8   0.0123   0.0139   0.0156  -0.0047   0.0072  -0.0059   0.00    1.1
2018/03/15 11:56:16.000   78.246498274   16.063338129   574.5472   2   8   0.0123   0.0138   0.0156  -0.0047   0.0072  -0.0059   0.00    1.1
2018/03/15 11:56:17.000   78.246498316   16.063338372   574.5481   2   8   0.0123   0.0138   0.0155  -0.0047   0.0072  -0.0059   0.00    1.1
2018/03/15 11:56:18.000   78.246498352   16.063338602   574.5500   2   8   0.0122   0.0138   0.0154  -0.0046   0.0072  -0.0059   0.00    1.2
2018/03/15 11:56:19.000   78.246498386   16.063338809   574.5511   2   8   0.0122   0.0137   0.0154  -0.0046   0.0072  -0.0059   0.00    1.2
2018/03/15 11:56:20.000   78.246498416   16.063338986   574.5526   2   8   0.0121   0.0137   0.0153  -0.0046   0.0071  -0.0058   0.00    1.2
2018/03/15 11:56:21.000   78.246498447   16.063339175   574.5543   2   8   0.0121   0.0137   0.0153  -0.0046   0.0071  -0.0058   0.00    1.2
2018/03/15 11:56:22.000   78.246498479   16.063339349   574.5557   2   8   0.0121   0.0136   0.0152  -0.0046   0.0071  -0.0058   0.00    1.2
2018/03/15 11:56:23.000   78.246498518   16.063339506   574.5563   2   8   0.0120   0.0136   0.0152  -0.0046   0.0071  -0.0058   0.00    1.2
2018/03/15 11:56:24.000   78.246498549   16.063339630   574.5569   2   8   0.0120   0.0136   0.0151  -0.0046   0.0071  -0.0058   0.00    1.2
2018/03/15 11:56:25.000   78.246498584   16.063339718   574.5596   2   8   0.0120   0.0135   0.0151  -0.0045   0.0071  -0.0058   0.00    1.2
2018/03/15 11:56:26.000   78.246498609   16.063339771   574.5630   2   8   0.0119   0.0135   0.0150  -0.0045   0.0070  -0.0058   0.00    1.2
2018/03/15 11:56:27.000   78.246498622   16.063339776   574.5656   2   8   0.0119   0.0134   0.0150  -0.0045   0.0070  -0.0057   0.00    1.2
2018/03/15 11:56:28.000   78.246498633   16.063339781   574.5674   2   8   0.0119   0.0134   0.0149  -0.0045   0.0070  -0.0057   0.00    1.2
2018/03/15 11:56:29.000   78.246498642   16.063339735   574.5688   2   8   0.0118   0.0134   0.0149  -0.0045   0.0070  -0.0057   0.00    1.2
2018/03/15 11:56:30.000   78.246498647   16.063339641   574.5715   2   8   0.0118   0.0133   0.0148  -0.0045   0.0070  -0.0057   0.00    1.2
2018/03/15 11:56:31.000   78.246498650   16.063339517   574.5744   2   8   0.0118   0.0133   0.0148  -0.0045   0.0069  -0.0057   0.00    1.2
2018/03/15 11:56:32.000   78.246498658   16.063339431   574.5771   2   8   0.0117   0.0133   0.0147  -0.0045   0.0069  -0.0057   0.00    1.2
2018/03/15 11:56:33.000   78.246498670   16.063339369   574.5795   2   8   0.0117   0.0132   0.0147  -0.0044   0.0069  -0.0057   0.00    1.2
2018/03/15 11:56:34.000   78.246498688   16.063339349   574.5828   2   8   0.0117   0.0132   0.0146  -0.0044   0.0069  -0.0056   0.00    1.2
2018/03/15 11:56:35.000   78.246498710   16.063339282   574.5858   2   8   0.0116   0.0132   0.0146  -0.0044   0.0069  -0.0056   0.00    1.2
2018/03/15 11:56:36.000   78.246498729   16.063339099   574.5894   2   8   0.0116   0.0131   0.0145  -0.0044   0.0068  -0.0056   0.00    1.2
2018/03/15 11:56:37.000   78.246498735   16.063338902   574.5923   2   8   0.0116   0.0131   0.0145  -0.0044   0.0068  -0.0056   0.00    1.2
2018/03/15 11:56:38.000   78.246498741   16.063338734   574.5959   2   8   0.0116   0.0131   0.0144  -0.0044   0.0068  -0.0056   0.00    1.2
2018/03/15 11:56:39.000   78.246498763   16.063338607   574.5988   2   8   0.0115   0.0130   0.0144  -0.0044   0.0068  -0.0056   0.00    1.2
2018/03/15 11:56:40.000   78.246498792   16.063338511   574.6023   2   8   0.0115   0.0130   0.0143  -0.0043   0.0068  -0.0056   0.00    1.2
2018/03/15 11:56:41.000   78.246498829   16.063338438   574.6056   2   8   0.0115   0.0130   0.0143  -0.0043   0.0068  -0.0056   0.00    1.2
2018/03/15 11:56:42.000   78.246498875   16.063338454   574.6082   2   8   0.0114   0.0129   0.0142  -0.0043   0.0067  -0.0055   0.00    1.2
2018/03/15 11:56:43.000   78.246498926   16.063338601   574.6092   2   8   0.0114   0.0129   0.0142  -0.0043   0.0067  -0.0055   0.00    1.3
2018/03/15 11:56:44.000   78.246498985   16.063338801   574.6109   2   8   0.0114   0.0129   0.0141  -0.0043   0.0067  -0.0055   0.00    1.3
2018/03/15 11:56:45.000   78.246499051   16.063338990   574.6125   2   8   0.0113   0.0128   0.0141  -0.0043   0.0067  -0.0055   0.00    1.3
2018/03/15 11:56:46.000   78.246499115   16.063339152   574.6142   2   8   0.0113   0.0128   0.0140  -0.0043   0.0067  -0.0055   0.00    1.3
2018/03/15 11:56:47.000   78.246499169   16.063339293   574.6153   2   8   0.0113   0.0128   0.0140  -0.0043   0.0067  -0.0055   0.00    1.3
2018/03/15 11:56:48.000   78.246499218   16.063339478   574.6165   2   8   0.0112   0.0127   0.0139  -0.0042   0.0066  -0.0055   0.00    1.3
2018/03/15 11:56:49.000   78.246499267   16.063339662   574.6178   2   8   0.0112   0.0127   0.0139  -0.0042   0.0066  -0.0055   0.00    1.3
2018/03/15 11:56:50.000   78.246499313   16.063339851   574.6192   2   8   0.0112   0.0127   0.0138  -0.0042   0.0066  -0.0054   0.00    1.3
2018/03/15 11:56:51.000   78.246499357   16.063340008   574.6207   2   8   0.0111   0.0126   0.0138  -0.0042   0.0066  -0.0054   0.00    1.3
2018/03/15 11:56:52.000   78.246499402   16.063340137   574.6211   2   8   0.0111   0.0126   0.0138  -0.0042   0.0066  -0.0054   0.00    1.3
2018/03/15 11:56:53.000   78.246499439   16.063340238   574.6222   2   8   0.0111   0.0126   0.0137  -0.0042   0.0066  -0.0054   0.00    1.3
