% program   : RTKPOST ver.2.4.2
% inp file  : Z:\home\linda\Documents\Spring18\GitHub_Unis\data\processed_data\46250700.obs
% inp file  : Z:\home\linda\Documents\Spring18\GitHub_Unis\data\base_station_data\lyrs0700.18o
% inp file  : Z:\home\linda\Documents\Spring18\GitHub_Unis\data\processed_data\46250700.nav
% obs start : 2018/03/11 10:25:17.0 GPST (week1992  37517.0s)
% obs end   : 2018/03/11 10:43:41.0 GPST (week1992  38621.0s)
% pos mode  : static
% freqs     : L1+L2
% solution  : forward
% elev mask : 15.0 deg
% dynamics  : on
% tidecorr  : off
% ionos opt : iono-free
% tropo opt : saastamoinen
% ephemeris : broadcast
% navi sys  : gps glonass galileo qzss sbas
% amb res   : fix and hold
% amb glo   : on
% val thres : 3.0
% antenna1  :                       ( 0.0000  0.0000  0.0000)
% antenna2  :                       ( 0.0000  0.0000  0.0000)
% ref pos   : 78.228825638   15.397310064   495.6816
%
% (lat/lon/height=WGS84/ellipsoidal,Q=1:fix,2:float,3:sbas,4:dgps,5:single,6:ppp,ns=# of satellites)
%  GPST                  latitude(deg) longitude(deg)  height(m)   Q  ns   sdn(m)   sde(m)   sdu(m)  sdne(m)  sdeu(m)  sdun(m) age(s)  ratio
2018/03/11 10:25:17.000   78.254771345   16.249367539   344.7055   2   9   1.4321   0.7879   4.7888   0.4087   0.8934   2.0896   0.00    1.1
2018/03/11 10:25:18.000   78.254775584   16.249378718   344.8319   2   9   1.0163   0.5577   3.4089   0.2909   0.6361   1.4880   0.00    1.1
2018/03/11 10:25:19.000   78.254770960   16.249383542   342.7851   2   9   0.8305   0.4555   2.7875   0.2378   0.5202   1.2169   0.00    1.1
2018/03/11 10:25:20.000   78.254771533   16.249373594   342.1545   2   9   0.7192   0.3945   2.4138   0.2059   0.4504   1.0538   0.00    1.0
2018/03/11 10:25:21.000   78.254768200   16.249366838   341.6982   2   9   0.6430   0.3529   2.1569   0.1840   0.4025   0.9416   0.00    1.1
2018/03/11 10:25:22.000   78.254766017   16.249363817   341.1626   2   9   0.5866   0.3221   1.9660   0.1677   0.3668   0.8581   0.00    1.1
2018/03/11 10:25:23.000   78.254763518   16.249365896   340.8738   2   9   0.5425   0.2982   1.8164   0.1549   0.3388   0.7927   0.00    1.1
2018/03/11 10:25:24.000   78.254762049   16.249369054   340.8589   2   9   0.5068   0.2789   1.6948   0.1446   0.3161   0.7395   0.00    1.2
2018/03/11 10:25:25.000   78.254762881   16.249370004   341.0117   2   9   0.4771   0.2629   1.5932   0.1359   0.2971   0.6951   0.00    1.2
2018/03/11 10:25:26.000   78.254762365   16.249374476   340.5484   2   9   0.4519   0.2493   1.5065   0.1285   0.2809   0.6571   0.00    1.2
2018/03/11 10:25:27.000   78.254761944   16.249375836   340.1330   2   9   0.4301   0.2377   1.4311   0.1221   0.2668   0.6240   0.00    1.2
2018/03/11 10:25:28.000   78.254763950   16.249377935   340.9076   2   9   0.4109   0.2275   1.3647   0.1164   0.2543   0.5949   0.00    1.2
2018/03/11 10:25:29.000   78.254765430   16.249378601   341.7014   2   9   0.3940   0.2185   1.3055   0.1114   0.2432   0.5689   0.00    1.2
2018/03/11 10:25:30.000   78.254765466   16.249379780   341.8126   2   9   0.3787   0.2105   1.2521   0.1068   0.2332   0.5454   0.00    1.2
2018/03/11 10:25:31.000   78.254765384   16.249381120   341.7435   2   9   0.3650   0.2032   1.2036   0.1027   0.2241   0.5241   0.00    1.2
2018/03/11 10:25:32.000   78.254765201   16.249382196   341.7930   2   9   0.3525   0.1967   1.1593   0.0989   0.2158   0.5046   0.00    1.2
2018/03/11 10:25:33.000   78.254764731   16.249381456   341.8125   2   9   0.3410   0.1908   1.1184   0.0955   0.2081   0.4866   0.00    1.2
2018/03/11 10:25:34.000   78.254764826   16.249380181   341.9551   2   9   0.3304   0.1853   1.0805   0.0922   0.2010   0.4699   0.00    1.2
2018/03/11 10:25:35.000   78.254764806   16.249378877   341.9586   2   9   0.3206   0.1803   1.0453   0.0892   0.1944   0.4543   0.00    1.2
2018/03/11 10:25:36.000   78.254765361   16.249376860   342.3356   2   9   0.3115   0.1756   1.0124   0.0864   0.1882   0.4397   0.00    1.2
2018/03/11 10:25:37.000   78.254765492   16.249375886   342.4051   2   9   0.3030   0.1713   0.9814   0.0838   0.1823   0.4261   0.00    1.2
2018/03/11 10:25:38.000   78.254765316   16.249374493   342.3653   2   9   0.2951   0.1673   0.9523   0.0814   0.1768   0.4132   0.00    1.1
2018/03/11 10:25:39.000   78.254765676   16.249374298   342.3329   2   9   0.2876   0.1635   0.9248   0.0790   0.1717   0.4010   0.00    1.1
2018/03/11 10:25:40.000   78.254764961   16.249374905   342.0909   2   9   0.2806   0.1600   0.8988   0.0768   0.1667   0.3894   0.00    1.1
2018/03/11 10:25:41.000   78.254765013   16.249376288   341.9100   2   9   0.2739   0.1567   0.8741   0.0747   0.1621   0.3785   0.00    1.1
2018/03/11 10:25:42.000   78.254765182   16.249377889   341.9053   2   9   0.2676   0.1535   0.8506   0.0728   0.1576   0.3680   0.00    1.1
2018/03/11 10:25:43.000   78.254764946   16.249378917   341.8237   2   9   0.2616   0.1506   0.8282   0.0709   0.1534   0.3580   0.00    1.1
2018/03/11 10:25:44.000   78.254764486   16.249379681   341.7159   2   9   0.2559   0.1478   0.8068   0.0691   0.1494   0.3485   0.00    1.1
2018/03/11 10:25:45.000   78.254764123   16.249378889   341.6665   2   9   0.2505   0.1451   0.7863   0.0673   0.1455   0.3394   0.00    1.1
2018/03/11 10:25:46.000   78.254764225   16.249376483   341.7290   2   9   0.2454   0.1426   0.7667   0.0657   0.1418   0.3306   0.00    1.1
2018/03/11 10:25:47.000   78.254763849   16.249373855   341.6950   2   9   0.2404   0.1402   0.7479   0.0641   0.1382   0.3223   0.00    1.0
2018/03/11 10:25:48.000   78.254763626   16.249371845   341.7973   2   9   0.2357   0.1379   0.7299   0.0626   0.1348   0.3142   0.00    1.0
2018/03/11 10:25:49.000   78.254763908   16.249369881   341.9750   2   9   0.2312   0.1357   0.7125   0.0612   0.1315   0.3064   0.00    1.0
2018/03/11 10:25:50.000   78.254764184   16.249369709   342.2677   2   9   0.2268   0.1336   0.6958   0.0598   0.1283   0.2990   0.00    1.0
2018/03/11 10:25:51.000   78.254764884   16.249370329   342.4643   2   9   0.2227   0.1316   0.6797   0.0584   0.1253   0.2918   0.00    1.0
2018/03/11 10:25:52.000   78.254765438   16.249372872   342.7157   2   9   0.2187   0.1296   0.6643   0.0572   0.1223   0.2848   0.00    1.0
2018/03/11 10:25:53.000   78.254766098   16.249373667   342.8985   2   9   0.2148   0.1278   0.6493   0.0559   0.1195   0.2781   0.00    1.0
2018/03/11 10:25:54.000   78.254766609   16.249373755   342.9817   2   9   0.2111   0.1260   0.6349   0.0547   0.1167   0.2717   0.00    1.0
2018/03/11 10:25:55.000   78.254766563   16.249374588   342.7983   2   9   0.2075   0.1243   0.6210   0.0536   0.1141   0.2654   0.00    1.0
2018/03/11 10:25:56.000   78.254766320   16.249374042   342.6052   2   9   0.2041   0.1226   0.6076   0.0525   0.1115   0.2594   0.00    1.0
2018/03/11 10:25:57.000   78.254766406   16.249373725   342.4850   2   9   0.2007   0.1211   0.5945   0.0514   0.1090   0.2535   0.00    1.1
2018/03/11 10:25:58.000   78.254766666   16.249374127   342.3639   2   9   0.1975   0.1195   0.5820   0.0504   0.1066   0.2479   0.00    1.1
2018/03/11 10:25:59.000   78.254767046   16.249374339   342.3794   2   9   0.1944   0.1180   0.5698   0.0494   0.1043   0.2424   0.00    1.1
2018/03/11 10:26:00.000   78.254767079   16.249374608   342.5057   2   9   0.1914   0.1166   0.5580   0.0484   0.1021   0.2371   0.00    1.1
2018/03/11 10:26:01.000   78.254767263   16.249375586   342.6959   2   9   0.1885   0.1152   0.5466   0.0475   0.0999   0.2319   0.00    1.1
2018/03/11 10:26:02.000   78.254767379   16.249376411   342.8446   2   9   0.1857   0.1139   0.5355   0.0466   0.0978   0.2269   0.00    1.1
2018/03/11 10:26:03.000   78.254767681   16.249377130   342.9248   2   9   0.1829   0.1126   0.5248   0.0458   0.0957   0.2221   0.00    1.1
2018/03/11 10:26:04.000   78.254767441   16.249378216   342.8959   2   9   0.1803   0.1113   0.5144   0.0449   0.0937   0.2174   0.00    1.1
2018/03/11 10:26:05.000   78.254767547   16.249378225   342.9831   2   9   0.1777   0.1101   0.5044   0.0441   0.0918   0.2129   0.00    1.1
2018/03/11 10:26:06.000   78.254767609   16.249378892   343.0044   2   9   0.1752   0.1089   0.4946   0.0433   0.0899   0.2084   0.00    1.1
2018/03/11 10:26:07.000   78.254767668   16.249379122   343.0934   2   9   0.1728   0.1077   0.4851   0.0426   0.0881   0.2041   0.00    1.1
2018/03/11 10:26:08.000   78.254767536   16.249379364   343.1655   2   9   0.1705   0.1066   0.4759   0.0419   0.0863   0.2000   0.00    1.1
2018/03/11 10:26:09.000   78.254767304   16.249379050   343.1778   2   9   0.1682   0.1055   0.4669   0.0412   0.0846   0.1959   0.00    1.2
2018/03/11 10:26:10.000   78.254767527   16.249379236   343.2198   2   9   0.1660   0.1044   0.4582   0.0405   0.0829   0.1920   0.00    1.2
2018/03/11 10:26:11.000   78.254767517   16.249378994   343.2365   2   9   0.1638   0.1034   0.4498   0.0398   0.0813   0.1881   0.00    1.2
2018/03/11 10:26:12.000   78.254767492   16.249378600   343.2539   2   9   0.1617   0.1024   0.4415   0.0392   0.0797   0.1844   0.00    1.2
2018/03/11 10:26:13.000   78.254767733   16.249378819   343.3141   2   9   0.1597   0.1014   0.4336   0.0386   0.0782   0.1808   0.00    1.2
2018/03/11 10:26:14.000   78.254767718   16.249379273   343.3039   2   9   0.1577   0.1005   0.4258   0.0380   0.0767   0.1773   0.00    1.3
2018/03/11 10:26:15.000   78.254767801   16.249379984   343.3384   2   9   0.1557   0.0995   0.4182   0.0374   0.0752   0.1738   0.00    1.3
2018/03/11 10:26:16.000   78.254767821   16.249380788   343.3808   2   9   0.1539   0.0986   0.4109   0.0368   0.0738   0.1705   0.00    1.3
2018/03/11 10:26:17.000   78.254767978   16.249380323   343.4657   2   9   0.1520   0.0977   0.4037   0.0363   0.0724   0.1672   0.00    1.3
2018/03/11 10:26:18.000   78.254768141   16.249380196   343.4992   2   9   0.1502   0.0968   0.3968   0.0358   0.0711   0.1641   0.00    1.3
2018/03/11 10:26:19.000   78.254768086   16.249379676   343.4799   2   9   0.1485   0.0960   0.3900   0.0353   0.0697   0.1610   0.00    1.4
2018/03/11 10:26:20.000   78.254768089   16.249378840   343.4880   2   9   0.1468   0.0952   0.3834   0.0348   0.0685   0.1580   0.00    1.4
2018/03/11 10:26:21.000   78.254767996   16.249378284   343.4372   2   9   0.1451   0.0943   0.3770   0.0343   0.0672   0.1551   0.00    1.4
2018/03/11 10:26:22.000   78.254768032   16.249377610   343.4033   2   9   0.1435   0.0935   0.3707   0.0338   0.0660   0.1522   0.00    1.4
2018/03/11 10:26:23.000   78.254767752   16.249377138   343.3510   2   9   0.1419   0.0928   0.3646   0.0334   0.0648   0.1495   0.00    1.5
2018/03/11 10:26:24.000   78.254767489   16.249376646   343.3163   2   9   0.1403   0.0920   0.3587   0.0330   0.0637   0.1467   0.00    1.5
2018/03/11 10:26:25.000   78.254767438   16.249376371   343.3668   2   9   0.1388   0.0913   0.3529   0.0326   0.0625   0.1441   0.00    1.5
2018/03/11 10:26:26.000   78.254767504   16.249376359   343.4411   2   9   0.1373   0.0905   0.3473   0.0322   0.0614   0.1415   0.00    1.5
2018/03/11 10:26:27.000   78.254767766   16.249376441   343.5159   2   9   0.1359   0.0898   0.3418   0.0318   0.0604   0.1390   0.00    1.5
2018/03/11 10:26:28.000   78.254768052   16.249377233   343.5940   2   9   0.1345   0.0891   0.3364   0.0314   0.0593   0.1366   0.00    1.6
2018/03/11 10:26:29.000   78.254768482   16.249378676   343.7003   2   9   0.1331   0.0884   0.3312   0.0310   0.0583   0.1342   0.00    1.6
2018/03/11 10:26:30.000   78.254768830   16.249379371   343.8003   2   9   0.1317   0.0877   0.3261   0.0307   0.0573   0.1319   0.00    1.6
2018/03/11 10:26:31.000   78.254768942   16.249379218   343.8736   2   9   0.1304   0.0871   0.3211   0.0303   0.0563   0.1296   0.00    1.6
2018/03/11 10:26:32.000   78.254768894   16.249379513   343.8918   2   9   0.1291   0.0864   0.3162   0.0300   0.0554   0.1274   0.00    1.6
2018/03/11 10:26:33.000   78.254768780   16.249380092   343.8860   2   9   0.1278   0.0858   0.3115   0.0297   0.0544   0.1252   0.00    1.6
2018/03/11 10:26:34.000   78.254768705   16.249379875   343.8748   2   9   0.1266   0.0851   0.3068   0.0293   0.0535   0.1231   0.00    1.6
2018/03/11 10:26:35.000   78.254768493   16.249379977   343.8389   2   9   0.1254   0.0845   0.3023   0.0290   0.0526   0.1210   0.00    1.6
2018/03/11 10:26:36.000   78.254768628   16.249379491   343.8821   2   9   0.1242   0.0839   0.2979   0.0288   0.0518   0.1190   0.00    1.6
2018/03/11 10:26:37.000   78.254768666   16.249378482   343.9044   2   9   0.1230   0.0833   0.2936   0.0285   0.0509   0.1170   0.00    1.6
2018/03/11 10:26:38.000   78.254768621   16.249378361   343.9385   2   9   0.1218   0.0827   0.2894   0.0282   0.0501   0.1151   0.00    1.6
2018/03/11 10:26:39.000   78.254768541   16.249378176   343.9727   2   9   0.1207   0.0822   0.2852   0.0279   0.0493   0.1132   0.00    1.6
2018/03/11 10:26:40.000   78.254768664   16.249378257   344.0180   2   9   0.1196   0.0816   0.2812   0.0277   0.0485   0.1114   0.00    1.6
2018/03/11 10:26:41.000   78.254768848   16.249378574   344.0331   2   9   0.1185   0.0810   0.2773   0.0274   0.0477   0.1096   0.00    1.6
2018/03/11 10:26:42.000   78.254768861   16.249379432   344.0796   2   9   0.1174   0.0805   0.2734   0.0272   0.0469   0.1078   0.00    1.6
2018/03/11 10:26:43.000   78.254769012   16.249380157   344.1307   2   9   0.1164   0.0800   0.2697   0.0269   0.0462   0.1061   0.00    1.6
2018/03/11 10:26:44.000   78.254769120   16.249380608   344.2030   2   9   0.1154   0.0794   0.2660   0.0267   0.0454   0.1044   0.00    1.6
2018/03/11 10:26:45.000   78.254769193   16.249380606   344.2783   2   9   0.1144   0.0789   0.2624   0.0265   0.0447   0.1027   0.00    1.6
2018/03/11 10:26:46.000   78.254769196   16.249380820   344.2858   2   9   0.1134   0.0784   0.2589   0.0263   0.0440   0.1011   0.00    1.6
2018/03/11 10:26:47.000   78.254769045   16.249381446   344.2694   2   9   0.1124   0.0779   0.2554   0.0260   0.0433   0.0996   0.00    1.6
2018/03/11 10:26:48.000   78.254769109   16.249381477   344.2612   2   9   0.1114   0.0774   0.2521   0.0258   0.0427   0.0980   0.00    1.6
2018/03/11 10:26:49.000   78.254769177   16.249380886   344.2658   2   9   0.1105   0.0769   0.2488   0.0256   0.0420   0.0965   0.00    1.6
2018/03/11 10:26:50.000   78.254769202   16.249380275   344.2430   2   9   0.1096   0.0764   0.2456   0.0255   0.0414   0.0950   0.00    1.6
2018/03/11 10:26:51.000   78.254769153   16.249379703   344.2187   2   9   0.1087   0.0759   0.2424   0.0253   0.0407   0.0936   0.00    1.6
2018/03/11 10:26:52.000   78.254769157   16.249379313   344.2183   2   9   0.1078   0.0755   0.2393   0.0251   0.0401   0.0922   0.00    1.6
2018/03/11 10:26:53.000   78.254769193   16.249379062   344.2226   2   9   0.1069   0.0750   0.2363   0.0249   0.0395   0.0908   0.00    1.6
2018/03/11 10:26:55.000   78.254769326   16.249378943   344.2365   2   9   0.1060   0.0745   0.2332   0.0247   0.0389   0.0894   0.00    1.7
2018/03/11 10:26:56.000   78.254769459   16.249378991   344.2696   2   9   0.1052   0.0741   0.2302   0.0246   0.0383   0.0880   0.00    1.7
2018/03/11 10:26:57.000   78.254769638   16.249378708   344.2975   2   9   0.1043   0.0736   0.2273   0.0244   0.0377   0.0866   0.00    1.7
2018/03/11 10:26:58.000   78.254769714   16.249378476   344.3224   2   9   0.1035   0.0732   0.2244   0.0242   0.0371   0.0853   0.00    1.7
2018/03/11 10:26:59.000   78.254769664   16.249378121   344.3338   2   9   0.1026   0.0728   0.2216   0.0241   0.0365   0.0840   0.00    1.7
2018/03/11 10:27:00.000   78.254769648   16.249377884   344.3377   2   9   0.1018   0.0723   0.2188   0.0239   0.0360   0.0828   0.00    1.7
2018/03/11 10:27:01.000   78.254769551   16.249377823   344.3180   2   9   0.1010   0.0719   0.2162   0.0238   0.0354   0.0815   0.00    1.7
2018/03/11 10:27:02.000   78.254769404   16.249377713   344.2902   2   9   0.1002   0.0715   0.2135   0.0237   0.0349   0.0803   0.00    1.7
2018/03/11 10:27:03.000   78.254769308   16.249377355   344.2789   2   9   0.0995   0.0711   0.2110   0.0235   0.0343   0.0791   0.00    1.7
2018/03/11 10:27:04.000   78.254769291   16.249376953   344.2712   2   9   0.0987   0.0707   0.2084   0.0234   0.0338   0.0780   0.00    1.6
2018/03/11 10:27:05.000   78.254769258   16.249376621   344.2608   2   9   0.0980   0.0703   0.2060   0.0233   0.0333   0.0768   0.00    1.6
2018/03/11 10:27:06.000   78.254769207   16.249376413   344.2552   2   9   0.0972   0.0699   0.2036   0.0231   0.0328   0.0757   0.00    1.6
2018/03/11 10:27:07.000   78.254769238   16.249376108   344.2436   2   9   0.0965   0.0695   0.2012   0.0230   0.0323   0.0746   0.00    1.6
2018/03/11 10:27:08.000   78.254769226   16.249376208   344.2298   2   9   0.0958   0.0691   0.1989   0.0229   0.0318   0.0736   0.00    1.6
2018/03/11 10:27:09.000   78.254769252   16.249376127   344.2546   2   9   0.0951   0.0687   0.1966   0.0228   0.0314   0.0725   0.00    1.6
2018/03/11 10:27:10.000   78.254769251   16.249376092   344.2600   2   9   0.0944   0.0683   0.1944   0.0227   0.0309   0.0715   0.00    1.6
2018/03/11 10:27:11.000   78.254769233   16.249376310   344.2616   2   9   0.0937   0.0680   0.1922   0.0226   0.0305   0.0705   0.00    1.6
2018/03/11 10:27:12.000   78.254769265   16.249376594   344.2640   2   9   0.0930   0.0676   0.1901   0.0224   0.0300   0.0695   0.00    1.6
2018/03/11 10:27:13.000   78.254769303   16.249376537   344.2853   2   9   0.0924   0.0672   0.1880   0.0223   0.0296   0.0686   0.00    1.6
2018/03/11 10:27:14.000   78.254769318   16.249376480   344.2986   2   9   0.0917   0.0669   0.1859   0.0222   0.0292   0.0676   0.00    1.6
2018/03/11 10:27:15.000   78.254769267   16.249376161   344.3119   2   9   0.0911   0.0665   0.1839   0.0221   0.0287   0.0667   0.00    1.6
2018/03/11 10:27:16.000   78.254769243   16.249375946   344.3231   2   9   0.0904   0.0662   0.1819   0.0220   0.0283   0.0658   0.00    1.6
2018/03/11 10:27:17.000   78.254769271   16.249375657   344.3447   2   9   0.0898   0.0658   0.1800   0.0219   0.0279   0.0649   0.00    1.6
2018/03/11 10:27:18.000   78.254769291   16.249375523   344.3492   2   9   0.0892   0.0655   0.1781   0.0218   0.0275   0.0640   0.00    1.6
2018/03/11 10:27:19.000   78.254769359   16.249375352   344.3476   2   9   0.0886   0.0651   0.1762   0.0218   0.0271   0.0632   0.00    1.6
2018/03/11 10:27:20.000   78.254769478   16.249375355   344.3445   2   9   0.0880   0.0648   0.1744   0.0217   0.0267   0.0623   0.00    1.6
2018/03/11 10:27:21.000   78.254769621   16.249375184   344.3697   2   9   0.0874   0.0645   0.1725   0.0216   0.0263   0.0615   0.00    1.6
2018/03/11 10:27:22.000   78.254769745   16.249374962   344.3914   2   9   0.0868   0.0641   0.1708   0.0215   0.0260   0.0607   0.00    1.6
2018/03/11 10:27:23.000   78.254769841   16.249374860   344.4124   2   9   0.0862   0.0638   0.1690   0.0214   0.0256   0.0599   0.00    1.6
2018/03/11 10:27:24.000   78.254769869   16.249374753   344.4180   2   9   0.0857   0.0635   0.1673   0.0213   0.0252   0.0591   0.00    1.6
2018/03/11 10:27:25.000   78.254769819   16.249374717   344.4172   2   9   0.0851   0.0632   0.1657   0.0212   0.0249   0.0584   0.00    1.6
2018/03/11 10:27:26.000   78.254769826   16.249374177   344.4226   2   9   0.0846   0.0629   0.1640   0.0212   0.0245   0.0576   0.00    1.6
2018/03/11 10:27:27.000   78.254769851   16.249373897   344.4227   2   9   0.0840   0.0626   0.1624   0.0211   0.0242   0.0569   0.00    1.6
2018/03/11 10:27:28.000   78.254769869   16.249373954   344.4339   2   9   0.0835   0.0622   0.1608   0.0210   0.0238   0.0562   0.00    1.6
2018/03/11 10:27:29.000   78.254769860   16.249373812   344.4561   2   9   0.0829   0.0619   0.1592   0.0209   0.0235   0.0554   0.00    1.6
2018/03/11 10:27:30.000   78.254769935   16.249373694   344.4775   2   9   0.0824   0.0616   0.1577   0.0209   0.0232   0.0547   0.00    1.6
2018/03/11 10:27:31.000   78.254769983   16.249373659   344.5042   2   9   0.0819   0.0613   0.1562   0.0208   0.0228   0.0541   0.00    1.6
2018/03/11 10:27:32.000   78.254770045   16.249373476   344.5230   2   9   0.0814   0.0611   0.1547   0.0207   0.0225   0.0534   0.00    1.6
2018/03/11 10:27:33.000   78.254770144   16.249373059   344.5439   2   9   0.0809   0.0608   0.1533   0.0207   0.0222   0.0527   0.00    1.6
2018/03/11 10:27:34.000   78.254770221   16.249372629   344.5558   2   9   0.0804   0.0605   0.1518   0.0206   0.0219   0.0521   0.00    1.6
2018/03/11 10:27:35.000   78.254770285   16.249372494   344.5724   2   9   0.0799   0.0602   0.1504   0.0205   0.0216   0.0514   0.00    1.6
2018/03/11 10:27:36.000   78.254770292   16.249372187   344.5815   2   9   0.0794   0.0599   0.1490   0.0205   0.0213   0.0508   0.00    1.6
2018/03/11 10:27:37.000   78.254770256   16.249372166   344.5881   2   9   0.0789   0.0596   0.1477   0.0204   0.0210   0.0502   0.00    1.6
2018/03/11 10:27:38.000   78.254770215   16.249372264   344.6102   2   9   0.0784   0.0593   0.1463   0.0203   0.0207   0.0496   0.00    1.6
2018/03/11 10:27:39.000   78.254770183   16.249372501   344.6232   2   9   0.0780   0.0591   0.1450   0.0203   0.0204   0.0490   0.00    1.5
2018/03/11 10:27:40.000   78.254770169   16.249372562   344.6367   2   9   0.0775   0.0588   0.1437   0.0202   0.0201   0.0484   0.00    1.5
2018/03/11 10:27:41.000   78.254770209   16.249372389   344.6449   2   9   0.0770   0.0585   0.1424   0.0201   0.0198   0.0478   0.00    1.5
2018/03/11 10:27:42.000   78.254770234   16.249372214   344.6594   2   9   0.0766   0.0583   0.1412   0.0201   0.0195   0.0472   0.00    1.5
2018/03/11 10:27:43.000   78.254770239   16.249371877   344.6642   2   9   0.0761   0.0580   0.1399   0.0200   0.0193   0.0467   0.00    1.5
2018/03/11 10:27:44.000   78.254770243   16.249371491   344.6606   2   9   0.0757   0.0577   0.1387   0.0200   0.0190   0.0461   0.00    1.5
2018/03/11 10:27:45.000   78.254770295   16.249371079   344.6549   2   9   0.0752   0.0575   0.1375   0.0199   0.0187   0.0456   0.00    1.5
2018/03/11 10:27:46.000   78.254770321   16.249370906   344.6592   2   9   0.0748   0.0572   0.1363   0.0199   0.0185   0.0450   0.00    1.5
2018/03/11 10:27:47.000   78.254770371   16.249370474   344.6720   2   9   0.0744   0.0570   0.1352   0.0198   0.0182   0.0445   0.00    1.5
2018/03/11 10:27:48.000   78.254770534   16.249370312   344.6907   2   9   0.0739   0.0567   0.1340   0.0197   0.0179   0.0440   0.00    1.5
2018/03/11 10:27:49.000   78.254770651   16.249370499   344.7041   2   9   0.0735   0.0565   0.1329   0.0197   0.0177   0.0435   0.00    1.5
2018/03/11 10:27:50.000   78.254770760   16.249370809   344.7226   2   9   0.0731   0.0562   0.1318   0.0196   0.0174   0.0430   0.00    1.5
2018/03/11 10:27:51.000   78.254770884   16.249371068   344.7461   2   9   0.0727   0.0560   0.1307   0.0196   0.0172   0.0425   0.00    1.4
2018/03/11 10:27:52.000   78.254770889   16.249371187   344.7542   2   9   0.0723   0.0557   0.1296   0.0195   0.0169   0.0420   0.00    1.4
2018/03/11 10:27:53.000   78.254770923   16.249371200   344.7580   2   9   0.0719   0.0555   0.1286   0.0195   0.0167   0.0415   0.00    1.4
2018/03/11 10:27:54.000   78.254770891   16.249370897   344.7611   2   9   0.0715   0.0553   0.1275   0.0194   0.0164   0.0410   0.00    1.4
2018/03/11 10:27:55.000   78.254770842   16.249370372   344.7690   2   9   0.0711   0.0550   0.1265   0.0194   0.0162   0.0406   0.00    1.4
2018/03/11 10:27:56.000   78.254770816   16.249369974   344.7761   2   9   0.0707   0.0548   0.1255   0.0193   0.0160   0.0401   0.00    1.4
2018/03/11 10:27:57.000   78.254770832   16.249369949   344.7747   2   9   0.0703   0.0546   0.1245   0.0193   0.0157   0.0397   0.00    1.4
2018/03/11 10:27:58.000   78.254770786   16.249369910   344.7727   2   9   0.0699   0.0543   0.1235   0.0192   0.0155   0.0392   0.00    1.4
2018/03/11 10:27:59.000   78.254770743   16.249369828   344.7747   2   9   0.0696   0.0541   0.1225   0.0192   0.0153   0.0388   0.00    1.4
2018/03/11 10:28:00.000   78.254770735   16.249369557   344.7850   2   9   0.0692   0.0539   0.1215   0.0191   0.0150   0.0383   0.00    1.4
2018/03/11 10:28:01.000   78.254770757   16.249369241   344.7979   2   9   0.0688   0.0536   0.1206   0.0191   0.0148   0.0379   0.00    1.4
2018/03/11 10:28:02.000   78.254770770   16.249369106   344.8130   2   9   0.0684   0.0534   0.1197   0.0190   0.0146   0.0375   0.00    1.3
2018/03/11 10:28:03.000   78.254770771   16.249368922   344.8241   2   9   0.0681   0.0532   0.1188   0.0190   0.0144   0.0371   0.00    1.3
2018/03/11 10:28:04.000   78.254770763   16.249368903   344.8222   2   9   0.0677   0.0530   0.1178   0.0190   0.0142   0.0367   0.00    1.3
2018/03/11 10:28:05.000   78.254770760   16.249369017   344.8133   2   9   0.0674   0.0528   0.1170   0.0189   0.0139   0.0363   0.00    1.3
2018/03/11 10:28:06.000   78.254770763   16.249369035   344.8000   2   9   0.0670   0.0526   0.1161   0.0189   0.0137   0.0359   0.00    1.3
2018/03/11 10:28:07.000   78.254770783   16.249368850   344.7938   2   9   0.0667   0.0523   0.1152   0.0188   0.0135   0.0355   0.00    1.3
2018/03/11 10:28:08.000   78.254770762   16.249368582   344.7937   2   9   0.0663   0.0521   0.1144   0.0188   0.0133   0.0351   0.00    1.3
2018/03/11 10:28:09.000   78.254770703   16.249368411   344.7947   2   9   0.0660   0.0519   0.1135   0.0187   0.0131   0.0347   0.00    1.3
2018/03/11 10:28:10.000   78.254770685   16.249368409   344.7925   2   9   0.0656   0.0517   0.1127   0.0187   0.0129   0.0344   0.00    1.3
2018/03/11 10:28:11.000   78.254770692   16.249368330   344.8007   2   9   0.0653   0.0515   0.1119   0.0186   0.0127   0.0340   0.00    1.3
2018/03/11 10:28:12.000   78.254770698   16.249368231   344.8007   2   9   0.0650   0.0513   0.1110   0.0186   0.0125   0.0336   0.00    1.3
2018/03/11 10:28:13.000   78.254770707   16.249368466   344.8044   2   9   0.0647   0.0511   0.1102   0.0186   0.0123   0.0333   0.00    1.3
2018/03/11 10:28:14.000   78.254770705   16.249368772   344.8122   2   9   0.0643   0.0509   0.1095   0.0185   0.0121   0.0329   0.00    1.2
2018/03/11 10:28:15.000   78.254770731   16.249368994   344.8212   2   9   0.0640   0.0507   0.1087   0.0185   0.0119   0.0326   0.00    1.2
2018/03/11 10:28:16.000   78.254770751   16.249369118   344.8315   2   9   0.0637   0.0505   0.1079   0.0184   0.0117   0.0322   0.00    1.2
2018/03/11 10:28:17.000   78.254770730   16.249369114   344.8289   2   9   0.0634   0.0503   0.1071   0.0184   0.0115   0.0319   0.00    1.2
2018/03/11 10:28:18.000   78.254770685   16.249369222   344.8219   2   9   0.0631   0.0501   0.1064   0.0183   0.0113   0.0316   0.00    1.2
2018/03/11 10:28:19.000   78.254770612   16.249369261   344.8075   2   9   0.0628   0.0499   0.1057   0.0183   0.0111   0.0312   0.00    1.2
2018/03/11 10:28:20.000   78.254770547   16.249368976   344.8008   2   9   0.0624   0.0497   0.1049   0.0183   0.0109   0.0309   0.00    1.2
2018/03/11 10:28:21.000   78.254770465   16.249368718   344.7903   2   9   0.0621   0.0495   0.1042   0.0182   0.0107   0.0306   0.00    1.2
2018/03/11 10:28:22.000   78.254770388   16.249368476   344.7791   2   9   0.0618   0.0494   0.1035   0.0182   0.0105   0.0303   0.00    1.2
2018/03/11 10:28:23.000   78.254770315   16.249368246   344.7750   2   9   0.0615   0.0492   0.1028   0.0181   0.0103   0.0299   0.00    1.2
2018/03/11 10:28:24.000   78.254770333   16.249368025   344.7707   2   9   0.0613   0.0490   0.1021   0.0181   0.0101   0.0296   0.00    1.2
2018/03/11 10:28:25.000   78.254770395   16.249367865   344.7772   2   9   0.0610   0.0488   0.1014   0.0181   0.0100   0.0293   0.00    1.2
2018/03/11 10:28:26.000   78.254770419   16.249367867   344.7828   2   9   0.0607   0.0486   0.1007   0.0180   0.0098   0.0290   0.00    1.1
2018/03/11 10:28:27.000   78.254770437   16.249367927   344.7899   2   9   0.0604   0.0484   0.1001   0.0180   0.0096   0.0287   0.00    1.1
2018/03/11 10:28:28.000   78.254770456   16.249368098   344.7934   2   9   0.0601   0.0483   0.0994   0.0179   0.0094   0.0284   0.00    1.1
2018/03/11 10:28:29.000   78.254770455   16.249368354   344.7929   2   9   0.0598   0.0481   0.0988   0.0179   0.0092   0.0282   0.00    1.1
2018/03/11 10:28:30.000   78.254770443   16.249368593   344.7875   2   9   0.0595   0.0479   0.0981   0.0179   0.0090   0.0279   0.00    1.1
2018/03/11 10:28:31.000   78.254770405   16.249368766   344.7767   2   9   0.0593   0.0477   0.0975   0.0178   0.0089   0.0276   0.00    1.1
2018/03/11 10:28:32.000   78.254770344   16.249368758   344.7698   2   9   0.0590   0.0475   0.0969   0.0178   0.0087   0.0273   0.00    1.1
2018/03/11 10:28:33.000   78.254770257   16.249368504   344.7607   2   9   0.0587   0.0474   0.0962   0.0177   0.0085   0.0270   0.00    1.1
2018/03/11 10:28:34.000   78.254770172   16.249367984   344.7538   2   9   0.0584   0.0472   0.0956   0.0177   0.0083   0.0268   0.00    1.1
2018/03/11 10:28:35.000   78.254770102   16.249367625   344.7433   2   9   0.0582   0.0470   0.0950   0.0177   0.0081   0.0265   0.00    1.1
2018/03/11 10:28:36.000   78.254770067   16.249367367   344.7292   2   9   0.0579   0.0469   0.0944   0.0176   0.0080   0.0262   0.00    1.1
2018/03/11 10:28:37.000   78.254770079   16.249367308   344.7182   2   9   0.0577   0.0467   0.0938   0.0176   0.0078   0.0260   0.00    1.1
2018/03/11 10:28:38.000   78.254770176   16.249367639   344.7079   2   9   0.0574   0.0465   0.0932   0.0176   0.0076   0.0257   0.00    1.1
2018/03/11 10:28:39.000   78.254770237   16.249368133   344.7016   2   9   0.0571   0.0464   0.0927   0.0175   0.0074   0.0255   0.00    1.1
2018/03/11 10:28:40.000   78.254770310   16.249368290   344.6995   2   9   0.0569   0.0462   0.0921   0.0175   0.0072   0.0252   0.00    1.0
2018/03/11 10:28:41.000   78.254770328   16.249368231   344.7015   2   9   0.0566   0.0460   0.0915   0.0175   0.0070   0.0250   0.00    1.0
2018/03/11 10:28:42.000   78.254770315   16.249368107   344.6985   2   9   0.0564   0.0459   0.0910   0.0174   0.0069   0.0247   0.00    1.0
2018/03/11 10:28:43.000   78.254770282   16.249368186   344.6927   2   9   0.0561   0.0457   0.0904   0.0174   0.0067   0.0245   0.00    1.0
2018/03/11 10:28:44.000   78.254770222   16.249368175   344.6804   2   9   0.0559   0.0456   0.0899   0.0173   0.0065   0.0242   0.00    1.0
2018/03/11 10:28:45.000   78.254770120   16.249368192   344.6662   2   9   0.0556   0.0454   0.0893   0.0173   0.0063   0.0240   0.00    1.0
2018/03/11 10:28:46.000   78.254770030   16.249368313   344.6521   2   9   0.0554   0.0452   0.0888   0.0173   0.0061   0.0237   0.00    1.0
2018/03/11 10:28:47.000   78.254769948   16.249368392   344.6422   2   9   0.0552   0.0451   0.0883   0.0172   0.0059   0.0235   0.00    1.0
2018/03/11 10:28:48.000   78.254769864   16.249368399   344.6318   2   9   0.0549   0.0449   0.0878   0.0172   0.0057   0.0233   0.00    1.0
2018/03/11 10:28:49.000   78.254769788   16.249368433   344.6300   2   9   0.0547   0.0448   0.0873   0.0172   0.0055   0.0231   0.00    1.0
2018/03/11 10:28:50.000   78.254769737   16.249368493   344.6336   2   9   0.0545   0.0446   0.0867   0.0171   0.0054   0.0228   0.00    1.0
2018/03/11 10:28:51.000   78.254769724   16.249368601   344.6380   2   9   0.0542   0.0445   0.0862   0.0171   0.0052   0.0226   0.00    1.0
2018/03/11 10:28:52.000   78.254769756   16.249368874   344.6402   2   9   0.0540   0.0443   0.0857   0.0171   0.0050   0.0224   0.00    1.0
2018/03/11 10:28:53.000   78.254769805   16.249369118   344.6488   2   9   0.0538   0.0442   0.0853   0.0170   0.0047   0.0222   0.00    1.0
2018/03/11 10:28:54.000   78.254769869   16.249369476   344.6551   2   9   0.0535   0.0440   0.0848   0.0170   0.0045   0.0220   0.00    1.0
2018/03/11 10:28:55.000   78.254769904   16.249369683   344.6637   2   9   0.0533   0.0439   0.0843   0.0170   0.0043   0.0218   0.00    1.1
2018/03/11 10:28:56.000   78.254769931   16.249369850   344.6638   2   9   0.0531   0.0437   0.0838   0.0169   0.0041   0.0215   0.00    1.1
2018/03/11 10:28:57.000   78.254769926   16.249369943   344.6597   2   9   0.0529   0.0436   0.0833   0.0169   0.0039   0.0213   0.00    1.1
2018/03/11 10:28:58.000   78.254769854   16.249369860   344.6553   2   9   0.0526   0.0434   0.0829   0.0169   0.0036   0.0211   0.00    1.1
2018/03/11 10:28:59.000   78.254769788   16.249369644   344.6509   2   9   0.0524   0.0433   0.0824   0.0168   0.0034   0.0209   0.00    1.1
2018/03/11 10:29:00.000   78.254769682   16.249369271   344.6420   2   9   0.0522   0.0431   0.0820   0.0168   0.0031   0.0207   0.00    1.1
2018/03/11 10:29:01.000   78.254769597   16.249368962   344.6319   2   9   0.0520   0.0430   0.0815   0.0168   0.0028   0.0205   0.00    1.1
2018/03/11 10:29:02.000   78.254769521   16.249368477   344.6274   2   9   0.0518   0.0429   0.0811   0.0167   0.0025   0.0203   0.00    1.1
2018/03/11 10:29:03.000   78.254769461   16.249368070   344.6231   2   9   0.0516   0.0427   0.0806   0.0167   0.0022   0.0202   0.00    1.1
2018/03/11 10:29:04.000   78.254769424   16.249368042   344.6201   2   9   0.0514   0.0426   0.0802   0.0166   0.0018   0.0200   0.00    1.1
2018/03/11 10:29:05.000   78.254769422   16.249368207   344.6247   2   9   0.0512   0.0424   0.0798   0.0166   0.0013   0.0198   0.00    1.1
2018/03/11 10:29:06.000   78.254769472   16.249368364   344.6352   2   9   0.0510   0.0423   0.0793   0.0166   0.0005   0.0196   0.00    1.1
2018/03/11 10:29:07.000   78.254769518   16.249368589   344.6410   2   9   0.0508   0.0422   0.0789   0.0166  -0.0011   0.0194   0.00    1.1
2018/03/11 10:29:08.000   78.254769548   16.249368720   344.6438   2   9   0.0506   0.0420   0.0785   0.0165  -0.0016   0.0192   0.00    1.1
2018/03/11 10:29:09.000   78.254769556   16.249368957   344.6471   2   9   0.0504   0.0419   0.0781   0.0165  -0.0020   0.0190   0.00    1.2
2018/03/11 10:29:10.000   78.254769546   16.249368989   344.6481   2   9   0.0502   0.0418   0.0777   0.0165  -0.0023   0.0189   0.00    1.2
2018/03/11 10:29:11.000   78.254769524   16.249368954   344.6441   2   9   0.0500   0.0416   0.0773   0.0164  -0.0026   0.0187   0.00    1.2
2018/03/11 10:29:12.000   78.254769496   16.249368879   344.6347   2   9   0.0498   0.0415   0.0769   0.0164  -0.0028   0.0185   0.00    1.2
2018/03/11 10:29:13.000   78.254769434   16.249368801   344.6294   2   9   0.0496   0.0414   0.0765   0.0164  -0.0031   0.0183   0.00    1.2
2018/03/11 10:29:14.000   78.254769349   16.249368568   344.6247   2   9   0.0494   0.0413   0.0761   0.0163  -0.0033   0.0182   0.00    1.2
2018/03/11 10:29:15.000   78.254769263   16.249368267   344.6259   2   9   0.0492   0.0411   0.0757   0.0163  -0.0034   0.0180   0.00    1.2
2018/03/11 10:29:16.000   78.254769198   16.249367993   344.6234   2   9   0.0490   0.0410   0.0753   0.0163  -0.0036   0.0178   0.00    1.2
2018/03/11 10:29:17.000   78.254769167   16.249367909   344.6218   2   9   0.0488   0.0409   0.0749   0.0162  -0.0038   0.0177   0.00    1.2
2018/03/11 10:29:18.000   78.254769191   16.249367986   344.6215   2   9   0.0486   0.0407   0.0745   0.0162  -0.0039   0.0175   0.00    1.2
2018/03/11 10:29:19.000   78.254769216   16.249368021   344.6248   2   9   0.0484   0.0406   0.0742   0.0162  -0.0041   0.0173   0.00    1.2
2018/03/11 10:29:20.000   78.254769245   16.249367899   344.6308   2   9   0.0483   0.0405   0.0738   0.0161  -0.0042   0.0172   0.00    1.2
2018/03/11 10:29:21.000   78.254769245   16.249367709   344.6356   2   9   0.0481   0.0404   0.0734   0.0161  -0.0043   0.0170   0.00    1.2
2018/03/11 10:29:22.000   78.254769222   16.249367511   344.6364   2   9   0.0479   0.0402   0.0731   0.0161  -0.0044   0.0168   0.00    1.2
2018/03/11 10:29:23.000   78.254769196   16.249367510   344.6346   2   9   0.0477   0.0401   0.0727   0.0160  -0.0046   0.0167   0.00    1.3
2018/03/11 10:29:24.000   78.254769197   16.249367420   344.6298   2   9   0.0475   0.0400   0.0724   0.0160  -0.0047   0.0165   0.00    1.3
2018/03/11 10:29:25.000   78.254769182   16.249367335   344.6247   2   9   0.0474   0.0399   0.0720   0.0160  -0.0048   0.0164   0.00    1.3
2018/03/11 10:29:26.000   78.254769187   16.249367385   344.6247   2   9   0.0472   0.0398   0.0717   0.0159  -0.0049   0.0162   0.00    1.3
2018/03/11 10:29:27.000   78.254769174   16.249367338   344.6273   2   9   0.0470   0.0396   0.0713   0.0159  -0.0050   0.0161   0.00    1.3
2018/03/11 10:29:28.000   78.254769175   16.249367138   344.6316   2   9   0.0468   0.0395   0.0710   0.0159  -0.0051   0.0159   0.00    1.3
2018/03/11 10:29:29.000   78.254769157   16.249367017   344.6331   2   9   0.0467   0.0394   0.0706   0.0159  -0.0052   0.0158   0.00    1.3
2018/03/11 10:29:30.000   78.254769152   16.249366805   344.6315   2   9   0.0465   0.0393   0.0703   0.0158  -0.0052   0.0156   0.00    1.3
2018/03/11 10:29:31.000   78.254769137   16.249366644   344.6312   2   9   0.0463   0.0392   0.0700   0.0158  -0.0053   0.0155   0.00    1.3
2018/03/11 10:29:32.000   78.254769142   16.249366522   344.6310   2   9   0.0462   0.0391   0.0696   0.0158  -0.0054   0.0153   0.00    1.3
2018/03/11 10:29:33.000   78.254769152   16.249366521   344.6306   2   9   0.0460   0.0389   0.0693   0.0157  -0.0055   0.0152   0.00    1.3
2018/03/11 10:29:34.000   78.254769161   16.249366510   344.6339   2   9   0.0458   0.0388   0.0690   0.0157  -0.0055   0.0151   0.00    1.3
2018/03/11 10:29:35.000   78.254769180   16.249366588   344.6336   2   9   0.0457   0.0387   0.0687   0.0157  -0.0056   0.0149   0.00    1.3
2018/03/11 10:29:36.000   78.254769201   16.249366643   344.6340   2   9   0.0455   0.0386   0.0684   0.0156  -0.0057   0.0148   0.00    1.4
2018/03/11 10:29:37.000   78.254769203   16.249366620   344.6334   2   9   0.0453   0.0385   0.0680   0.0156  -0.0058   0.0146   0.00    1.4
2018/03/11 10:29:38.000   78.254769220   16.249366598   344.6329   2   9   0.0452   0.0384   0.0677   0.0156  -0.0058   0.0145   0.00    1.4
2018/03/11 10:29:39.000   78.254769196   16.249366490   344.6310   2   9   0.0450   0.0383   0.0674   0.0155  -0.0059   0.0144   0.00    1.4
2018/03/11 10:29:40.000   78.254769147   16.249366348   344.6290   2   9   0.0449   0.0382   0.0671   0.0155  -0.0059   0.0142   0.00    1.4
2018/03/11 10:29:41.000   78.254769097   16.249366216   344.6263   2   9   0.0447   0.0381   0.0668   0.0155  -0.0060   0.0141   0.00    1.4
2018/03/11 10:29:42.000   78.254769073   16.249366112   344.6241   2   9   0.0446   0.0379   0.0665   0.0155  -0.0061   0.0140   0.00    1.4
2018/03/11 10:29:43.000   78.254769093   16.249366080   344.6234   2   9   0.0444   0.0378   0.0662   0.0154  -0.0061   0.0138   0.00    1.4
2018/03/11 10:29:44.000   78.254769085   16.249366165   344.6235   2   9   0.0443   0.0377   0.0659   0.0154  -0.0062   0.0137   0.00    1.4
2018/03/11 10:29:45.000   78.254769116   16.249366234   344.6258   2   9   0.0441   0.0376   0.0656   0.0154  -0.0062   0.0136   0.00    1.4
2018/03/11 10:29:46.000   78.254769137   16.249366236   344.6329   2   9   0.0439   0.0375   0.0653   0.0153  -0.0063   0.0135   0.00    1.4
2018/03/11 10:29:47.000   78.254769139   16.249366295   344.6376   2   9   0.0438   0.0374   0.0651   0.0153  -0.0063   0.0133   0.00    1.4
2018/03/11 10:29:48.000   78.254769137   16.249366399   344.6382   2   9   0.0437   0.0373   0.0648   0.0153  -0.0064   0.0132   0.00    1.4
2018/03/11 10:29:49.000   78.254769132   16.249366361   344.6363   2   9   0.0435   0.0372   0.0645   0.0153  -0.0064   0.0131   0.00    1.5
2018/03/11 10:29:50.000   78.254769126   16.249366340   344.6328   2   9   0.0434   0.0371   0.0642   0.0152  -0.0065   0.0130   0.00    1.5
2018/03/11 10:29:51.000   78.254769107   16.249366391   344.6299   2   9   0.0432   0.0370   0.0639   0.0152  -0.0065   0.0128   0.00    1.5
2018/03/11 10:29:52.000   78.254769071   16.249366205   344.6280   2   9   0.0431   0.0369   0.0637   0.0152  -0.0065   0.0127   0.00    1.5
2018/03/11 10:29:53.000   78.254769049   16.249366173   344.6261   2   9   0.0429   0.0368   0.0634   0.0151  -0.0066   0.0126   0.00    1.5
2018/03/11 10:29:54.000   78.254769037   16.249366106   344.6292   2   9   0.0428   0.0367   0.0631   0.0151  -0.0066   0.0125   0.00    1.5
2018/03/11 10:29:55.000   78.254769036   16.249366109   344.6305   2   9   0.0426   0.0366   0.0629   0.0151  -0.0067   0.0124   0.00    1.5
2018/03/11 10:29:56.000   78.254769052   16.249366092   344.6330   2   9   0.0425   0.0365   0.0626   0.0151  -0.0067   0.0123   0.00    1.5
2018/03/11 10:29:57.000   78.254769069   16.249366195   344.6325   2   9   0.0424   0.0364   0.0623   0.0150  -0.0067   0.0121   0.00    1.5
2018/03/11 10:29:58.000   78.254769066   16.249366353   344.6317   2   9   0.0422   0.0363   0.0621   0.0150  -0.0068   0.0120   0.00    1.5
2018/03/11 10:29:59.000   78.254769075   16.249366325   344.6353   2   9   0.0421   0.0362   0.0618   0.0150  -0.0068   0.0119   0.00    1.5
2018/03/11 10:30:00.000   78.254769082   16.249366360   344.6364   2   9   0.0419   0.0361   0.0616   0.0149  -0.0068   0.0118   0.00    1.5
2018/03/11 10:30:01.000   78.254769070   16.249366322   344.6359   2   9   0.0418   0.0360   0.0613   0.0149  -0.0069   0.0117   0.00    1.5
2018/03/11 10:30:02.000   78.254769061   16.249366224   344.6337   2   9   0.0417   0.0359   0.0611   0.0149  -0.0069   0.0116   0.00    1.6
2018/03/11 10:30:03.000   78.254769074   16.249366080   344.6272   2   9   0.0415   0.0358   0.0608   0.0149  -0.0069   0.0115   0.00    1.6
2018/03/11 10:30:04.000   78.254769090   16.249365971   344.6214   2   9   0.0414   0.0357   0.0606   0.0148  -0.0070   0.0114   0.00    1.6
2018/03/11 10:30:05.000   78.254769139   16.249365851   344.6151   2   9   0.0413   0.0356   0.0603   0.0148  -0.0070   0.0113   0.00    1.6
2018/03/11 10:30:06.000   78.254769151   16.249365732   344.6090   2   9   0.0411   0.0355   0.0601   0.0148  -0.0070   0.0111   0.00    1.6
2018/03/11 10:30:07.000   78.254769183   16.249365580   344.6055   2   9   0.0410   0.0354   0.0598   0.0148  -0.0071   0.0110   0.00    1.6
2018/03/11 10:30:08.000   78.254769213   16.249365488   344.6072   2   9   0.0409   0.0353   0.0596   0.0147  -0.0071   0.0109   0.00    1.6
2018/03/11 10:30:09.000   78.254769223   16.249365404   344.6083   2   9   0.0408   0.0352   0.0594   0.0147  -0.0071   0.0108   0.00    1.6
2018/03/11 10:30:10.000   78.254769240   16.249365372   344.6087   2   9   0.0406   0.0352   0.0591   0.0147  -0.0071   0.0107   0.00    1.6
2018/03/11 10:30:11.000   78.254769247   16.249365329   344.6107   2   9   0.0405   0.0351   0.0589   0.0146  -0.0072   0.0106   0.00    1.6
2018/03/11 10:30:12.000   78.254769263   16.249365274   344.6148   2   9   0.0404   0.0350   0.0587   0.0146  -0.0072   0.0105   0.00    1.6
2018/03/11 10:30:13.000   78.254769270   16.249365268   344.6193   2   9   0.0403   0.0349   0.0584   0.0146  -0.0072   0.0104   0.00    1.6
2018/03/11 10:30:14.000   78.254769285   16.249365316   344.6223   2   9   0.0401   0.0348   0.0582   0.0146  -0.0072   0.0103   0.00    1.6
2018/03/11 10:30:15.000   78.254769284   16.249365380   344.6241   2   9   0.0400   0.0347   0.0580   0.0145  -0.0072   0.0102   0.00    1.6
2018/03/11 10:30:16.000   78.254769254   16.249365389   344.6242   2   9   0.0399   0.0346   0.0578   0.0145  -0.0073   0.0101   0.00    1.6
2018/03/11 10:30:17.000   78.254769224   16.249365312   344.6226   2   9   0.0398   0.0345   0.0575   0.0145  -0.0073   0.0100   0.00    1.7
2018/03/11 10:30:18.000   78.254769203   16.249365287   344.6160   2   9   0.0396   0.0344   0.0573   0.0145  -0.0073   0.0099   0.00    1.7
2018/03/11 10:30:19.000   78.254769191   16.249365191   344.6092   2   9   0.0395   0.0344   0.0571   0.0144  -0.0073   0.0098   0.00    1.7
2018/03/11 10:30:20.000   78.254769201   16.249365055   344.6062   2   9   0.0394   0.0343   0.0569   0.0144  -0.0074   0.0097   0.00    1.7
2018/03/11 10:30:21.000   78.254769223   16.249364875   344.6057   2   9   0.0393   0.0342   0.0567   0.0144  -0.0074   0.0096   0.00    1.7
2018/03/11 10:30:22.000   78.254769254   16.249364848   344.6065   2   9   0.0392   0.0341   0.0565   0.0144  -0.0074   0.0095   0.00    1.7
2018/03/11 10:30:23.000   78.254769296   16.249364957   344.6077   2   9   0.0390   0.0340   0.0562   0.0143  -0.0074   0.0094   0.00    1.6
2018/03/11 10:30:24.000   78.254769343   16.249365184   344.6098   2   9   0.0389   0.0339   0.0560   0.0143  -0.0074   0.0093   0.00    1.6
2018/03/11 10:30:25.000   78.254769378   16.249365421   344.6110   2   9   0.0388   0.0338   0.0558   0.0143  -0.0074   0.0092   0.00    1.6
2018/03/11 10:30:26.000   78.254769394   16.249365542   344.6135   2   9   0.0387   0.0338   0.0556   0.0143  -0.0075   0.0091   0.00    1.6
2018/03/11 10:30:27.000   78.254769387   16.249365603   344.6144   2   9   0.0386   0.0337   0.0554   0.0142  -0.0075   0.0091   0.00    1.6
2018/03/11 10:30:28.000   78.254769389   16.249365631   344.6133   2   9   0.0385   0.0336   0.0552   0.0142  -0.0075   0.0090   0.00    1.6
2018/03/11 10:30:29.000   78.254769355   16.249365648   344.6135   2   9   0.0384   0.0335   0.0550   0.0142  -0.0075   0.0089   0.00    1.6
2018/03/11 10:30:30.000   78.254769313   16.249365470   344.6137   2   9   0.0382   0.0334   0.0548   0.0142  -0.0075   0.0088   0.00    1.6
2018/03/11 10:30:31.000   78.254769254   16.249365362   344.6115   2   9   0.0381   0.0333   0.0546   0.0141  -0.0075   0.0087   0.00    1.6
2018/03/11 10:30:32.000   78.254769200   16.249365288   344.6078   2   9   0.0380   0.0333   0.0544   0.0141  -0.0076   0.0086   0.00    1.6
2018/03/11 10:30:33.000   78.254769178   16.249365231   344.6037   2   9   0.0379   0.0332   0.0542   0.0141  -0.0076   0.0085   0.00    1.6
2018/03/11 10:30:34.000   78.254769186   16.249365210   344.6029   2   9   0.0378   0.0331   0.0540   0.0141  -0.0076   0.0084   0.00    1.6
2018/03/11 10:30:35.000   78.254769237   16.249365239   344.6022   2   9   0.0377   0.0330   0.0538   0.0140  -0.0076   0.0083   0.00    1.6
2018/03/11 10:30:36.000   78.254769290   16.249365311   344.6026   2   9   0.0376   0.0329   0.0537   0.0140  -0.0076   0.0082   0.00    1.6
2018/03/11 10:30:37.000   78.254769354   16.249365451   344.6016   2   9   0.0375   0.0329   0.0535   0.0140  -0.0076   0.0082   0.00    1.6
2018/03/11 10:30:38.000   78.254769401   16.249365600   344.5990   2   9   0.0374   0.0328   0.0533   0.0140  -0.0076   0.0081   0.00    1.6
2018/03/11 10:30:39.000   78.254769446   16.249365693   344.5954   2   9   0.0373   0.0327   0.0531   0.0139  -0.0076   0.0080   0.00    1.5
2018/03/11 10:30:40.000   78.254769453   16.249365735   344.5938   2   9   0.0372   0.0326   0.0529   0.0139  -0.0077   0.0079   0.00    1.5
2018/03/11 10:30:41.000   78.254769453   16.249365688   344.5894   2   9   0.0371   0.0326   0.0527   0.0139  -0.0077   0.0078   0.00    1.5
2018/03/11 10:30:42.000   78.254769452   16.249365658   344.5847   2   9   0.0370   0.0325   0.0525   0.0139  -0.0077   0.0077   0.00    1.5
2018/03/11 10:30:43.000   78.254769440   16.249365586   344.5822   2   9   0.0369   0.0324   0.0524   0.0138  -0.0077   0.0076   0.00    1.5
2018/03/11 10:30:44.000   78.254769433   16.249365559   344.5802   2   9   0.0368   0.0323   0.0522   0.0138  -0.0077   0.0076   0.00    1.5
2018/03/11 10:30:45.000   78.254769419   16.249365576   344.5773   2   9   0.0367   0.0323   0.0520   0.0138  -0.0077   0.0075   0.00    1.5
2018/03/11 10:30:46.000   78.254769404   16.249365683   344.5744   2   9   0.0366   0.0322   0.0518   0.0138  -0.0077   0.0074   0.00    1.5
2018/03/11 10:30:47.000   78.254769396   16.249365726   344.5736   2   9   0.0365   0.0321   0.0517   0.0137  -0.0077   0.0073   0.00    1.5
2018/03/11 10:30:48.000   78.254769406   16.249365843   344.5755   2   9   0.0364   0.0320   0.0515   0.0137  -0.0077   0.0072   0.00    1.5
2018/03/11 10:30:49.000   78.254769435   16.249366002   344.5764   2   9   0.0363   0.0320   0.0513   0.0137  -0.0077   0.0071   0.00    1.5
2018/03/11 10:30:50.000   78.254769479   16.249366185   344.5764   2   9   0.0362   0.0319   0.0511   0.0137  -0.0077   0.0071   0.00    1.5
2018/03/11 10:30:51.000   78.254769519   16.249366374   344.5755   2   9   0.0361   0.0318   0.0510   0.0137  -0.0078   0.0070   0.00    1.5
2018/03/11 10:30:52.000   78.254769537   16.249366390   344.5757   2   9   0.0360   0.0317   0.0508   0.0136  -0.0078   0.0069   0.00    1.5
2018/03/11 10:30:53.000   78.254769574   16.249366388   344.5740   2   9   0.0359   0.0317   0.0506   0.0136  -0.0078   0.0068   0.00    1.5
2018/03/11 10:30:54.000   78.254769574   16.249366371   344.5732   2   9   0.0358   0.0316   0.0505   0.0136  -0.0078   0.0067   0.00    1.5
2018/03/11 10:30:55.000   78.254769564   16.249366321   344.5725   2   9   0.0357   0.0315   0.0503   0.0136  -0.0078   0.0067   0.00    1.5
2018/03/11 10:30:56.000   78.254769551   16.249366287   344.5707   2   9   0.0356   0.0314   0.0501   0.0135  -0.0078   0.0066   0.00    1.5
2018/03/11 10:30:57.000   78.254769518   16.249366249   344.5693   2   9   0.0355   0.0314   0.0500   0.0135  -0.0078   0.0065   0.00    1.5
2018/03/11 10:30:58.000   78.254769513   16.249366200   344.5665   2   9   0.0354   0.0313   0.0498   0.0135  -0.0078   0.0064   0.00    1.5
2018/03/11 10:30:59.000   78.254769513   16.249366251   344.5619   2   9   0.0353   0.0312   0.0497   0.0135  -0.0078   0.0063   0.00    1.4
2018/03/11 10:31:00.000   78.254769516   16.249366328   344.5605   2   9   0.0352   0.0312   0.0495   0.0134  -0.0078   0.0063   0.00    1.4
2018/03/11 10:31:01.000   78.254769522   16.249366414   344.5610   2   9   0.0351   0.0311   0.0493   0.0134  -0.0078   0.0062   0.00    1.4
2018/03/11 10:31:02.000   78.254769543   16.249366528   344.5619   2   9   0.0350   0.0310   0.0492   0.0134  -0.0078   0.0061   0.00    1.4
2018/03/11 10:31:03.000   78.254769575   16.249366673   344.5631   2   9   0.0349   0.0310   0.0490   0.0134  -0.0078   0.0060   0.00    1.4
2018/03/11 10:31:04.000   78.254769605   16.249366766   344.5645   2   9   0.0348   0.0309   0.0489   0.0134  -0.0078   0.0059   0.00    1.4
2018/03/11 10:31:05.000   78.254769627   16.249366804   344.5658   2   9   0.0347   0.0308   0.0487   0.0133  -0.0078   0.0059   0.00    1.4
2018/03/11 10:31:06.000   78.254769654   16.249366823   344.5662   2   9   0.0347   0.0308   0.0486   0.0133  -0.0078   0.0058   0.00    1.4
2018/03/11 10:31:07.000   78.254769662   16.249366870   344.5663   2   9   0.0346   0.0307   0.0484   0.0133  -0.0079   0.0057   0.00    1.4
2018/03/11 10:31:08.000   78.254769652   16.249366834   344.5664   2   9   0.0345   0.0306   0.0483   0.0133  -0.0079   0.0056   0.00    1.4
2018/03/11 10:31:09.000   78.254769634   16.249366784   344.5641   2   9   0.0344   0.0306   0.0481   0.0132  -0.0079   0.0055   0.00    1.4
2018/03/11 10:31:10.000   78.254769610   16.249366748   344.5626   2   9   0.0343   0.0305   0.0480   0.0132  -0.0079   0.0055   0.00    1.4
2018/03/11 10:31:11.000   78.254769597   16.249366687   344.5604   2   9   0.0342   0.0304   0.0478   0.0132  -0.0079   0.0054   0.00    1.4
2018/03/11 10:31:12.000   78.254769591   16.249366724   344.5577   2   9   0.0341   0.0304   0.0477   0.0132  -0.0079   0.0053   0.00    1.4
2018/03/11 10:31:13.000   78.254769612   16.249366835   344.5560   2   9   0.0340   0.0303   0.0475   0.0132  -0.0079   0.0052   0.00    1.4
2018/03/11 10:31:14.000   78.254769643   16.249366963   344.5559   2   9   0.0340   0.0302   0.0474   0.0131  -0.0079   0.0052   0.00    1.4
2018/03/11 10:31:15.000   78.254769668   16.249367056   344.5570   2   9   0.0339   0.0302   0.0472   0.0131  -0.0079   0.0051   0.00    1.3
2018/03/11 10:31:16.000   78.254769703   16.249367138   344.5590   2   9   0.0338   0.0301   0.0471   0.0131  -0.0079   0.0050   0.00    1.3
2018/03/11 10:31:17.000   78.254769707   16.249367239   344.5604   2   9   0.0337   0.0300   0.0470   0.0131  -0.0079   0.0049   0.00    1.3
2018/03/11 10:31:18.000   78.254769720   16.249367299   344.5600   2   9   0.0336   0.0300   0.0468   0.0131  -0.0079   0.0048   0.00    1.3
2018/03/11 10:31:19.000   78.254769728   16.249367261   344.5581   2   9   0.0335   0.0299   0.0467   0.0130  -0.0079   0.0048   0.00    1.3
2018/03/11 10:31:20.000   78.254769753   16.249367273   344.5554   2   9   0.0335   0.0298   0.0465   0.0130  -0.0079   0.0047   0.00    1.3
2018/03/11 10:31:21.000   78.254769752   16.249367228   344.5522   2   9   0.0334   0.0298   0.0464   0.0130  -0.0079   0.0046   0.00    1.3
2018/03/11 10:31:22.000   78.254769743   16.249367125   344.5476   2   9   0.0333   0.0297   0.0463   0.0130  -0.0079   0.0045   0.00    1.3
2018/03/11 10:31:23.000   78.254769737   16.249367031   344.5446   2   9   0.0332   0.0297   0.0461   0.0129  -0.0079   0.0045   0.00    1.3
2018/03/11 10:31:24.000   78.254769720   16.249366912   344.5438   2   9   0.0331   0.0296   0.0460   0.0129  -0.0079   0.0044   0.00    1.3
2018/03/11 10:31:25.000   78.254769724   16.249366889   344.5431   2   9   0.0331   0.0295   0.0459   0.0129  -0.0079   0.0043   0.00    1.3
2018/03/11 10:31:26.000   78.254769745   16.249366940   344.5411   2   9   0.0330   0.0295   0.0457   0.0129  -0.0079   0.0042   0.00    1.3
2018/03/11 10:31:27.000   78.254769770   16.249367062   344.5410   2   9   0.0329   0.0294   0.0456   0.0129  -0.0079   0.0041   0.00    1.3
2018/03/11 10:31:28.000   78.254769792   16.249367162   344.5426   2   9   0.0328   0.0294   0.0455   0.0128  -0.0079   0.0041   0.00    1.3
2018/03/11 10:31:29.000   78.254769804   16.249367229   344.5444   2   9   0.0327   0.0293   0.0453   0.0128  -0.0079   0.0040   0.00    1.3
2018/03/11 10:31:30.000   78.254769831   16.249367316   344.5449   2   9   0.0327   0.0292   0.0452   0.0128  -0.0079   0.0039   0.00    1.3
2018/03/11 10:31:31.000   78.254769843   16.249367277   344.5448   2   9   0.0326   0.0292   0.0451   0.0128  -0.0079   0.0038   0.00    1.3
2018/03/11 10:31:32.000   78.254769838   16.249367252   344.5432   2   9   0.0325   0.0291   0.0449   0.0128  -0.0079   0.0037   0.00    1.3
2018/03/11 10:31:33.000   78.254769818   16.249367111   344.5415   2   9   0.0324   0.0291   0.0448   0.0127  -0.0079   0.0036   0.00    1.2
2018/03/11 10:31:34.000   78.254769788   16.249366963   344.5378   2   9   0.0323   0.0290   0.0447   0.0127  -0.0079   0.0036   0.00    1.2
2018/03/11 10:31:35.000   78.254769771   16.249366828   344.5327   2   9   0.0323   0.0289   0.0446   0.0127  -0.0079   0.0035   0.00    1.2
2018/03/11 10:31:36.000   78.254769748   16.249366760   344.5280   2   9   0.0322   0.0289   0.0444   0.0127  -0.0079   0.0034   0.00    1.2
2018/03/11 10:31:37.000   78.254769740   16.249366693   344.5272   2   9   0.0321   0.0288   0.0443   0.0127  -0.0079   0.0033   0.00    1.2
2018/03/11 10:31:38.000   78.254769731   16.249366701   344.5271   2   9   0.0320   0.0288   0.0442   0.0126  -0.0079   0.0032   0.00    1.2
2018/03/11 10:31:39.000   78.254769749   16.249366811   344.5290   2   9   0.0320   0.0287   0.0441   0.0126  -0.0079   0.0031   0.00    1.2
2018/03/11 10:31:40.000   78.254769774   16.249366978   344.5319   2   9   0.0319   0.0287   0.0440   0.0126  -0.0079   0.0030   0.00    1.2
2018/03/11 10:31:41.000   78.254769800   16.249367188   344.5335   2   9   0.0318   0.0286   0.0438   0.0126  -0.0079   0.0030   0.00    1.2
2018/03/11 10:31:42.000   78.254769823   16.249367385   344.5355   2   9   0.0318   0.0285   0.0437   0.0126  -0.0079   0.0029   0.00    1.2
2018/03/11 10:31:43.000   78.254769848   16.249367439   344.5378   2   9   0.0317   0.0285   0.0436   0.0125  -0.0079   0.0028   0.00    1.2
2018/03/11 10:31:44.000   78.254769856   16.249367485   344.5390   2   9   0.0316   0.0284   0.0435   0.0125  -0.0079   0.0027   0.00    1.2
2018/03/11 10:31:45.000   78.254769858   16.249367480   344.5395   2   9   0.0315   0.0284   0.0434   0.0125  -0.0079   0.0026   0.00    1.2
2018/03/11 10:31:46.000   78.254769845   16.249367382   344.5398   2   9   0.0315   0.0283   0.0432   0.0125  -0.0079   0.0025   0.00    1.2
2018/03/11 10:31:47.000   78.254769826   16.249367286   344.5401   2   9   0.0314   0.0283   0.0431   0.0125  -0.0079   0.0024   0.00    1.2
2018/03/11 10:31:48.000   78.254769809   16.249367167   344.5387   2   9   0.0313   0.0282   0.0430   0.0124  -0.0079   0.0023   0.00    1.2
2018/03/11 10:31:49.000   78.254769796   16.249367088   344.5365   2   9   0.0313   0.0282   0.0429   0.0124  -0.0079   0.0022   0.00    1.2
2018/03/11 10:31:50.000   78.254769791   16.249366993   344.5348   2   9   0.0312   0.0281   0.0428   0.0124  -0.0079   0.0020   0.00    1.2
2018/03/11 10:31:51.000   78.254769820   16.249367034   344.5325   2   9   0.0311   0.0280   0.0427   0.0124  -0.0079   0.0019   0.00    1.2
2018/03/11 10:31:52.000   78.254769849   16.249367101   344.5322   2   9   0.0310   0.0280   0.0426   0.0124  -0.0079   0.0018   0.00    1.2
2018/03/11 10:31:53.000   78.254769877   16.249367171   344.5327   2   9   0.0310   0.0279   0.0424   0.0124  -0.0079   0.0017   0.00    1.2
2018/03/11 10:31:54.000   78.254769896   16.249367369   344.5333   2   9   0.0309   0.0279   0.0423   0.0123  -0.0079   0.0015   0.00    1.1
2018/03/11 10:31:55.000   78.254769914   16.249367596   344.5346   2   9   0.0308   0.0278   0.0422   0.0123  -0.0079   0.0014   0.00    1.1
2018/03/11 10:31:56.000   78.254769940   16.249367729   344.5359   2   9   0.0308   0.0278   0.0421   0.0123  -0.0079   0.0012   0.00    1.1
2018/03/11 10:31:57.000   78.254769950   16.249367838   344.5366   2   9   0.0307   0.0277   0.0420   0.0123  -0.0079   0.0010   0.00    1.1
2018/03/11 10:31:58.000   78.254769956   16.249367935   344.5373   2   9   0.0306   0.0277   0.0419   0.0123  -0.0079   0.0008   0.00    1.1
2018/03/11 10:31:59.000   78.254769955   16.249367939   344.5380   2   9   0.0306   0.0276   0.0418   0.0122  -0.0079   0.0004   0.00    1.1
2018/03/11 10:32:00.000   78.254769952   16.249367897   344.5373   2   9   0.0305   0.0276   0.0417   0.0122  -0.0079  -0.0005   0.00    1.1
2018/03/11 10:32:01.000   78.254769944   16.249367836   344.5375   2   9   0.0304   0.0275   0.0416   0.0122  -0.0079  -0.0008   0.00    1.1
2018/03/11 10:32:02.000   78.254769934   16.249367802   344.5366   2   9   0.0304   0.0275   0.0415   0.0122  -0.0079  -0.0010   0.00    1.1
2018/03/11 10:32:03.000   78.254769943   16.249367782   344.5364   2   9   0.0303   0.0274   0.0414   0.0122  -0.0079  -0.0012   0.00    1.1
2018/03/11 10:32:04.000   78.254769952   16.249367797   344.5363   2   9   0.0302   0.0274   0.0413   0.0122  -0.0079  -0.0013   0.00    1.1
2018/03/11 10:32:05.000   78.254769980   16.249367871   344.5372   2   9   0.0302   0.0273   0.0412   0.0121  -0.0079  -0.0015   0.00    1.1
2018/03/11 10:32:06.000   78.254770007   16.249367904   344.5381   2   9   0.0301   0.0273   0.0410   0.0121  -0.0079  -0.0016   0.00    1.1
2018/03/11 10:32:07.000   78.254770039   16.249367918   344.5375   2   9   0.0301   0.0272   0.0409   0.0121  -0.0079  -0.0017   0.00    1.1
2018/03/11 10:32:08.000   78.254770051   16.249367880   344.5362   2   9   0.0300   0.0272   0.0408   0.0121  -0.0079  -0.0018   0.00    1.1
2018/03/11 10:32:09.000   78.254770070   16.249367933   344.5351   2   9   0.0299   0.0271   0.0407   0.0121  -0.0079  -0.0019   0.00    1.1
2018/03/11 10:32:10.000   78.254770066   16.249367966   344.5344   2   9   0.0299   0.0271   0.0406   0.0120  -0.0079  -0.0020   0.00    1.1
2018/03/11 10:32:11.000   78.254770063   16.249368030   344.5342   2   9   0.0298   0.0270   0.0405   0.0120  -0.0079  -0.0021   0.00    1.1
