% program   : RTKPOST ver.2.4.2
% inp file  : Z:\home\linda\Documents\Spring18\GitHub_Unis\data\processed_data\4625074G.obs
% inp file  : Z:\home\linda\Documents\Spring18\GitHub_Unis\data\processed_data\4625074G.nav
% obs start : 2018/03/15 13:14:46.0 GPST (week1992 393286.0s)
% obs end   : 2018/03/15 13:30:27.0 GPST (week1992 394227.0s)
% pos mode  : single
% elev mask : 15.0 deg
% ionos opt : broadcast
% tropo opt : saastamoinen
% ephemeris : broadcast
% navi sys  : gps glonass galileo qzss sbas
%
% (lat/lon/height=WGS84/ellipsoidal,Q=1:fix,2:float,3:sbas,4:dgps,5:single,6:ppp,ns=# of satellites)
%  GPST                  latitude(deg) longitude(deg)  height(m)   Q  ns   sdn(m)   sde(m)   sdu(m)  sdne(m)  sdeu(m)  sdun(m) age(s)  ratio
2018/03/15 13:14:46.000   78.256789694   16.230379565   395.9604   5   9   1.8621   1.8294   7.9389  -0.6522  -2.3142   2.2052   0.00    0.0
2018/03/15 13:14:47.000   78.256792411   16.230351239   396.7918   5   9   1.8623   1.8295   7.9388  -0.6526  -2.3144   2.2061   0.00    0.0
2018/03/15 13:14:48.000   78.256791978   16.230349971   396.7510   5   9   1.8625   1.8295   7.9388  -0.6530  -2.3145   2.2070   0.00    0.0
2018/03/15 13:14:49.000   78.256796109   16.230360881   396.5369   5   9   1.8627   1.8296   7.9387  -0.6533  -2.3147   2.2078   0.00    0.0
2018/03/15 13:14:50.000   78.256795197   16.230368722   395.8705   5   9   1.8629   1.8296   7.9386  -0.6537  -2.3149   2.2087   0.00    0.0
2018/03/15 13:14:51.000   78.256794873   16.230358158   396.9511   5   9   1.8631   1.8297   7.9385  -0.6541  -2.3150   2.2096   0.00    0.0
2018/03/15 13:14:52.000   78.256792957   16.230361100   396.7257   5   9   1.8633   1.8298   7.9384  -0.6544  -2.3152   2.2104   0.00    0.0
2018/03/15 13:14:53.000   78.256790135   16.230351105   397.6174   5   9   1.8634   1.8298   7.9384  -0.6548  -2.3154   2.2113   0.00    0.0
2018/03/15 13:14:54.000   78.256791039   16.230352629   397.0074   5   9   1.8636   1.8299   7.9383  -0.6551  -2.3155   2.2122   0.00    0.0
2018/03/15 13:14:55.000   78.256790781   16.230350982   395.3438   5   9   1.8638   1.8299   7.9382  -0.6555  -2.3157   2.2130   0.00    0.0
2018/03/15 13:14:56.000   78.256789332   16.230358851   395.1109   5   9   1.8640   1.8300   7.9381  -0.6559  -2.3159   2.2139   0.00    0.0
2018/03/15 13:14:57.000   78.256787099   16.230342057   396.4099   5   9   1.8642   1.8300   7.9380  -0.6562  -2.3160   2.2148   0.00    0.0
2018/03/15 13:14:58.000   78.256786367   16.230340792   396.7377   5   9   1.8644   1.8301   7.9379  -0.6566  -2.3162   2.2156   0.00    0.0
2018/03/15 13:14:59.000   78.256786241   16.230348633   397.3653   5   9   1.8646   1.8301   7.9378  -0.6570  -2.3164   2.2165   0.00    0.0
2018/03/15 13:15:00.000   78.256784731   16.230364154   397.0638   5   9   1.8647   1.8302   7.9377  -0.6573  -2.3165   2.2174   0.00    0.0
2018/03/15 13:15:01.000   78.256787593   16.230363396   397.5991   5   9   1.8649   1.8302   7.9377  -0.6577  -2.3167   2.2182   0.00    0.0
2018/03/15 13:15:02.000   78.256788656   16.230367003   395.3647   5   9   1.8651   1.8303   7.9376  -0.6581  -2.3169   2.2191   0.00    0.0
2018/03/15 13:15:03.000   78.256790489   16.230352739   396.7561   5   9   1.8653   1.8303   7.9375  -0.6584  -2.3170   2.2200   0.00    0.0
2018/03/15 13:15:04.000   78.256788754   16.230343855   397.5861   5   9   1.8655   1.8304   7.9374  -0.6588  -2.3172   2.2208   0.00    0.0
2018/03/15 13:15:05.000   78.256788758   16.230347008   397.1161   5   9   1.8657   1.8304   7.9373  -0.6591  -2.3174   2.2217   0.00    0.0
2018/03/15 13:15:06.000   78.256789761   16.230336509   397.3750   5   9   1.8659   1.8305   7.9372  -0.6595  -2.3175   2.2225   0.00    0.0
2018/03/15 13:15:07.000   78.256790166   16.230355210   396.7244   5   9   1.8661   1.8305   7.9371  -0.6599  -2.3177   2.2234   0.00    0.0
2018/03/15 13:15:08.000   78.256790173   16.230376341   395.9999   5   9   1.8662   1.8306   7.9370  -0.6602  -2.3178   2.2243   0.00    0.0
2018/03/15 13:15:09.000   78.256789941   16.230368570   395.8543   5   9   1.8664   1.8306   7.9369  -0.6606  -2.3180   2.2251   0.00    0.0
2018/03/15 13:15:10.000   78.256790129   16.230344783   397.1191   5   9   1.8666   1.8307   7.9368  -0.6609  -2.3182   2.2260   0.00    0.0
2018/03/15 13:15:11.000   78.256787705   16.230345800   396.6868   5   9   1.8668   1.8307   7.9367  -0.6613  -2.3183   2.2268   0.00    0.0
2018/03/15 13:15:12.000   78.256789179   16.230327280   397.6586   5   9   1.8670   1.8308   7.9366  -0.6617  -2.3185   2.2277   0.00    0.0
2018/03/15 13:15:13.000   78.256784739   16.230345679   394.9777   5   9   1.8672   1.8309   7.9365  -0.6620  -2.3187   2.2285   0.00    0.0
2018/03/15 13:15:14.000   78.256785375   16.230352268   394.6321   5   9   1.8674   1.8309   7.9363  -0.6624  -2.3188   2.2294   0.00    0.0
2018/03/15 13:15:15.000   78.256787702   16.230352886   395.1105   5   9   1.8676   1.8310   7.9362  -0.6627  -2.3190   2.2303   0.00    0.0
2018/03/15 13:15:16.000   78.256788047   16.230339324   396.9075   5   9   1.8678   1.8310   7.9361  -0.6631  -2.3191   2.2311   0.00    0.0
2018/03/15 13:15:17.000   78.256792529   16.230331470   397.1290   5   9   1.8679   1.8311   7.9360  -0.6635  -2.3193   2.2320   0.00    0.0
2018/03/15 13:15:18.000   78.256788831   16.230344147   397.1297   5   9   1.8681   1.8311   7.9359  -0.6638  -2.3194   2.2328   0.00    0.0
2018/03/15 13:15:19.000   78.256790957   16.230349875   397.1865   5   9   1.8683   1.8312   7.9358  -0.6642  -2.3196   2.2337   0.00    0.0
2018/03/15 13:15:20.000   78.256784651   16.230359821   395.4770   5   9   1.8685   1.8312   7.9357  -0.6645  -2.3198   2.2345   0.00    0.0
2018/03/15 13:15:21.000   78.256784098   16.230365066   395.0404   5   9   1.8687   1.8313   7.9356  -0.6649  -2.3199   2.2354   0.00    0.0
2018/03/15 13:15:22.000   78.256788325   16.230359975   396.2607   5   9   1.8689   1.8313   7.9354  -0.6653  -2.3201   2.2362   0.00    0.0
2018/03/15 13:15:23.000   78.256790390   16.230353040   396.3492   5   9   1.8691   1.8314   7.9353  -0.6656  -2.3202   2.2371   0.00    0.0
2018/03/15 13:15:24.000   78.256793233   16.230349274   397.6765   5   9   1.8693   1.8314   7.9352  -0.6660  -2.3204   2.2379   0.00    0.0
2018/03/15 13:15:25.000   78.256794643   16.230351667   398.1824   5   9   1.8695   1.8315   7.9351  -0.6663  -2.3205   2.2388   0.00    0.0
2018/03/15 13:15:26.000   78.256794217   16.230355138   396.8825   5   9   1.8696   1.8315   7.9350  -0.6667  -2.3207   2.2396   0.00    0.0
2018/03/15 13:15:27.000   78.256794330   16.230356466   396.3116   5   9   1.8698   1.8316   7.9348  -0.6670  -2.3209   2.2405   0.00    0.0
2018/03/15 13:15:28.000   78.256789371   16.230368685   396.8659   5   9   1.8700   1.8316   7.9347  -0.6674  -2.3210   2.2413   0.00    0.0
2018/03/15 13:15:29.000   78.256792737   16.230348359   398.8179   5   9   1.8702   1.8317   7.9346  -0.6678  -2.3212   2.2422   0.00    0.0
2018/03/15 13:15:30.000   78.256789999   16.230350071   397.4429   5   9   1.8704   1.8317   7.9345  -0.6681  -2.3213   2.2430   0.00    0.0
2018/03/15 13:15:31.000   78.256788241   16.230352054   396.9892   5   9   1.8706   1.8318   7.9343  -0.6685  -2.3215   2.2438   0.00    0.0
2018/03/15 13:15:32.000   78.256785531   16.230355757   394.2261   5   9   1.8708   1.8318   7.9342  -0.6688  -2.3216   2.2447   0.00    0.0
2018/03/15 13:15:33.000   78.256790622   16.230336557   395.5226   5   9   1.8710   1.8319   7.9341  -0.6692  -2.3218   2.2455   0.00    0.0
2018/03/15 13:15:34.000   78.256787827   16.230320915   396.0291   5   9   1.8712   1.8319   7.9340  -0.6695  -2.3219   2.2464   0.00    0.0
2018/03/15 13:15:35.000   78.256788908   16.230335709   396.6055   5   9   1.8714   1.8320   7.9338  -0.6699  -2.3221   2.2472   0.00    0.0
2018/03/15 13:15:36.000   78.256793621   16.230339945   397.1637   5   9   1.8716   1.8320   7.9337  -0.6703  -2.3222   2.2481   0.00    0.0
2018/03/15 13:15:37.000   78.256789004   16.230374294   394.6390   5   9   1.8717   1.8321   7.9336  -0.6706  -2.3224   2.2489   0.00    0.0
2018/03/15 13:15:38.000   78.256784190   16.230381380   393.1600   5   9   1.8719   1.8322   7.9334  -0.6710  -2.3225   2.2497   0.00    0.0
2018/03/15 13:15:39.000   78.256786386   16.230365880   393.9904   5   9   1.8721   1.8322   7.9333  -0.6713  -2.3227   2.2506   0.00    0.0
2018/03/15 13:15:40.000   78.256788137   16.230348114   394.5973   5   9   1.8723   1.8323   7.9331  -0.6717  -2.3228   2.2514   0.00    0.0
2018/03/15 13:15:41.000   78.256792540   16.230353368   396.0362   5   9   1.8725   1.8323   7.9330  -0.6720  -2.3230   2.2523   0.00    0.0
2018/03/15 13:15:42.000   78.256794651   16.230345870   396.7874   5   9   1.8727   1.8324   7.9329  -0.6724  -2.3231   2.2531   0.00    0.0
2018/03/15 13:15:43.000   78.256794477   16.230333954   397.0137   5   9   1.8729   1.8324   7.9327  -0.6727  -2.3233   2.2539   0.00    0.0
2018/03/15 13:15:44.000   78.256793245   16.230346337   396.1222   5   9   1.8731   1.8325   7.9326  -0.6731  -2.3234   2.2548   0.00    0.0
2018/03/15 13:15:45.000   78.256792265   16.230378047   395.7524   5   9   1.8733   1.8325   7.9324  -0.6734  -2.3236   2.2556   0.00    0.0
2018/03/15 13:15:46.000   78.256793711   16.230369474   397.8844   5   9   1.8735   1.8326   7.9323  -0.6738  -2.3237   2.2564   0.00    0.0
2018/03/15 13:15:47.000   78.256791964   16.230339871   398.3611   5   9   1.8737   1.8326   7.9322  -0.6742  -2.3239   2.2573   0.00    0.0
2018/03/15 13:15:48.000   78.256789763   16.230356635   397.5527   5   9   1.8739   1.8327   7.9320  -0.6745  -2.3240   2.2581   0.00    0.0
2018/03/15 13:15:49.000   78.256788324   16.230347772   396.7560   5   9   1.8740   1.8327   7.9319  -0.6749  -2.3242   2.2589   0.00    0.0
2018/03/15 13:15:50.000   78.256788733   16.230345141   395.7286   5   9   1.8742   1.8328   7.9317  -0.6752  -2.3243   2.2598   0.00    0.0
2018/03/15 13:15:51.000   78.256789171   16.230347281   394.9297   5   9   1.8744   1.8328   7.9316  -0.6756  -2.3245   2.2606   0.00    0.0
2018/03/15 13:15:52.000   78.256797589   16.230318471   397.4586   5   9   1.8746   1.8329   7.9314  -0.6759  -2.3246   2.2614   0.00    0.0
2018/03/15 13:15:53.000   78.256792861   16.230326383   397.3315   5   9   1.8748   1.8329   7.9313  -0.6763  -2.3248   2.2623   0.00    0.0
2018/03/15 13:15:54.000   78.256793893   16.230348621   397.3533   5   9   1.8750   1.8330   7.9311  -0.6766  -2.3249   2.2631   0.00    0.0
2018/03/15 13:15:55.000   78.256789463   16.230366092   396.9423   5   9   1.8752   1.8330   7.9309  -0.6770  -2.3251   2.2639   0.00    0.0
2018/03/15 13:15:56.000   78.256785187   16.230367868   394.2566   5   9   1.8754   1.8331   7.9308  -0.6773  -2.3252   2.2647   0.00    0.0
2018/03/15 13:15:57.000   78.256782749   16.230355026   394.7102   5   9   1.8756   1.8331   7.9306  -0.6777  -2.3253   2.2656   0.00    0.0
2018/03/15 13:15:58.000   78.256786518   16.230357600   395.1905   5   9   1.8758   1.8332   7.9305  -0.6780  -2.3255   2.2664   0.00    0.0
2018/03/15 13:15:59.000   78.256789762   16.230361196   396.5308   5   9   1.8760   1.8332   7.9303  -0.6784  -2.3256   2.2672   0.00    0.0
2018/03/15 13:16:00.000   78.256792162   16.230360534   396.2496   5   9   1.8762   1.8333   7.9302  -0.6787  -2.3258   2.2681   0.00    0.0
2018/03/15 13:16:01.000   78.256795220   16.230367170   397.6070   5   9   1.8764   1.8333   7.9300  -0.6791  -2.3259   2.2689   0.00    0.0
2018/03/15 13:16:02.000   78.256797227   16.230365683   398.3829   5   9   1.8766   1.8334   7.9298  -0.6794  -2.3261   2.2697   0.00    0.0
2018/03/15 13:16:03.000   78.256793369   16.230367740   397.9231   5   9   1.8768   1.8334   7.9297  -0.6798  -2.3262   2.2705   0.00    0.0
2018/03/15 13:16:04.000   78.256791967   16.230364637   397.4413   5   9   1.8769   1.8335   7.9295  -0.6801  -2.3263   2.2714   0.00    0.0
2018/03/15 13:16:05.000   78.256788723   16.230341546   396.5506   5   9   1.8771   1.8335   7.9293  -0.6805  -2.3265   2.2722   0.00    0.0
2018/03/15 13:16:06.000   78.256790501   16.230330732   397.2628   5   9   1.8773   1.8336   7.9292  -0.6808  -2.3266   2.2730   0.00    0.0
2018/03/15 13:16:07.000   78.256790356   16.230330490   396.7808   5   9   1.8775   1.8336   7.9290  -0.6812  -2.3268   2.2738   0.00    0.0
2018/03/15 13:16:08.000   78.256792082   16.230340604   396.1849   5   9   1.8777   1.8337   7.9288  -0.6815  -2.3269   2.2746   0.00    0.0
2018/03/15 13:16:09.000   78.256792894   16.230361386   396.4882   5   9   1.8779   1.8337   7.9287  -0.6819  -2.3270   2.2755   0.00    0.0
2018/03/15 13:16:10.000   78.256794538   16.230357316   398.3980   5   9   1.8781   1.8338   7.9285  -0.6822  -2.3272   2.2763   0.00    0.0
2018/03/15 13:16:11.000   78.256792548   16.230365953   398.5161   5   9   1.8783   1.8338   7.9283  -0.6826  -2.3273   2.2771   0.00    0.0
2018/03/15 13:16:12.000   78.256788625   16.230378340   397.2713   5   9   1.8785   1.8339   7.9281  -0.6829  -2.3275   2.2779   0.00    0.0
2018/03/15 13:16:13.000   78.256783866   16.230363106   394.2954   5   9   1.8787   1.8339   7.9280  -0.6833  -2.3276   2.2787   0.00    0.0
2018/03/15 13:16:14.000   78.256784915   16.230369844   393.7757   5   9   1.8789   1.8340   7.9278  -0.6836  -2.3277   2.2796   0.00    0.0
2018/03/15 13:16:15.000   78.256790548   16.230362278   394.6943   5   9   1.8791   1.8340   7.9276  -0.6840  -2.3279   2.2804   0.00    0.0
2018/03/15 13:16:16.000   78.256791421   16.230357270   396.5998   5   9   1.8793   1.8341   7.9274  -0.6843  -2.3280   2.2812   0.00    0.0
2018/03/15 13:16:17.000   78.256795069   16.230340060   397.9420   5   9   1.8795   1.8341   7.9272  -0.6846  -2.3281   2.2820   0.00    0.0
2018/03/15 13:16:18.000   78.256792897   16.230342883   397.2708   5   9   1.8797   1.8342   7.9271  -0.6850  -2.3283   2.2828   0.00    0.0
2018/03/15 13:16:19.000   78.256794692   16.230357492   396.3564   5   9   1.8799   1.8342   7.9269  -0.6853  -2.3284   2.2836   0.00    0.0
2018/03/15 13:16:20.000   78.256793005   16.230352497   396.8187   5   9   1.8801   1.8343   7.9267  -0.6857  -2.3285   2.2844   0.00    0.0
2018/03/15 13:16:21.000   78.256788881   16.230367945   395.8822   5   9   1.8803   1.8343   7.9265  -0.6860  -2.3287   2.2853   0.00    0.0
2018/03/15 13:16:22.000   78.256790178   16.230375740   396.0374   5   9   1.8805   1.8344   7.9263  -0.6864  -2.3288   2.2861   0.00    0.0
2018/03/15 13:16:23.000   78.256790286   16.230377610   396.0520   5   9   1.8806   1.8344   7.9261  -0.6867  -2.3290   2.2869   0.00    0.0
2018/03/15 13:16:24.000   78.256793340   16.230368443   396.8622   5   9   1.8808   1.8345   7.9259  -0.6871  -2.3291   2.2877   0.00    0.0
2018/03/15 13:16:25.000   78.256793358   16.230360357   397.1698   5   9   1.8810   1.8345   7.9258  -0.6874  -2.3292   2.2885   0.00    0.0
2018/03/15 13:16:26.000   78.256795323   16.230375583   398.2736   5   9   1.8812   1.8346   7.9256  -0.6878  -2.3294   2.2893   0.00    0.0
2018/03/15 13:16:27.000   78.256798055   16.230355096   399.1914   5   9   1.8814   1.8346   7.9254  -0.6881  -2.3295   2.2901   0.00    0.0
2018/03/15 13:16:28.000   78.256796010   16.230357216   397.8813   5   9   1.8816   1.8347   7.9252  -0.6884  -2.3296   2.2909   0.00    0.0
2018/03/15 13:16:29.000   78.256792596   16.230357160   396.5516   5   9   1.8818   1.8348   7.9250  -0.6888  -2.3298   2.2917   0.00    0.0
2018/03/15 13:16:30.000   78.256789796   16.230345757   396.9794   5   9   1.8820   1.8348   7.9248  -0.6891  -2.3299   2.2925   0.00    0.0
2018/03/15 13:16:31.000   78.256786337   16.230343425   394.4595   5   9   1.8822   1.8349   7.9246  -0.6895  -2.3300   2.2933   0.00    0.0
2018/03/15 13:16:32.000   78.256790064   16.230343619   395.1455   5   9   1.8824   1.8349   7.9244  -0.6898  -2.3301   2.2941   0.00    0.0
2018/03/15 13:16:33.000   78.256787891   16.230369660   395.8950   5   9   1.8826   1.8350   7.9242  -0.6902  -2.3303   2.2950   0.00    0.0
2018/03/15 13:16:34.000   78.256793502   16.230324013   398.0065   5   9   1.8828   1.8350   7.9240  -0.6905  -2.3304   2.2958   0.00    0.0
2018/03/15 13:16:35.000   78.256792537   16.230339174   396.9560   5   9   1.8830   1.8351   7.9238  -0.6909  -2.3305   2.2966   0.00    0.0
2018/03/15 13:16:36.000   78.256786190   16.230369130   395.6896   5   9   1.8832   1.8351   7.9236  -0.6912  -2.3307   2.2974   0.00    0.0
2018/03/15 13:16:37.000   78.256787980   16.230360295   394.0187   5   9   1.8834   1.8352   7.9234  -0.6915  -2.3308   2.2982   0.00    0.0
2018/03/15 13:16:38.000   78.256787094   16.230359597   394.7154   5   9   1.8836   1.8352   7.9232  -0.6919  -2.3309   2.2990   0.00    0.0
2018/03/15 13:16:39.000   78.256789223   16.230358820   397.3427   5   9   1.8838   1.8353   7.9230  -0.6922  -2.3310   2.2998   0.00    0.0
2018/03/15 13:16:40.000   78.256789131   16.230366239   396.9071   5   9   1.8840   1.8353   7.9228  -0.6926  -2.3312   2.3006   0.00    0.0
2018/03/15 13:16:41.000   78.256797831   16.230331597   399.3271   5   9   1.8842   1.8354   7.9226  -0.6929  -2.3313   2.3014   0.00    0.0
2018/03/15 13:16:42.000   78.256797549   16.230324865   398.9453   5   9   1.8844   1.8354   7.9224  -0.6932  -2.3314   2.3022   0.00    0.0
2018/03/15 13:16:43.000   78.256792971   16.230349706   397.0408   5   9   1.8846   1.8355   7.9221  -0.6936  -2.3316   2.3030   0.00    0.0
2018/03/15 13:16:44.000   78.256793275   16.230331989   397.1725   5   9   1.8848   1.8355   7.9219  -0.6939  -2.3317   2.3038   0.00    0.0
2018/03/15 13:16:45.000   78.256790572   16.230347698   396.3334   5   9   1.8850   1.8356   7.9217  -0.6943  -2.3318   2.3046   0.00    0.0
2018/03/15 13:16:46.000   78.256784863   16.230348901   396.1376   5   9   1.8852   1.8356   7.9215  -0.6946  -2.3319   2.3054   0.00    0.0
2018/03/15 13:16:47.000   78.256786289   16.230343740   396.7530   5   9   1.8854   1.8357   7.9213  -0.6950  -2.3321   2.3062   0.00    0.0
2018/03/15 13:16:48.000   78.256784474   16.230334107   397.2284   5   9   1.8856   1.8357   7.9211  -0.6953  -2.3322   2.3070   0.00    0.0
2018/03/15 13:16:49.000   78.256787103   16.230361791   397.1096   5   9   1.8858   1.8358   7.9209  -0.6956  -2.3323   2.3077   0.00    0.0
2018/03/15 13:16:50.000   78.256790723   16.230367635   396.6093   5   9   1.8860   1.8358   7.9206  -0.6960  -2.3324   2.3085   0.00    0.0
2018/03/15 13:16:51.000   78.256788819   16.230353486   395.3602   5   9   1.8862   1.8359   7.9204  -0.6963  -2.3326   2.3093   0.00    0.0
2018/03/15 13:16:52.000   78.256782600   16.230345522   393.2468   5   9   1.8864   1.8359   7.9202  -0.6967  -2.3327   2.3101   0.00    0.0
2018/03/15 13:16:53.000   78.256784604   16.230339401   393.4801   5   9   1.8866   1.8360   7.9200  -0.6970  -2.3328   2.3109   0.00    0.0
2018/03/15 13:16:54.000   78.256784615   16.230327369   394.8975   5   9   1.8868   1.8360   7.9197  -0.6973  -2.3329   2.3117   0.00    0.0
2018/03/15 13:16:55.000   78.256784638   16.230338232   394.4161   5   9   1.8870   1.8361   7.9195  -0.6977  -2.3331   2.3125   0.00    0.0
2018/03/15 13:16:56.000   78.256788288   16.230359842   396.4036   5   9   1.8872   1.8361   7.9193  -0.6980  -2.3332   2.3133   0.00    0.0
2018/03/15 13:16:57.000   78.256792431   16.230365279   396.2230   5   9   1.8874   1.8362   7.9191  -0.6983  -2.3333   2.3141   0.00    0.0
2018/03/15 13:16:58.000   78.256793089   16.230364079   396.3204   5   9   1.8876   1.8362   7.9188  -0.6987  -2.3334   2.3149   0.00    0.0
2018/03/15 13:16:59.000   78.256790999   16.230356542   396.5707   5   9   1.8878   1.8363   7.9186  -0.6990  -2.3335   2.3157   0.00    0.0
2018/03/15 13:17:00.000   78.256791046   16.230350744   396.1755   5   9   1.8880   1.8363   7.9184  -0.6994  -2.3337   2.3164   0.00    0.0
2018/03/15 13:17:01.000   78.256789590   16.230336196   396.7717   5   9   1.8882   1.8363   7.9182  -0.6997  -2.3338   2.3172   0.00    0.0
2018/03/15 13:17:02.000   78.256791206   16.230329647   396.0724   5   9   1.8884   1.8364   7.9179  -0.7000  -2.3339   2.3180   0.00    0.0
2018/03/15 13:17:03.000   78.256789252   16.230343719   396.0512   5   9   1.8886   1.8364   7.9177  -0.7004  -2.3340   2.3188   0.00    0.0
2018/03/15 13:17:04.000   78.256793082   16.230352619   396.7098   5   9   1.8888   1.8365   7.9175  -0.7007  -2.3341   2.3196   0.00    0.0
2018/03/15 13:17:05.000   78.256792337   16.230360328   396.9057   5   9   1.8890   1.8365   7.9172  -0.7010  -2.3343   2.3204   0.00    0.0
2018/03/15 13:17:06.000   78.256787331   16.230369854   396.5221   5   9   1.8892   1.8366   7.9170  -0.7014  -2.3344   2.3212   0.00    0.0
2018/03/15 13:17:07.000   78.256786173   16.230362274   395.9530   5   9   1.8894   1.8366   7.9167  -0.7017  -2.3345   2.3219   0.00    0.0
2018/03/15 13:17:08.000   78.256783410   16.230358914   395.9939   5   9   1.8896   1.8367   7.9165  -0.7021  -2.3346   2.3227   0.00    0.0
2018/03/15 13:17:09.000   78.256785991   16.230345569   395.4939   5   9   1.8898   1.8367   7.9163  -0.7024  -2.3347   2.3235   0.00    0.0
2018/03/15 13:17:10.000   78.256785551   16.230328963   395.2946   5   9   1.8900   1.8368   7.9160  -0.7027  -2.3348   2.3243   0.00    0.0
2018/03/15 13:17:11.000   78.256783493   16.230340584   393.7959   5   9   1.8902   1.8368   7.9158  -0.7031  -2.3350   2.3251   0.00    0.0
2018/03/15 13:17:12.000   78.256787345   16.230356365   393.8737   5   9   1.8904   1.8369   7.9155  -0.7034  -2.3351   2.3258   0.00    0.0
2018/03/15 13:17:13.000   78.256788073   16.230362736   395.5406   5   9   1.8906   1.8369   7.9153  -0.7037  -2.3352   2.3266   0.00    0.0
2018/03/15 13:17:14.000   78.256791542   16.230353111   396.1352   5   9   1.8908   1.8370   7.9150  -0.7041  -2.3353   2.3274   0.00    0.0
2018/03/15 13:17:15.000   78.256788934   16.230362430   396.4853   5   9   1.8910   1.8370   7.9148  -0.7044  -2.3354   2.3282   0.00    0.0
2018/03/15 13:17:16.000   78.256786523   16.230378101   395.4309   5   9   1.8912   1.8371   7.9145  -0.7047  -2.3355   2.3290   0.00    0.0
2018/03/15 13:17:17.000   78.256788406   16.230347161   395.7883   5   9   1.8914   1.8371   7.9143  -0.7051  -2.3356   2.3297   0.00    0.0
2018/03/15 13:17:18.000   78.256788529   16.230347264   396.8071   5   9   1.8916   1.8372   7.9140  -0.7054  -2.3358   2.3305   0.00    0.0
2018/03/15 13:17:19.000   78.256787787   16.230340478   397.7800   5   9   1.8918   1.8372   7.9138  -0.7057  -2.3359   2.3313   0.00    0.0
2018/03/15 13:17:20.000   78.256789410   16.230340975   397.8013   5   9   1.8920   1.8373   7.9135  -0.7061  -2.3360   2.3321   0.00    0.0
2018/03/15 13:17:21.000   78.256791379   16.230341976   398.0066   5   9   1.8922   1.8373   7.9133  -0.7064  -2.3361   2.3328   0.00    0.0
2018/03/15 13:17:22.000   78.256794162   16.230339369   398.3972   5   9   1.8924   1.8374   7.9130  -0.7067  -2.3362   2.3336   0.00    0.0
2018/03/15 13:17:23.000   78.256790799   16.230357890   397.1855   5   9   1.8926   1.8374   7.9128  -0.7071  -2.3363   2.3344   0.00    0.0
2018/03/15 13:17:24.000   78.256790740   16.230353290   396.5454   5   9   1.8928   1.8375   7.9125  -0.7074  -2.3364   2.3352   0.00    0.0
2018/03/15 13:17:25.000   78.256786963   16.230349782   395.3923   5   9   1.8930   1.8375   7.9123  -0.7077  -2.3365   2.3359   0.00    0.0
2018/03/15 13:17:26.000   78.256779544   16.230344835   394.2016   5   9   1.8932   1.8376   7.9120  -0.7081  -2.3367   2.3367   0.00    0.0
2018/03/15 13:17:27.000   78.256781276   16.230348290   394.0326   5   9   1.8934   1.8376   7.9117  -0.7084  -2.3368   2.3375   0.00    0.0
2018/03/15 13:17:28.000   78.256786582   16.230351261   395.2882   5   9   1.8936   1.8377   7.9115  -0.7087  -2.3369   2.3382   0.00    0.0
2018/03/15 13:17:29.000   78.256793687   16.230373629   397.1509   5   9   1.8938   1.8377   7.9112  -0.7091  -2.3370   2.3390   0.00    0.0
2018/03/15 13:17:30.000   78.256792995   16.230375941   396.7050   5   9   1.8940   1.8378   7.9110  -0.7094  -2.3371   2.3398   0.00    0.0
2018/03/15 13:17:31.000   78.256793957   16.230376101   395.7671   5   9   1.8942   1.8378   7.9107  -0.7097  -2.3372   2.3405   0.00    0.0
2018/03/15 13:17:32.000   78.256793014   16.230364002   396.1402   5   9   1.8944   1.8379   7.9104  -0.7101  -2.3373   2.3413   0.00    0.0
2018/03/15 13:17:33.000   78.256788572   16.230372135   394.4519   5   9   1.8946   1.8379   7.9102  -0.7104  -2.3374   2.3421   0.00    0.0
2018/03/15 13:17:34.000   78.256787795   16.230349415   393.8645   5   9   1.8948   1.8380   7.9099  -0.7107  -2.3375   2.3428   0.00    0.0
2018/03/15 13:17:35.000   78.256792413   16.230359142   394.9919   5   9   1.8950   1.8380   7.9096  -0.7111  -2.3376   2.3436   0.00    0.0
2018/03/15 13:17:36.000   78.256795886   16.230354719   395.9923   5   9   1.8952   1.8381   7.9093  -0.7114  -2.3377   2.3444   0.00    0.0
2018/03/15 13:17:37.000   78.256795550   16.230352787   397.1023   5   9   1.8954   1.8381   7.9091  -0.7117  -2.3378   2.3451   0.00    0.0
2018/03/15 13:17:38.000   78.256799117   16.230358343   398.4602   5   9   1.8956   1.8382   7.9088  -0.7120  -2.3380   2.3459   0.00    0.0
2018/03/15 13:17:39.000   78.256800490   16.230340698   399.4705   5   9   1.8958   1.8382   7.9085  -0.7124  -2.3381   2.3467   0.00    0.0
2018/03/15 13:17:40.000   78.256793109   16.230356376   398.0151   5   9   1.8960   1.8383   7.9082  -0.7127  -2.3382   2.3474   0.00    0.0
2018/03/15 13:17:41.000   78.256790871   16.230359928   395.8163   5   9   1.8962   1.8383   7.9080  -0.7130  -2.3383   2.3482   0.00    0.0
2018/03/15 13:17:42.000   78.256785660   16.230354352   393.7571   5   9   1.8964   1.8384   7.9077  -0.7134  -2.3384   2.3489   0.00    0.0
2018/03/15 13:17:43.000   78.256785834   16.230346216   394.7486   5   9   1.8966   1.8384   7.9074  -0.7137  -2.3385   2.3497   0.00    0.0
2018/03/15 13:17:44.000   78.256792039   16.230357574   395.8361   5   9   1.8968   1.8385   7.9071  -0.7140  -2.3386   2.3505   0.00    0.0
2018/03/15 13:17:45.000   78.256792906   16.230350390   396.8184   5   9   1.8970   1.8385   7.9068  -0.7144  -2.3387   2.3512   0.00    0.0
2018/03/15 13:17:46.000   78.256794563   16.230364660   397.5012   5   9   1.8972   1.8386   7.9066  -0.7147  -2.3388   2.3520   0.00    0.0
2018/03/15 13:17:47.000   78.256788280   16.230371342   396.1613   5   9   1.8975   1.8386   7.9063  -0.7150  -2.3389   2.3527   0.00    0.0
2018/03/15 13:17:48.000   78.256782873   16.230356772   394.5824   5   9   1.8977   1.8387   7.9060  -0.7153  -2.3390   2.3535   0.00    0.0
2018/03/15 13:17:49.000   78.256779092   16.230332620   392.9841   5   9   1.8979   1.8387   7.9057  -0.7157  -2.3391   2.3543   0.00    0.0
2018/03/15 13:17:50.000   78.256779434   16.230345657   393.9890   5   9   1.8981   1.8387   7.9054  -0.7160  -2.3392   2.3550   0.00    0.0
2018/03/15 13:17:51.000   78.256786417   16.230345476   396.1154   5   9   1.8983   1.8388   7.9051  -0.7163  -2.3393   2.3558   0.00    0.0
2018/03/15 13:17:52.000   78.256791482   16.230332731   396.9540   5   9   1.8985   1.8388   7.9048  -0.7166  -2.3394   2.3565   0.00    0.0
2018/03/15 13:17:53.000   78.256790519   16.230334694   400.3783   5   9   1.8987   1.8389   7.9046  -0.7170  -2.3395   2.3573   0.00    0.0
2018/03/15 13:17:54.000   78.256787979   16.230352784   398.2941   5   9   1.8989   1.8389   7.9043  -0.7173  -2.3396   2.3580   0.00    0.0
2018/03/15 13:17:55.000   78.256786803   16.230358664   397.7607   5   9   1.8991   1.8390   7.9040  -0.7176  -2.3397   2.3588   0.00    0.0
2018/03/15 13:17:56.000   78.256783290   16.230363554   395.9823   5   9   1.8993   1.8390   7.9037  -0.7180  -2.3398   2.3595   0.00    0.0
2018/03/15 13:17:57.000   78.256778490   16.230365606   394.8729   5   9   1.8995   1.8391   7.9034  -0.7183  -2.3399   2.3603   0.00    0.0
2018/03/15 13:17:58.000   78.256779131   16.230328317   395.2099   5   9   1.8997   1.8391   7.9031  -0.7186  -2.3400   2.3610   0.00    0.0
2018/03/15 13:17:59.000   78.256785882   16.230317854   396.0148   5   9   1.8999   1.8392   7.9028  -0.7189  -2.3401   2.3618   0.00    0.0
2018/03/15 13:18:00.000   78.256785141   16.230335609   396.0752   5   9   1.9001   1.8392   7.9025  -0.7193  -2.3402   2.3625   0.00    0.0
2018/03/15 13:18:01.000   78.256790331   16.230354510   397.0477   5   9   1.9003   1.8393   7.9022  -0.7196  -2.3403   2.3633   0.00    0.0
2018/03/15 13:18:02.000   78.256790058   16.230359901   396.0390   5   9   1.9005   1.8393   7.9019  -0.7199  -2.3404   2.3640   0.00    0.0
2018/03/15 13:18:03.000   78.256786006   16.230356856   394.7317   5   9   1.9007   1.8394   7.9016  -0.7202  -2.3405   2.3648   0.00    0.0
2018/03/15 13:18:04.000   78.256785068   16.230347697   394.0086   5   9   1.9009   1.8394   7.9013  -0.7206  -2.3406   2.3655   0.00    0.0
2018/03/15 13:18:05.000   78.256788363   16.230332720   394.8226   5   9   1.9011   1.8395   7.9010  -0.7209  -2.3407   2.3663   0.00    0.0
2018/03/15 13:18:06.000   78.256785814   16.230338037   394.9764   5   9   1.9013   1.8395   7.9007  -0.7212  -2.3408   2.3670   0.00    0.0
2018/03/15 13:18:07.000   78.256786683   16.230356622   395.6802   5   9   1.9015   1.8396   7.9004  -0.7215  -2.3409   2.3678   0.00    0.0
2018/03/15 13:18:08.000   78.256794736   16.230352632   396.4598   5   9   1.9017   1.8396   7.9001  -0.7219  -2.3410   2.3685   0.00    0.0
2018/03/15 13:18:09.000   78.256790950   16.230377469   395.7686   5   9   1.9020   1.8397   7.8998  -0.7222  -2.3411   2.3692   0.00    0.0
2018/03/15 13:18:10.000   78.256791722   16.230379439   394.6689   5   9   1.9022   1.8397   7.8994  -0.7225  -2.3412   2.3700   0.00    0.0
2018/03/15 13:18:11.000   78.256791017   16.230362912   395.7499   5   9   1.9024   1.8398   7.8991  -0.7228  -2.3412   2.3707   0.00    0.0
2018/03/15 13:18:12.000   78.256792965   16.230320775   397.3079   5   9   1.9026   1.8398   7.8988  -0.7231  -2.3413   2.3715   0.00    0.0
2018/03/15 13:18:13.000   78.256789361   16.230320097   396.5606   5   9   1.9028   1.8399   7.8985  -0.7235  -2.3414   2.3722   0.00    0.0
2018/03/15 13:18:14.000   78.256789833   16.230322376   396.0945   5   9   1.9030   1.8399   7.8982  -0.7238  -2.3415   2.3729   0.00    0.0
2018/03/15 13:18:15.000   78.256790267   16.230346550   394.9115   5   9   1.9032   1.8399   7.8979  -0.7241  -2.3416   2.3737   0.00    0.0
2018/03/15 13:18:16.000   78.256790967   16.230367375   395.5159   5   9   1.9034   1.8400   7.8976  -0.7244  -2.3417   2.3744   0.00    0.0
2018/03/15 13:18:17.000   78.256786985   16.230392649   394.1545   5   9   1.9036   1.8400   7.8972  -0.7248  -2.3418   2.3752   0.00    0.0
2018/03/15 13:18:18.000   78.256793720   16.230354775   396.5377   5   9   1.9038   1.8401   7.8969  -0.7251  -2.3419   2.3759   0.00    0.0
2018/03/15 13:18:19.000   78.256790713   16.230334857   396.8655   5   9   1.9040   1.8401   7.8966  -0.7254  -2.3420   2.3766   0.00    0.0
2018/03/15 13:18:20.000   78.256786253   16.230330428   393.5645   5   9   1.9042   1.8402   7.8963  -0.7257  -2.3421   2.3774   0.00    0.0
2018/03/15 13:18:21.000   78.256786930   16.230327890   394.0500   5   9   1.9044   1.8402   7.8960  -0.7260  -2.3422   2.3781   0.00    0.0
2018/03/15 13:18:22.000   78.256786298   16.230352793   393.2477   5   9   1.9046   1.8403   7.8956  -0.7264  -2.3422   2.3788   0.00    0.0
2018/03/15 13:18:23.000   78.256786019   16.230387040   393.6925   5   9   1.9048   1.8403   7.8953  -0.7267  -2.3423   2.3796   0.00    0.0
2018/03/15 13:18:24.000   78.256789673   16.230367628   395.1215   5   9   1.9050   1.8404   7.8950  -0.7270  -2.3424   2.3803   0.00    0.0
2018/03/15 13:18:25.000   78.256792681   16.230354740   397.4573   5   9   1.9053   1.8404   7.8947  -0.7273  -2.3425   2.3810   0.00    0.0
2018/03/15 13:18:26.000   78.256793549   16.230361116   397.3201   5   9   1.9055   1.8405   7.8943  -0.7277  -2.3426   2.3818   0.00    0.0
2018/03/15 13:18:27.000   78.256794094   16.230340199   397.6676   5   9   1.9057   1.8405   7.8940  -0.7280  -2.3427   2.3825   0.00    0.0
2018/03/15 13:18:28.000   78.256790590   16.230343014   397.1982   5   9   1.9059   1.8406   7.8937  -0.7283  -2.3428   2.3832   0.00    0.0
2018/03/15 13:18:29.000   78.256788030   16.230358835   395.6545   5   9   1.9061   1.8406   7.8933  -0.7286  -2.3429   2.3840   0.00    0.0
2018/03/15 13:18:30.000   78.256785549   16.230364002   395.1663   5   9   1.9063   1.8407   7.8930  -0.7289  -2.3430   2.3847   0.00    0.0
2018/03/15 13:18:31.000   78.256788192   16.230358247   396.5020   5   9   1.9065   1.8407   7.8927  -0.7293  -2.3430   2.3854   0.00    0.0
2018/03/15 13:18:32.000   78.256791201   16.230337705   398.1878   5   9   1.9067   1.8408   7.8923  -0.7296  -2.3431   2.3862   0.00    0.0
2018/03/15 13:18:33.000   78.256795894   16.230337827   399.7688   5   9   1.9069   1.8408   7.8920  -0.7299  -2.3432   2.3869   0.00    0.0
2018/03/15 13:18:34.000   78.256794160   16.230323681   399.2750   5   9   1.9071   1.8408   7.8917  -0.7302  -2.3433   2.3876   0.00    0.0
2018/03/15 13:18:35.000   78.256792426   16.230323945   398.4424   5   9   1.9073   1.8409   7.8913  -0.7305  -2.3434   2.3883   0.00    0.0
2018/03/15 13:18:36.000   78.256786230   16.230344290   395.6999   5   9   1.9075   1.8409   7.8910  -0.7308  -2.3435   2.3891   0.00    0.0
2018/03/15 13:18:37.000   78.256786895   16.230356369   393.8511   5   9   1.9077   1.8410   7.8907  -0.7312  -2.3435   2.3898   0.00    0.0
2018/03/15 13:18:38.000   78.256789653   16.230354607   395.0496   5   9   1.9079   1.8410   7.8903  -0.7315  -2.3436   2.3905   0.00    0.0
2018/03/15 13:18:39.000   78.256793998   16.230347395   397.5494   5   9   1.9082   1.8411   7.8900  -0.7318  -2.3437   2.3912   0.00    0.0
2018/03/15 13:18:40.000   78.256792518   16.230338236   397.6600   5   9   1.9084   1.8411   7.8896  -0.7321  -2.3438   2.3920   0.00    0.0
2018/03/15 13:18:41.000   78.256795119   16.230332867   398.5453   5   9   1.9086   1.8412   7.8893  -0.7324  -2.3439   2.3927   0.00    0.0
2018/03/15 13:18:42.000   78.256790623   16.230351747   396.6225   5   9   1.9088   1.8412   7.8889  -0.7328  -2.3440   2.3934   0.00    0.0
2018/03/15 13:18:43.000   78.256790271   16.230369819   395.1055   5   9   1.9090   1.8413   7.8886  -0.7331  -2.3440   2.3941   0.00    0.0
2018/03/15 13:18:44.000   78.256787667   16.230385109   393.2718   5   9   1.9092   1.8413   7.8882  -0.7334  -2.3441   2.3949   0.00    0.0
2018/03/15 13:18:45.000   78.256788594   16.230375193   394.6047   5   9   1.9094   1.8414   7.8879  -0.7337  -2.3442   2.3956   0.00    0.0
2018/03/15 13:18:46.000   78.256792428   16.230365555   395.5289   5   9   1.9096   1.8414   7.8876  -0.7340  -2.3443   2.3963   0.00    0.0
2018/03/15 13:18:47.000   78.256795713   16.230337784   396.6603   5   9   1.9098   1.8415   7.8872  -0.7343  -2.3444   2.3970   0.00    0.0
2018/03/15 13:18:48.000   78.256797830   16.230320187   398.8295   5   9   1.9100   1.8415   7.8868  -0.7346  -2.3444   2.3977   0.00    0.0
2018/03/15 13:18:49.000   78.256795990   16.230338484   397.6077   5   9   1.9102   1.8416   7.8865  -0.7350  -2.3445   2.3984   0.00    0.0
2018/03/15 13:18:50.000   78.256791403   16.230332793   395.2846   5   9   1.9104   1.8416   7.8861  -0.7353  -2.3446   2.3992   0.00    0.0
2018/03/15 13:18:51.000   78.256785678   16.230360402   393.6327   5   9   1.9107   1.8416   7.8858  -0.7356  -2.3447   2.3999   0.00    0.0
2018/03/15 13:18:52.000   78.256785952   16.230353792   394.4649   5   9   1.9109   1.8417   7.8854  -0.7359  -2.3448   2.4006   0.00    0.0
2018/03/15 13:18:53.000   78.256788728   16.230337117   395.9295   5   9   1.9111   1.8417   7.8851  -0.7362  -2.3448   2.4013   0.00    0.0
2018/03/15 13:18:54.000   78.256790482   16.230326465   396.3886   5   9   1.9113   1.8418   7.8847  -0.7365  -2.3449   2.4020   0.00    0.0
2018/03/15 13:18:55.000   78.256793700   16.230312063   397.4870   5   9   1.9115   1.8418   7.8844  -0.7369  -2.3450   2.4027   0.00    0.0
2018/03/15 13:18:56.000   78.256790618   16.230331178   395.9035   5   9   1.9117   1.8419   7.8840  -0.7372  -2.3451   2.4034   0.00    0.0
2018/03/15 13:18:57.000   78.256789633   16.230355210   395.0308   5   9   1.9119   1.8419   7.8836  -0.7375  -2.3451   2.4042   0.00    0.0
2018/03/15 13:18:58.000   78.256784676   16.230354280   394.2264   5   9   1.9121   1.8420   7.8833  -0.7378  -2.3452   2.4049   0.00    0.0
2018/03/15 13:18:59.000   78.256787201   16.230347455   394.0780   5   9   1.9123   1.8420   7.8829  -0.7381  -2.3453   2.4056   0.00    0.0
2018/03/15 13:19:00.000   78.256793117   16.230359423   396.8175   5   9   1.9125   1.8421   7.8825  -0.7384  -2.3454   2.4063   0.00    0.0
2018/03/15 13:19:01.000   78.256794853   16.230350669   398.2617   5   9   1.9127   1.8421   7.8822  -0.7387  -2.3455   2.4070   0.00    0.0
2018/03/15 13:19:02.000   78.256797178   16.230340759   397.3251   5   9   1.9130   1.8422   7.8818  -0.7390  -2.3455   2.4077   0.00    0.0
2018/03/15 13:19:03.000   78.256795356   16.230347214   397.4834   5   9   1.9132   1.8422   7.8814  -0.7394  -2.3456   2.4084   0.00    0.0
2018/03/15 13:19:04.000   78.256789872   16.230354010   395.6769   5   9   1.9134   1.8423   7.8811  -0.7397  -2.3457   2.4091   0.00    0.0
2018/03/15 13:19:05.000   78.256789234   16.230352802   395.6766   5   9   1.9136   1.8423   7.8807  -0.7400  -2.3457   2.4098   0.00    0.0
2018/03/15 13:19:06.000   78.256789129   16.230348639   395.0127   5   9   1.9138   1.8423   7.8803  -0.7403  -2.3458   2.4105   0.00    0.0
2018/03/15 13:19:07.000   78.256783842   16.230353108   393.2415   5   9   1.9140   1.8424   7.8799  -0.7406  -2.3459   2.4113   0.00    0.0
2018/03/15 13:19:08.000   78.256787642   16.230339903   395.0845   5   9   1.9142   1.8424   7.8796  -0.7409  -2.3460   2.4120   0.00    0.0
2018/03/15 13:19:09.000   78.256788993   16.230320796   396.0949   5   9   1.9144   1.8425   7.8792  -0.7412  -2.3460   2.4127   0.00    0.0
2018/03/15 13:19:10.000   78.256790019   16.230334730   397.2734   5   9   1.9146   1.8425   7.8788  -0.7415  -2.3461   2.4134   0.00    0.0
2018/03/15 13:19:11.000   78.256788588   16.230337559   396.8018   5   9   1.9148   1.8426   7.8784  -0.7419  -2.3462   2.4141   0.00    0.0
2018/03/15 13:19:12.000   78.256789231   16.230339062   396.1509   5   9   1.9151   1.8426   7.8781  -0.7422  -2.3463   2.4148   0.00    0.0
2018/03/15 13:19:13.000   78.256786433   16.230339029   395.1527   5   9   1.9153   1.8427   7.8777  -0.7425  -2.3463   2.4155   0.00    0.0
2018/03/15 13:19:14.000   78.256788512   16.230341511   395.5996   5   9   1.9155   1.8427   7.8773  -0.7428  -2.3464   2.4162   0.00    0.0
2018/03/15 13:19:15.000   78.256792221   16.230315778   397.7115   5   9   1.9157   1.8428   7.8769  -0.7431  -2.3465   2.4169   0.00    0.0
2018/03/15 13:19:16.000   78.256794272   16.230334469   398.0955   5   9   1.9159   1.8428   7.8765  -0.7434  -2.3465   2.4176   0.00    0.0
2018/03/15 13:19:17.000   78.256792471   16.230352774   397.4207   5   9   1.9161   1.8429   7.8762  -0.7437  -2.3466   2.4183   0.00    0.0
2018/03/15 13:19:18.000   78.256797205   16.230351883   398.7358   5   9   1.9163   1.8429   7.8758  -0.7440  -2.3467   2.4190   0.00    0.0
2018/03/15 13:19:19.000   78.256796500   16.230352650   396.6413   5   9   1.9165   1.8429   7.8754  -0.7443  -2.3467   2.4197   0.00    0.0
2018/03/15 13:19:20.000   78.256786114   16.230361996   394.1696   5   9   1.9167   1.8430   7.8750  -0.7446  -2.3468   2.4204   0.00    0.0
2018/03/15 13:19:21.000   78.256787364   16.230356617   393.2130   5   9   1.9170   1.8430   7.8746  -0.7450  -2.3469   2.4211   0.00    0.0
2018/03/15 13:19:22.000   78.256787986   16.230343962   394.7954   5   9   1.9172   1.8431   7.8742  -0.7453  -2.3469   2.4218   0.00    0.0
2018/03/15 13:19:23.000   78.256789768   16.230351443   394.8695   5   9   1.9174   1.8431   7.8738  -0.7456  -2.3470   2.4225   0.00    0.0
2018/03/15 13:19:24.000   78.256792427   16.230334666   396.7034   5   9   1.9176   1.8432   7.8734  -0.7459  -2.3471   2.4232   0.00    0.0
2018/03/15 13:19:25.000   78.256796931   16.230321017   398.2498   5   9   1.9178   1.8432   7.8730  -0.7462  -2.3471   2.4238   0.00    0.0
2018/03/15 13:19:26.000   78.256795949   16.230336311   396.4060   5   9   1.9180   1.8433   7.8726  -0.7465  -2.3472   2.4245   0.00    0.0
2018/03/15 13:19:27.000   78.256788560   16.230346114   394.3556   5   9   1.9182   1.8433   7.8723  -0.7468  -2.3473   2.4252   0.00    0.0
2018/03/15 13:19:28.000   78.256784866   16.230355626   393.1337   5   9   1.9184   1.8434   7.8719  -0.7471  -2.3473   2.4259   0.00    0.0
2018/03/15 13:19:29.000   78.256787135   16.230342943   393.9068   5   9   1.9186   1.8434   7.8715  -0.7474  -2.3474   2.4266   0.00    0.0
2018/03/15 13:19:30.000   78.256792450   16.230337838   395.7431   5   9   1.9189   1.8434   7.8711  -0.7477  -2.3475   2.4273   0.00    0.0
2018/03/15 13:19:31.000   78.256794906   16.230346109   398.2288   5   9   1.9191   1.8435   7.8707  -0.7480  -2.3475   2.4280   0.00    0.0
2018/03/15 13:19:32.000   78.256799347   16.230334950   399.1624   5   9   1.9193   1.8435   7.8703  -0.7483  -2.3476   2.4287   0.00    0.0
2018/03/15 13:19:33.000   78.256795842   16.230347315   397.8884   5   9   1.9195   1.8436   7.8699  -0.7487  -2.3477   2.4294   0.00    0.0
2018/03/15 13:19:34.000   78.256793776   16.230349109   396.7760   5   9   1.9197   1.8436   7.8695  -0.7490  -2.3477   2.4301   0.00    0.0
2018/03/15 13:19:35.000   78.256791987   16.230346248   396.2668   5   9   1.9199   1.8437   7.8691  -0.7493  -2.3478   2.4308   0.00    0.0
2018/03/15 13:19:36.000   78.256791417   16.230341086   396.2496   5   9   1.9201   1.8437   7.8687  -0.7496  -2.3478   2.4314   0.00    0.0
2018/03/15 13:19:37.000   78.256791045   16.230337709   395.7640   5   9   1.9203   1.8438   7.8682  -0.7499  -2.3479   2.4321   0.00    0.0
2018/03/15 13:19:38.000   78.256793245   16.230331342   396.3875   5   9   1.9205   1.8438   7.8678  -0.7502  -2.3480   2.4328   0.00    0.0
2018/03/15 13:19:39.000   78.256792638   16.230339576   396.2264   5   9   1.9208   1.8439   7.8674  -0.7505  -2.3480   2.4335   0.00    0.0
2018/03/15 13:19:40.000   78.256790051   16.230361666   396.0539   5   9   1.9210   1.8439   7.8670  -0.7508  -2.3481   2.4342   0.00    0.0
2018/03/15 13:19:41.000   78.256788515   16.230365365   395.4894   5   9   1.9212   1.8439   7.8666  -0.7511  -2.3481   2.4349   0.00    0.0
2018/03/15 13:19:42.000   78.256785304   16.230371930   394.0043   5   9   1.9214   1.8440   7.8662  -0.7514  -2.3482   2.4356   0.00    0.0
2018/03/15 13:19:43.000   78.256785557   16.230365042   394.2235   5   9   1.9216   1.8440   7.8658  -0.7517  -2.3483   2.4362   0.00    0.0
2018/03/15 13:19:44.000   78.256783907   16.230360443   394.6878   5   9   1.9218   1.8441   7.8654  -0.7520  -2.3483   2.4369   0.00    0.0
2018/03/15 13:19:45.000   78.256789916   16.230316345   396.8970   5   9   1.9220   1.8441   7.8650  -0.7523  -2.3484   2.4376   0.00    0.0
2018/03/15 13:19:46.000   78.256791291   16.230314624   398.6225   5   9   1.9222   1.8442   7.8645  -0.7526  -2.3484   2.4383   0.00    0.0
2018/03/15 13:19:47.000   78.256794987   16.230312167   398.9542   5   9   1.9225   1.8442   7.8641  -0.7529  -2.3485   2.4390   0.00    0.0
2018/03/15 13:19:48.000   78.256792715   16.230336617   398.1674   5   9   1.9227   1.8443   7.8637  -0.7532  -2.3486   2.4396   0.00    0.0
2018/03/15 13:19:49.000   78.256791474   16.230353032   396.3946   5   9   1.9229   1.8443   7.8633  -0.7535  -2.3486   2.4403   0.00    0.0
2018/03/15 13:19:50.000   78.256786020   16.230346626   395.5246   5   9   1.9231   1.8444   7.8629  -0.7538  -2.3487   2.4410   0.00    0.0
2018/03/15 13:19:51.000   78.256786397   16.230343007   396.0772   5   9   1.9233   1.8444   7.8624  -0.7541  -2.3487   2.4417   0.00    0.0
2018/03/15 13:19:52.000   78.256790212   16.230326210   397.0619   5   9   1.9235   1.8444   7.8620  -0.7544  -2.3488   2.4424   0.00    0.0
2018/03/15 13:19:53.000   78.256789207   16.230343611   396.8982   5   9   1.9237   1.8445   7.8616  -0.7547  -2.3488   2.4430   0.00    0.0
2018/03/15 13:19:54.000   78.256791034   16.230325959   396.9535   5   9   1.9239   1.8445   7.8612  -0.7550  -2.3489   2.4437   0.00    0.0
2018/03/15 13:19:55.000   78.256788049   16.230344900   396.1750   5   9   1.9242   1.8446   7.8608  -0.7553  -2.3490   2.4444   0.00    0.0
2018/03/15 13:19:56.000   78.256789178   16.230346595   395.7258   5   9   1.9244   1.8446   7.8603  -0.7557  -2.3490   2.4451   0.00    0.0
2018/03/15 13:19:57.000   78.256786325   16.230372884   393.5129   5   9   1.9246   1.8447   7.8599  -0.7560  -2.3491   2.4457   0.00    0.0
2018/03/15 13:19:58.000   78.256791183   16.230353308   394.7213   5   9   1.9248   1.8447   7.8595  -0.7563  -2.3491   2.4464   0.00    0.0
2018/03/15 13:19:59.000   78.256793470   16.230332459   396.0785   5   9   1.9250   1.8448   7.8590  -0.7566  -2.3492   2.4471   0.00    0.0
2018/03/15 13:20:00.000   78.256791974   16.230328184   396.2292   5   9   1.9252   1.8448   7.8586  -0.7569  -2.3492   2.4478   0.00    0.0
2018/03/15 13:20:01.000   78.256786575   16.230345316   394.5158   5   9   1.9254   1.8448   7.8582  -0.7572  -2.3493   2.4484   0.00    0.0
2018/03/15 13:20:02.000   78.256788929   16.230345412   395.0892   5   9   1.9257   1.8449   7.8577  -0.7575  -2.3493   2.4491   0.00    0.0
2018/03/15 13:20:03.000   78.256790715   16.230369324   395.1441   5   9   1.9259   1.8449   7.8573  -0.7578  -2.3494   2.4498   0.00    0.0
2018/03/15 13:20:04.000   78.256791836   16.230366382   395.8195   5   9   1.9261   1.8450   7.8569  -0.7581  -2.3494   2.4504   0.00    0.0
2018/03/15 13:20:05.000   78.256793541   16.230337952   395.8692   5   9   1.9263   1.8450   7.8564  -0.7584  -2.3495   2.4511   0.00    0.0
2018/03/15 13:20:06.000   78.256790453   16.230349429   396.3407   5   9   1.9265   1.8451   7.8560  -0.7587  -2.3495   2.4518   0.00    0.0
2018/03/15 13:20:07.000   78.256788743   16.230334437   396.6101   5   9   1.9267   1.8451   7.8556  -0.7590  -2.3496   2.4524   0.00    0.0
2018/03/15 13:20:08.000   78.256789494   16.230327813   397.0494   5   9   1.9269   1.8452   7.8551  -0.7593  -2.3496   2.4531   0.00    0.0
2018/03/15 13:20:09.000   78.256792710   16.230332836   397.5960   5   9   1.9271   1.8452   7.8547  -0.7596  -2.3497   2.4538   0.00    0.0
2018/03/15 13:20:10.000   78.256794309   16.230336980   397.8764   5   9   1.9274   1.8452   7.8542  -0.7599  -2.3497   2.4544   0.00    0.0
2018/03/15 13:20:11.000   78.256795087   16.230327439   397.2842   5   9   1.9276   1.8453   7.8538  -0.7602  -2.3498   2.4551   0.00    0.0
2018/03/15 13:20:12.000   78.256798306   16.230328088   397.6341   5   9   1.9278   1.8453   7.8534  -0.7605  -2.3498   2.4558   0.00    0.0
2018/03/15 13:20:13.000   78.256790495   16.230343554   395.9377   5   9   1.9280   1.8454   7.8529  -0.7608  -2.3499   2.4564   0.00    0.0
2018/03/15 13:20:14.000   78.256792076   16.230334670   396.9719   5   9   1.9282   1.8454   7.8525  -0.7611  -2.3499   2.4571   0.00    0.0
2018/03/15 13:20:15.000   78.256785920   16.230328868   395.0786   5   9   1.9284   1.8455   7.8520  -0.7614  -2.3500   2.4578   0.00    0.0
2018/03/15 13:20:16.000   78.256788438   16.230342220   394.9570   5   9   1.9286   1.8455   7.8516  -0.7617  -2.3500   2.4584   0.00    0.0
2018/03/15 13:20:17.000   78.256790044   16.230347190   395.6577   5   9   1.9289   1.8456   7.8511  -0.7620  -2.3501   2.4591   0.00    0.0
2018/03/15 13:20:18.000   78.256793131   16.230362787   396.0965   5   9   1.9291   1.8456   7.8507  -0.7622  -2.3501   2.4597   0.00    0.0
2018/03/15 13:20:19.000   78.256792633   16.230360679   395.9219   5   9   1.9293   1.8456   7.8502  -0.7625  -2.3502   2.4604   0.00    0.0
2018/03/15 13:20:20.000   78.256792927   16.230355192   397.5102   5   9   1.9295   1.8457   7.8498  -0.7628  -2.3502   2.4611   0.00    0.0
2018/03/15 13:20:21.000   78.256793396   16.230328978   398.0750   5   9   1.9297   1.8457   7.8493  -0.7631  -2.3503   2.4617   0.00    0.0
2018/03/15 13:20:22.000   78.256786325   16.230312737   397.3027   5   9   1.9299   1.8458   7.8489  -0.7634  -2.3503   2.4624   0.00    0.0
2018/03/15 13:20:23.000   78.256792016   16.230319403   397.2328   5   9   1.9301   1.8458   7.8484  -0.7637  -2.3503   2.4630   0.00    0.0
2018/03/15 13:20:24.000   78.256796124   16.230328881   397.4933   5   9   1.9304   1.8459   7.8480  -0.7640  -2.3504   2.4637   0.00    0.0
2018/03/15 13:20:25.000   78.256795322   16.230340339   397.6569   5   9   1.9306   1.8459   7.8475  -0.7643  -2.3504   2.4643   0.00    0.0
2018/03/15 13:20:26.000   78.256792251   16.230355679   396.3275   5   9   1.9308   1.8460   7.8470  -0.7646  -2.3505   2.4650   0.00    0.0
2018/03/15 13:20:27.000   78.256792537   16.230355152   396.7846   5   9   1.9310   1.8460   7.8466  -0.7649  -2.3505   2.4657   0.00    0.0
2018/03/15 13:20:28.000   78.256786863   16.230352414   395.6374   5   9   1.9312   1.8460   7.8461  -0.7652  -2.3506   2.4663   0.00    0.0
2018/03/15 13:20:29.000   78.256789211   16.230342050   396.8482   5   9   1.9314   1.8461   7.8457  -0.7655  -2.3506   2.4670   0.00    0.0
2018/03/15 13:20:30.000   78.256788225   16.230323567   396.6880   5   9   1.9317   1.8461   7.8452  -0.7658  -2.3506   2.4676   0.00    0.0
2018/03/15 13:20:31.000   78.256794748   16.230322390   397.7092   5   9   1.9319   1.8462   7.8447  -0.7661  -2.3507   2.4683   0.00    0.0
2018/03/15 13:20:32.000   78.256797128   16.230335757   397.8520   5   9   1.9321   1.8462   7.8443  -0.7664  -2.3507   2.4689   0.00    0.0
2018/03/15 13:20:33.000   78.256797359   16.230359383   396.8248   5   9   1.9323   1.8463   7.8438  -0.7667  -2.3508   2.4696   0.00    0.0
2018/03/15 13:20:34.000   78.256793466   16.230372370   395.0444   5   9   1.9325   1.8463   7.8433  -0.7670  -2.3508   2.4702   0.00    0.0
2018/03/15 13:20:35.000   78.256790550   16.230364170   394.9024   5   9   1.9327   1.8463   7.8429  -0.7673  -2.3509   2.4709   0.00    0.0
2018/03/15 13:20:36.000   78.256787508   16.230344950   394.0444   5   9   1.9329   1.8464   7.8424  -0.7676  -2.3509   2.4715   0.00    0.0
2018/03/15 13:20:37.000   78.256788018   16.230334067   394.9120   5   9   1.9332   1.8464   7.8419  -0.7679  -2.3509   2.4722   0.00    0.0
2018/03/15 13:20:38.000   78.256791051   16.230341600   396.1318   5   9   1.9334   1.8465   7.8415  -0.7682  -2.3510   2.4728   0.00    0.0
2018/03/15 13:20:39.000   78.256794470   16.230362339   396.0883   5   9   1.9336   1.8465   7.8410  -0.7685  -2.3510   2.4735   0.00    0.0
2018/03/15 13:20:40.000   78.256791816   16.230397657   394.4686   5   9   1.9338   1.8466   7.8405  -0.7687  -2.3510   2.4741   0.00    0.0
2018/03/15 13:20:41.000   78.256794074   16.230395148   394.6090   5   9   1.9340   1.8466   7.8400  -0.7690  -2.3511   2.4748   0.00    0.0
2018/03/15 13:20:42.000   78.256797332   16.230359179   397.1173   5   9   1.9342   1.8467   7.8396  -0.7693  -2.3511   2.4754   0.00    0.0
2018/03/15 13:20:43.000   78.256793303   16.230326949   396.7380   5   9   1.9344   1.8467   7.8391  -0.7696  -2.3512   2.4760   0.00    0.0
2018/03/15 13:20:44.000   78.256795332   16.230305094   396.8136   5   9   1.9347   1.8467   7.8386  -0.7699  -2.3512   2.4767   0.00    0.0
2018/03/15 13:20:45.000   78.256791312   16.230334472   394.4154   5   9   1.9349   1.8468   7.8381  -0.7702  -2.3512   2.4773   0.00    0.0
2018/03/15 13:20:46.000   78.256795751   16.230351828   397.3217   5   9   1.9351   1.8468   7.8377  -0.7705  -2.3513   2.4780   0.00    0.0
2018/03/15 13:20:47.000   78.256791946   16.230365020   396.4980   5   9   1.9353   1.8469   7.8372  -0.7708  -2.3513   2.4786   0.00    0.0
2018/03/15 13:20:48.000   78.256794974   16.230365302   396.1335   5   9   1.9355   1.8469   7.8367  -0.7711  -2.3513   2.4793   0.00    0.0
2018/03/15 13:20:49.000   78.256796179   16.230343735   396.0259   5   9   1.9357   1.8470   7.8362  -0.7714  -2.3514   2.4799   0.00    0.0
2018/03/15 13:20:50.000   78.256789340   16.230338074   394.8639   5   9   1.9360   1.8470   7.8357  -0.7717  -2.3514   2.4805   0.00    0.0
2018/03/15 13:20:51.000   78.256784191   16.230346753   393.8679   5   9   1.9362   1.8470   7.8352  -0.7720  -2.3514   2.4812   0.00    0.0
2018/03/15 13:20:52.000   78.256790131   16.230361098   395.2566   5   9   1.9364   1.8471   7.8348  -0.7723  -2.3515   2.4818   0.00    0.0
2018/03/15 13:20:53.000   78.256788168   16.230387854   395.0570   5   9   1.9366   1.8471   7.8343  -0.7725  -2.3515   2.4825   0.00    0.0
2018/03/15 13:20:54.000   78.256788396   16.230381022   396.3545   5   9   1.9368   1.8472   7.8338  -0.7728  -2.3515   2.4831   0.00    0.0
2018/03/15 13:20:55.000   78.256790732   16.230369052   395.6300   5   9   1.9370   1.8472   7.8333  -0.7731  -2.3516   2.4837   0.00    0.0
2018/03/15 13:20:56.000   78.256792157   16.230339508   396.2378   5   9   1.9373   1.8473   7.8328  -0.7734  -2.3516   2.4844   0.00    0.0
2018/03/15 13:20:57.000   78.256792599   16.230314106   396.4990   5   9   1.9375   1.8473   7.8323  -0.7737  -2.3516   2.4850   0.00    0.0
2018/03/15 13:20:58.000   78.256790759   16.230319637   397.0766   5   9   1.9377   1.8473   7.8318  -0.7740  -2.3517   2.4856   0.00    0.0
2018/03/15 13:20:59.000   78.256785555   16.230342109   396.9325   5   9   1.9379   1.8474   7.8313  -0.7743  -2.3517   2.4863   0.00    0.0
2018/03/15 13:21:00.000   78.256791168   16.230336026   398.5522   5   9   1.9381   1.8474   7.8308  -0.7746  -2.3517   2.4869   0.00    0.0
2018/03/15 13:21:01.000   78.256791193   16.230337158   398.2360   5   9   1.9383   1.8475   7.8303  -0.7749  -2.3518   2.4875   0.00    0.0
2018/03/15 13:21:02.000   78.256792094   16.230333703   398.5955   5   9   1.9386   1.8475   7.8298  -0.7752  -2.3518   2.4882   0.00    0.0
2018/03/15 13:21:03.000   78.256788613   16.230329197   397.1823   5   9   1.9388   1.8476   7.8293  -0.7754  -2.3518   2.4888   0.00    0.0
2018/03/15 13:21:04.000   78.256790284   16.230312564   398.0045   5   9   1.9390   1.8476   7.8289  -0.7757  -2.3519   2.4894   0.00    0.0
2018/03/15 13:21:05.000   78.256789811   16.230339773   398.3121   5   9   1.9392   1.8476   7.8284  -0.7760  -2.3519   2.4901   0.00    0.0
2018/03/15 13:21:06.000   78.256793201   16.230349527   398.7133   5   9   1.9394   1.8477   7.8279  -0.7763  -2.3519   2.4907   0.00    0.0
2018/03/15 13:21:07.000   78.256795629   16.230360129   398.3479   5   9   1.9396   1.8477   7.8274  -0.7766  -2.3519   2.4913   0.00    0.0
2018/03/15 13:21:08.000   78.256795142   16.230334959   398.0771   5   9   1.9399   1.8478   7.8268  -0.7769  -2.3520   2.4919   0.00    0.0
2018/03/15 13:21:09.000   78.256793402   16.230325009   398.2822   5   9   1.9401   1.8478   7.8263  -0.7772  -2.3520   2.4926   0.00    0.0
2018/03/15 13:21:10.000   78.256789693   16.230320650   395.4276   5   9   1.9403   1.8479   7.8258  -0.7775  -2.3520   2.4932   0.00    0.0
2018/03/15 13:21:11.000   78.256792295   16.230320189   396.6176   5   9   1.9405   1.8479   7.8253  -0.7777  -2.3521   2.4938   0.00    0.0
2018/03/15 13:21:12.000   78.256788761   16.230370567   394.6700   5   9   1.9407   1.8479   7.8248  -0.7780  -2.3521   2.4945   0.00    0.0
2018/03/15 13:21:13.000   78.256788828   16.230392773   393.0660   5   9   1.9409   1.8480   7.8243  -0.7783  -2.3521   2.4951   0.00    0.0
2018/03/15 13:21:14.000   78.256795898   16.230381372   395.2685   5   9   1.9412   1.8480   7.8238  -0.7786  -2.3521   2.4957   0.00    0.0
2018/03/15 13:21:15.000   78.256795452   16.230354085   397.0612   5   9   1.9414   1.8481   7.8233  -0.7789  -2.3522   2.4963   0.00    0.0
2018/03/15 13:21:16.000   78.256795098   16.230333279   398.2766   5   9   1.9416   1.8481   7.8228  -0.7792  -2.3522   2.4970   0.00    0.0
2018/03/15 13:21:17.000   78.256790281   16.230314699   396.8208   5   9   1.9418   1.8482   7.8223  -0.7795  -2.3522   2.4976   0.00    0.0
2018/03/15 13:21:18.000   78.256789433   16.230343154   395.1192   5   9   1.9420   1.8482   7.8218  -0.7797  -2.3522   2.4982   0.00    0.0
2018/03/15 13:21:19.000   78.256791366   16.230364726   395.4707   5   9   1.9422   1.8482   7.8213  -0.7800  -2.3523   2.4988   0.00    0.0
2018/03/15 13:21:20.000   78.256797541   16.230339399   397.6231   5   9   1.9425   1.8483   7.8207  -0.7803  -2.3523   2.4994   0.00    0.0
2018/03/15 13:21:21.000   78.256802169   16.230335031   399.5525   5   9   1.9427   1.8483   7.8202  -0.7806  -2.3523   2.5001   0.00    0.0
2018/03/15 13:21:22.000   78.256801126   16.230322811   399.4494   5   9   1.9429   1.8484   7.8197  -0.7809  -2.3523   2.5007   0.00    0.0
2018/03/15 13:21:23.000   78.256799073   16.230309244   399.4159   5   9   1.9431   1.8484   7.8192  -0.7812  -2.3524   2.5013   0.00    0.0
2018/03/15 13:21:24.000   78.256794811   16.230325019   397.5222   5   9   1.9433   1.8485   7.8187  -0.7815  -2.3524   2.5019   0.00    0.0
2018/03/15 13:21:25.000   78.256793157   16.230339229   397.7809   5   9   1.9435   1.8485   7.8182  -0.7817  -2.3524   2.5025   0.00    0.0
2018/03/15 13:21:26.000   78.256796830   16.230335039   397.7070   5   9   1.9438   1.8485   7.8176  -0.7820  -2.3524   2.5032   0.00    0.0
2018/03/15 13:21:27.000   78.256798942   16.230335677   398.9904   5   9   1.9440   1.8486   7.8171  -0.7823  -2.3524   2.5038   0.00    0.0
2018/03/15 13:21:28.000   78.256795064   16.230332836   397.9825   5   9   1.9442   1.8486   7.8166  -0.7826  -2.3525   2.5044   0.00    0.0
2018/03/15 13:21:29.000   78.256795416   16.230342983   398.1920   5   9   1.9444   1.8487   7.8161  -0.7829  -2.3525   2.5050   0.00    0.0
2018/03/15 13:21:30.000   78.256793173   16.230334174   396.7444   5   9   1.9446   1.8487   7.8155  -0.7832  -2.3525   2.5056   0.00    0.0
2018/03/15 13:21:31.000   78.256788047   16.230343865   394.7153   5   9   1.9449   1.8487   7.8150  -0.7834  -2.3525   2.5062   0.00    0.0
2018/03/15 13:21:32.000   78.256786684   16.230349327   394.1836   5   9   1.9451   1.8488   7.8145  -0.7837  -2.3525   2.5068   0.00    0.0
2018/03/15 13:21:33.000   78.256791171   16.230360637   393.8276   5   9   1.9453   1.8488   7.8140  -0.7840  -2.3526   2.5075   0.00    0.0
2018/03/15 13:21:34.000   78.256790948   16.230376874   395.1213   5   9   1.9455   1.8489   7.8134  -0.7843  -2.3526   2.5081   0.00    0.0
2018/03/15 13:21:35.000   78.256794796   16.230358347   397.1339   5   9   1.9457   1.8489   7.8129  -0.7846  -2.3526   2.5087   0.00    0.0
2018/03/15 13:21:36.000   78.256794786   16.230326725   398.3340   5   9   1.9459   1.8490   7.8124  -0.7849  -2.3526   2.5093   0.00    0.0
2018/03/15 13:21:37.000   78.256789983   16.230319570   398.7897   5   9   1.9462   1.8490   7.8118  -0.7851  -2.3526   2.5099   0.00    0.0
2018/03/15 13:21:38.000   78.256790949   16.230306999   398.4914   5   9   1.9464   1.8490   7.8113  -0.7854  -2.3527   2.5105   0.00    0.0
2018/03/15 13:21:39.000   78.256794054   16.230307379   398.8670   5   9   1.9466   1.8491   7.8108  -0.7857  -2.3527   2.5111   0.00    0.0
2018/03/15 13:21:40.000   78.256795469   16.230319231   398.7744   5   9   1.9468   1.8491   7.8102  -0.7860  -2.3527   2.5117   0.00    0.0
2018/03/15 13:21:41.000   78.256790609   16.230336997   397.2641   5   9   1.9470   1.8492   7.8097  -0.7863  -2.3527   2.5123   0.00    0.0
2018/03/15 13:21:42.000   78.256791093   16.230320205   398.9857   5   9   1.9473   1.8492   7.8092  -0.7865  -2.3527   2.5129   0.00    0.0
