% program   : RTKPOST ver.2.4.2
% inp file  : Z:\home\linda\Documents\Spring18\GitHub_Unis\data\processed_data\4625074F.obs
% inp file  : Z:\home\linda\Documents\Spring18\GitHub_Unis\data\base_station_data\lyrs0740.18o
% inp file  : Z:\home\linda\Documents\Spring18\GitHub_Unis\data\processed_data\4625074F.nav
% obs start : 2018/03/15 12:47:45.0 GPST (week1992 391665.0s)
% obs end   : 2018/03/15 13:04:41.0 GPST (week1992 392681.0s)
% pos mode  : static
% freqs     : L1+L2
% solution  : forward
% elev mask : 15.0 deg
% dynamics  : on
% tidecorr  : off
% ionos opt : broadcast
% tropo opt : saastamoinen
% ephemeris : broadcast
% navi sys  : gps glonass galileo qzss sbas
% amb res   : fix and hold
% amb glo   : on
% val thres : 3.0
% antenna1  :                       ( 0.0000  0.0000  0.0000)
% antenna2  :                       ( 0.0000  0.0000  0.0000)
% ref pos   : 78.228825638   15.397310064   495.6816
%
% (lat/lon/height=WGS84/ellipsoidal,Q=1:fix,2:float,3:sbas,4:dgps,5:single,6:ppp,ns=# of satellites)
%  GPST                  latitude(deg) longitude(deg)  height(m)   Q  ns   sdn(m)   sde(m)   sdu(m)  sdne(m)  sdeu(m)  sdun(m) age(s)  ratio
2018/03/15 12:47:45.000   78.246705737   16.083825727   631.1768   2   9   0.4157   0.3791   1.5871   0.0489   0.3767   0.4355   0.00    1.3
2018/03/15 12:47:46.000   78.246705749   16.083818881   631.0520   2   9   0.2961   0.2696   1.1291   0.0352   0.2692   0.3113   0.00    1.3
2018/03/15 12:47:47.000   78.246705611   16.083816949   630.7169   2   9   0.2423   0.2206   0.9233   0.0289   0.2204   0.2550   0.00    1.5
2018/03/15 12:47:48.000   78.246705714   16.083816173   630.6780   2   9   0.2101   0.1912   0.7998   0.0250   0.1910   0.2211   0.00    1.5
2018/03/15 12:47:49.000   78.246705737   16.083817367   630.6949   2   9   0.1880   0.1711   0.7150   0.0224   0.1708   0.1977   0.00    1.4
2018/03/15 12:47:50.000   78.246706233   16.083817822   630.6159   2   9   0.1717   0.1562   0.6521   0.0203   0.1558   0.1804   0.00    1.3
2018/03/15 12:47:51.000   78.246706556   16.083817270   630.5279   2   9   0.1590   0.1446   0.6030   0.0188   0.1441   0.1668   0.00    1.2
2018/03/15 12:47:52.000   78.246706849   16.083817405   630.4806   2   9   0.1487   0.1353   0.5632   0.0174   0.1345   0.1558   0.00    1.1
2018/03/15 12:47:53.000   78.246707004   16.083816771   630.4289   2   9   0.1402   0.1276   0.5300   0.0163   0.1266   0.1466   0.00    1.1
2018/03/15 12:47:54.000   78.246707175   16.083817097   630.4309   2   9   0.1330   0.1210   0.5017   0.0154   0.1198   0.1387   0.00    1.1
2018/03/15 12:47:55.000   78.246707213   16.083818190   630.5097   2   9   0.1267   0.1153   0.4772   0.0145   0.1139   0.1319   0.00    1.1
2018/03/15 12:47:56.000   78.246707248   16.083818264   630.4600   2   9   0.1213   0.1104   0.4557   0.0138   0.1088   0.1260   0.00    1.2
2018/03/15 12:47:57.000   78.246707510   16.083818874   630.4724   2   9   0.1165   0.1060   0.4366   0.0131   0.1042   0.1206   0.00    1.2
2018/03/15 12:47:58.000   78.246707792   16.083820028   630.5496   2   9   0.1122   0.1021   0.4194   0.0124   0.1000   0.1158   0.00    1.2
2018/03/15 12:47:59.000   78.246707945   16.083820943   630.5867   2   9   0.1084   0.0986   0.4039   0.0119   0.0963   0.1115   0.00    1.2
2018/03/15 12:48:00.000   78.246708093   16.083821502   630.6290   2   9   0.1049   0.0955   0.3897   0.0113   0.0928   0.1075   0.00    1.3
2018/03/15 12:48:01.000   78.246708110   16.083821972   630.7154   2   9   0.1017   0.0926   0.3767   0.0108   0.0897   0.1038   0.00    1.3
2018/03/15 12:48:02.000   78.246708115   16.083822732   630.7981   2   9   0.0987   0.0899   0.3646   0.0103   0.0868   0.1005   0.00    1.3
2018/03/15 12:48:03.000   78.246708182   16.083823393   630.8472   2   9   0.0960   0.0875   0.3535   0.0099   0.0841   0.0973   0.00    1.3
2018/03/15 12:48:04.000   78.246708247   16.083823832   630.9011   2   9   0.0936   0.0852   0.3431   0.0094   0.0816   0.0944   0.00    1.4
2018/03/15 12:48:05.000   78.246708129   16.083823170   630.8538   2   9   0.0912   0.0831   0.3333   0.0090   0.0792   0.0916   0.00    1.4
2018/03/15 12:48:06.000   78.246707961   16.083822624   630.7761   2   9   0.0891   0.0812   0.3241   0.0086   0.0770   0.0890   0.00    1.6
2018/03/15 12:48:07.000   78.246707876   16.083822480   630.7570   2   9   0.0870   0.0794   0.3155   0.0082   0.0748   0.0865   0.00    1.7
2018/03/15 12:48:08.000   78.246707822   16.083821775   630.7286   2   9   0.0851   0.0776   0.3073   0.0078   0.0729   0.0842   0.00    1.9
2018/03/15 12:48:09.000   78.246707784   16.083821668   630.7429   2   9   0.0833   0.0760   0.2996   0.0074   0.0710   0.0820   0.00    2.1
2018/03/15 12:48:10.000   78.246707781   16.083821803   630.7617   2   9   0.0817   0.0745   0.2922   0.0071   0.0692   0.0799   0.00    2.4
2018/03/15 12:48:11.000   78.246707723   16.083821570   630.7509   2   9   0.0801   0.0731   0.2852   0.0067   0.0675   0.0779   0.00    2.6
2018/03/15 12:48:12.000   78.246707673   16.083821342   630.7633   2   9   0.0785   0.0717   0.2785   0.0063   0.0658   0.0760   0.00    2.9
2018/03/15 12:48:13.000   78.246707459   16.083821990   631.0300   1   9   0.0008   0.0007   0.0030   0.0001   0.0007   0.0008   0.00    3.2
2018/03/15 12:48:14.000   78.246707461   16.083821995   631.0306   1   9   0.0008   0.0007   0.0029   0.0001   0.0007   0.0008   0.00    3.5
2018/03/15 12:48:15.000   78.246707462   16.083822005   631.0314   1   9   0.0008   0.0007   0.0029   0.0001   0.0007   0.0008   0.00    3.8
2018/03/15 12:48:16.000   78.246707465   16.083822017   631.0322   1   9   0.0007   0.0007   0.0028   0.0001   0.0007   0.0008   0.00    4.1
2018/03/15 12:48:17.000   78.246707468   16.083822022   631.0333   1   9   0.0007   0.0007   0.0028   0.0001   0.0007   0.0008   0.00    4.4
2018/03/15 12:48:18.000   78.246707471   16.083822032   631.0341   1   9   0.0007   0.0007   0.0028   0.0001   0.0007   0.0008   0.00    4.8
2018/03/15 12:48:19.000   78.246707473   16.083822042   631.0348   1   9   0.0007   0.0006   0.0027   0.0001   0.0006   0.0008   0.00    5.1
2018/03/15 12:48:20.000   78.246707476   16.083822056   631.0355   1   9   0.0007   0.0006   0.0027   0.0001   0.0006   0.0007   0.00    5.3
2018/03/15 12:48:21.000   78.246707479   16.083822071   631.0360   1   9   0.0007   0.0006   0.0026   0.0001   0.0006   0.0007   0.00    5.3
2018/03/15 12:48:22.000   78.246707482   16.083822085   631.0366   1   9   0.0007   0.0006   0.0026   0.0001   0.0006   0.0007   0.00    5.4
2018/03/15 12:48:23.000   78.246707485   16.083822100   631.0371   1   9   0.0007   0.0006   0.0026   0.0001   0.0006   0.0007   0.00   12.1
2018/03/15 12:48:24.000   78.246707487   16.083822113   631.0375   1   9   0.0007   0.0006   0.0025   0.0001   0.0006   0.0007   0.00   14.1
2018/03/15 12:48:25.000   78.246707491   16.083822119   631.0378   1   9   0.0007   0.0006   0.0025   0.0001   0.0006   0.0007   0.00   16.1
2018/03/15 12:48:26.000   78.246707495   16.083822121   631.0380   1   9   0.0007   0.0006   0.0025   0.0001   0.0006   0.0007   0.00   18.1
2018/03/15 12:48:27.000   78.246707499   16.083822119   631.0381   1   9   0.0006   0.0006   0.0025   0.0001   0.0006   0.0007   0.00   20.1
2018/03/15 12:48:28.000   78.246707502   16.083822121   631.0384   1   9   0.0006   0.0006   0.0024   0.0001   0.0006   0.0007   0.00   21.9
2018/03/15 12:48:29.000   78.246707505   16.083822121   631.0388   1   9   0.0006   0.0006   0.0024   0.0001   0.0006   0.0007   0.00   23.9
2018/03/15 12:48:30.000   78.246707507   16.083822117   631.0390   1   9   0.0006   0.0006   0.0024   0.0001   0.0006   0.0007   0.00   25.9
2018/03/15 12:48:31.000   78.246707508   16.083822110   631.0390   1   9   0.0006   0.0006   0.0023   0.0001   0.0006   0.0007   0.00   27.9
2018/03/15 12:48:32.000   78.246707510   16.083822099   631.0392   1   9   0.0006   0.0006   0.0023   0.0001   0.0006   0.0006   0.00   30.1
2018/03/15 12:48:33.000   78.246707512   16.083822085   631.0390   1   9   0.0006   0.0005   0.0023   0.0001   0.0005   0.0006   0.00   32.7
2018/03/15 12:48:34.000   78.246707515   16.083822071   631.0389   1   9   0.0006   0.0005   0.0023   0.0001   0.0005   0.0006   0.00   35.6
2018/03/15 12:48:35.000   78.246707517   16.083822058   631.0387   1   9   0.0006   0.0005   0.0023   0.0001   0.0005   0.0006   0.00   38.6
2018/03/15 12:48:36.000   78.246707518   16.083822042   631.0382   1   9   0.0006   0.0005   0.0022   0.0001   0.0005   0.0006   0.00   41.6
2018/03/15 12:48:37.000   78.246707520   16.083822022   631.0375   1   9   0.0006   0.0005   0.0022   0.0001   0.0005   0.0006   0.00   45.0
2018/03/15 12:48:38.000   78.246707521   16.083822000   631.0364   1   9   0.0006   0.0005   0.0022   0.0001   0.0005   0.0006   0.00   48.7
2018/03/15 12:48:39.000   78.246707524   16.083821976   631.0355   1   9   0.0006   0.0005   0.0022   0.0001   0.0005   0.0006   0.00   52.7
2018/03/15 12:48:40.000   78.246707526   16.083821949   631.0347   1   9   0.0006   0.0005   0.0021   0.0001   0.0005   0.0006   0.00   56.4
2018/03/15 12:48:41.000   78.246707530   16.083821920   631.0338   1   9   0.0006   0.0005   0.0021   0.0001   0.0005   0.0006   0.00   60.1
2018/03/15 12:48:42.000   78.246707533   16.083821887   631.0328   1   9   0.0006   0.0005   0.0021   0.0001   0.0005   0.0006   0.00   63.1
2018/03/15 12:48:43.000   78.246707537   16.083821858   631.0320   1   9   0.0006   0.0005   0.0021   0.0001   0.0005   0.0006   0.00   65.3
2018/03/15 12:48:44.000   78.246707541   16.083821832   631.0313   1   9   0.0005   0.0005   0.0021   0.0001   0.0005   0.0006   0.00   66.7
2018/03/15 12:48:45.000   78.246707545   16.083821813   631.0308   1   9   0.0005   0.0005   0.0021   0.0001   0.0005   0.0006   0.00   67.7
2018/03/15 12:48:46.000   78.246707548   16.083821802   631.0304   1   9   0.0005   0.0005   0.0020   0.0001   0.0005   0.0006   0.00   68.5
2018/03/15 12:48:47.000   78.246707550   16.083821799   631.0304   1   9   0.0005   0.0005   0.0020   0.0001   0.0005   0.0006   0.00   69.2
2018/03/15 12:48:48.000   78.246707552   16.083821802   631.0303   1   9   0.0005   0.0005   0.0020   0.0001   0.0005   0.0006   0.00   69.9
2018/03/15 12:48:49.000   78.246707553   16.083821813   631.0303   1   9   0.0005   0.0005   0.0020   0.0001   0.0005   0.0006   0.00   69.9
2018/03/15 12:48:50.000   78.246707555   16.083821824   631.0303   1   9   0.0005   0.0005   0.0020   0.0001   0.0005   0.0006   0.00   69.8
2018/03/15 12:48:51.000   78.246707557   16.083821836   631.0303   1   9   0.0005   0.0005   0.0020   0.0001   0.0005   0.0006   0.00   69.5
2018/03/15 12:48:52.000   78.246707559   16.083821846   631.0304   1   9   0.0005   0.0005   0.0020   0.0001   0.0005   0.0005   0.00   68.8
2018/03/15 12:48:53.000   78.246707561   16.083821855   631.0304   1   9   0.0005   0.0005   0.0019   0.0001   0.0005   0.0005   0.00   67.7
2018/03/15 12:48:54.000   78.246707563   16.083821866   631.0304   1   9   0.0005   0.0005   0.0019   0.0001   0.0005   0.0005   0.00   66.5
2018/03/15 12:48:55.000   78.246707564   16.083821878   631.0304   1   9   0.0005   0.0005   0.0019   0.0001   0.0005   0.0005   0.00   65.6
2018/03/15 12:48:56.000   78.246707566   16.083821892   631.0304   1   9   0.0005   0.0005   0.0019   0.0001   0.0004   0.0005   0.00   64.9
2018/03/15 12:48:57.000   78.246707567   16.083821907   631.0307   1   9   0.0005   0.0005   0.0019   0.0001   0.0004   0.0005   0.00   64.5
2018/03/15 12:48:58.000   78.246707568   16.083821919   631.0309   1   9   0.0005   0.0004   0.0019   0.0001   0.0004   0.0005   0.00   64.4
2018/03/15 12:48:59.000   78.246707569   16.083821931   631.0314   1   9   0.0005   0.0004   0.0019   0.0001   0.0004   0.0005   0.00   64.2
2018/03/15 12:49:00.000   78.246707570   16.083821939   631.0315   1   9   0.0005   0.0004   0.0018   0.0001   0.0004   0.0005   0.00   64.3
2018/03/15 12:49:01.000   78.246707571   16.083821938   631.0315   1   9   0.0005   0.0004   0.0018   0.0001   0.0004   0.0005   0.00   64.1
2018/03/15 12:49:02.000   78.246707572   16.083821938   631.0319   1   9   0.0005   0.0004   0.0018   0.0001   0.0004   0.0005   0.00   63.6
2018/03/15 12:49:03.000   78.246707573   16.083821939   631.0319   1   9   0.0005   0.0004   0.0018   0.0001   0.0004   0.0005   0.00   63.1
2018/03/15 12:49:04.000   78.246707574   16.083821932   631.0319   1   9   0.0005   0.0004   0.0018   0.0001   0.0004   0.0005   0.00   62.1
2018/03/15 12:49:05.000   78.246707576   16.083821922   631.0321   1   9   0.0005   0.0004   0.0018   0.0001   0.0004   0.0005   0.00   61.3
2018/03/15 12:49:06.000   78.246707579   16.083821916   631.0324   1   9   0.0005   0.0004   0.0018   0.0001   0.0004   0.0005   0.00   60.5
2018/03/15 12:49:07.000   78.246707580   16.083821912   631.0323   1   9   0.0005   0.0004   0.0018   0.0001   0.0004   0.0005   0.00   59.2
2018/03/15 12:49:08.000   78.246707581   16.083821907   631.0324   1   9   0.0005   0.0004   0.0018   0.0001   0.0004   0.0005   0.00   58.1
2018/03/15 12:49:09.000   78.246707619   16.083821998   631.0392   2   9   0.0006   0.0006   0.0025  -0.0001   0.0004   0.0005   0.00    1.2
2018/03/15 12:49:10.000   78.246707620   16.083821997   631.0397   2   9   0.0006   0.0006   0.0025  -0.0001   0.0004   0.0005   0.00    1.4
2018/03/15 12:49:11.000   78.246707622   16.083821999   631.0403   2   9   0.0006   0.0006   0.0025  -0.0001   0.0004   0.0005   0.00    1.5
2018/03/15 12:49:40.000   78.246707622   16.083821999   631.0403   2   9   0.0006   0.0006   0.0025  -0.0001   0.0004   0.0005   0.00    1.1
2018/03/15 12:49:41.000   78.246707622   16.083821999   631.0403   2   8   0.0006   0.0006   0.0025  -0.0001   0.0004   0.0005   0.00    1.1
2018/03/15 12:49:42.000   78.246707622   16.083821999   631.0403   2   9   0.0006   0.0006   0.0025  -0.0001   0.0004   0.0005   0.00    1.4
2018/03/15 12:49:43.000   78.246707622   16.083821999   631.0403   2   9   0.0006   0.0006   0.0025  -0.0001   0.0004   0.0005   0.00    1.3
2018/03/15 12:49:44.000   78.246707622   16.083821999   631.0403   2   9   0.0006   0.0006   0.0025  -0.0001   0.0004   0.0005   0.00    1.5
2018/03/15 12:49:45.000   78.246707622   16.083821999   631.0403   2   9   0.0006   0.0006   0.0025  -0.0001   0.0004   0.0005   0.00    1.6
2018/03/15 12:49:46.000   78.246707622   16.083821999   631.0403   2   9   0.0006   0.0006   0.0025  -0.0001   0.0004   0.0005   0.00    1.5
2018/03/15 12:49:47.000   78.246707622   16.083821999   631.0404   2   9   0.0006   0.0006   0.0025  -0.0001   0.0004   0.0005   0.00    1.4
2018/03/15 12:49:48.000   78.246707622   16.083821998   631.0404   2   9   0.0006   0.0006   0.0025  -0.0001   0.0004   0.0005   0.00    1.3
2018/03/15 12:49:49.000   78.246707622   16.083821998   631.0404   2   9   0.0006   0.0006   0.0025  -0.0001   0.0004   0.0005   0.00    1.2
2018/03/15 12:49:50.000   78.246707622   16.083821998   631.0404   2   9   0.0006   0.0006   0.0025  -0.0001   0.0004   0.0005   0.00    1.1
2018/03/15 12:49:51.000   78.246707622   16.083821998   631.0404   2   9   0.0006   0.0006   0.0025  -0.0001   0.0004   0.0005   0.00    1.1
2018/03/15 12:49:52.000   78.246707622   16.083821998   631.0404   2   9   0.0006   0.0006   0.0025  -0.0001   0.0004   0.0005   0.00    1.0
2018/03/15 12:49:53.000   78.246707622   16.083821998   631.0404   2   8   0.0006   0.0006   0.0025  -0.0001   0.0004   0.0005   0.00    1.1
2018/03/15 12:49:54.000   78.246707622   16.083821998   631.0404   2   9   0.0006   0.0006   0.0025  -0.0001   0.0004   0.0005   0.00    1.1
2018/03/15 12:49:55.000   78.246707622   16.083821998   631.0404   2   9   0.0006   0.0006   0.0025  -0.0001   0.0004   0.0005   0.00    1.1
2018/03/15 12:49:56.000   78.246707622   16.083821998   631.0404   2   9   0.0006   0.0006   0.0025  -0.0001   0.0004   0.0005   0.00    1.2
2018/03/15 12:49:57.000   78.246707622   16.083821998   631.0404   2   9   0.0006   0.0006   0.0025  -0.0001   0.0004   0.0005   0.00    1.1
2018/03/15 12:49:58.000   78.246707622   16.083821998   631.0404   2   9   0.0006   0.0006   0.0025  -0.0001   0.0004   0.0005   0.00    1.1
2018/03/15 12:49:59.000   78.246707622   16.083821998   631.0404   2   9   0.0006   0.0006   0.0025  -0.0001   0.0004   0.0005   0.00    1.2
2018/03/15 12:50:00.000   78.246707622   16.083821998   631.0404   2   9   0.0006   0.0006   0.0025  -0.0001   0.0004   0.0005   0.00    1.1
2018/03/15 12:50:01.000   78.246707622   16.083821998   631.0404   2   9   0.0006   0.0006   0.0025  -0.0001   0.0004   0.0005   0.00    1.1
2018/03/15 12:50:02.000   78.246707622   16.083821998   631.0404   2   9   0.0006   0.0006   0.0025  -0.0001   0.0004   0.0005   0.00    1.1
2018/03/15 12:50:03.000   78.246707622   16.083821998   631.0404   2   9   0.0006   0.0006   0.0025  -0.0001   0.0004   0.0005   0.00    1.1
2018/03/15 12:50:04.000   78.246707622   16.083821998   631.0404   2   9   0.0006   0.0006   0.0025  -0.0001   0.0004   0.0005   0.00    1.1
2018/03/15 12:50:05.000   78.246707622   16.083821998   631.0404   2   9   0.0006   0.0006   0.0025  -0.0001   0.0004   0.0005   0.00    1.1
2018/03/15 12:50:06.000   78.246707622   16.083821998   631.0404   2   9   0.0006   0.0006   0.0025  -0.0001   0.0004   0.0005   0.00    1.1
2018/03/15 12:50:07.000   78.246707622   16.083821998   631.0404   2   9   0.0006   0.0006   0.0025  -0.0001   0.0004   0.0005   0.00    1.0
2018/03/15 12:50:08.000   78.246707622   16.083821998   631.0404   2   9   0.0006   0.0006   0.0025  -0.0001   0.0004   0.0005   0.00    1.0
2018/03/15 12:50:09.000   78.246707622   16.083821998   631.0404   2   9   0.0006   0.0006   0.0025  -0.0001   0.0004   0.0005   0.00    1.0
2018/03/15 12:50:10.000   78.246707622   16.083821997   631.0403   2   9   0.0006   0.0006   0.0025  -0.0001   0.0004   0.0005   0.00    1.0
2018/03/15 12:50:11.000   78.246707622   16.083821997   631.0403   2   9   0.0006   0.0006   0.0025  -0.0001   0.0004   0.0005   0.00    1.0
2018/03/15 12:50:12.000   78.246707622   16.083821997   631.0403   2   9   0.0006   0.0006   0.0025  -0.0001   0.0004   0.0005   0.00    1.0
2018/03/15 12:50:13.000   78.246707622   16.083821997   631.0403   2   9   0.0006   0.0006   0.0025  -0.0001   0.0004   0.0005   0.00    1.0
2018/03/15 12:50:14.000   78.246707622   16.083821997   631.0403   2   9   0.0006   0.0006   0.0025  -0.0001   0.0004   0.0005   0.00    1.0
2018/03/15 12:50:15.000   78.246707622   16.083821997   631.0403   2   9   0.0006   0.0006   0.0025  -0.0001   0.0004   0.0005   0.00    1.0
2018/03/15 12:50:16.000   78.246707622   16.083821997   631.0403   2   9   0.0006   0.0006   0.0025  -0.0001   0.0004   0.0005   0.00    1.0
2018/03/15 12:50:17.000   78.246707622   16.083821997   631.0404   2   9   0.0006   0.0006   0.0025  -0.0001   0.0004   0.0005   0.00    1.0
2018/03/15 12:50:18.000   78.246707622   16.083821997   631.0404   2   9   0.0006   0.0006   0.0025  -0.0001   0.0004   0.0005   0.00    1.0
2018/03/15 12:50:19.000   78.246707622   16.083821997   631.0404   2   9   0.0006   0.0006   0.0025  -0.0001   0.0004   0.0005   0.00    1.1
2018/03/15 12:50:20.000   78.246707622   16.083821997   631.0404   2   9   0.0006   0.0006   0.0025  -0.0001   0.0004   0.0005   0.00    1.1
2018/03/15 12:50:21.000   78.246707622   16.083821997   631.0404   2   9   0.0006   0.0006   0.0025  -0.0001   0.0004   0.0005   0.00    1.1
2018/03/15 12:50:22.000   78.246707622   16.083821997   631.0405   2   9   0.0006   0.0006   0.0025  -0.0001   0.0004   0.0005   0.00    1.1
2018/03/15 12:50:23.000   78.246707623   16.083821997   631.0405   2   9   0.0006   0.0006   0.0025  -0.0001   0.0004   0.0005   0.00    1.0
2018/03/15 12:50:24.000   78.246707623   16.083821998   631.0406   2   9   0.0006   0.0006   0.0025  -0.0001   0.0004   0.0005   0.00    1.1
2018/03/15 12:50:25.000   78.246707623   16.083821998   631.0406   2   9   0.0006   0.0006   0.0025  -0.0001   0.0004   0.0005   0.00    1.2
2018/03/15 12:50:26.000   78.246707623   16.083821998   631.0407   2   9   0.0006   0.0006   0.0025  -0.0001   0.0004   0.0005   0.00    1.4
2018/03/15 12:50:27.000   78.246707623   16.083821998   631.0407   2   9   0.0006   0.0006   0.0025  -0.0001   0.0004   0.0005   0.00    1.5
2018/03/15 12:50:28.000   78.246707623   16.083821998   631.0408   2   9   0.0006   0.0006   0.0025  -0.0001   0.0004   0.0005   0.00    1.7
2018/03/15 12:50:29.000   78.246707623   16.083821998   631.0408   2   9   0.0006   0.0006   0.0025  -0.0001   0.0004   0.0005   0.00    1.8
2018/03/15 12:50:30.000   78.246707623   16.083821998   631.0409   2   9   0.0006   0.0006   0.0025  -0.0001   0.0004   0.0005   0.00    1.9
2018/03/15 12:50:31.000   78.246707623   16.083821998   631.0410   2   9   0.0006   0.0006   0.0025  -0.0001   0.0004   0.0005   0.00    2.0
2018/03/15 12:50:32.000   78.246707623   16.083821999   631.0410   2   9   0.0006   0.0006   0.0025  -0.0001   0.0004   0.0005   0.00    2.0
2018/03/15 12:50:33.000   78.246707623   16.083821999   631.0411   2   9   0.0006   0.0006   0.0025  -0.0001   0.0004   0.0005   0.00    2.1
2018/03/15 12:50:34.000   78.246707623   16.083821999   631.0411   2   9   0.0006   0.0006   0.0025  -0.0001   0.0004   0.0005   0.00    2.1
2018/03/15 12:50:35.000   78.246707623   16.083821999   631.0412   2   9   0.0006   0.0006   0.0025  -0.0001   0.0004   0.0005   0.00    2.2
2018/03/15 12:50:36.000   78.246707623   16.083821999   631.0412   2   9   0.0006   0.0006   0.0025  -0.0001   0.0004   0.0005   0.00    2.2
2018/03/15 12:50:37.000   78.246707623   16.083821999   631.0412   2   9   0.0006   0.0006   0.0025  -0.0001   0.0004   0.0005   0.00    2.2
2018/03/15 12:50:38.000   78.246707623   16.083821999   631.0413   2   9   0.0006   0.0006   0.0025  -0.0001   0.0004   0.0005   0.00    2.2
2018/03/15 12:50:39.000   78.246707623   16.083821999   631.0413   2   9   0.0006   0.0006   0.0025  -0.0001   0.0004   0.0005   0.00    2.3
2018/03/15 12:50:40.000   78.246707623   16.083821999   631.0413   2   9   0.0006   0.0006   0.0025  -0.0001   0.0004   0.0005   0.00    2.3
2018/03/15 12:50:41.000   78.246707623   16.083821999   631.0413   2   9   0.0006   0.0006   0.0025  -0.0001   0.0004   0.0005   0.00    2.3
2018/03/15 12:50:42.000   78.246707623   16.083821999   631.0414   2   9   0.0006   0.0006   0.0025  -0.0001   0.0004   0.0005   0.00    2.3
2018/03/15 12:50:43.000   78.246707623   16.083821999   631.0414   2   9   0.0006   0.0006   0.0025  -0.0001   0.0004   0.0005   0.00    2.3
2018/03/15 12:50:44.000   78.246707623   16.083821999   631.0414   2   9   0.0006   0.0006   0.0025  -0.0001   0.0004   0.0005   0.00    2.3
2018/03/15 12:50:45.000   78.246707623   16.083821999   631.0414   2   9   0.0006   0.0006   0.0025  -0.0001   0.0004   0.0005   0.00    2.3
2018/03/15 12:50:46.000   78.246707623   16.083821999   631.0414   2   9   0.0006   0.0006   0.0025  -0.0001   0.0004   0.0005   0.00    2.3
2018/03/15 12:50:47.000   78.246707623   16.083821999   631.0414   2   9   0.0006   0.0006   0.0025  -0.0001   0.0004   0.0005   0.00    2.3
2018/03/15 12:50:48.000   78.246707623   16.083821999   631.0413   2   9   0.0006   0.0006   0.0025  -0.0001   0.0004   0.0005   0.00    2.3
2018/03/15 12:50:49.000   78.246707623   16.083821999   631.0413   2   9   0.0006   0.0006   0.0025  -0.0001   0.0004   0.0005   0.00    2.3
2018/03/15 12:50:50.000   78.246707623   16.083821999   631.0413   2   9   0.0006   0.0006   0.0025  -0.0001   0.0004   0.0005   0.00    2.3
2018/03/15 12:50:51.000   78.246707623   16.083821999   631.0413   2   9   0.0006   0.0006   0.0025  -0.0001   0.0004   0.0005   0.00    2.3
2018/03/15 12:50:52.000   78.246707623   16.083821999   631.0413   2   9   0.0006   0.0006   0.0025  -0.0001   0.0004   0.0005   0.00    2.3
2018/03/15 12:50:53.000   78.246707623   16.083821999   631.0413   2   9   0.0006   0.0006   0.0025  -0.0001   0.0004   0.0005   0.00    2.3
2018/03/15 12:50:54.000   78.246707623   16.083821999   631.0413   2   9   0.0006   0.0006   0.0025  -0.0001   0.0004   0.0005   0.00    2.3
2018/03/15 12:50:55.000   78.246707623   16.083821999   631.0413   2   9   0.0006   0.0006   0.0025  -0.0001   0.0004   0.0005   0.00    2.3
2018/03/15 12:50:56.000   78.246707623   16.083821999   631.0413   2   9   0.0006   0.0006   0.0025  -0.0001   0.0004   0.0005   0.00    2.4
2018/03/15 12:50:57.000   78.246707623   16.083821999   631.0413   2   9   0.0006   0.0006   0.0025  -0.0001   0.0004   0.0005   0.00    2.4
2018/03/15 12:50:58.000   78.246707623   16.083821999   631.0413   2   9   0.0006   0.0006   0.0025  -0.0001   0.0004   0.0005   0.00    2.4
2018/03/15 12:50:59.000   78.246707623   16.083821999   631.0413   2   9   0.0006   0.0006   0.0025  -0.0001   0.0004   0.0005   0.00    2.5
2018/03/15 12:51:00.000   78.246707623   16.083821999   631.0413   2   9   0.0006   0.0006   0.0025  -0.0001   0.0004   0.0005   0.00    2.5
2018/03/15 12:51:01.000   78.246707623   16.083821999   631.0413   2   9   0.0006   0.0006   0.0025  -0.0001   0.0004   0.0005   0.00    2.5
2018/03/15 12:51:02.000   78.246707623   16.083821999   631.0413   2   9   0.0006   0.0006   0.0025  -0.0001   0.0004   0.0005   0.00    2.6
2018/03/15 12:51:03.000   78.246707623   16.083821999   631.0414   2   9   0.0006   0.0006   0.0025  -0.0001   0.0004   0.0005   0.00    2.6
2018/03/15 12:51:04.000   78.246707623   16.083821999   631.0414   2   9   0.0006   0.0006   0.0025  -0.0001   0.0004   0.0005   0.00    2.7
2018/03/15 12:51:05.000   78.246707623   16.083821999   631.0414   2   9   0.0006   0.0006   0.0025  -0.0001   0.0004   0.0005   0.00    2.7
2018/03/15 12:51:06.000   78.246707623   16.083821999   631.0414   2   9   0.0006   0.0006   0.0025  -0.0001   0.0004   0.0005   0.00    2.8
2018/03/15 12:51:07.000   78.246707623   16.083821999   631.0414   2   9   0.0006   0.0006   0.0025  -0.0001   0.0004   0.0005   0.00    2.8
2018/03/15 12:51:08.000   78.246707623   16.083821999   631.0414   2   9   0.0006   0.0006   0.0025  -0.0001   0.0004   0.0005   0.00    2.9
2018/03/15 12:51:09.000   78.246707623   16.083821999   631.0414   2   9   0.0006   0.0006   0.0025  -0.0001   0.0004   0.0005   0.00    2.9
2018/03/15 12:51:10.000   78.246707623   16.083821999   631.0414   2   9   0.0006   0.0006   0.0025  -0.0001   0.0004   0.0005   0.00    2.9
2018/03/15 12:51:11.000   78.246707623   16.083821999   631.0414   2   9   0.0006   0.0006   0.0025  -0.0001   0.0004   0.0005   0.00    2.9
2018/03/15 12:51:12.000   78.246707623   16.083821999   631.0414   2   9   0.0006   0.0006   0.0025  -0.0001   0.0004   0.0005   0.00    2.9
2018/03/15 12:51:13.000   78.246707623   16.083821999   631.0414   2   9   0.0006   0.0006   0.0025  -0.0001   0.0004   0.0005   0.00    3.0
2018/03/15 12:51:14.000   78.246707623   16.083821999   631.0414   2   9   0.0006   0.0006   0.0025  -0.0001   0.0004   0.0005   0.00    3.0
2018/03/15 12:51:15.000   78.246707715   16.083821723   631.0373   1   9   0.0004   0.0003   0.0014  -0.0000   0.0003   0.0004   0.00    3.0
2018/03/15 12:51:16.000   78.246707716   16.083821722   631.0373   1   9   0.0003   0.0003   0.0014  -0.0000   0.0003   0.0004   0.00    3.0
2018/03/15 12:51:17.000   78.246707717   16.083821720   631.0374   1   9   0.0003   0.0003   0.0014  -0.0000   0.0003   0.0004   0.00    3.1
2018/03/15 12:51:18.000   78.246707719   16.083821718   631.0374   1   9   0.0003   0.0003   0.0013  -0.0000   0.0003   0.0004   0.00    3.1
2018/03/15 12:51:19.000   78.246707720   16.083821714   631.0373   1   9   0.0003   0.0003   0.0013  -0.0000   0.0003   0.0004   0.00    3.1
2018/03/15 12:51:20.000   78.246707722   16.083821708   631.0371   1   9   0.0003   0.0003   0.0013  -0.0000   0.0003   0.0004   0.00    3.1
2018/03/15 12:51:21.000   78.246707723   16.083821702   631.0370   1   9   0.0003   0.0003   0.0013  -0.0000   0.0003   0.0004   0.00    3.1
2018/03/15 12:51:22.000   78.246707724   16.083821695   631.0369   1   9   0.0003   0.0003   0.0013  -0.0000   0.0003   0.0004   0.00    3.1
2018/03/15 12:51:23.000   78.246707725   16.083821686   631.0366   1   9   0.0003   0.0003   0.0013  -0.0000   0.0003   0.0004   0.00    3.1
2018/03/15 12:51:24.000   78.246707726   16.083821678   631.0364   1   9   0.0003   0.0003   0.0013  -0.0000   0.0003   0.0004   0.00    3.1
2018/03/15 12:51:25.000   78.246707727   16.083821668   631.0360   1   9   0.0003   0.0003   0.0013  -0.0000   0.0003   0.0004   0.00    3.4
2018/03/15 12:51:26.000   78.246707728   16.083821659   631.0357   1   9   0.0003   0.0003   0.0013  -0.0000   0.0003   0.0004   0.00    3.6
2018/03/15 12:51:27.000   78.246707729   16.083821650   631.0354   1   9   0.0003   0.0003   0.0013  -0.0000   0.0003   0.0004   0.00    3.9
2018/03/15 12:51:28.000   78.246707729   16.083821642   631.0351   1   9   0.0003   0.0003   0.0013  -0.0000   0.0003   0.0004   0.00    4.1
2018/03/15 12:51:29.000   78.246707729   16.083821637   631.0350   1   9   0.0003   0.0003   0.0013  -0.0000   0.0003   0.0004   0.00    4.4
2018/03/15 12:51:30.000   78.246707729   16.083821631   631.0349   1   9   0.0003   0.0003   0.0013  -0.0000   0.0003   0.0004   0.00    4.6
2018/03/15 12:51:31.000   78.246707730   16.083821625   631.0347   1   9   0.0003   0.0003   0.0013  -0.0000   0.0003   0.0004   0.00    4.8
2018/03/15 12:51:32.000   78.246707730   16.083821618   631.0344   1   9   0.0003   0.0003   0.0013  -0.0000   0.0003   0.0004   0.00    5.1
2018/03/15 12:51:33.000   78.246707730   16.083821611   631.0342   1   9   0.0003   0.0003   0.0013  -0.0000   0.0003   0.0004   0.00    5.3
2018/03/15 12:51:34.000   78.246707730   16.083821604   631.0339   1   9   0.0003   0.0003   0.0013  -0.0000   0.0003   0.0004   0.00    5.5
2018/03/15 12:51:35.000   78.246707730   16.083821598   631.0337   1   9   0.0003   0.0003   0.0013  -0.0000   0.0003   0.0004   0.00    5.8
2018/03/15 12:51:36.000   78.246707730   16.083821592   631.0334   1   9   0.0003   0.0003   0.0013  -0.0000   0.0003   0.0003   0.00    6.0
2018/03/15 12:51:37.000   78.246707730   16.083821585   631.0332   1   9   0.0003   0.0003   0.0013  -0.0000   0.0003   0.0003   0.00    6.3
2018/03/15 12:51:38.000   78.246707730   16.083821578   631.0329   1   9   0.0003   0.0003   0.0013  -0.0000   0.0003   0.0003   0.00    6.5
2018/03/15 12:51:39.000   78.246707729   16.083821573   631.0328   1   9   0.0003   0.0003   0.0013  -0.0000   0.0003   0.0003   0.00    6.7
2018/03/15 12:51:40.000   78.246707730   16.083821566   631.0325   1   9   0.0003   0.0003   0.0013  -0.0000   0.0003   0.0003   0.00    7.0
2018/03/15 12:51:41.000   78.246707730   16.083821560   631.0323   1   9   0.0003   0.0003   0.0013  -0.0000   0.0003   0.0003   0.00    7.2
2018/03/15 12:51:42.000   78.246707730   16.083821553   631.0320   1   9   0.0003   0.0003   0.0012  -0.0000   0.0003   0.0003   0.00    7.4
2018/03/15 12:51:43.000   78.246707730   16.083821548   631.0318   1   9   0.0003   0.0003   0.0012  -0.0000   0.0003   0.0003   0.00    7.6
2018/03/15 12:51:44.000   78.246707730   16.083821543   631.0316   1   9   0.0003   0.0003   0.0012  -0.0000   0.0003   0.0003   0.00    7.8
2018/03/15 12:51:45.000   78.246707730   16.083821540   631.0316   1   9   0.0003   0.0003   0.0012  -0.0000   0.0003   0.0003   0.00    8.0
2018/03/15 12:51:46.000   78.246707730   16.083821536   631.0315   1   9   0.0003   0.0003   0.0012  -0.0000   0.0003   0.0003   0.00    8.2
2018/03/15 12:51:47.000   78.246707730   16.083821534   631.0315   1   9   0.0003   0.0003   0.0012  -0.0000   0.0003   0.0003   0.00    8.4
2018/03/15 12:51:48.000   78.246707729   16.083821532   631.0316   1   9   0.0003   0.0003   0.0012  -0.0000   0.0003   0.0003   0.00    8.6
2018/03/15 12:51:49.000   78.246707729   16.083821533   631.0317   1   9   0.0003   0.0003   0.0012  -0.0000   0.0003   0.0003   0.00    8.9
2018/03/15 12:51:50.000   78.246707728   16.083821535   631.0319   1   9   0.0003   0.0003   0.0012  -0.0000   0.0003   0.0003   0.00    9.2
2018/03/15 12:51:51.000   78.246707727   16.083821539   631.0322   1   9   0.0003   0.0003   0.0012  -0.0000   0.0003   0.0003   0.00    9.5
2018/03/15 12:51:52.000   78.246707726   16.083821544   631.0325   1   9   0.0003   0.0003   0.0012  -0.0000   0.0003   0.0003   0.00    9.8
2018/03/15 12:51:53.000   78.246707724   16.083821548   631.0328   1   9   0.0003   0.0003   0.0012  -0.0000   0.0002   0.0003   0.00   10.2
2018/03/15 12:51:54.000   78.246707723   16.083821552   631.0331   1   9   0.0003   0.0003   0.0012  -0.0000   0.0002   0.0003   0.00   10.5
2018/03/15 12:51:55.000   78.246707722   16.083821557   631.0335   1   9   0.0003   0.0003   0.0012  -0.0000   0.0002   0.0003   0.00   10.9
2018/03/15 12:51:56.000   78.246707721   16.083821563   631.0338   1   9   0.0003   0.0003   0.0012  -0.0000   0.0002   0.0003   0.00   11.2
2018/03/15 12:51:57.000   78.246707720   16.083821568   631.0342   1   9   0.0003   0.0003   0.0012  -0.0000   0.0002   0.0003   0.00   11.6
2018/03/15 12:51:58.000   78.246707719   16.083821574   631.0345   1   9   0.0003   0.0003   0.0012  -0.0000   0.0002   0.0003   0.00   12.0
2018/03/15 12:51:59.000   78.246707719   16.083821580   631.0349   1   9   0.0003   0.0003   0.0012  -0.0000   0.0002   0.0003   0.00   12.3
2018/03/15 12:52:00.000   78.246707718   16.083821585   631.0353   1   9   0.0003   0.0003   0.0012  -0.0000   0.0002   0.0003   0.00   12.7
2018/03/15 12:52:01.000   78.246707717   16.083821590   631.0356   1   9   0.0003   0.0003   0.0012  -0.0000   0.0002   0.0003   0.00   13.0
2018/03/15 12:52:02.000   78.246707716   16.083821593   631.0360   1   9   0.0003   0.0003   0.0012  -0.0000   0.0002   0.0003   0.00   13.3
2018/03/15 12:52:03.000   78.246707715   16.083821596   631.0364   1   9   0.0003   0.0003   0.0012  -0.0000   0.0002   0.0003   0.00   13.6
2018/03/15 12:52:04.000   78.246707714   16.083821599   631.0368   1   9   0.0003   0.0003   0.0012  -0.0000   0.0002   0.0003   0.00   13.9
2018/03/15 12:52:05.000   78.246707714   16.083821602   631.0372   1   9   0.0003   0.0003   0.0012  -0.0000   0.0002   0.0003   0.00   14.2
2018/03/15 12:52:06.000   78.246707713   16.083821606   631.0375   1   9   0.0003   0.0003   0.0012  -0.0000   0.0002   0.0003   0.00   14.5
2018/03/15 12:52:07.000   78.246707712   16.083821611   631.0379   1   9   0.0003   0.0003   0.0012  -0.0000   0.0002   0.0003   0.00   14.8
2018/03/15 12:52:08.000   78.246707711   16.083821616   631.0384   1   9   0.0003   0.0003   0.0012  -0.0000   0.0002   0.0003   0.00   15.1
2018/03/15 12:52:09.000   78.246707711   16.083821622   631.0387   1   9   0.0003   0.0003   0.0012  -0.0000   0.0002   0.0003   0.00   15.5
2018/03/15 12:52:10.000   78.246707710   16.083821628   631.0391   1   9   0.0003   0.0003   0.0012  -0.0000   0.0002   0.0003   0.00   15.8
2018/03/15 12:52:11.000   78.246707710   16.083821634   631.0395   1   9   0.0003   0.0003   0.0012  -0.0000   0.0002   0.0003   0.00   16.2
2018/03/15 12:52:12.000   78.246707709   16.083821638   631.0398   1   9   0.0003   0.0003   0.0012   0.0000   0.0002   0.0003   0.00   16.5
2018/03/15 12:52:13.000   78.246707709   16.083821642   631.0401   1   9   0.0003   0.0003   0.0012   0.0000   0.0002   0.0003   0.00   16.8
2018/03/15 12:52:14.000   78.246707709   16.083821646   631.0404   1   9   0.0003   0.0003   0.0011   0.0000   0.0002   0.0003   0.00   17.2
2018/03/15 12:52:15.000   78.246707708   16.083821650   631.0407   1   9   0.0003   0.0003   0.0011   0.0000   0.0002   0.0003   0.00   17.5
2018/03/15 12:52:16.000   78.246707708   16.083821654   631.0410   1   9   0.0003   0.0003   0.0011   0.0000   0.0002   0.0003   0.00   17.8
2018/03/15 12:52:17.000   78.246707707   16.083821659   631.0413   1   9   0.0003   0.0003   0.0011   0.0000   0.0002   0.0003   0.00   18.2
2018/03/15 12:52:18.000   78.246707707   16.083821664   631.0416   1   9   0.0003   0.0003   0.0011   0.0000   0.0002   0.0003   0.00   18.5
2018/03/15 12:52:19.000   78.246707706   16.083821669   631.0418   1   9   0.0003   0.0003   0.0011   0.0000   0.0002   0.0003   0.00   18.9
2018/03/15 12:52:20.000   78.246707706   16.083821672   631.0421   1   9   0.0003   0.0003   0.0011   0.0000   0.0002   0.0003   0.00   19.2
2018/03/15 12:52:21.000   78.246707705   16.083821676   631.0423   1   9   0.0003   0.0003   0.0011   0.0000   0.0002   0.0003   0.00   19.6
2018/03/15 12:52:22.000   78.246707705   16.083821679   631.0425   1   9   0.0003   0.0003   0.0011   0.0000   0.0002   0.0003   0.00   19.9
2018/03/15 12:52:23.000   78.246707704   16.083821683   631.0427   1   9   0.0003   0.0003   0.0011   0.0000   0.0002   0.0003   0.00   20.3
2018/03/15 12:52:24.000   78.246707704   16.083821688   631.0430   1   9   0.0003   0.0003   0.0011   0.0000   0.0002   0.0003   0.00   20.6
2018/03/15 12:52:25.000   78.246707703   16.083821694   631.0433   1   9   0.0003   0.0003   0.0011   0.0000   0.0002   0.0003   0.00   21.0
2018/03/15 12:52:26.000   78.246707702   16.083821700   631.0435   1   9   0.0003   0.0003   0.0011   0.0000   0.0002   0.0003   0.00   21.4
2018/03/15 12:52:27.000   78.246707701   16.083821707   631.0438   1   9   0.0003   0.0003   0.0011   0.0000   0.0002   0.0003   0.00   21.8
2018/03/15 12:52:28.000   78.246707700   16.083821712   631.0441   1   9   0.0003   0.0003   0.0011   0.0000   0.0002   0.0003   0.00   22.3
2018/03/15 12:52:29.000   78.246707699   16.083821717   631.0444   1   9   0.0003   0.0003   0.0011   0.0000   0.0002   0.0003   0.00   22.7
2018/03/15 12:52:30.000   78.246707699   16.083821723   631.0447   1   9   0.0003   0.0003   0.0011   0.0000   0.0002   0.0003   0.00   23.1
2018/03/15 12:52:31.000   78.246707698   16.083821728   631.0449   1   9   0.0003   0.0003   0.0011   0.0000   0.0002   0.0003   0.00   23.6
2018/03/15 12:52:32.000   78.246707697   16.083821732   631.0451   1   9   0.0003   0.0003   0.0011   0.0000   0.0002   0.0003   0.00   24.0
2018/03/15 12:52:33.000   78.246707697   16.083821737   631.0453   1   9   0.0003   0.0003   0.0011   0.0000   0.0002   0.0003   0.00   24.4
2018/03/15 12:52:34.000   78.246707696   16.083821739   631.0455   1   9   0.0003   0.0003   0.0011   0.0000   0.0002   0.0003   0.00   24.9
2018/03/15 12:52:35.000   78.246707695   16.083821740   631.0456   1   9   0.0003   0.0003   0.0011   0.0000   0.0002   0.0003   0.00   25.3
2018/03/15 12:52:36.000   78.246707695   16.083821740   631.0457   1   9   0.0003   0.0003   0.0011   0.0000   0.0002   0.0003   0.00   25.7
2018/03/15 12:52:37.000   78.246707694   16.083821740   631.0459   1   9   0.0003   0.0003   0.0011   0.0000   0.0002   0.0003   0.00   26.0
2018/03/15 12:52:38.000   78.246707693   16.083821738   631.0460   1   9   0.0003   0.0003   0.0011   0.0000   0.0002   0.0003   0.00   26.3
2018/03/15 12:52:39.000   78.246707693   16.083821736   631.0461   1   9   0.0003   0.0003   0.0011   0.0000   0.0002   0.0003   0.00   26.6
2018/03/15 12:52:40.000   78.246707692   16.083821733   631.0462   1   9   0.0003   0.0003   0.0011   0.0000   0.0002   0.0003   0.00   26.9
2018/03/15 12:52:41.000   78.246707691   16.083821729   631.0463   1   9   0.0003   0.0003   0.0011   0.0000   0.0002   0.0003   0.00   27.2
2018/03/15 12:52:42.000   78.246707690   16.083821724   631.0463   1   9   0.0003   0.0003   0.0011   0.0000   0.0002   0.0003   0.00   27.5
2018/03/15 12:52:43.000   78.246707689   16.083821719   631.0463   1   9   0.0003   0.0003   0.0011   0.0000   0.0002   0.0003   0.00   27.7
2018/03/15 12:52:44.000   78.246707688   16.083821714   631.0463   1   9   0.0003   0.0003   0.0011   0.0000   0.0002   0.0003   0.00   28.0
2018/03/15 12:52:45.000   78.246707686   16.083821709   631.0463   1   9   0.0003   0.0003   0.0011   0.0000   0.0002   0.0003   0.00   28.2
2018/03/15 12:52:46.000   78.246707685   16.083821705   631.0464   1   9   0.0003   0.0003   0.0011   0.0000   0.0002   0.0003   0.00   28.4
2018/03/15 12:52:47.000   78.246707684   16.083821701   631.0463   1   9   0.0003   0.0003   0.0011   0.0000   0.0002   0.0003   0.00   28.6
2018/03/15 12:52:48.000   78.246707683   16.083821696   631.0463   1   9   0.0003   0.0003   0.0011   0.0000   0.0002   0.0003   0.00   28.7
2018/03/15 12:52:49.000   78.246707682   16.083821693   631.0463   1   9   0.0003   0.0003   0.0011   0.0000   0.0002   0.0003   0.00   28.9
2018/03/15 12:52:50.000   78.246707681   16.083821691   631.0463   1   9   0.0003   0.0003   0.0011   0.0000   0.0002   0.0003   0.00   29.2
2018/03/15 12:52:51.000   78.246707679   16.083821689   631.0462   1   9   0.0003   0.0003   0.0011   0.0000   0.0002   0.0003   0.00   29.3
2018/03/15 12:52:52.000   78.246707678   16.083821687   631.0463   1   9   0.0003   0.0003   0.0011   0.0000   0.0002   0.0003   0.00   29.5
2018/03/15 12:52:53.000   78.246707677   16.083821687   631.0463   1   9   0.0003   0.0003   0.0011   0.0000   0.0002   0.0003   0.00   29.7
2018/03/15 12:52:54.000   78.246707676   16.083821686   631.0464   1   9   0.0003   0.0003   0.0011   0.0000   0.0002   0.0003   0.00   29.9
2018/03/15 12:52:55.000   78.246707674   16.083821684   631.0464   1   9   0.0003   0.0003   0.0011   0.0000   0.0002   0.0003   0.00   30.1
2018/03/15 12:52:56.000   78.246707673   16.083821682   631.0463   1   9   0.0003   0.0003   0.0011   0.0000   0.0002   0.0003   0.00   30.3
2018/03/15 12:52:57.000   78.246707672   16.083821680   631.0463   1   9   0.0003   0.0003   0.0010   0.0000   0.0002   0.0003   0.00   30.5
2018/03/15 12:52:58.000   78.246707670   16.083821678   631.0463   1   9   0.0003   0.0003   0.0010   0.0000   0.0002   0.0003   0.00   30.8
2018/03/15 12:52:59.000   78.246707669   16.083821676   631.0463   1   9   0.0003   0.0003   0.0010   0.0000   0.0002   0.0003   0.00   31.0
2018/03/15 12:53:00.000   78.246707668   16.083821674   631.0463   1   9   0.0003   0.0003   0.0010   0.0000   0.0002   0.0003   0.00   31.2
2018/03/15 12:53:01.000   78.246707667   16.083821672   631.0463   1   9   0.0003   0.0003   0.0010   0.0000   0.0002   0.0003   0.00   31.3
2018/03/15 12:53:02.000   78.246707666   16.083821669   631.0462   1   9   0.0003   0.0003   0.0010   0.0000   0.0002   0.0003   0.00   31.5
2018/03/15 12:53:03.000   78.246707665   16.083821666   631.0462   1   9   0.0003   0.0002   0.0010   0.0000   0.0002   0.0003   0.00   31.6
2018/03/15 12:53:04.000   78.246707664   16.083821663   631.0461   1   9   0.0003   0.0002   0.0010   0.0000   0.0002   0.0003   0.00   31.7
2018/03/15 12:53:05.000   78.246707663   16.083821658   631.0459   1   9   0.0003   0.0002   0.0010   0.0000   0.0002   0.0003   0.00   31.8
2018/03/15 12:53:06.000   78.246707663   16.083821654   631.0458   1   9   0.0003   0.0002   0.0010   0.0000   0.0002   0.0003   0.00   31.9
2018/03/15 12:53:07.000   78.246707662   16.083821649   631.0457   1   9   0.0003   0.0002   0.0010   0.0000   0.0002   0.0003   0.00   32.0
2018/03/15 12:53:08.000   78.246707661   16.083821646   631.0456   1   9   0.0003   0.0002   0.0010   0.0000   0.0002   0.0003   0.00   32.1
2018/03/15 12:53:09.000   78.246707660   16.083821643   631.0455   1   9   0.0003   0.0002   0.0010   0.0000   0.0002   0.0003   0.00   32.2
2018/03/15 12:53:10.000   78.246707660   16.083821640   631.0455   1   9   0.0003   0.0002   0.0010   0.0000   0.0002   0.0003   0.00   32.2
2018/03/15 12:53:11.000   78.246707659   16.083821637   631.0455   1   9   0.0003   0.0002   0.0010   0.0000   0.0002   0.0003   0.00   32.4
2018/03/15 12:53:12.000   78.246707658   16.083821634   631.0454   1   9   0.0003   0.0002   0.0010   0.0000   0.0002   0.0003   0.00   32.5
2018/03/15 12:53:13.000   78.246707658   16.083821630   631.0453   1   9   0.0003   0.0002   0.0010   0.0000   0.0002   0.0003   0.00   32.6
2018/03/15 12:53:14.000   78.246707657   16.083821627   631.0453   1   9   0.0003   0.0002   0.0010   0.0000   0.0002   0.0003   0.00   32.8
2018/03/15 12:53:15.000   78.246707656   16.083821624   631.0452   1   9   0.0003   0.0002   0.0010   0.0000   0.0002   0.0003   0.00   32.9
2018/03/15 12:53:16.000   78.246707656   16.083821621   631.0452   1   9   0.0003   0.0002   0.0010   0.0000   0.0002   0.0003   0.00   33.0
2018/03/15 12:53:17.000   78.246707655   16.083821618   631.0452   1   9   0.0003   0.0002   0.0010   0.0000   0.0002   0.0003   0.00   33.1
2018/03/15 12:53:18.000   78.246707654   16.083821615   631.0452   1   9   0.0003   0.0002   0.0010   0.0000   0.0002   0.0003   0.00   33.1
2018/03/15 12:53:19.000   78.246707654   16.083821612   631.0452   1   9   0.0003   0.0002   0.0010   0.0000   0.0002   0.0003   0.00   33.1
2018/03/15 12:53:20.000   78.246707654   16.083821609   631.0451   1   9   0.0003   0.0002   0.0010   0.0000   0.0002   0.0003   0.00   33.0
2018/03/15 12:53:21.000   78.246707654   16.083821605   631.0450   1   9   0.0003   0.0002   0.0010   0.0000   0.0002   0.0003   0.00   32.9
2018/03/15 12:53:22.000   78.246707653   16.083821601   631.0449   1   9   0.0003   0.0002   0.0010   0.0000   0.0002   0.0003   0.00   32.7
2018/03/15 12:53:23.000   78.246707653   16.083821597   631.0447   1   9   0.0003   0.0002   0.0010   0.0000   0.0002   0.0003   0.00   32.6
2018/03/15 12:53:24.000   78.246707653   16.083821592   631.0445   1   9   0.0003   0.0002   0.0010   0.0000   0.0002   0.0003   0.00   32.4
2018/03/15 12:53:25.000   78.246707653   16.083821587   631.0443   1   9   0.0003   0.0002   0.0010   0.0000   0.0002   0.0003   0.00   32.2
2018/03/15 12:53:26.000   78.246707653   16.083821583   631.0441   1   9   0.0003   0.0002   0.0010   0.0000   0.0002   0.0003   0.00   32.0
2018/03/15 12:53:27.000   78.246707653   16.083821577   631.0439   1   9   0.0003   0.0002   0.0010   0.0000   0.0002   0.0003   0.00   31.8
2018/03/15 12:53:28.000   78.246707653   16.083821573   631.0437   1   9   0.0003   0.0002   0.0010   0.0000   0.0002   0.0003   0.00   31.6
2018/03/15 12:53:29.000   78.246707654   16.083821568   631.0434   1   9   0.0003   0.0002   0.0010   0.0000   0.0002   0.0003   0.00   31.4
2018/03/15 12:53:30.000   78.246707654   16.083821563   631.0432   1   9   0.0003   0.0002   0.0010   0.0000   0.0002   0.0003   0.00   31.3
2018/03/15 12:53:31.000   78.246707654   16.083821559   631.0430   1   9   0.0003   0.0002   0.0010   0.0000   0.0002   0.0003   0.00   31.1
2018/03/15 12:53:32.000   78.246707654   16.083821554   631.0427   1   9   0.0003   0.0002   0.0010   0.0000   0.0002   0.0003   0.00   30.9
2018/03/15 12:53:33.000   78.246707654   16.083821550   631.0425   1   9   0.0003   0.0002   0.0010   0.0000   0.0002   0.0003   0.00   30.7
2018/03/15 12:53:34.000   78.246707655   16.083821545   631.0423   1   9   0.0003   0.0002   0.0010   0.0000   0.0002   0.0003   0.00   30.5
2018/03/15 12:53:35.000   78.246707655   16.083821541   631.0421   1   9   0.0003   0.0002   0.0010   0.0000   0.0002   0.0003   0.00   30.4
2018/03/15 12:53:36.000   78.246707655   16.083821535   631.0418   1   9   0.0003   0.0002   0.0010   0.0000   0.0002   0.0003   0.00   30.2
2018/03/15 12:53:37.000   78.246707655   16.083821529   631.0416   1   9   0.0003   0.0002   0.0010   0.0000   0.0002   0.0003   0.00   30.1
2018/03/15 12:53:38.000   78.246707655   16.083821524   631.0414   1   9   0.0003   0.0002   0.0010   0.0000   0.0002   0.0003   0.00   30.0
2018/03/15 12:53:39.000   78.246707654   16.083821519   631.0412   1   9   0.0003   0.0002   0.0010   0.0000   0.0002   0.0003   0.00   29.9
2018/03/15 12:53:40.000   78.246707654   16.083821513   631.0410   1   9   0.0003   0.0002   0.0010   0.0000   0.0002   0.0003   0.00   29.9
2018/03/15 12:53:41.000   78.246707653   16.083821508   631.0409   1   9   0.0003   0.0002   0.0010   0.0000   0.0002   0.0003   0.00   29.8
2018/03/15 12:53:42.000   78.246707653   16.083821503   631.0407   1   9   0.0003   0.0002   0.0010   0.0000   0.0002   0.0003   0.00   29.7
2018/03/15 12:53:43.000   78.246707653   16.083821498   631.0406   1   9   0.0003   0.0002   0.0010   0.0000   0.0002   0.0003   0.00   29.7
2018/03/15 12:53:44.000   78.246707652   16.083821494   631.0404   1   9   0.0003   0.0002   0.0010   0.0000   0.0002   0.0003   0.00   29.6
2018/03/15 12:53:45.000   78.246707651   16.083821490   631.0403   1   9   0.0003   0.0002   0.0010   0.0000   0.0002   0.0003   0.00   29.6
2018/03/15 12:53:46.000   78.246707651   16.083821485   631.0402   1   9   0.0003   0.0002   0.0010   0.0000   0.0002   0.0003   0.00   29.5
2018/03/15 12:53:47.000   78.246707650   16.083821481   631.0400   1   9   0.0003   0.0002   0.0010   0.0000   0.0002   0.0003   0.00   29.5
2018/03/15 12:53:48.000   78.246707649   16.083821476   631.0399   1   9   0.0003   0.0002   0.0010   0.0000   0.0002   0.0003   0.00   29.4
2018/03/15 12:53:49.000   78.246707649   16.083821472   631.0398   1   9   0.0003   0.0002   0.0010   0.0000   0.0002   0.0003   0.00   29.3
2018/03/15 12:53:50.000   78.246707648   16.083821467   631.0397   1   9   0.0003   0.0002   0.0010   0.0000   0.0002   0.0003   0.00   29.2
2018/03/15 12:53:51.000   78.246707648   16.083821462   631.0395   1   9   0.0003   0.0002   0.0010   0.0000   0.0002   0.0003   0.00   29.0
2018/03/15 12:53:52.000   78.246707648   16.083821457   631.0394   1   9   0.0003   0.0002   0.0010   0.0000   0.0002   0.0003   0.00   28.8
2018/03/15 12:53:53.000   78.246707647   16.083821452   631.0393   1   9   0.0003   0.0002   0.0010   0.0000   0.0002   0.0003   0.00   28.6
2018/03/15 12:53:54.000   78.246707647   16.083821447   631.0392   1   9   0.0003   0.0002   0.0010   0.0000   0.0002   0.0003   0.00   28.4
2018/03/15 12:53:55.000   78.246707647   16.083821442   631.0391   1   9   0.0003   0.0002   0.0010   0.0000   0.0002   0.0003   0.00   28.2
2018/03/15 12:53:56.000   78.246707646   16.083821437   631.0389   1   9   0.0002   0.0002   0.0010   0.0000   0.0002   0.0003   0.00   28.0
2018/03/15 12:53:57.000   78.246707646   16.083821432   631.0388   1   9   0.0002   0.0002   0.0010   0.0000   0.0002   0.0003   0.00   27.8
2018/03/15 12:53:58.000   78.246707646   16.083821426   631.0387   1   9   0.0002   0.0002   0.0010   0.0000   0.0002   0.0003   0.00   27.5
2018/03/15 12:53:59.000   78.246707645   16.083821420   631.0385   1   9   0.0002   0.0002   0.0010   0.0000   0.0002   0.0003   0.00   27.3
2018/03/15 12:54:00.000   78.246707645   16.083821414   631.0384   1   9   0.0002   0.0002   0.0009   0.0000   0.0002   0.0003   0.00   27.0
2018/03/15 12:54:01.000   78.246707645   16.083821408   631.0383   1   9   0.0002   0.0002   0.0009   0.0000   0.0002   0.0003   0.00   26.7
2018/03/15 12:54:02.000   78.246707645   16.083821403   631.0382   1   9   0.0002   0.0002   0.0009   0.0000   0.0002   0.0003   0.00   26.4
2018/03/15 12:54:03.000   78.246707645   16.083821399   631.0382   1   9   0.0002   0.0002   0.0009   0.0000   0.0002   0.0003   0.00   26.1
2018/03/15 12:54:04.000   78.246707645   16.083821396   631.0381   1   9   0.0002   0.0002   0.0009   0.0000   0.0002   0.0003   0.00   25.9
2018/03/15 12:54:05.000   78.246707645   16.083821394   631.0381   1   9   0.0002   0.0002   0.0009   0.0000   0.0002   0.0003   0.00   25.6
2018/03/15 12:54:06.000   78.246707645   16.083821392   631.0382   1   9   0.0002   0.0002   0.0009   0.0000   0.0002   0.0003   0.00   25.4
2018/03/15 12:54:07.000   78.246707645   16.083821390   631.0382   1   9   0.0002   0.0002   0.0009   0.0000   0.0002   0.0003   0.00   25.2
2018/03/15 12:54:08.000   78.246707645   16.083821389   631.0383   1   9   0.0002   0.0002   0.0009   0.0000   0.0002   0.0003   0.00   25.0
2018/03/15 12:54:09.000   78.246707645   16.083821388   631.0384   1   9   0.0002   0.0002   0.0009   0.0000   0.0002   0.0003   0.00   24.9
2018/03/15 12:54:10.000   78.246707646   16.083821387   631.0384   1   9   0.0002   0.0002   0.0009   0.0000   0.0002   0.0003   0.00   24.7
2018/03/15 12:54:11.000   78.246707647   16.083821387   631.0385   1   9   0.0002   0.0002   0.0009   0.0000   0.0002   0.0003   0.00   24.5
2018/03/15 12:54:12.000   78.246707648   16.083821388   631.0386   1   9   0.0002   0.0002   0.0009   0.0000   0.0002   0.0003   0.00   24.4
2018/03/15 12:54:13.000   78.246707649   16.083821390   631.0387   1   9   0.0002   0.0002   0.0009   0.0000   0.0002   0.0003   0.00   24.2
2018/03/15 12:54:14.000   78.246707650   16.083821393   631.0388   1   9   0.0002   0.0002   0.0009   0.0000   0.0002   0.0003   0.00   24.1
2018/03/15 12:54:15.000   78.246707650   16.083821395   631.0389   1   9   0.0002   0.0002   0.0009   0.0000   0.0002   0.0003   0.00   24.0
2018/03/15 12:54:16.000   78.246707651   16.083821398   631.0391   1   9   0.0002   0.0002   0.0009   0.0000   0.0002   0.0003   0.00   23.9
2018/03/15 12:54:17.000   78.246707652   16.083821402   631.0393   1   9   0.0002   0.0002   0.0009   0.0000   0.0002   0.0003   0.00   23.9
2018/03/15 12:54:18.000   78.246707653   16.083821406   631.0395   1   9   0.0002   0.0002   0.0009   0.0000   0.0002   0.0003   0.00   23.9
2018/03/15 12:54:19.000   78.246707654   16.083821410   631.0397   1   9   0.0002   0.0002   0.0009   0.0000   0.0002   0.0003   0.00   23.9
2018/03/15 12:54:20.000   78.246707655   16.083821415   631.0399   1   9   0.0002   0.0002   0.0009   0.0000   0.0002   0.0003   0.00   23.9
2018/03/15 12:54:21.000   78.246707655   16.083821420   631.0401   1   9   0.0002   0.0002   0.0009   0.0000   0.0002   0.0003   0.00   23.9
2018/03/15 12:54:22.000   78.246707656   16.083821426   631.0403   1   9   0.0002   0.0002   0.0009   0.0000   0.0002   0.0003   0.00   23.9
2018/03/15 12:54:23.000   78.246707657   16.083821431   631.0406   1   9   0.0002   0.0002   0.0009   0.0000   0.0002   0.0003   0.00   23.9
2018/03/15 12:54:24.000   78.246707657   16.083821436   631.0408   1   9   0.0002   0.0002   0.0009   0.0000   0.0002   0.0003   0.00   24.0
2018/03/15 12:54:25.000   78.246707658   16.083821441   631.0411   1   9   0.0002   0.0002   0.0009   0.0000   0.0002   0.0003   0.00   24.1
2018/03/15 12:54:26.000   78.246707658   16.083821445   631.0412   1   9   0.0002   0.0002   0.0009   0.0000   0.0002   0.0003   0.00   24.2
2018/03/15 12:54:27.000   78.246707658   16.083821449   631.0414   1   9   0.0002   0.0002   0.0009   0.0000   0.0002   0.0003   0.00   24.3
2018/03/15 12:54:28.000   78.246707658   16.083821452   631.0416   1   9   0.0002   0.0002   0.0009   0.0000   0.0002   0.0003   0.00   24.4
2018/03/15 12:54:29.000   78.246707658   16.083821454   631.0417   1   9   0.0002   0.0002   0.0009   0.0000   0.0002   0.0003   0.00   24.6
2018/03/15 12:54:30.000   78.246707658   16.083821457   631.0419   1   9   0.0002   0.0002   0.0009   0.0000   0.0002   0.0003   0.00   24.8
2018/03/15 12:54:31.000   78.246707658   16.083821459   631.0420   1   9   0.0002   0.0002   0.0009   0.0000   0.0002   0.0003   0.00   25.0
2018/03/15 12:54:32.000   78.246707658   16.083821461   631.0421   1   9   0.0002   0.0002   0.0009   0.0000   0.0002   0.0003   0.00   25.2
2018/03/15 12:54:33.000   78.246707658   16.083821462   631.0423   1   9   0.0002   0.0002   0.0009   0.0000   0.0002   0.0003   0.00   25.3
2018/03/15 12:54:34.000   78.246707659   16.083821462   631.0423   1   9   0.0002   0.0002   0.0009   0.0000   0.0002   0.0003   0.00   25.4
2018/03/15 12:54:35.000   78.246707659   16.083821463   631.0424   1   9   0.0002   0.0002   0.0009   0.0000   0.0002   0.0003   0.00   25.5
2018/03/15 12:54:36.000   78.246707659   16.083821462   631.0424   1   9   0.0002   0.0002   0.0009   0.0000   0.0002   0.0003   0.00   25.6
2018/03/15 12:54:37.000   78.246707659   16.083821462   631.0424   1   9   0.0002   0.0002   0.0009   0.0000   0.0002   0.0003   0.00   25.7
2018/03/15 12:54:38.000   78.246707660   16.083821462   631.0424   1   9   0.0002   0.0002   0.0009   0.0000   0.0002   0.0003   0.00   25.7
2018/03/15 12:54:39.000   78.246707660   16.083821462   631.0424   1   9   0.0002   0.0002   0.0009   0.0000   0.0002   0.0003   0.00   25.8
2018/03/15 12:54:40.000   78.246707661   16.083821462   631.0424   1   9   0.0002   0.0002   0.0009   0.0000   0.0002   0.0003   0.00   25.8
2018/03/15 12:54:41.000   78.246707661   16.083821462   631.0424   1   9   0.0002   0.0002   0.0009   0.0000   0.0002   0.0003   0.00   25.9
2018/03/15 12:54:42.000   78.246707661   16.083821462   631.0424   1   9   0.0002   0.0002   0.0009   0.0000   0.0002   0.0003   0.00   25.9
2018/03/15 12:54:43.000   78.246707661   16.083821462   631.0425   1   9   0.0002   0.0002   0.0009   0.0000   0.0002   0.0003   0.00   26.0
2018/03/15 12:54:44.000   78.246707661   16.083821462   631.0426   1   9   0.0002   0.0002   0.0009   0.0000   0.0002   0.0003   0.00   26.0
2018/03/15 12:54:45.000   78.246707661   16.083821462   631.0427   1   9   0.0002   0.0002   0.0009   0.0000   0.0002   0.0003   0.00   26.0
2018/03/15 12:54:46.000   78.246707662   16.083821463   631.0428   1   9   0.0002   0.0002   0.0009   0.0000   0.0002   0.0003   0.00   26.0
2018/03/15 12:54:47.000   78.246707662   16.083821464   631.0429   1   9   0.0002   0.0002   0.0009   0.0000   0.0002   0.0003   0.00   26.0
2018/03/15 12:54:48.000   78.246707662   16.083821464   631.0430   1   9   0.0002   0.0002   0.0009   0.0000   0.0002   0.0003   0.00   26.0
2018/03/15 12:54:49.000   78.246707663   16.083821465   631.0432   1   9   0.0002   0.0002   0.0009   0.0000   0.0002   0.0003   0.00   26.0
2018/03/15 12:54:50.000   78.246707663   16.083821464   631.0433   1   9   0.0002   0.0002   0.0009   0.0000   0.0002   0.0002   0.00   26.1
2018/03/15 12:54:51.000   78.246707663   16.083821463   631.0434   1   9   0.0002   0.0002   0.0009   0.0000   0.0002   0.0002   0.00   26.1
2018/03/15 12:54:52.000   78.246707663   16.083821462   631.0435   1   9   0.0002   0.0002   0.0009   0.0000   0.0002   0.0002   0.00   26.2
2018/03/15 12:54:53.000   78.246707663   16.083821460   631.0435   1   9   0.0002   0.0002   0.0009   0.0000   0.0002   0.0002   0.00   26.2
2018/03/15 12:54:54.000   78.246707663   16.083821456   631.0436   1   9   0.0002   0.0002   0.0009   0.0000   0.0002   0.0002   0.00   26.3
2018/03/15 12:54:55.000   78.246707663   16.083821452   631.0436   1   9   0.0002   0.0002   0.0009   0.0000   0.0002   0.0002   0.00   26.3
2018/03/15 12:54:56.000   78.246707663   16.083821448   631.0437   1   9   0.0002   0.0002   0.0009   0.0000   0.0002   0.0002   0.00   26.3
2018/03/15 12:54:57.000   78.246707663   16.083821444   631.0438   1   9   0.0002   0.0002   0.0009   0.0000   0.0002   0.0002   0.00   26.2
2018/03/15 12:54:58.000   78.246707663   16.083821440   631.0439   1   9   0.0002   0.0002   0.0009   0.0000   0.0002   0.0002   0.00   26.1
2018/03/15 12:54:59.000   78.246707662   16.083821436   631.0440   1   9   0.0002   0.0002   0.0009   0.0000   0.0002   0.0002   0.00   26.0
2018/03/15 12:55:00.000   78.246707661   16.083821433   631.0441   1   9   0.0002   0.0002   0.0009   0.0000   0.0002   0.0002   0.00   25.9
2018/03/15 12:55:01.000   78.246707661   16.083821430   631.0443   1   9   0.0002   0.0002   0.0009   0.0000   0.0002   0.0002   0.00   25.8
2018/03/15 12:55:02.000   78.246707660   16.083821428   631.0445   1   9   0.0002   0.0002   0.0009   0.0000   0.0002   0.0002   0.00   25.6
2018/03/15 12:55:03.000   78.246707659   16.083821425   631.0446   1   9   0.0002   0.0002   0.0009   0.0000   0.0002   0.0002   0.00   25.5
2018/03/15 12:55:04.000   78.246707658   16.083821422   631.0448   1   9   0.0002   0.0002   0.0009   0.0000   0.0002   0.0002   0.00   25.4
2018/03/15 12:55:05.000   78.246707657   16.083821419   631.0449   1   9   0.0002   0.0002   0.0009   0.0000   0.0002   0.0002   0.00   25.3
2018/03/15 12:55:06.000   78.246707656   16.083821415   631.0450   1   9   0.0002   0.0002   0.0009   0.0000   0.0002   0.0002   0.00   25.2
