% program   : RTKPOST ver.2.4.2
% inp file  : Z:\home\linda\Documents\Spring18\GitHub_Unis\data\processed_data\46250754.obs
% inp file  : Z:\home\linda\Documents\Spring18\GitHub_Unis\data\base_station_data\lyrs0750.18o
% inp file  : Z:\home\linda\Documents\Spring18\GitHub_Unis\data\processed_data\46250754.nav
% obs start : 2018/03/16 10:25:16.0 GPST (week1992 469516.0s)
% obs end   : 2018/03/16 10:40:16.0 GPST (week1992 470416.0s)
% pos mode  : static
% freqs     : L1+L2
% solution  : forward
% elev mask : 15.0 deg
% dynamics  : on
% tidecorr  : off
% ionos opt : estimation
% tropo opt : saastamoinen
% ephemeris : broadcast
% navi sys  : gps glonass galileo qzss sbas
% amb res   : fix and hold
% amb glo   : on
% val thres : 3.0
% antenna1  :                       ( 0.0000  0.0000  0.0000)
% antenna2  :                       ( 0.0000  0.0000  0.0000)
% ref pos   : 78.228825638   15.397310064   495.6816
%
% (lat/lon/height=WGS84/ellipsoidal,Q=1:fix,2:float,3:sbas,4:dgps,5:single,6:ppp,ns=# of satellites)
%  GPST                  latitude(deg) longitude(deg)  height(m)   Q  ns   sdn(m)   sde(m)   sdu(m)  sdne(m)  sdeu(m)  sdun(m) age(s)  ratio
2018/03/16 10:25:16.000   78.246498624   16.063375346   574.2053   2   9   0.6380   0.3433   1.8619   0.0911   0.2861   0.9014   0.00    1.1
2018/03/16 10:25:17.000   78.246497611   16.063368205   573.8431   2   9   0.4591   0.2469   1.3403   0.0655   0.2063   0.6491   0.00    1.1
2018/03/16 10:25:18.000   78.246496721   16.063365804   573.9296   2   9   0.3797   0.2043   1.1079   0.0543   0.1708   0.5367   0.00    1.0
2018/03/16 10:25:19.000   78.246496196   16.063361798   573.7630   2   9   0.3327   0.1790   0.9696   0.0477   0.1497   0.4699   0.00    1.1
2018/03/16 10:25:20.000   78.246496316   16.063361484   573.8010   2   9   0.3007   0.1619   0.8757   0.0433   0.1353   0.4246   0.00    1.1
2018/03/16 10:25:21.000   78.246495842   16.063361871   573.7564   2   9   0.2774   0.1494   0.8067   0.0400   0.1248   0.3913   0.00    1.0
2018/03/16 10:25:22.000   78.246494868   16.063357093   573.4360   2   9   0.2593   0.1398   0.7534   0.0375   0.1167   0.3655   0.00    1.1
2018/03/16 10:25:23.000   78.246494545   16.063356896   573.4221   2   9   0.2449   0.1321   0.7108   0.0355   0.1102   0.3450   0.00    1.2
2018/03/16 10:25:24.000   78.246494711   16.063358568   573.5202   2   9   0.2330   0.1258   0.6757   0.0339   0.1048   0.3280   0.00    1.2
2018/03/16 10:25:25.000   78.246493665   16.063355647   573.2002   2   9   0.2231   0.1205   0.6461   0.0325   0.1004   0.3138   0.00    1.1
2018/03/16 10:25:26.000   78.246493397   16.063355551   573.1547   2   9   0.2146   0.1160   0.6209   0.0313   0.0965   0.3016   0.00    1.0
2018/03/16 10:25:27.000   78.246493231   16.063356273   573.0693   2   9   0.2072   0.1121   0.5990   0.0303   0.0932   0.2911   0.00    1.0
2018/03/16 10:25:28.000   78.246492965   16.063355378   572.9284   2   9   0.2008   0.1086   0.5798   0.0294   0.0903   0.2818   0.00    1.0
2018/03/16 10:25:29.000   78.246492438   16.063355351   572.7344   2   9   0.1951   0.1056   0.5628   0.0286   0.0877   0.2736   0.00    1.0
2018/03/16 10:25:30.000   78.246491908   16.063355974   572.4641   2   9   0.1900   0.1029   0.5476   0.0279   0.0854   0.2663   0.00    1.0
2018/03/16 10:25:31.000   78.246491251   16.063356164   572.1527   2   9   0.1854   0.1005   0.5339   0.0273   0.0833   0.2597   0.00    1.0
2018/03/16 10:25:32.000   78.246490533   16.063356450   571.9224   2   9   0.1813   0.0983   0.5215   0.0267   0.0814   0.2537   0.00    1.0
2018/03/16 10:25:33.000   78.246490351   16.063356642   571.7899   2   9   0.1775   0.0963   0.5102   0.0261   0.0797   0.2483   0.00    1.0
2018/03/16 10:25:34.000   78.246490157   16.063357258   571.6644   2   9   0.1740   0.0945   0.4998   0.0256   0.0781   0.2433   0.00    1.0
2018/03/16 10:25:35.000   78.246489800   16.063357561   571.5319   2   9   0.1708   0.0928   0.4902   0.0252   0.0766   0.2386   0.00    1.0
2018/03/16 10:25:36.000   78.246489619   16.063357308   571.5011   2   9   0.1679   0.0913   0.4814   0.0248   0.0753   0.2344   0.00    1.1
2018/03/16 10:25:37.000   78.246489664   16.063357076   571.5405   2   9   0.1652   0.0898   0.4731   0.0244   0.0740   0.2304   0.00    1.1
2018/03/16 10:25:38.000   78.246490036   16.063357810   571.6155   2   9   0.1626   0.0885   0.4655   0.0240   0.0728   0.2267   0.00    1.1
2018/03/16 10:25:39.000   78.246490280   16.063358063   571.6835   2   9   0.1602   0.0873   0.4583   0.0237   0.0717   0.2232   0.00    1.1
2018/03/16 10:25:40.000   78.246490353   16.063358248   571.7526   2   9   0.1580   0.0861   0.4515   0.0233   0.0707   0.2199   0.00    1.1
2018/03/16 10:25:41.000   78.246490540   16.063358740   571.8518   2   9   0.1559   0.0850   0.4451   0.0230   0.0697   0.2169   0.00    1.1
2018/03/16 10:25:42.000   78.246490937   16.063359039   571.9863   2   9   0.1539   0.0840   0.4391   0.0227   0.0688   0.2140   0.00    1.1
2018/03/16 10:25:43.000   78.246491224   16.063359697   572.1068   2   9   0.1521   0.0831   0.4334   0.0224   0.0679   0.2112   0.00    1.1
2018/03/16 10:25:44.000   78.246491471   16.063359338   572.1226   2   9   0.1503   0.0822   0.4280   0.0222   0.0671   0.2086   0.00    1.1
2018/03/16 10:25:45.000   78.246491838   16.063359737   572.2233   2   9   0.1486   0.0813   0.4229   0.0219   0.0663   0.2061   0.00    1.1
2018/03/16 10:25:46.000   78.246492171   16.063360595   572.2916   2   9   0.1470   0.0805   0.4180   0.0217   0.0655   0.2037   0.00    1.1
2018/03/16 10:25:47.000   78.246492474   16.063360472   572.3438   2   9   0.1455   0.0797   0.4133   0.0214   0.0648   0.2014   0.00    1.1
2018/03/16 10:25:48.000   78.246492721   16.063360698   572.3822   2   9   0.1441   0.0790   0.4088   0.0212   0.0641   0.1992   0.00    1.1
2018/03/16 10:25:49.000   78.246493040   16.063361328   572.4891   2   9   0.1427   0.0783   0.4045   0.0210   0.0635   0.1971   0.00    1.1
2018/03/16 10:25:50.000   78.246493227   16.063361740   572.5654   2   9   0.1413   0.0776   0.4003   0.0207   0.0628   0.1951   0.00    1.1
2018/03/16 10:25:51.000   78.246493137   16.063361417   572.5389   2   9   0.1400   0.0770   0.3963   0.0205   0.0622   0.1932   0.00    1.1
2018/03/16 10:25:52.000   78.246493053   16.063361188   572.5101   2   9   0.1388   0.0764   0.3925   0.0203   0.0616   0.1913   0.00    1.2
2018/03/16 10:25:53.000   78.246493018   16.063361359   572.5169   2   9   0.1376   0.0758   0.3888   0.0201   0.0611   0.1895   0.00    1.2
2018/03/16 10:25:54.000   78.246492888   16.063361376   572.5147   2   9   0.1365   0.0753   0.3852   0.0199   0.0605   0.1877   0.00    1.2
2018/03/16 10:25:55.000   78.246492691   16.063360779   572.4880   2   9   0.1354   0.0747   0.3817   0.0197   0.0600   0.1860   0.00    1.2
2018/03/16 10:25:56.000   78.246492442   16.063360529   572.4457   2   9   0.1343   0.0742   0.3783   0.0195   0.0594   0.1843   0.00    1.2
2018/03/16 10:25:57.000   78.246492373   16.063360423   572.4533   2   9   0.1333   0.0737   0.3751   0.0194   0.0589   0.1827   0.00    1.2
2018/03/16 10:25:58.000   78.246492393   16.063360215   572.4603   2   9   0.1323   0.0733   0.3719   0.0192   0.0584   0.1811   0.00    1.2
2018/03/16 10:25:59.000   78.246492246   16.063360089   572.4081   2   9   0.1313   0.0728   0.3688   0.0190   0.0580   0.1796   0.00    1.2
2018/03/16 10:26:00.000   78.246492077   16.063360079   572.3790   2   9   0.1303   0.0724   0.3658   0.0188   0.0575   0.1781   0.00    1.2
2018/03/16 10:26:01.000   78.246491956   16.063360401   572.3521   2   9   0.1294   0.0720   0.3628   0.0187   0.0570   0.1767   0.00    1.1
2018/03/16 10:26:02.000   78.246491837   16.063360592   572.3182   2   9   0.1285   0.0715   0.3599   0.0185   0.0566   0.1752   0.00    1.1
2018/03/16 10:26:03.000   78.246491781   16.063360636   572.2928   2   9   0.1276   0.0711   0.3571   0.0183   0.0561   0.1738   0.00    1.1
2018/03/16 10:26:04.000   78.246491684   16.063360347   572.2740   2   9   0.1268   0.0708   0.3544   0.0182   0.0557   0.1725   0.00    1.0
2018/03/16 10:26:05.000   78.246491641   16.063360469   572.2734   2   9   0.1260   0.0704   0.3517   0.0180   0.0553   0.1711   0.00    1.0
2018/03/16 10:26:06.000   78.246491669   16.063360629   572.2586   2   9   0.1252   0.0700   0.3490   0.0178   0.0549   0.1698   0.00    1.0
2018/03/16 10:26:07.000   78.246491654   16.063360882   572.2276   2   9   0.1244   0.0697   0.3464   0.0177   0.0545   0.1685   0.00    1.0
2018/03/16 10:26:08.000   78.246491618   16.063360834   572.2146   2   9   0.1236   0.0693   0.3439   0.0175   0.0541   0.1672   0.00    1.0
2018/03/16 10:26:09.000   78.246491597   16.063360925   572.2180   2   9   0.1228   0.0690   0.3414   0.0174   0.0537   0.1660   0.00    1.1
2018/03/16 10:26:10.000   78.246491648   16.063361189   572.2301   2   9   0.1221   0.0687   0.3390   0.0172   0.0533   0.1647   0.00    1.1
2018/03/16 10:26:11.000   78.246491629   16.063361181   572.1976   2   9   0.1213   0.0684   0.3365   0.0171   0.0529   0.1635   0.00    1.1
2018/03/16 10:26:12.000   78.246491643   16.063361261   572.2066   2   9   0.1206   0.0681   0.3342   0.0169   0.0526   0.1623   0.00    1.1
2018/03/16 10:26:13.000   78.246491727   16.063361325   572.2547   2   9   0.1199   0.0678   0.3318   0.0168   0.0522   0.1611   0.00    1.1
2018/03/16 10:26:14.000   78.246491742   16.063361275   572.2577   2   9   0.1192   0.0675   0.3295   0.0166   0.0518   0.1600   0.00    1.1
2018/03/16 10:26:15.000   78.246491881   16.063361274   572.3049   2   9   0.1185   0.0672   0.3272   0.0165   0.0515   0.1588   0.00    1.1
2018/03/16 10:26:16.000   78.246491983   16.063361361   572.3477   2   9   0.1179   0.0669   0.3250   0.0163   0.0511   0.1577   0.00    1.1
2018/03/16 10:26:17.000   78.246492159   16.063361458   572.4068   2   9   0.1172   0.0667   0.3228   0.0162   0.0508   0.1565   0.00    1.1
2018/03/16 10:26:18.000   78.246492324   16.063361738   572.4865   2   9   0.1165   0.0664   0.3206   0.0160   0.0505   0.1554   0.00    1.1
2018/03/16 10:26:19.000   78.246492389   16.063361667   572.5317   2   9   0.1159   0.0662   0.3184   0.0159   0.0501   0.1543   0.00    1.1
2018/03/16 10:26:20.000   78.246492443   16.063361624   572.5564   2   9   0.1153   0.0659   0.3163   0.0157   0.0498   0.1532   0.00    1.1
2018/03/16 10:26:21.000   78.246492418   16.063361672   572.5466   2   9   0.1147   0.0657   0.3142   0.0156   0.0495   0.1521   0.00    1.1
2018/03/16 10:26:22.000   78.246492216   16.063361427   572.4753   2   9   0.1140   0.0654   0.3121   0.0155   0.0491   0.1511   0.00    1.1
2018/03/16 10:26:23.000   78.246492120   16.063361590   572.4476   2   9   0.1134   0.0652   0.3100   0.0153   0.0488   0.1500   0.00    1.1
2018/03/16 10:26:24.000   78.246491956   16.063361722   572.4152   2   9   0.1128   0.0650   0.3080   0.0152   0.0485   0.1489   0.00    1.0
2018/03/16 10:26:25.000   78.246491884   16.063361611   572.4012   2   9   0.1122   0.0647   0.3060   0.0150   0.0482   0.1479   0.00    1.0
2018/03/16 10:26:26.000   78.246491965   16.063361456   572.4077   2   9   0.1117   0.0645   0.3040   0.0149   0.0478   0.1468   0.00    1.0
2018/03/16 10:26:27.000   78.246492028   16.063361341   572.4183   2   9   0.1111   0.0643   0.3020   0.0148   0.0475   0.1458   0.00    1.0
2018/03/16 10:26:28.000   78.246492065   16.063361285   572.4239   2   9   0.1105   0.0641   0.3000   0.0146   0.0472   0.1448   0.00    1.0
2018/03/16 10:26:29.000   78.246492125   16.063361183   572.4283   2   9   0.1099   0.0639   0.2981   0.0145   0.0469   0.1438   0.00    1.1
2018/03/16 10:26:30.000   78.246492194   16.063361169   572.4528   2   9   0.1094   0.0637   0.2961   0.0144   0.0466   0.1428   0.00    1.1
2018/03/16 10:26:31.000   78.246492281   16.063361168   572.4687   2   9   0.1088   0.0635   0.2942   0.0142   0.0463   0.1418   0.00    1.1
2018/03/16 10:26:32.000   78.246492270   16.063360851   572.4500   2   9   0.1083   0.0633   0.2923   0.0141   0.0460   0.1408   0.00    1.0
2018/03/16 10:26:33.000   78.246492248   16.063360777   572.4261   2   9   0.1077   0.0631   0.2904   0.0140   0.0457   0.1398   0.00    1.0
2018/03/16 10:26:34.000   78.246492311   16.063360725   572.4375   2   9   0.1072   0.0629   0.2886   0.0138   0.0454   0.1388   0.00    1.0
2018/03/16 10:26:35.000   78.246492401   16.063360569   572.4599   2   9   0.1067   0.0627   0.2867   0.0137   0.0451   0.1378   0.00    1.0
2018/03/16 10:26:36.000   78.246492540   16.063360519   572.5031   2   9   0.1061   0.0626   0.2849   0.0136   0.0449   0.1369   0.00    1.0
2018/03/16 10:26:37.000   78.246492711   16.063360577   572.5654   2   9   0.1056   0.0624   0.2830   0.0135   0.0446   0.1359   0.00    1.0
2018/03/16 10:26:38.000   78.246492994   16.063360577   572.6551   2   9   0.1051   0.0622   0.2812   0.0133   0.0443   0.1349   0.00    1.0
2018/03/16 10:26:39.000   78.246493257   16.063360579   572.7422   2   9   0.1046   0.0620   0.2794   0.0132   0.0440   0.1340   0.00    1.0
2018/03/16 10:26:40.000   78.246493524   16.063360554   572.8346   2   9   0.1041   0.0619   0.2776   0.0131   0.0437   0.1330   0.00    1.0
2018/03/16 10:26:41.000   78.246493781   16.063360633   572.9198   2   9   0.1036   0.0617   0.2759   0.0130   0.0434   0.1321   0.00    1.0
2018/03/16 10:26:42.000   78.246494027   16.063360662   573.0101   2   9   0.1031   0.0615   0.2741   0.0128   0.0432   0.1312   0.00    1.1
2018/03/16 10:26:43.000   78.246494210   16.063360625   573.0814   2   9   0.1026   0.0614   0.2723   0.0127   0.0429   0.1302   0.00    1.1
2018/03/16 10:26:44.000   78.246494406   16.063360619   573.1408   2   9   0.1021   0.0612   0.2706   0.0126   0.0426   0.1293   0.00    1.1
2018/03/16 10:26:45.000   78.246494544   16.063360658   573.1787   2   9   0.1016   0.0610   0.2689   0.0125   0.0423   0.1284   0.00    1.1
2018/03/16 10:26:46.000   78.246494592   16.063360638   573.1900   2   9   0.1011   0.0609   0.2672   0.0123   0.0421   0.1275   0.00    1.0
2018/03/16 10:26:47.000   78.246494607   16.063360580   573.2039   2   9   0.1007   0.0607   0.2655   0.0122   0.0418   0.1266   0.00    1.0
2018/03/16 10:26:48.000   78.246494570   16.063360541   573.1980   2   9   0.1002   0.0606   0.2638   0.0121   0.0415   0.1256   0.00    1.0
2018/03/16 10:26:49.000   78.246494509   16.063360536   573.1865   2   9   0.0997   0.0604   0.2621   0.0120   0.0413   0.1247   0.00    1.0
2018/03/16 10:26:50.000   78.246494462   16.063360513   573.1779   2   9   0.0992   0.0603   0.2604   0.0119   0.0410   0.1238   0.00    1.0
2018/03/16 10:26:51.000   78.246494443   16.063360463   573.1751   2   9   0.0988   0.0601   0.2588   0.0118   0.0407   0.1230   0.00    1.0
2018/03/16 10:26:52.000   78.246494372   16.063360568   573.1649   2   9   0.0983   0.0600   0.2571   0.0117   0.0405   0.1221   0.00    1.0
2018/03/16 10:26:53.000   78.246494298   16.063360527   573.1545   2   9   0.0979   0.0598   0.2555   0.0116   0.0402   0.1212   0.00    1.0
2018/03/16 10:26:54.000   78.246494228   16.063360579   573.1511   2   9   0.0974   0.0597   0.2539   0.0114   0.0400   0.1203   0.00    1.0
2018/03/16 10:26:55.000   78.246494133   16.063360655   573.1358   2   9   0.0970   0.0596   0.2522   0.0113   0.0397   0.1194   0.00    1.0
2018/03/16 10:26:56.000   78.246494015   16.063360560   573.1146   2   9   0.0965   0.0594   0.2506   0.0112   0.0395   0.1186   0.00    1.0
2018/03/16 10:26:57.000   78.246493841   16.063360483   573.0712   2   9   0.0961   0.0593   0.2490   0.0111   0.0392   0.1177   0.00    1.0
2018/03/16 10:26:58.000   78.246493635   16.063360543   573.0224   2   9   0.0956   0.0591   0.2475   0.0110   0.0390   0.1168   0.00    1.0
2018/03/16 10:26:59.000   78.246493384   16.063360333   572.9610   2   9   0.0952   0.0590   0.2459   0.0109   0.0387   0.1160   0.00    1.1
2018/03/16 10:27:00.000   78.246493240   16.063360350   572.9272   2   9   0.0948   0.0589   0.2443   0.0108   0.0385   0.1151   0.00    1.1
2018/03/16 10:27:01.000   78.246493132   16.063360502   572.9157   2   9   0.0943   0.0588   0.2428   0.0107   0.0382   0.1143   0.00    1.1
2018/03/16 10:27:02.000   78.246493080   16.063360490   572.9017   2   9   0.0939   0.0586   0.2412   0.0106   0.0380   0.1135   0.00    1.1
2018/03/16 10:27:03.000   78.246493112   16.063360699   572.9281   2   9   0.0935   0.0585   0.2397   0.0105   0.0377   0.1126   0.00    1.1
2018/03/16 10:27:04.000   78.246493200   16.063360821   572.9786   2   9   0.0931   0.0584   0.2382   0.0104   0.0375   0.1118   0.00    1.1
2018/03/16 10:27:05.000   78.246493309   16.063360948   573.0258   2   9   0.0927   0.0582   0.2367   0.0104   0.0372   0.1110   0.00    1.1
2018/03/16 10:27:06.000   78.246493459   16.063361184   573.0826   2   9   0.0923   0.0581   0.2352   0.0103   0.0370   0.1101   0.00    1.1
2018/03/16 10:27:07.000   78.246493553   16.063361268   573.1270   2   9   0.0918   0.0580   0.2337   0.0102   0.0368   0.1093   0.00    1.1
2018/03/16 10:27:08.000   78.246493657   16.063361307   573.1719   2   9   0.0914   0.0579   0.2322   0.0101   0.0365   0.1085   0.00    1.1
2018/03/16 10:27:09.000   78.246493784   16.063361407   573.2114   2   9   0.0910   0.0578   0.2307   0.0100   0.0363   0.1077   0.00    1.1
2018/03/16 10:27:10.000   78.246493888   16.063361362   573.2458   2   9   0.0906   0.0576   0.2293   0.0099   0.0361   0.1069   0.00    1.1
2018/03/16 10:27:11.000   78.246493970   16.063361390   573.2822   2   9   0.0902   0.0575   0.2278   0.0098   0.0358   0.1061   0.00    1.1
2018/03/16 10:27:12.000   78.246494129   16.063361515   573.3408   2   9   0.0898   0.0574   0.2264   0.0098   0.0356   0.1053   0.00    1.1
2018/03/16 10:27:13.000   78.246494285   16.063361600   573.3871   2   9   0.0894   0.0573   0.2249   0.0097   0.0354   0.1045   0.00    1.1
2018/03/16 10:27:14.000   78.246494378   16.063361598   573.4272   2   9   0.0890   0.0572   0.2235   0.0096   0.0351   0.1037   0.00    1.1
2018/03/16 10:27:15.000   78.246494441   16.063361566   573.4595   2   9   0.0887   0.0571   0.2221   0.0095   0.0349   0.1029   0.00    1.1
2018/03/16 10:27:16.000   78.246494503   16.063361673   573.4888   2   9   0.0883   0.0569   0.2207   0.0095   0.0347   0.1022   0.00    1.1
2018/03/16 10:27:17.000   78.246494550   16.063361753   573.5128   2   9   0.0879   0.0568   0.2193   0.0094   0.0345   0.1014   0.00    1.1
2018/03/16 10:27:18.000   78.246494583   16.063361734   573.5369   2   9   0.0875   0.0567   0.2179   0.0093   0.0342   0.1006   0.00    1.1
2018/03/16 10:27:19.000   78.246494698   16.063361743   573.5758   2   9   0.0871   0.0566   0.2166   0.0093   0.0340   0.0999   0.00    1.1
2018/03/16 10:27:20.000   78.246494863   16.063361699   573.6225   2   9   0.0868   0.0565   0.2152   0.0092   0.0338   0.0991   0.00    1.1
2018/03/16 10:27:21.000   78.246495019   16.063361806   573.6570   2   9   0.0864   0.0564   0.2139   0.0092   0.0337   0.0984   0.00    1.2
2018/03/16 10:27:22.000   78.246495124   16.063361780   573.6809   2   9   0.0860   0.0563   0.2127   0.0091   0.0334   0.0977   0.00    1.2
2018/03/16 10:27:23.000   78.246495219   16.063361760   573.6997   2   9   0.0857   0.0562   0.2114   0.0091   0.0332   0.0970   0.00    1.2
2018/03/16 10:27:24.000   78.246495359   16.063361846   573.7162   2   9   0.0853   0.0561   0.2102   0.0090   0.0330   0.0963   0.00    1.2
2018/03/16 10:27:25.000   78.246495484   16.063362050   573.7291   2   9   0.0850   0.0560   0.2090   0.0090   0.0328   0.0956   0.00    1.1
2018/03/16 10:27:26.000   78.246495516   16.063362168   573.7202   2   9   0.0846   0.0558   0.2078   0.0090   0.0326   0.0949   0.00    1.0
2018/03/16 10:27:27.000   78.246495538   16.063362152   573.6989   2   9   0.0843   0.0557   0.2066   0.0089   0.0324   0.0942   0.00    1.0
2018/03/16 10:27:28.000   78.246495559   16.063362225   573.6846   2   9   0.0839   0.0556   0.2054   0.0089   0.0322   0.0935   0.00    1.0
2018/03/16 10:27:29.000   78.246495500   16.063362336   573.6484   2   9   0.0836   0.0555   0.2042   0.0088   0.0320   0.0928   0.00    1.0
2018/03/16 10:27:30.000   78.246495441   16.063362479   573.6161   2   9   0.0832   0.0554   0.2030   0.0088   0.0318   0.0922   0.00    1.1
2018/03/16 10:27:31.000   78.246495345   16.063362670   573.5789   2   9   0.0829   0.0553   0.2018   0.0088   0.0316   0.0915   0.00    1.1
2018/03/16 10:27:32.000   78.246495260   16.063362881   573.5420   2   9   0.0826   0.0552   0.2007   0.0087   0.0314   0.0908   0.00    1.1
2018/03/16 10:27:33.000   78.246495175   16.063363046   573.5076   2   9   0.0822   0.0551   0.1995   0.0087   0.0312   0.0901   0.00    1.1
2018/03/16 10:27:34.000   78.246495073   16.063363119   573.4726   2   9   0.0819   0.0550   0.1984   0.0087   0.0310   0.0895   0.00    1.1
2018/03/16 10:27:35.000   78.246494995   16.063363246   573.4502   2   9   0.0816   0.0549   0.1972   0.0086   0.0308   0.0888   0.00    1.1
2018/03/16 10:27:36.000   78.246494916   16.063363501   573.4305   2   9   0.0812   0.0548   0.1961   0.0086   0.0307   0.0882   0.00    1.1
2018/03/16 10:27:37.000   78.246494838   16.063363665   573.3982   2   9   0.0809   0.0547   0.1949   0.0086   0.0305   0.0875   0.00    1.1
2018/03/16 10:27:38.000   78.246494777   16.063363650   573.3740   2   9   0.0806   0.0546   0.1938   0.0086   0.0303   0.0869   0.00    1.0
2018/03/16 10:27:39.000   78.246494775   16.063363758   573.3758   2   9   0.0803   0.0545   0.1927   0.0086   0.0301   0.0862   0.00    1.0
2018/03/16 10:27:40.000   78.246494774   16.063363912   573.3829   2   9   0.0800   0.0544   0.1916   0.0085   0.0299   0.0856   0.00    1.0
2018/03/16 10:27:41.000   78.246494757   16.063363906   573.3840   2   9   0.0796   0.0543   0.1905   0.0085   0.0297   0.0849   0.00    1.0
2018/03/16 10:27:42.000   78.246494742   16.063363722   573.3694   2   9   0.0793   0.0542   0.1894   0.0085   0.0295   0.0843   0.00    1.0
2018/03/16 10:27:43.000   78.246494776   16.063363677   573.3788   2   9   0.0790   0.0542   0.1883   0.0085   0.0293   0.0837   0.00    1.0
2018/03/16 10:27:44.000   78.246494807   16.063363733   573.3916   2   9   0.0787   0.0541   0.1872   0.0085   0.0291   0.0831   0.00    1.1
2018/03/16 10:27:45.000   78.246494812   16.063363693   573.4043   2   9   0.0784   0.0540   0.1862   0.0085   0.0290   0.0824   0.00    1.1
2018/03/16 10:27:46.000   78.246494780   16.063363607   573.4080   2   9   0.0781   0.0539   0.1851   0.0085   0.0288   0.0818   0.00    1.1
2018/03/16 10:27:47.000   78.246494807   16.063363644   573.4237   2   9   0.0778   0.0538   0.1840   0.0085   0.0286   0.0812   0.00    1.2
2018/03/16 10:27:48.000   78.246494857   16.063363830   573.4482   2   9   0.0775   0.0537   0.1830   0.0085   0.0284   0.0806   0.00    1.2
2018/03/16 10:27:49.000   78.246494949   16.063363856   573.4776   2   9   0.0772   0.0536   0.1820   0.0085   0.0282   0.0800   0.00    1.2
2018/03/16 10:27:50.000   78.246495015   16.063363737   573.5079   2   9   0.0769   0.0535   0.1809   0.0085   0.0280   0.0794   0.00    1.2
2018/03/16 10:27:51.000   78.246495093   16.063363748   573.5431   2   9   0.0766   0.0534   0.1799   0.0085   0.0279   0.0788   0.00    1.2
2018/03/16 10:27:52.000   78.246495163   16.063363811   573.5714   2   9   0.0763   0.0533   0.1789   0.0085   0.0277   0.0782   0.00    1.2
2018/03/16 10:27:53.000   78.246495147   16.063363794   573.5686   2   9   0.0760   0.0532   0.1779   0.0085   0.0275   0.0776   0.00    1.2
2018/03/16 10:27:54.000   78.246495100   16.063363793   573.5675   2   9   0.0757   0.0531   0.1769   0.0085   0.0273   0.0770   0.00    1.2
2018/03/16 10:27:55.000   78.246495031   16.063363904   573.5647   2   9   0.0754   0.0530   0.1759   0.0085   0.0272   0.0764   0.00    1.2
2018/03/16 10:27:56.000   78.246494941   16.063364057   573.5625   2   9   0.0751   0.0530   0.1749   0.0085   0.0270   0.0758   0.00    1.1
2018/03/16 10:27:57.000   78.246494875   16.063363991   573.5558   2   9   0.0748   0.0529   0.1739   0.0085   0.0268   0.0753   0.00    1.1
2018/03/16 10:27:58.000   78.246494864   16.063363857   573.5606   2   9   0.0745   0.0528   0.1729   0.0085   0.0266   0.0747   0.00    1.1
2018/03/16 10:27:59.000   78.246494897   16.063363929   573.5733   2   9   0.0742   0.0527   0.1719   0.0086   0.0265   0.0741   0.00    1.1
2018/03/16 10:28:00.000   78.246494901   16.063363922   573.5788   2   9   0.0740   0.0526   0.1710   0.0086   0.0263   0.0736   0.00    1.0
2018/03/16 10:28:01.000   78.246494878   16.063363838   573.5742   2   9   0.0737   0.0525   0.1700   0.0086   0.0261   0.0730   0.00    1.0
2018/03/16 10:28:02.000   78.246494892   16.063363800   573.5748   2   9   0.0734   0.0524   0.1691   0.0086   0.0259   0.0724   0.00    1.0
2018/03/16 10:28:03.000   78.246494925   16.063363837   573.5905   2   9   0.0731   0.0523   0.1681   0.0086   0.0258   0.0719   0.00    1.0
2018/03/16 10:28:04.000   78.246494933   16.063363806   573.5989   2   9   0.0729   0.0523   0.1672   0.0086   0.0256   0.0713   0.00    1.0
2018/03/16 10:28:05.000   78.246494956   16.063363696   573.6101   2   9   0.0726   0.0522   0.1663   0.0087   0.0254   0.0708   0.00    1.0
2018/03/16 10:28:06.000   78.246495016   16.063363633   573.6203   2   9   0.0723   0.0521   0.1653   0.0087   0.0253   0.0702   0.00    1.0
2018/03/16 10:28:07.000   78.246495097   16.063363737   573.6413   2   9   0.0720   0.0520   0.1644   0.0087   0.0251   0.0697   0.00    1.0
2018/03/16 10:28:08.000   78.246495216   16.063363840   573.6580   2   9   0.0718   0.0519   0.1635   0.0087   0.0249   0.0692   0.00    1.0
2018/03/16 10:28:09.000   78.246495272   16.063363856   573.6650   2   9   0.0715   0.0518   0.1626   0.0088   0.0248   0.0686   0.00    1.0
2018/03/16 10:28:10.000   78.246495313   16.063363865   573.6778   2   9   0.0713   0.0517   0.1617   0.0088   0.0246   0.0681   0.00    1.0
2018/03/16 10:28:11.000   78.246495409   16.063363896   573.6972   2   9   0.0710   0.0517   0.1608   0.0088   0.0244   0.0676   0.00    1.0
2018/03/16 10:28:12.000   78.246495479   16.063364024   573.7082   2   9   0.0707   0.0516   0.1599   0.0089   0.0243   0.0670   0.00    1.0
2018/03/16 10:28:13.000   78.246495473   16.063364102   573.7106   2   9   0.0705   0.0515   0.1591   0.0089   0.0241   0.0665   0.00    1.0
2018/03/16 10:28:14.000   78.246495466   16.063364185   573.7138   2   9   0.0702   0.0514   0.1582   0.0089   0.0239   0.0660   0.00    1.0
2018/03/16 10:28:15.000   78.246495474   16.063364368   573.7236   2   9   0.0700   0.0513   0.1573   0.0090   0.0238   0.0655   0.00    1.0
2018/03/16 10:28:16.000   78.246495502   16.063364477   573.7283   2   9   0.0697   0.0512   0.1565   0.0090   0.0236   0.0650   0.00    1.1
2018/03/16 10:28:17.000   78.246495511   16.063364477   573.7327   2   9   0.0695   0.0512   0.1556   0.0090   0.0234   0.0645   0.00    1.1
2018/03/16 10:28:18.000   78.246495552   16.063364585   573.7390   2   9   0.0692   0.0511   0.1548   0.0091   0.0233   0.0640   0.00    1.1
2018/03/16 10:28:19.000   78.246495574   16.063364768   573.7506   2   9   0.0690   0.0510   0.1539   0.0091   0.0231   0.0635   0.00    1.1
2018/03/16 10:28:20.000   78.246495594   16.063364933   573.7666   2   9   0.0687   0.0509   0.1531   0.0091   0.0230   0.0630   0.00    1.1
2018/03/16 10:28:21.000   78.246495588   16.063365136   573.7803   2   9   0.0685   0.0508   0.1523   0.0092   0.0228   0.0625   0.00    1.1
2018/03/16 10:28:22.000   78.246495570   16.063365182   573.7817   2   9   0.0682   0.0507   0.1515   0.0092   0.0227   0.0620   0.00    1.1
2018/03/16 10:28:23.000   78.246495539   16.063365203   573.7775   2   9   0.0680   0.0507   0.1507   0.0092   0.0225   0.0615   0.00    1.1
2018/03/16 10:28:24.000   78.246495558   16.063365217   573.7834   2   9   0.0677   0.0506   0.1498   0.0093   0.0223   0.0610   0.00    1.1
2018/03/16 10:28:25.000   78.246495579   16.063365121   573.7871   2   9   0.0675   0.0505   0.1490   0.0093   0.0222   0.0606   0.00    1.1
2018/03/16 10:28:26.000   78.246495590   16.063365247   573.8011   2   9   0.0673   0.0504   0.1483   0.0094   0.0220   0.0601   0.00    1.1
2018/03/16 10:28:27.000   78.246495591   16.063365303   573.8082   2   9   0.0670   0.0503   0.1475   0.0094   0.0219   0.0596   0.00    1.1
2018/03/16 10:28:28.000   78.246495619   16.063365344   573.8154   2   9   0.0668   0.0503   0.1467   0.0095   0.0217   0.0592   0.00    1.1
2018/03/16 10:28:29.000   78.246495658   16.063365436   573.8272   2   9   0.0666   0.0502   0.1459   0.0095   0.0216   0.0587   0.00    1.1
2018/03/16 10:28:30.000   78.246495675   16.063365414   573.8355   2   9   0.0663   0.0501   0.1451   0.0095   0.0214   0.0582   0.00    1.1
2018/03/16 10:28:31.000   78.246495674   16.063365390   573.8416   2   9   0.0661   0.0500   0.1444   0.0096   0.0213   0.0578   0.00    1.1
2018/03/16 10:28:32.000   78.246495673   16.063365322   573.8395   2   9   0.0659   0.0499   0.1436   0.0096   0.0211   0.0573   0.00    1.1
2018/03/16 10:28:33.000   78.246495681   16.063365219   573.8348   2   9   0.0656   0.0499   0.1429   0.0097   0.0210   0.0569   0.00    1.2
2018/03/16 10:28:34.000   78.246495706   16.063365292   573.8374   2   9   0.0654   0.0498   0.1421   0.0097   0.0208   0.0564   0.00    1.2
2018/03/16 10:28:35.000   78.246495726   16.063365387   573.8312   2   9   0.0652   0.0497   0.1414   0.0098   0.0207   0.0560   0.00    1.2
2018/03/16 10:28:36.000   78.246495727   16.063365333   573.8188   2   9   0.0650   0.0496   0.1406   0.0098   0.0205   0.0555   0.00    1.2
2018/03/16 10:28:37.000   78.246495730   16.063365330   573.8157   2   9   0.0647   0.0495   0.1399   0.0098   0.0204   0.0551   0.00    1.2
2018/03/16 10:28:38.000   78.246495753   16.063365269   573.8128   2   9   0.0645   0.0495   0.1392   0.0099   0.0202   0.0546   0.00    1.2
2018/03/16 10:28:39.000   78.246495753   16.063365166   573.8074   2   9   0.0643   0.0494   0.1385   0.0099   0.0201   0.0542   0.00    1.2
2018/03/16 10:28:40.000   78.246495762   16.063365227   573.8086   2   9   0.0641   0.0493   0.1377   0.0100   0.0199   0.0538   0.00    1.2
2018/03/16 10:28:41.000   78.246495782   16.063365211   573.8124   2   9   0.0639   0.0492   0.1370   0.0100   0.0198   0.0534   0.00    1.2
2018/03/16 10:28:42.000   78.246495803   16.063365171   573.8171   2   9   0.0636   0.0491   0.1363   0.0101   0.0196   0.0529   0.00    1.2
2018/03/16 10:28:43.000   78.246495825   16.063365134   573.8166   2   9   0.0634   0.0491   0.1356   0.0101   0.0195   0.0525   0.00    1.2
2018/03/16 10:28:44.000   78.246495881   16.063365056   573.8255   2   9   0.0632   0.0490   0.1349   0.0102   0.0193   0.0521   0.00    1.2
2018/03/16 10:28:45.000   78.246495944   16.063364974   573.8278   2   9   0.0630   0.0489   0.1343   0.0102   0.0192   0.0517   0.00    1.2
2018/03/16 10:28:46.000   78.246495978   16.063364871   573.8291   2   9   0.0628   0.0488   0.1336   0.0103   0.0190   0.0513   0.00    1.2
2018/03/16 10:28:47.000   78.246496007   16.063364738   573.8278   2   9   0.0626   0.0488   0.1329   0.0103   0.0189   0.0509   0.00    1.2
2018/03/16 10:28:48.000   78.246496024   16.063364683   573.8293   2   9   0.0624   0.0487   0.1322   0.0104   0.0187   0.0504   0.00    1.2
2018/03/16 10:28:49.000   78.246496026   16.063364580   573.8299   2   9   0.0622   0.0486   0.1316   0.0104   0.0186   0.0500   0.00    1.2
2018/03/16 10:28:50.000   78.246496019   16.063364451   573.8341   2   9   0.0620   0.0485   0.1309   0.0104   0.0184   0.0496   0.00    1.2
2018/03/16 10:28:51.000   78.246496020   16.063364451   573.8372   2   9   0.0618   0.0485   0.1302   0.0105   0.0183   0.0492   0.00    1.2
2018/03/16 10:28:52.000   78.246495994   16.063364383   573.8372   2   9   0.0616   0.0484   0.1296   0.0105   0.0182   0.0489   0.00    1.2
2018/03/16 10:28:53.000   78.246495969   16.063364323   573.8320   2   9   0.0614   0.0483   0.1289   0.0106   0.0180   0.0485   0.00    1.2
2018/03/16 10:28:54.000   78.246495933   16.063364363   573.8271   2   9   0.0612   0.0482   0.1283   0.0106   0.0179   0.0481   0.00    1.2
2018/03/16 10:28:55.000   78.246495881   16.063364304   573.8192   2   9   0.0610   0.0482   0.1277   0.0107   0.0177   0.0477   0.00    1.2
2018/03/16 10:28:56.000   78.246495853   16.063364259   573.8134   2   9   0.0608   0.0481   0.1270   0.0107   0.0176   0.0473   0.00    1.2
2018/03/16 10:28:57.000   78.246495875   16.063364255   573.8143   2   9   0.0606   0.0480   0.1264   0.0108   0.0174   0.0469   0.00    1.2
2018/03/16 10:28:58.000   78.246495884   16.063364244   573.8077   2   9   0.0604   0.0479   0.1258   0.0108   0.0173   0.0465   0.00    1.2
2018/03/16 10:28:59.000   78.246495869   16.063364148   573.7976   2   9   0.0602   0.0479   0.1252   0.0109   0.0172   0.0462   0.00    1.2
2018/03/16 10:29:00.000   78.246495848   16.063364099   573.7856   2   9   0.0600   0.0478   0.1245   0.0109   0.0170   0.0458   0.00    1.2
2018/03/16 10:29:01.000   78.246495836   16.063364117   573.7759   2   9   0.0598   0.0477   0.1239   0.0110   0.0169   0.0454   0.00    1.2
2018/03/16 10:29:02.000   78.246495811   16.063364177   573.7645   2   9   0.0596   0.0476   0.1233   0.0110   0.0167   0.0451   0.00    1.2
2018/03/16 10:29:03.000   78.246495800   16.063364181   573.7568   2   9   0.0594   0.0476   0.1227   0.0111   0.0166   0.0447   0.00    1.2
2018/03/16 10:29:04.000   78.246495777   16.063364196   573.7482   2   9   0.0592   0.0475   0.1221   0.0111   0.0165   0.0443   0.00    1.2
2018/03/16 10:29:05.000   78.246495776   16.063364223   573.7436   2   9   0.0590   0.0474   0.1215   0.0111   0.0163   0.0440   0.00    1.2
2018/03/16 10:29:06.000   78.246495746   16.063364165   573.7369   2   9   0.0588   0.0473   0.1210   0.0112   0.0162   0.0436   0.00    1.2
2018/03/16 10:29:07.000   78.246495761   16.063364213   573.7387   2   9   0.0586   0.0473   0.1204   0.0112   0.0160   0.0433   0.00    1.2
2018/03/16 10:29:08.000   78.246495765   16.063364234   573.7430   2   9   0.0585   0.0472   0.1198   0.0113   0.0159   0.0429   0.00    1.2
2018/03/16 10:29:09.000   78.246495757   16.063364342   573.7476   2   9   0.0583   0.0471   0.1192   0.0113   0.0158   0.0426   0.00    1.2
2018/03/16 10:29:10.000   78.246495750   16.063364451   573.7548   2   9   0.0581   0.0470   0.1187   0.0114   0.0156   0.0422   0.00    1.3
2018/03/16 10:29:11.000   78.246495718   16.063364478   573.7543   2   9   0.0579   0.0470   0.1181   0.0114   0.0155   0.0419   0.00    1.3
2018/03/16 10:29:12.000   78.246495713   16.063364544   573.7559   2   9   0.0577   0.0469   0.1175   0.0115   0.0154   0.0415   0.00    1.3
2018/03/16 10:29:13.000   78.246495702   16.063364664   573.7616   2   9   0.0575   0.0468   0.1170   0.0115   0.0152   0.0412   0.00    1.3
2018/03/16 10:29:14.000   78.246495705   16.063364708   573.7685   2   9   0.0574   0.0468   0.1164   0.0116   0.0151   0.0408   0.00    1.3
2018/03/16 10:29:15.000   78.246495708   16.063364754   573.7727   2   9   0.0572   0.0467   0.1159   0.0116   0.0149   0.0405   0.00    1.3
2018/03/16 10:29:16.000   78.246495703   16.063364818   573.7794   2   9   0.0570   0.0466   0.1153   0.0116   0.0148   0.0402   0.00    1.3
2018/03/16 10:29:17.000   78.246495718   16.063364902   573.7889   2   9   0.0568   0.0465   0.1148   0.0117   0.0147   0.0398   0.00    1.3
2018/03/16 10:29:18.000   78.246495743   16.063364928   573.7970   2   9   0.0567   0.0465   0.1143   0.0117   0.0145   0.0395   0.00    1.3
2018/03/16 10:29:19.000   78.246495762   16.063364939   573.8049   2   9   0.0565   0.0464   0.1137   0.0118   0.0144   0.0392   0.00    1.3
2018/03/16 10:29:20.000   78.246495773   16.063364981   573.8199   2   9   0.0563   0.0463   0.1132   0.0118   0.0143   0.0389   0.00    1.3
2018/03/16 10:29:21.000   78.246495789   16.063365045   573.8309   2   9   0.0561   0.0463   0.1127   0.0119   0.0141   0.0385   0.00    1.3
2018/03/16 10:29:22.000   78.246495790   16.063365012   573.8352   2   9   0.0560   0.0462   0.1122   0.0119   0.0140   0.0382   0.00    1.3
2018/03/16 10:29:23.000   78.246495781   16.063364969   573.8394   2   9   0.0558   0.0461   0.1116   0.0119   0.0138   0.0379   0.00    1.3
2018/03/16 10:29:24.000   78.246495796   16.063364991   573.8443   2   9   0.0556   0.0460   0.1111   0.0120   0.0137   0.0376   0.00    1.3
2018/03/16 10:29:25.000   78.246495811   16.063364992   573.8511   2   9   0.0555   0.0460   0.1106   0.0120   0.0136   0.0373   0.00    1.3
2018/03/16 10:29:26.000   78.246495823   16.063364953   573.8589   2   9   0.0553   0.0459   0.1101   0.0121   0.0134   0.0370   0.00    1.3
2018/03/16 10:29:27.000   78.246495822   16.063364958   573.8678   2   9   0.0551   0.0458   0.1096   0.0121   0.0133   0.0366   0.00    1.3
2018/03/16 10:29:28.000   78.246495838   16.063364933   573.8768   2   9   0.0549   0.0458   0.1091   0.0122   0.0132   0.0363   0.00    1.3
2018/03/16 10:29:29.000   78.246495859   16.063365004   573.8822   2   9   0.0548   0.0457   0.1086   0.0122   0.0130   0.0360   0.00    1.3
2018/03/16 10:29:30.000   78.246495887   16.063365051   573.8874   2   9   0.0546   0.0456   0.1081   0.0122   0.0129   0.0357   0.00    1.3
2018/03/16 10:29:31.000   78.246495918   16.063365001   573.8898   2   9   0.0545   0.0455   0.1076   0.0123   0.0127   0.0354   0.00    1.3
2018/03/16 10:29:32.000   78.246495928   16.063365015   573.8876   2   9   0.0543   0.0455   0.1072   0.0123   0.0126   0.0351   0.00    1.3
2018/03/16 10:29:33.000   78.246495943   16.063365076   573.8931   2   9   0.0541   0.0454   0.1067   0.0124   0.0125   0.0348   0.00    1.3
2018/03/16 10:29:34.000   78.246495938   16.063365108   573.8943   2   9   0.0540   0.0453   0.1062   0.0124   0.0123   0.0345   0.00    1.3
2018/03/16 10:29:35.000   78.246495958   16.063365090   573.8953   2   9   0.0538   0.0453   0.1057   0.0124   0.0122   0.0343   0.00    1.3
2018/03/16 10:29:36.000   78.246495981   16.063364980   573.8948   2   9   0.0536   0.0452   0.1053   0.0125   0.0121   0.0340   0.00    1.3
2018/03/16 10:29:37.000   78.246495988   16.063364949   573.8941   2   9   0.0535   0.0451   0.1048   0.0125   0.0119   0.0337   0.00    1.3
2018/03/16 10:29:38.000   78.246495988   16.063364962   573.8898   2   9   0.0533   0.0451   0.1043   0.0126   0.0118   0.0334   0.00    1.3
2018/03/16 10:29:39.000   78.246495979   16.063364968   573.8842   2   9   0.0532   0.0450   0.1039   0.0126   0.0116   0.0331   0.00    1.3
2018/03/16 10:29:40.000   78.246495963   16.063364910   573.8818   2   9   0.0530   0.0449   0.1034   0.0126   0.0115   0.0328   0.00    1.3
2018/03/16 10:29:41.000   78.246495996   16.063364961   573.8831   2   9   0.0529   0.0449   0.1030   0.0127   0.0114   0.0325   0.00    1.3
2018/03/16 10:29:42.000   78.246496018   16.063364991   573.8825   2   9   0.0527   0.0448   0.1025   0.0127   0.0112   0.0323   0.00    1.3
2018/03/16 10:29:43.000   78.246496013   16.063364943   573.8812   2   9   0.0526   0.0447   0.1021   0.0127   0.0111   0.0320   0.00    1.3
2018/03/16 10:29:44.000   78.246495981   16.063364838   573.8791   2   9   0.0524   0.0446   0.1016   0.0128   0.0110   0.0317   0.00    1.3
2018/03/16 10:29:45.000   78.246495935   16.063364853   573.8791   2   9   0.0522   0.0446   0.1012   0.0128   0.0108   0.0314   0.00    1.3
2018/03/16 10:29:46.000   78.246495873   16.063364894   573.8762   2   9   0.0521   0.0445   0.1007   0.0129   0.0107   0.0312   0.00    1.3
2018/03/16 10:29:47.000   78.246495817   16.063364890   573.8702   2   9   0.0519   0.0444   0.1003   0.0129   0.0105   0.0309   0.00    1.3
2018/03/16 10:29:48.000   78.246495803   16.063364816   573.8661   2   9   0.0518   0.0444   0.0999   0.0129   0.0104   0.0306   0.00    1.3
2018/03/16 10:29:49.000   78.246495811   16.063364782   573.8659   2   9   0.0516   0.0443   0.0995   0.0130   0.0102   0.0303   0.00    1.3
2018/03/16 10:29:50.000   78.246495830   16.063364700   573.8652   2   9   0.0515   0.0442   0.0990   0.0130   0.0101   0.0301   0.00    1.3
2018/03/16 10:29:51.000   78.246495849   16.063364653   573.8592   2   9   0.0513   0.0442   0.0986   0.0130   0.0100   0.0298   0.00    1.3
2018/03/16 10:29:52.000   78.246495852   16.063364687   573.8647   2   9   0.0512   0.0441   0.0982   0.0131   0.0098   0.0296   0.00    1.3
2018/03/16 10:29:53.000   78.246495873   16.063364699   573.8650   2   9   0.0511   0.0440   0.0978   0.0131   0.0097   0.0293   0.00    1.3
2018/03/16 10:29:54.000   78.246495875   16.063364688   573.8655   2   9   0.0509   0.0440   0.0974   0.0131   0.0095   0.0290   0.00    1.3
2018/03/16 10:29:55.000   78.246495875   16.063364673   573.8675   2   9   0.0508   0.0439   0.0970   0.0132   0.0094   0.0288   0.00    1.3
2018/03/16 10:29:56.000   78.246495865   16.063364555   573.8691   2   9   0.0506   0.0438   0.0965   0.0132   0.0092   0.0285   0.00    1.3
2018/03/16 10:29:57.000   78.246495863   16.063364498   573.8716   2   9   0.0505   0.0438   0.0961   0.0132   0.0091   0.0283   0.00    1.3
2018/03/16 10:29:58.000   78.246495866   16.063364539   573.8720   2   9   0.0503   0.0437   0.0957   0.0133   0.0089   0.0280   0.00    1.3
2018/03/16 10:29:59.000   78.246495857   16.063364464   573.8688   2   9   0.0502   0.0436   0.0953   0.0133   0.0088   0.0278   0.00    1.3
2018/03/16 10:30:00.000   78.246495851   16.063364395   573.8668   2   9   0.0500   0.0436   0.0949   0.0133   0.0086   0.0275   0.00    1.3
2018/03/16 10:30:01.000   78.246495852   16.063364453   573.8763   2   9   0.0499   0.0435   0.0946   0.0134   0.0085   0.0273   0.00    1.3
2018/03/16 10:30:02.000   78.246495860   16.063364490   573.8827   2   9   0.0498   0.0434   0.0942   0.0134   0.0083   0.0270   0.00    1.3
2018/03/16 10:30:03.000   78.246495886   16.063364495   573.8850   2   9   0.0496   0.0434   0.0938   0.0134   0.0082   0.0268   0.00    1.3
2018/03/16 10:30:04.000   78.246495903   16.063364513   573.8876   2   9   0.0495   0.0433   0.0934   0.0135   0.0080   0.0265   0.00    1.3
2018/03/16 10:30:05.000   78.246495900   16.063364456   573.8885   2   9   0.0493   0.0432   0.0930   0.0135   0.0079   0.0263   0.00    1.3
2018/03/16 10:30:06.000   78.246495897   16.063364510   573.8939   2   9   0.0492   0.0432   0.0926   0.0135   0.0077   0.0261   0.00    1.3
2018/03/16 10:30:07.000   78.246495873   16.063364512   573.9001   2   9   0.0491   0.0431   0.0922   0.0135   0.0076   0.0258   0.00    1.3
2018/03/16 10:30:08.000   78.246495844   16.063364494   573.9031   2   9   0.0489   0.0430   0.0919   0.0136   0.0074   0.0256   0.00    1.3
2018/03/16 10:30:09.000   78.246495823   16.063364472   573.9039   2   9   0.0488   0.0430   0.0915   0.0136   0.0072   0.0253   0.00    1.3
2018/03/16 10:30:10.000   78.246495796   16.063364358   573.9031   2   9   0.0487   0.0429   0.0911   0.0136   0.0071   0.0251   0.00    1.3
2018/03/16 10:30:11.000   78.246495785   16.063364310   573.9070   2   9   0.0485   0.0428   0.0908   0.0137   0.0069   0.0249   0.00    1.3
2018/03/16 10:30:12.000   78.246495781   16.063364247   573.9111   2   9   0.0484   0.0428   0.0904   0.0137   0.0067   0.0246   0.00    1.3
2018/03/16 10:30:13.000   78.246495777   16.063364189   573.9109   2   9   0.0483   0.0427   0.0900   0.0137   0.0066   0.0244   0.00    1.3
2018/03/16 10:30:14.000   78.246495811   16.063364239   573.9172   2   9   0.0481   0.0426   0.0897   0.0137   0.0064   0.0242   0.00    1.3
2018/03/16 10:30:15.000   78.246495832   16.063364280   573.9234   2   9   0.0480   0.0426   0.0893   0.0138   0.0062   0.0240   0.00    1.3
2018/03/16 10:30:16.000   78.246495848   16.063364217   573.9265   2   9   0.0479   0.0425   0.0890   0.0138   0.0060   0.0237   0.00    1.3
2018/03/16 10:30:17.000   78.246495851   16.063364152   573.9323   2   9   0.0477   0.0425   0.0886   0.0138   0.0059   0.0235   0.00    1.3
2018/03/16 10:30:18.000   78.246495850   16.063364201   573.9350   2   9   0.0476   0.0424   0.0883   0.0139   0.0057   0.0233   0.00    1.3
2018/03/16 10:30:19.000   78.246495828   16.063364232   573.9383   2   9   0.0475   0.0423   0.0879   0.0139   0.0055   0.0231   0.00    1.3
2018/03/16 10:30:20.000   78.246495794   16.063364306   573.9409   2   9   0.0473   0.0423   0.0876   0.0139   0.0053   0.0228   0.00    1.3
2018/03/16 10:30:21.000   78.246495779   16.063364308   573.9396   2   9   0.0472   0.0422   0.0872   0.0139   0.0051   0.0226   0.00    1.3
2018/03/16 10:30:22.000   78.246495780   16.063364293   573.9422   2   9   0.0471   0.0421   0.0869   0.0140   0.0049   0.0224   0.00    1.3
2018/03/16 10:30:23.000   78.246495782   16.063364408   573.9422   2   9   0.0470   0.0421   0.0865   0.0140   0.0047   0.0222   0.00    1.3
2018/03/16 10:30:24.000   78.246495772   16.063364433   573.9421   2   9   0.0468   0.0420   0.0862   0.0140   0.0044   0.0220   0.00    1.3
2018/03/16 10:30:25.000   78.246495769   16.063364410   573.9399   2   9   0.0467   0.0419   0.0859   0.0140   0.0042   0.0217   0.00    1.3
2018/03/16 10:30:26.000   78.246495767   16.063364433   573.9406   2   9   0.0466   0.0419   0.0855   0.0141   0.0039   0.0215   0.00    1.3
2018/03/16 10:30:27.000   78.246495777   16.063364525   573.9404   2   9   0.0465   0.0418   0.0852   0.0141   0.0037   0.0213   0.00    1.3
2018/03/16 10:30:28.000   78.246495788   16.063364537   573.9411   2   9   0.0463   0.0417   0.0849   0.0141   0.0034   0.0211   0.00    1.3
2018/03/16 10:30:29.000   78.246495803   16.063364563   573.9425   2   9   0.0462   0.0417   0.0846   0.0141   0.0031   0.0209   0.00    1.3
2018/03/16 10:30:30.000   78.246495812   16.063364591   573.9457   2   9   0.0461   0.0416   0.0842   0.0141   0.0028   0.0207   0.00    1.3
2018/03/16 10:30:31.000   78.246495811   16.063364592   573.9526   2   9   0.0460   0.0416   0.0839   0.0142   0.0024   0.0205   0.00    1.3
2018/03/16 10:30:32.000   78.246495822   16.063364614   573.9513   2   9   0.0458   0.0415   0.0836   0.0142   0.0020   0.0203   0.00    1.3
2018/03/16 10:30:33.000   78.246495830   16.063364547   573.9479   2   9   0.0457   0.0414   0.0833   0.0142   0.0015   0.0201   0.00    1.3
2018/03/16 10:30:34.000   78.246495837   16.063364553   573.9442   2   9   0.0456   0.0414   0.0830   0.0142   0.0006   0.0198   0.00    1.3
2018/03/16 10:30:35.000   78.246495852   16.063364561   573.9432   2   9   0.0455   0.0413   0.0827   0.0143  -0.0012   0.0196   0.00    1.3
2018/03/16 10:30:36.000   78.246495865   16.063364577   573.9455   2   9   0.0454   0.0412   0.0823   0.0143  -0.0018   0.0194   0.00    1.3
2018/03/16 10:30:37.000   78.246495878   16.063364650   573.9480   2   9   0.0452   0.0412   0.0820   0.0143  -0.0022   0.0192   0.00    1.3
2018/03/16 10:30:38.000   78.246495876   16.063364592   573.9497   2   9   0.0451   0.0411   0.0817   0.0143  -0.0026   0.0190   0.00    1.3
2018/03/16 10:30:39.000   78.246495877   16.063364601   573.9487   2   9   0.0450   0.0411   0.0814   0.0143  -0.0029   0.0188   0.00    1.3
2018/03/16 10:30:40.000   78.246495877   16.063364696   573.9507   2   9   0.0449   0.0410   0.0811   0.0144  -0.0032   0.0186   0.00    1.3
2018/03/16 10:30:41.000   78.246495866   16.063364626   573.9478   2   9   0.0448   0.0409   0.0808   0.0144  -0.0034   0.0184   0.00    1.3
2018/03/16 10:30:42.000   78.246495843   16.063364627   573.9464   2   9   0.0447   0.0409   0.0805   0.0144  -0.0037   0.0182   0.00    1.3
2018/03/16 10:30:43.000   78.246495836   16.063364654   573.9444   2   9   0.0445   0.0408   0.0802   0.0144  -0.0039   0.0180   0.00    1.3
2018/03/16 10:30:44.000   78.246495824   16.063364695   573.9431   2   9   0.0444   0.0407   0.0799   0.0144  -0.0041   0.0178   0.00    1.3
2018/03/16 10:30:45.000   78.246495792   16.063364713   573.9435   2   9   0.0443   0.0407   0.0796   0.0145  -0.0043   0.0176   0.00    1.3
2018/03/16 10:30:46.000   78.246495775   16.063364733   573.9432   2   9   0.0442   0.0406   0.0793   0.0145  -0.0045   0.0174   0.00    1.3
2018/03/16 10:30:47.000   78.246495770   16.063364754   573.9457   2   9   0.0441   0.0406   0.0791   0.0145  -0.0047   0.0172   0.00    1.3
2018/03/16 10:30:48.000   78.246495780   16.063364809   573.9454   2   9   0.0440   0.0405   0.0788   0.0145  -0.0048   0.0170   0.00    1.3
2018/03/16 10:30:49.000   78.246495770   16.063364813   573.9464   2   9   0.0438   0.0404   0.0785   0.0145  -0.0050   0.0168   0.00    1.3
2018/03/16 10:30:50.000   78.246495762   16.063364731   573.9501   2   9   0.0437   0.0404   0.0782   0.0145  -0.0051   0.0167   0.00    1.3
2018/03/16 10:30:51.000   78.246495761   16.063364768   573.9506   2   9   0.0436   0.0403   0.0779   0.0146  -0.0053   0.0165   0.00    1.3
2018/03/16 10:30:52.000   78.246495766   16.063364823   573.9504   2   9   0.0435   0.0403   0.0776   0.0146  -0.0054   0.0163   0.00    1.3
2018/03/16 10:30:53.000   78.246495770   16.063364849   573.9472   2   9   0.0434   0.0402   0.0774   0.0146  -0.0056   0.0161   0.00    1.3
2018/03/16 10:30:54.000   78.246495758   16.063364900   573.9404   2   9   0.0433   0.0401   0.0771   0.0146  -0.0057   0.0159   0.00    1.3
2018/03/16 10:30:55.000   78.246495762   16.063364936   573.9374   2   9   0.0432   0.0401   0.0768   0.0146  -0.0058   0.0157   0.00    1.3
2018/03/16 10:30:56.000   78.246495790   16.063365007   573.9349   2   9   0.0431   0.0400   0.0765   0.0146  -0.0059   0.0155   0.00    1.3
2018/03/16 10:30:57.000   78.246495810   16.063365064   573.9320   2   9   0.0430   0.0400   0.0763   0.0147  -0.0061   0.0153   0.00    1.4
2018/03/16 10:30:58.000   78.246495818   16.063365000   573.9316   2   9   0.0429   0.0399   0.0760   0.0147  -0.0062   0.0151   0.00    1.4
2018/03/16 10:30:59.000   78.246495822   16.063364998   573.9332   2   9   0.0427   0.0398   0.0757   0.0147  -0.0063   0.0149   0.00    1.4
2018/03/16 10:31:00.000   78.246495843   16.063365023   573.9352   2   9   0.0426   0.0398   0.0754   0.0147  -0.0064   0.0147   0.00    1.4
2018/03/16 10:31:01.000   78.246495856   16.063365015   573.9352   2   9   0.0425   0.0397   0.0752   0.0147  -0.0065   0.0146   0.00    1.4
2018/03/16 10:31:02.000   78.246495853   16.063364976   573.9360   2   9   0.0424   0.0397   0.0749   0.0147  -0.0066   0.0144   0.00    1.4
2018/03/16 10:31:03.000   78.246495840   16.063364995   573.9379   2   9   0.0423   0.0396   0.0747   0.0148  -0.0067   0.0142   0.00    1.4
2018/03/16 10:31:04.000   78.246495843   16.063364960   573.9387   2   9   0.0422   0.0395   0.0744   0.0148  -0.0068   0.0140   0.00    1.4
2018/03/16 10:31:05.000   78.246495861   16.063364957   573.9352   2   9   0.0421   0.0395   0.0741   0.0148  -0.0069   0.0138   0.00    1.4
2018/03/16 10:31:06.000   78.246495872   16.063364944   573.9358   2   9   0.0420   0.0394   0.0739   0.0148  -0.0070   0.0136   0.00    1.4
2018/03/16 10:31:07.000   78.246495888   16.063364957   573.9367   2   9   0.0419   0.0394   0.0736   0.0148  -0.0071   0.0134   0.00    1.4
2018/03/16 10:31:08.000   78.246495906   16.063364950   573.9334   2   9   0.0418   0.0393   0.0734   0.0148  -0.0072   0.0133   0.00    1.4
2018/03/16 10:31:09.000   78.246495917   16.063364910   573.9332   2   9   0.0417   0.0392   0.0731   0.0148  -0.0072   0.0131   0.00    1.4
2018/03/16 10:31:10.000   78.246495922   16.063364847   573.9331   2   9   0.0416   0.0392   0.0729   0.0148  -0.0073   0.0129   0.00    1.4
2018/03/16 10:31:11.000   78.246495911   16.063364779   573.9315   2   9   0.0415   0.0391   0.0726   0.0149  -0.0074   0.0127   0.00    1.4
2018/03/16 10:31:12.000   78.246495897   16.063364707   573.9290   2   9   0.0414   0.0391   0.0724   0.0149  -0.0075   0.0125   0.00    1.4
2018/03/16 10:31:13.000   78.246495885   16.063364660   573.9278   2   9   0.0413   0.0390   0.0721   0.0149  -0.0076   0.0123   0.00    1.4
2018/03/16 10:31:14.000   78.246495854   16.063364666   573.9266   2   9   0.0412   0.0390   0.0719   0.0149  -0.0077   0.0121   0.00    1.4
2018/03/16 10:31:15.000   78.246495829   16.063364661   573.9250   2   9   0.0411   0.0389   0.0716   0.0149  -0.0077   0.0120   0.00    1.4
2018/03/16 10:31:16.000   78.246495808   16.063364687   573.9251   2   9   0.0410   0.0388   0.0714   0.0149  -0.0078   0.0118   0.00    1.4
2018/03/16 10:31:17.000   78.246495800   16.063364778   573.9237   2   9   0.0409   0.0388   0.0711   0.0149  -0.0079   0.0116   0.00    1.4
2018/03/16 10:31:18.000   78.246495790   16.063364813   573.9221   2   9   0.0408   0.0387   0.0709   0.0149  -0.0079   0.0114   0.00    1.4
2018/03/16 10:31:19.000   78.246495772   16.063364799   573.9218   2   9   0.0407   0.0387   0.0707   0.0149  -0.0080   0.0112   0.00    1.4
2018/03/16 10:31:20.000   78.246495752   16.063364807   573.9230   2   9   0.0406   0.0386   0.0704   0.0150  -0.0081   0.0110   0.00    1.4
2018/03/16 10:31:21.000   78.246495734   16.063364778   573.9232   2   9   0.0405   0.0385   0.0702   0.0150  -0.0081   0.0108   0.00    1.4
2018/03/16 10:31:22.000   78.246495725   16.063364788   573.9224   2   9   0.0404   0.0385   0.0700   0.0150  -0.0082   0.0107   0.00    1.4
2018/03/16 10:31:23.000   78.246495724   16.063364773   573.9196   2   9   0.0403   0.0384   0.0697   0.0150  -0.0083   0.0105   0.00    1.4
2018/03/16 10:31:24.000   78.246495709   16.063364680   573.9194   2   9   0.0402   0.0384   0.0695   0.0150  -0.0083   0.0103   0.00    1.4
2018/03/16 10:31:25.000   78.246495712   16.063364600   573.9200   2   9   0.0401   0.0383   0.0693   0.0150  -0.0084   0.0101   0.00    1.4
2018/03/16 10:31:26.000   78.246495720   16.063364553   573.9195   2   9   0.0400   0.0383   0.0690   0.0150  -0.0085   0.0099   0.00    1.4
2018/03/16 10:31:27.000   78.246495732   16.063364458   573.9175   2   9   0.0399   0.0382   0.0688   0.0150  -0.0085   0.0097   0.00    1.4
2018/03/16 10:31:28.000   78.246495762   16.063364453   573.9179   2   9   0.0398   0.0381   0.0686   0.0150  -0.0086   0.0095   0.00    1.4
2018/03/16 10:31:29.000   78.246495795   16.063364481   573.9182   2   9   0.0397   0.0381   0.0684   0.0150  -0.0086   0.0093   0.00    1.4
2018/03/16 10:31:30.000   78.246495817   16.063364487   573.9176   2   9   0.0396   0.0380   0.0681   0.0151  -0.0087   0.0091   0.00    1.4
2018/03/16 10:31:31.000   78.246495828   16.063364506   573.9181   2   9   0.0395   0.0380   0.0679   0.0151  -0.0088   0.0090   0.00    1.4
2018/03/16 10:31:32.000   78.246495824   16.063364501   573.9193   2   9   0.0394   0.0379   0.0677   0.0151  -0.0088   0.0088   0.00    1.4
2018/03/16 10:31:33.000   78.246495815   16.063364534   573.9205   2   9   0.0393   0.0379   0.0675   0.0151  -0.0089   0.0086   0.00    1.4
2018/03/16 10:31:34.000   78.246495797   16.063364584   573.9187   2   9   0.0392   0.0378   0.0673   0.0151  -0.0089   0.0084   0.00    1.4
2018/03/16 10:31:35.000   78.246495772   16.063364589   573.9181   2   9   0.0391   0.0378   0.0670   0.0151  -0.0090   0.0082   0.00    1.4
2018/03/16 10:31:36.000   78.246495750   16.063364545   573.9179   2   9   0.0390   0.0377   0.0668   0.0151  -0.0090   0.0080   0.00    1.4
2018/03/16 10:31:37.000   78.246495737   16.063364557   573.9157   2   9   0.0389   0.0376   0.0666   0.0151  -0.0091   0.0078   0.00    1.4
2018/03/16 10:31:38.000   78.246495731   16.063364559   573.9169   2   9   0.0389   0.0376   0.0664   0.0151  -0.0091   0.0076   0.00    1.4
2018/03/16 10:31:39.000   78.246495725   16.063364512   573.9158   2   9   0.0388   0.0375   0.0662   0.0151  -0.0092   0.0073   0.00    1.4
2018/03/16 10:31:40.000   78.246495728   16.063364518   573.9134   2   9   0.0387   0.0375   0.0660   0.0151  -0.0092   0.0071   0.00    1.5
2018/03/16 10:31:41.000   78.246495720   16.063364537   573.9129   2   9   0.0386   0.0374   0.0658   0.0151  -0.0092   0.0069   0.00    1.5
2018/03/16 10:31:42.000   78.246495706   16.063364508   573.9112   2   9   0.0385   0.0374   0.0656   0.0151  -0.0093   0.0067   0.00    1.5
2018/03/16 10:31:43.000   78.246495683   16.063364430   573.9095   2   9   0.0384   0.0373   0.0654   0.0151  -0.0093   0.0065   0.00    1.5
2018/03/16 10:31:44.000   78.246495665   16.063364415   573.9093   2   9   0.0383   0.0373   0.0652   0.0151  -0.0094   0.0063   0.00    1.5
2018/03/16 10:31:45.000   78.246495664   16.063364423   573.9109   2   9   0.0382   0.0372   0.0649   0.0152  -0.0094   0.0060   0.00    1.5
2018/03/16 10:31:46.000   78.246495667   16.063364396   573.9102   2   9   0.0381   0.0371   0.0647   0.0152  -0.0095   0.0058   0.00    1.5
2018/03/16 10:31:47.000   78.246495673   16.063364330   573.9125   2   9   0.0380   0.0371   0.0645   0.0152  -0.0095   0.0055   0.00    1.5
2018/03/16 10:31:48.000   78.246495671   16.063364333   573.9147   2   9   0.0380   0.0370   0.0643   0.0152  -0.0096   0.0053   0.00    1.5
2018/03/16 10:31:49.000   78.246495665   16.063364346   573.9184   2   9   0.0379   0.0370   0.0641   0.0152  -0.0096   0.0050   0.00    1.5
2018/03/16 10:31:50.000   78.246495659   16.063364407   573.9227   2   9   0.0378   0.0369   0.0639   0.0152  -0.0096   0.0048   0.00    1.5
2018/03/16 10:31:51.000   78.246495656   16.063364447   573.9242   2   9   0.0377   0.0369   0.0637   0.0152  -0.0097   0.0045   0.00    1.5
2018/03/16 10:31:52.000   78.246495659   16.063364478   573.9274   2   9   0.0376   0.0368   0.0635   0.0152  -0.0097   0.0042   0.00    1.5
2018/03/16 10:31:53.000   78.246495663   16.063364538   573.9319   2   9   0.0375   0.0368   0.0634   0.0152  -0.0097   0.0039   0.00    1.5
2018/03/16 10:31:54.000   78.246495661   16.063364565   573.9332   2   9   0.0374   0.0367   0.0632   0.0152  -0.0098   0.0036   0.00    1.5
2018/03/16 10:31:55.000   78.246495647   16.063364546   573.9338   2   9   0.0373   0.0367   0.0630   0.0152  -0.0098   0.0032   0.00    1.5
2018/03/16 10:31:56.000   78.246495633   16.063364540   573.9349   2   9   0.0373   0.0366   0.0628   0.0152  -0.0099   0.0028   0.00    1.5
2018/03/16 10:31:57.000   78.246495628   16.063364526   573.9366   2   9   0.0372   0.0366   0.0626   0.0152  -0.0099   0.0023   0.00    1.5
2018/03/16 10:31:58.000   78.246495624   16.063364541   573.9375   2   9   0.0371   0.0365   0.0624   0.0152  -0.0099   0.0018   0.00    1.5
2018/03/16 10:31:59.000   78.246495623   16.063364539   573.9375   2   9   0.0370   0.0364   0.0622   0.0152  -0.0100   0.0009   0.00    1.5
2018/03/16 10:32:00.000   78.246495609   16.063364465   573.9362   2   9   0.0369   0.0364   0.0620   0.0152  -0.0100  -0.0012   0.00    1.5
2018/03/16 10:32:01.000   78.246495603   16.063364442   573.9372   2   9   0.0368   0.0363   0.0618   0.0152  -0.0100  -0.0019   0.00    1.4
2018/03/16 10:32:02.000   78.246495612   16.063364441   573.9374   2   9   0.0367   0.0363   0.0616   0.0152  -0.0101  -0.0024   0.00    1.4
2018/03/16 10:32:03.000   78.246495612   16.063364421   573.9376   2   9   0.0367   0.0362   0.0615   0.0152  -0.0101  -0.0028   0.00    1.4
2018/03/16 10:32:04.000   78.246495616   16.063364449   573.9384   2   9   0.0366   0.0362   0.0613   0.0152  -0.0101  -0.0032   0.00    1.4
2018/03/16 10:32:05.000   78.246495619   16.063364506   573.9410   2   9   0.0365   0.0361   0.0611   0.0152  -0.0102  -0.0035   0.00    1.4
2018/03/16 10:32:06.000   78.246495613   16.063364565   573.9427   2   9   0.0364   0.0361   0.0609   0.0152  -0.0102  -0.0038   0.00    1.4
2018/03/16 10:32:07.000   78.246495604   16.063364619   573.9445   2   9   0.0363   0.0360   0.0607   0.0152  -0.0102  -0.0040   0.00    1.4
2018/03/16 10:32:08.000   78.246495592   16.063364651   573.9479   2   9   0.0363   0.0360   0.0605   0.0152  -0.0102  -0.0043   0.00    1.4
2018/03/16 10:32:09.000   78.246495580   16.063364682   573.9492   2   9   0.0362   0.0359   0.0604   0.0152  -0.0103  -0.0045   0.00    1.4
