% program   : RTKPOST ver.2.4.2
% inp file  : Z:\home\linda\Documents\Spring18\GitHub_Unis\data\processed_data\46250707.obs
% inp file  : Z:\home\linda\Documents\Spring18\GitHub_Unis\data\base_station_data\lyrs0700.18o
% inp file  : Z:\home\linda\Documents\Spring18\GitHub_Unis\data\processed_data\46250707.nav
% obs start : 2018/03/11 13:16:20.0 GPST (week1992  47780.0s)
% obs end   : 2018/03/11 13:31:22.0 GPST (week1992  48682.0s)
% pos mode  : static
% freqs     : L1+L2
% solution  : forward
% elev mask : 15.0 deg
% dynamics  : on
% tidecorr  : off
% ionos opt : broadcast
% tropo opt : saastamoinen
% ephemeris : broadcast
% navi sys  : gps glonass galileo qzss sbas
% amb res   : fix and hold
% amb glo   : on
% val thres : 3.0
% antenna1  :                       ( 0.0000  0.0000  0.0000)
% antenna2  :                       ( 0.0000  0.0000  0.0000)
% ref pos   : 78.228825638   15.397310064   495.6816
%
% (lat/lon/height=WGS84/ellipsoidal,Q=1:fix,2:float,3:sbas,4:dgps,5:single,6:ppp,ns=# of satellites)
%  GPST                  latitude(deg) longitude(deg)  height(m)   Q  ns   sdn(m)   sde(m)   sdu(m)  sdne(m)  sdeu(m)  sdun(m) age(s)  ratio
2018/03/11 13:16:20.000   78.253595272   16.174577117   538.0864   2  10   0.4028   0.3693   1.3335  -0.0707   0.1337   0.3994   0.00    1.0
2018/03/11 13:16:21.000   78.253594903   16.174574469   538.4616   2  10   0.2873   0.2627   0.9499  -0.0487   0.0991   0.2872   0.00    1.1
2018/03/11 13:16:22.000   78.253594993   16.174570399   538.3966   2  10   0.2353   0.2149   0.7772  -0.0393   0.0821   0.2358   0.00    1.1
2018/03/11 13:16:23.000   78.253594635   16.174572498   538.3028   2  10   0.2040   0.1863   0.6736  -0.0339   0.0715   0.2046   0.00    1.0
2018/03/11 13:16:24.000   78.253593848   16.174573408   538.2245   2  10   0.1826   0.1667   0.6025  -0.0302   0.0641   0.1832   0.00    1.0
2018/03/11 13:16:25.000   78.253593748   16.174576870   538.2210   2  10   0.1668   0.1523   0.5497  -0.0275   0.0586   0.1672   0.00    1.0
2018/03/11 13:16:26.000   78.253593487   16.174576748   538.3836   2  10   0.1544   0.1410   0.5086  -0.0254   0.0542   0.1547   0.00    1.1
2018/03/11 13:16:27.000   78.253593394   16.174577736   538.3159   2  10   0.1445   0.1319   0.4753  -0.0237   0.0506   0.1446   0.00    1.2
2018/03/11 13:16:28.000   78.253593280   16.174578352   538.1805   2  10   0.1362   0.1244   0.4475  -0.0223   0.0476   0.1362   0.00    1.2
2018/03/11 13:16:29.000   78.253593224   16.174579524   538.0780   2  10   0.1292   0.1180   0.4239  -0.0212   0.0451   0.1290   0.00    1.3
2018/03/11 13:16:30.000   78.253593448   16.174580723   538.0451   2  10   0.1232   0.1125   0.4036  -0.0201   0.0428   0.1228   0.00    1.3
2018/03/11 13:16:31.000   78.253593426   16.174580376   537.9645   2  10   0.1179   0.1077   0.3857  -0.0193   0.0409   0.1173   0.00    1.4
2018/03/11 13:16:32.000   78.253593482   16.174579638   537.9772   2  10   0.1132   0.1035   0.3698  -0.0185   0.0391   0.1124   0.00    1.4
2018/03/11 13:16:33.000   78.253593310   16.174579622   538.0158   2  10   0.1091   0.0997   0.3556  -0.0178   0.0375   0.1080   0.00    1.5
2018/03/11 13:16:34.000   78.253593216   16.174579003   537.9595   2  10   0.1053   0.0963   0.3427  -0.0171   0.0361   0.1041   0.00    1.5
2018/03/11 13:16:35.000   78.253593164   16.174579806   537.9692   2  10   0.1019   0.0932   0.3310  -0.0166   0.0348   0.1005   0.00    1.5
2018/03/11 13:16:36.000   78.253593045   16.174580645   537.9503   2  10   0.0988   0.0904   0.3203  -0.0161   0.0336   0.0971   0.00    1.5
2018/03/11 13:16:37.000   78.253593176   16.174581078   537.9032   2  10   0.0960   0.0879   0.3104  -0.0156   0.0325   0.0941   0.00    1.5
2018/03/11 13:16:38.000   78.253593008   16.174581014   537.8516   2  10   0.0934   0.0855   0.3012  -0.0151   0.0314   0.0912   0.00    1.4
2018/03/11 13:16:39.000   78.253592890   16.174581655   537.7947   2  10   0.0909   0.0833   0.2927  -0.0147   0.0304   0.0886   0.00    1.4
2018/03/11 13:16:40.000   78.253592704   16.174581632   537.7793   2  10   0.0887   0.0813   0.2847  -0.0143   0.0295   0.0861   0.00    1.4
2018/03/11 13:16:41.000   78.253592606   16.174581223   537.7273   2  10   0.0866   0.0794   0.2773  -0.0140   0.0286   0.0838   0.00    1.4
2018/03/11 13:16:42.000   78.253592562   16.174581016   537.6609   2  10   0.0846   0.0776   0.2702  -0.0136   0.0278   0.0815   0.00    1.4
2018/03/11 13:16:43.000   78.253592536   16.174580967   537.6201   2  10   0.0828   0.0760   0.2636  -0.0133   0.0270   0.0795   0.00    1.3
2018/03/11 13:16:44.000   78.253592503   16.174580702   537.5543   2  10   0.0810   0.0744   0.2573  -0.0130   0.0263   0.0775   0.00    1.3
2018/03/11 13:16:45.000   78.253592395   16.174581147   537.5242   2  10   0.0794   0.0729   0.2513  -0.0127   0.0256   0.0756   0.00    1.3
2018/03/11 13:16:46.000   78.253592415   16.174581146   537.4672   2  10   0.0778   0.0715   0.2456  -0.0124   0.0249   0.0738   0.00    1.2
2018/03/11 13:16:47.000   78.253592362   16.174581705   537.4481   2  10   0.0764   0.0702   0.2402  -0.0122   0.0242   0.0721   0.00    1.2
2018/03/11 13:16:48.000   78.253592382   16.174581915   537.4468   2  10   0.0750   0.0690   0.2350  -0.0119   0.0236   0.0704   0.00    1.2
2018/03/11 13:16:49.000   78.253592318   16.174581372   537.4391   2  10   0.0736   0.0678   0.2301  -0.0117   0.0230   0.0689   0.00    1.1
2018/03/11 13:16:50.000   78.253592292   16.174581428   537.4109   2  10   0.0724   0.0667   0.2253  -0.0115   0.0224   0.0673   0.00    1.1
2018/03/11 13:16:51.000   78.253592337   16.174581401   537.3900   2  10   0.0712   0.0656   0.2208  -0.0112   0.0219   0.0659   0.00    1.0
2018/03/11 13:16:52.000   78.253592344   16.174581362   537.3373   2  10   0.0700   0.0646   0.2164  -0.0110   0.0213   0.0645   0.00    1.0
2018/03/11 13:16:53.000   78.253592425   16.174580936   537.2803   2  10   0.0689   0.0636   0.2122  -0.0108   0.0208   0.0631   0.00    1.1
2018/03/11 13:16:54.000   78.253592556   16.174580388   537.2801   2  10   0.0678   0.0626   0.2081  -0.0106   0.0203   0.0618   0.00    1.1
2018/03/11 13:16:55.000   78.253592599   16.174579972   537.3059   2  10   0.0668   0.0617   0.2042  -0.0104   0.0198   0.0605   0.00    1.1
2018/03/11 13:16:56.000   78.253592598   16.174579943   537.2991   2  10   0.0658   0.0609   0.2004  -0.0102   0.0193   0.0593   0.00    1.1
2018/03/11 13:16:57.000   78.253592654   16.174579573   537.3168   2  10   0.0649   0.0600   0.1968  -0.0100   0.0188   0.0581   0.00    1.1
2018/03/11 13:16:58.000   78.253592721   16.174579282   537.3296   2  10   0.0640   0.0592   0.1932  -0.0098   0.0184   0.0570   0.00    1.1
2018/03/11 13:16:59.000   78.253592778   16.174579622   537.3424   2   9   0.0632   0.0584   0.1903  -0.0095   0.0182   0.0564   0.00    1.1
2018/03/11 13:17:00.000   78.253592874   16.174579552   537.3538   2   9   0.0625   0.0577   0.1875  -0.0091   0.0181   0.0557   0.00    1.1
2018/03/11 13:17:01.000   78.253592910   16.174579667   537.3753   2   9   0.0618   0.0570   0.1848  -0.0088   0.0179   0.0551   0.00    1.2
2018/03/11 13:17:02.000   78.253593001   16.174579741   537.4217   2   9   0.0611   0.0563   0.1821  -0.0085   0.0177   0.0545   0.00    1.2
2018/03/11 13:17:03.000   78.253593123   16.174579583   537.4786   2   9   0.0604   0.0556   0.1794  -0.0081   0.0175   0.0538   0.00    1.2
2018/03/11 13:17:04.000   78.253593227   16.174579693   537.5384   2   9   0.0598   0.0550   0.1768  -0.0078   0.0173   0.0532   0.00    1.2
2018/03/11 13:17:05.000   78.253593328   16.174579876   537.5898   2   9   0.0591   0.0543   0.1743  -0.0075   0.0171   0.0525   0.00    1.2
2018/03/11 13:17:06.000   78.253593444   16.174579914   537.6499   2   9   0.0585   0.0537   0.1718  -0.0072   0.0169   0.0519   0.00    1.2
2018/03/11 13:17:07.000   78.253593533   16.174580345   537.6926   2   9   0.0579   0.0531   0.1693  -0.0069   0.0167   0.0512   0.00    1.2
2018/03/11 13:17:08.000   78.253593671   16.174580510   537.7460   2   9   0.0573   0.0526   0.1670  -0.0066   0.0165   0.0506   0.00    1.2
2018/03/11 13:17:09.000   78.253593810   16.174580410   537.7910   2   9   0.0567   0.0520   0.1646  -0.0063   0.0162   0.0500   0.00    1.2
2018/03/11 13:17:10.000   78.253593962   16.174580556   537.8604   2   9   0.0562   0.0515   0.1623  -0.0061   0.0160   0.0493   0.00    1.2
2018/03/11 13:17:11.000   78.253594038   16.174580769   537.9001   2   9   0.0556   0.0509   0.1600  -0.0058   0.0158   0.0487   0.00    1.2
2018/03/11 13:17:12.000   78.253594107   16.174580744   537.9435   2   9   0.0551   0.0504   0.1578  -0.0055   0.0155   0.0481   0.00    1.2
2018/03/11 13:17:13.000   78.253594231   16.174580468   537.9990   2   9   0.0545   0.0499   0.1556  -0.0052   0.0153   0.0474   0.00    1.2
2018/03/11 13:17:14.000   78.253594308   16.174580645   538.0554   2   9   0.0540   0.0494   0.1535  -0.0050   0.0151   0.0468   0.00    1.2
2018/03/11 13:17:15.000   78.253594411   16.174580838   538.0999   2   9   0.0535   0.0489   0.1514  -0.0047   0.0148   0.0462   0.00    1.2
2018/03/11 13:17:16.000   78.253594534   16.174581074   538.1537   2   9   0.0530   0.0485   0.1493  -0.0044   0.0146   0.0456   0.00    1.2
2018/03/11 13:17:17.000   78.253594584   16.174581268   538.1928   2   9   0.0525   0.0480   0.1473  -0.0041   0.0143   0.0450   0.00    1.2
2018/03/11 13:17:18.000   78.253594622   16.174581526   538.2313   2   9   0.0520   0.0476   0.1453  -0.0038   0.0141   0.0444   0.00    1.1
2018/03/11 13:17:19.000   78.253594662   16.174581761   538.2618   2   9   0.0516   0.0472   0.1434  -0.0035   0.0138   0.0438   0.00    1.1
2018/03/11 13:17:20.000   78.253594741   16.174581908   538.3014   2   9   0.0511   0.0467   0.1415  -0.0032   0.0136   0.0432   0.00    1.1
2018/03/11 13:17:21.000   78.253594849   16.174582081   538.3554   2   9   0.0507   0.0463   0.1396  -0.0029   0.0133   0.0426   0.00    1.1
2018/03/11 13:17:22.000   78.253594982   16.174582241   538.4160   2   9   0.0502   0.0459   0.1377  -0.0025   0.0131   0.0420   0.00    1.1
2018/03/11 13:17:23.000   78.253595116   16.174582354   538.4686   2   9   0.0498   0.0455   0.1359  -0.0021   0.0129   0.0414   0.00    1.1
2018/03/11 13:17:24.000   78.253595219   16.174582531   538.5230   2   9   0.0493   0.0451   0.1341  -0.0016   0.0126   0.0408   0.00    1.1
2018/03/11 13:17:25.000   78.253595314   16.174582725   538.5878   2   9   0.0489   0.0448   0.1324  -0.0010   0.0124   0.0403   0.00    1.1
2018/03/11 13:17:26.000   78.253595393   16.174582922   538.6557   2   9   0.0485   0.0444   0.1307   0.0008   0.0121   0.0397   0.00    1.1
2018/03/11 13:17:27.000   78.253595439   16.174583122   538.7277   2   9   0.0481   0.0440   0.1290   0.0015   0.0119   0.0392   0.00    1.1
2018/03/11 13:17:28.000   78.253595475   16.174583321   538.7723   2   9   0.0477   0.0437   0.1273   0.0020   0.0116   0.0386   0.00    1.1
2018/03/11 13:17:29.000   78.253595590   16.174583695   538.8264   2   9   0.0473   0.0433   0.1257   0.0023   0.0114   0.0381   0.00    1.1
2018/03/11 13:17:30.000   78.253595721   16.174584066   538.8804   2   9   0.0469   0.0430   0.1241   0.0026   0.0112   0.0376   0.00    1.1
2018/03/11 13:17:31.000   78.253595852   16.174584545   538.9289   2   9   0.0466   0.0426   0.1225   0.0029   0.0109   0.0370   0.00    1.0
2018/03/11 13:17:32.000   78.253595921   16.174584801   538.9748   2   9   0.0462   0.0423   0.1210   0.0031   0.0107   0.0365   0.00    1.0
2018/03/11 13:17:33.000   78.253595987   16.174585051   539.0239   2   9   0.0458   0.0420   0.1194   0.0033   0.0104   0.0360   0.00    1.0
2018/03/11 13:17:34.000   78.253596064   16.174585248   539.0780   2   9   0.0455   0.0417   0.1179   0.0035   0.0102   0.0355   0.00    1.0
2018/03/11 13:17:35.000   78.253596108   16.174585732   539.1256   2   9   0.0451   0.0413   0.1165   0.0037   0.0099   0.0350   0.00    1.0
2018/03/11 13:17:36.000   78.253596105   16.174585927   539.1775   2   9   0.0447   0.0410   0.1150   0.0038   0.0097   0.0345   0.00    1.0
2018/03/11 13:17:37.000   78.253596097   16.174586277   539.2172   2   9   0.0444   0.0407   0.1136   0.0040   0.0095   0.0340   0.00    1.0
2018/03/11 13:17:38.000   78.253596152   16.174586715   539.2802   2   9   0.0441   0.0404   0.1122   0.0041   0.0092   0.0335   0.00    1.0
2018/03/11 13:17:39.000   78.253596165   16.174587094   539.3242   2   9   0.0437   0.0401   0.1109   0.0043   0.0090   0.0330   0.00    1.0
2018/03/11 13:17:40.000   78.253596172   16.174587183   539.3597   2   9   0.0434   0.0399   0.1095   0.0044   0.0088   0.0326   0.00    1.1
2018/03/11 13:17:41.000   78.253596156   16.174587427   539.3934   2   9   0.0431   0.0396   0.1082   0.0045   0.0085   0.0321   0.00    1.1
2018/03/11 13:17:42.000   78.253596175   16.174587684   539.4301   2   9   0.0428   0.0393   0.1069   0.0046   0.0083   0.0317   0.00    1.1
2018/03/11 13:17:43.000   78.253596197   16.174588041   539.4675   2   9   0.0425   0.0390   0.1056   0.0047   0.0080   0.0312   0.00    1.0
2018/03/11 13:17:44.000   78.253596176   16.174588444   539.4935   2   9   0.0421   0.0388   0.1044   0.0048   0.0078   0.0308   0.00    1.0
2018/03/11 13:17:45.000   78.253596141   16.174588621   539.5162   2   9   0.0418   0.0385   0.1031   0.0049   0.0076   0.0303   0.00    1.0
2018/03/11 13:17:46.000   78.253596134   16.174588887   539.5336   2   9   0.0415   0.0382   0.1019   0.0050   0.0073   0.0299   0.00    1.0
2018/03/11 13:17:47.000   78.253596155   16.174589282   539.5583   2   9   0.0412   0.0380   0.1007   0.0051   0.0071   0.0295   0.00    1.0
2018/03/11 13:17:48.000   78.253596147   16.174589637   539.5693   2   9   0.0410   0.0377   0.0996   0.0052   0.0068   0.0290   0.00    1.0
2018/03/11 13:17:49.000   78.253596137   16.174589905   539.5909   2   9   0.0407   0.0375   0.0984   0.0053   0.0066   0.0286   0.00    1.1
2018/03/11 13:17:50.000   78.253596121   16.174590082   539.6119   2   9   0.0404   0.0372   0.0973   0.0054   0.0063   0.0282   0.00    1.1
2018/03/11 13:17:51.000   78.253596099   16.174590401   539.6312   2   9   0.0401   0.0370   0.0962   0.0054   0.0061   0.0278   0.00    1.1
2018/03/11 13:17:52.000   78.253596082   16.174590583   539.6437   2   9   0.0398   0.0367   0.0951   0.0055   0.0058   0.0274   0.00    1.1
2018/03/11 13:17:53.000   78.253596081   16.174590608   539.6417   2   9   0.0396   0.0365   0.0940   0.0056   0.0056   0.0270   0.00    1.1
2018/03/11 13:17:54.000   78.253596080   16.174590858   539.6517   2   9   0.0393   0.0363   0.0929   0.0057   0.0053   0.0266   0.00    1.1
2018/03/11 13:17:55.000   78.253596052   16.174591086   539.6551   2   9   0.0390   0.0360   0.0919   0.0057   0.0051   0.0262   0.00    1.1
2018/03/11 13:17:56.000   78.253596033   16.174591264   539.6534   2   9   0.0388   0.0358   0.0909   0.0058   0.0048   0.0258   0.00    1.1
2018/03/11 13:17:57.000   78.253595988   16.174591346   539.6443   2   9   0.0385   0.0356   0.0898   0.0058   0.0045   0.0255   0.00    1.1
2018/03/11 13:17:58.000   78.253595953   16.174591497   539.6373   2   9   0.0383   0.0354   0.0889   0.0059   0.0042   0.0251   0.00    1.0
2018/03/11 13:17:59.000   78.253595923   16.174591559   539.6289   2   9   0.0380   0.0352   0.0879   0.0060   0.0039   0.0247   0.00    1.0
2018/03/11 13:18:00.000   78.253595912   16.174591526   539.6111   2   9   0.0378   0.0349   0.0869   0.0060   0.0036   0.0244   0.00    1.0
2018/03/11 13:18:01.000   78.253595899   16.174591576   539.5860   2   9   0.0375   0.0347   0.0860   0.0061   0.0033   0.0240   0.00    1.0
2018/03/11 13:18:02.000   78.253595885   16.174591482   539.5660   2   9   0.0373   0.0345   0.0851   0.0061   0.0029   0.0237   0.00    1.0
2018/03/11 13:18:03.000   78.253595855   16.174591207   539.5502   2   9   0.0370   0.0343   0.0841   0.0062   0.0025   0.0233   0.00    1.0
2018/03/11 13:18:04.000   78.253595835   16.174591198   539.5306   2   9   0.0368   0.0341   0.0832   0.0062   0.0020   0.0230   0.00    1.0
2018/03/11 13:18:05.000   78.253595809   16.174590940   539.5150   2   9   0.0366   0.0339   0.0824   0.0063   0.0014   0.0227   0.00    1.0
2018/03/11 13:18:06.000   78.253595787   16.174590850   539.5037   2   9   0.0363   0.0337   0.0815   0.0063   0.0003   0.0223   0.00    1.0
2018/03/11 13:18:07.000   78.253595768   16.174590744   539.4843   2   9   0.0361   0.0335   0.0806   0.0064  -0.0014   0.0220   0.00    1.0
2018/03/11 13:18:08.000   78.253595764   16.174590708   539.4596   2   9   0.0359   0.0333   0.0798   0.0064  -0.0019   0.0217   0.00    1.0
2018/03/11 13:18:09.000   78.253595770   16.174590752   539.4423   2   9   0.0357   0.0331   0.0790   0.0065  -0.0023   0.0213   0.00    1.0
2018/03/11 13:18:10.000   78.253595804   16.174590793   539.4249   2   9   0.0355   0.0329   0.0781   0.0065  -0.0027   0.0210   0.00    1.0
2018/03/11 13:18:11.000   78.253595815   16.174590870   539.4117   2   9   0.0352   0.0328   0.0773   0.0066  -0.0030   0.0207   0.00    1.0
2018/03/11 13:18:12.000   78.253595835   16.174590919   539.3984   2   9   0.0350   0.0326   0.0766   0.0066  -0.0033   0.0204   0.00    1.0
2018/03/11 13:18:13.000   78.253595846   16.174590888   539.3891   2   9   0.0348   0.0324   0.0758   0.0067  -0.0035   0.0201   0.00    1.0
2018/03/11 13:18:14.000   78.253595856   16.174590854   539.3972   2   9   0.0346   0.0322   0.0750   0.0067  -0.0037   0.0198   0.00    1.0
2018/03/11 13:18:15.000   78.253595888   16.174590800   539.3985   2   9   0.0344   0.0320   0.0743   0.0067  -0.0039   0.0195   0.00    1.0
2018/03/11 13:18:16.000   78.253595937   16.174590755   539.3894   2   9   0.0342   0.0318   0.0735   0.0068  -0.0041   0.0192   0.00    1.0
2018/03/11 13:18:17.000   78.253596005   16.174590758   539.3811   2   9   0.0340   0.0317   0.0728   0.0068  -0.0042   0.0189   0.00    1.0
2018/03/11 13:18:18.000   78.253596078   16.174590870   539.3704   2   9   0.0338   0.0315   0.0721   0.0068  -0.0044   0.0187   0.00    1.0
2018/03/11 13:18:19.000   78.253596156   16.174590816   539.3722   2   9   0.0336   0.0313   0.0714   0.0069  -0.0046   0.0184   0.00    1.0
2018/03/11 13:18:20.000   78.253596199   16.174590754   539.3709   2   9   0.0334   0.0312   0.0707   0.0069  -0.0047   0.0181   0.00    1.0
2018/03/11 13:18:21.000   78.253596275   16.174590887   539.3823   2   9   0.0332   0.0310   0.0700   0.0069  -0.0048   0.0178   0.00    1.0
2018/03/11 13:18:22.000   78.253596373   16.174590936   539.3950   2   9   0.0330   0.0308   0.0693   0.0070  -0.0049   0.0176   0.00    1.0
2018/03/11 13:18:23.000   78.253596477   16.174590851   539.3992   2   9   0.0329   0.0307   0.0687   0.0070  -0.0049   0.0173   0.00    1.0
2018/03/11 13:18:24.000   78.253596578   16.174590791   539.4044   2   9   0.0327   0.0305   0.0681   0.0071  -0.0050   0.0171   0.00    1.0
2018/03/11 13:18:25.000   78.253596694   16.174590968   539.4091   2   9   0.0325   0.0304   0.0675   0.0071  -0.0050   0.0169   0.00    1.0
2018/03/11 13:18:26.000   78.253596819   16.174590962   539.4220   2   9   0.0323   0.0302   0.0668   0.0072  -0.0051   0.0166   0.00    1.0
2018/03/11 13:18:27.000   78.253596929   16.174591043   539.4372   2   9   0.0321   0.0300   0.0662   0.0072  -0.0052   0.0164   0.00    1.0
2018/03/11 13:18:28.000   78.253597062   16.174591025   539.4607   2   9   0.0320   0.0299   0.0657   0.0073  -0.0052   0.0162   0.00    1.0
2018/03/11 13:18:29.000   78.253597196   16.174591018   539.4854   2   9   0.0318   0.0297   0.0651   0.0073  -0.0053   0.0159   0.00    1.0
2018/03/11 13:18:30.000   78.253597350   16.174590797   539.5103   2   9   0.0316   0.0296   0.0645   0.0074  -0.0053   0.0157   0.00    1.1
2018/03/11 13:18:31.000   78.253597496   16.174590585   539.5226   2   9   0.0315   0.0294   0.0639   0.0074  -0.0054   0.0155   0.00    1.1
2018/03/11 13:18:32.000   78.253597651   16.174590469   539.5384   2   9   0.0313   0.0293   0.0634   0.0074  -0.0054   0.0153   0.00    1.1
2018/03/11 13:18:33.000   78.253597827   16.174590373   539.5598   2   9   0.0311   0.0291   0.0628   0.0075  -0.0055   0.0151   0.00    1.0
2018/03/11 13:18:34.000   78.253598003   16.174590264   539.5834   2   9   0.0310   0.0290   0.0623   0.0075  -0.0055   0.0148   0.00    1.0
2018/03/11 13:18:35.000   78.253598183   16.174590046   539.6122   2   9   0.0308   0.0289   0.0617   0.0075  -0.0055   0.0146   0.00    1.0
2018/03/11 13:18:36.000   78.253598354   16.174589889   539.6408   2   9   0.0306   0.0287   0.0612   0.0076  -0.0056   0.0144   0.00    1.0
2018/03/11 13:18:37.000   78.253598522   16.174589710   539.6633   2   9   0.0305   0.0286   0.0607   0.0076  -0.0056   0.0142   0.00    1.0
2018/03/11 13:18:38.000   78.253598683   16.174589644   539.6829   2   9   0.0303   0.0284   0.0601   0.0076  -0.0057   0.0140   0.00    1.0
2018/03/11 13:18:39.000   78.253598832   16.174589532   539.7048   2   9   0.0302   0.0283   0.0596   0.0077  -0.0057   0.0138   0.00    1.0
2018/03/11 13:18:40.000   78.253598998   16.174589607   539.7281   2   9   0.0300   0.0282   0.0591   0.0077  -0.0058   0.0136   0.00    1.0
2018/03/11 13:18:41.000   78.253599197   16.174589533   539.7516   2   9   0.0299   0.0280   0.0586   0.0077  -0.0058   0.0134   0.00    1.0
2018/03/11 13:18:42.000   78.253599386   16.174589479   539.7762   2   9   0.0297   0.0279   0.0581   0.0077  -0.0058   0.0132   0.00    1.0
2018/03/11 13:18:43.000   78.253599580   16.174589288   539.7961   2   9   0.0296   0.0278   0.0577   0.0078  -0.0059   0.0130   0.00    1.0
2018/03/11 13:18:44.000   78.253599752   16.174589206   539.8183   2   9   0.0294   0.0276   0.0572   0.0078  -0.0059   0.0128   0.00    1.0
2018/03/11 13:18:45.000   78.253599933   16.174589062   539.8349   2   9   0.0293   0.0275   0.0567   0.0078  -0.0059   0.0126   0.00    1.0
2018/03/11 13:18:46.000   78.253600118   16.174588898   539.8534   2   9   0.0291   0.0274   0.0562   0.0078  -0.0060   0.0124   0.00    1.0
2018/03/11 13:18:47.000   78.253600293   16.174588720   539.8700   2   9   0.0290   0.0272   0.0558   0.0078  -0.0060   0.0122   0.00    1.0
2018/03/11 13:18:48.000   78.253600470   16.174588568   539.8872   2   9   0.0288   0.0271   0.0553   0.0079  -0.0060   0.0120   0.00    1.1
2018/03/11 13:18:49.000   78.253600639   16.174588433   539.9006   2   9   0.0287   0.0270   0.0549   0.0079  -0.0061   0.0118   0.00    1.1
2018/03/11 13:18:50.000   78.253600807   16.174588326   539.9172   2   9   0.0285   0.0269   0.0544   0.0079  -0.0061   0.0116   0.00    1.1
2018/03/11 13:18:51.000   78.253600972   16.174588336   539.9333   2   9   0.0284   0.0267   0.0540   0.0079  -0.0061   0.0114   0.00    1.1
2018/03/11 13:18:52.000   78.253601121   16.174588217   539.9410   2   9   0.0283   0.0266   0.0535   0.0079  -0.0062   0.0112   0.00    1.1
2018/03/11 13:18:53.000   78.253601280   16.174588142   539.9452   2   9   0.0281   0.0265   0.0531   0.0080  -0.0062   0.0111   0.00    1.1
2018/03/11 13:18:54.000   78.253601454   16.174588017   539.9496   2   9   0.0280   0.0264   0.0527   0.0080  -0.0062   0.0109   0.00    1.1
2018/03/11 13:18:55.000   78.253601611   16.174588004   539.9532   2   9   0.0279   0.0262   0.0523   0.0080  -0.0062   0.0107   0.00    1.1
2018/03/11 13:18:56.000   78.253601776   16.174587965   539.9594   2   9   0.0277   0.0261   0.0519   0.0080  -0.0063   0.0105   0.00    1.1
2018/03/11 13:18:57.000   78.253601965   16.174587818   539.9605   2   9   0.0276   0.0260   0.0515   0.0080  -0.0063   0.0103   0.00    1.1
2018/03/11 13:18:58.000   78.253602145   16.174587737   539.9665   2   9   0.0275   0.0259   0.0511   0.0080  -0.0063   0.0101   0.00    1.1
2018/03/11 13:18:59.000   78.253602302   16.174587684   539.9695   2   9   0.0273   0.0258   0.0507   0.0080  -0.0063   0.0100   0.00    1.1
2018/03/11 13:19:00.000   78.253602461   16.174587615   539.9723   2   9   0.0272   0.0257   0.0503   0.0081  -0.0064   0.0098   0.00    1.1
2018/03/11 13:19:01.000   78.253602595   16.174587498   539.9701   2   9   0.0271   0.0255   0.0499   0.0081  -0.0064   0.0096   0.00    1.1
2018/03/11 13:19:02.000   78.253602754   16.174587365   539.9711   2   9   0.0269   0.0254   0.0495   0.0081  -0.0064   0.0095   0.00    1.1
2018/03/11 13:19:03.000   78.253602902   16.174587225   539.9740   2   9   0.0268   0.0253   0.0491   0.0081  -0.0064   0.0093   0.00    1.1
2018/03/11 13:19:04.000   78.253603066   16.174587078   539.9751   2   9   0.0267   0.0252   0.0488   0.0081  -0.0064   0.0091   0.00    1.1
2018/03/11 13:19:05.000   78.253603221   16.174586953   539.9747   2   9   0.0266   0.0251   0.0484   0.0081  -0.0065   0.0089   0.00    1.1
2018/03/11 13:19:06.000   78.253603372   16.174586853   539.9731   2   9   0.0264   0.0250   0.0480   0.0081  -0.0065   0.0088   0.00    1.1
2018/03/11 13:19:07.000   78.253603516   16.174586765   539.9729   2   9   0.0263   0.0249   0.0477   0.0081  -0.0065   0.0086   0.00    1.1
2018/03/11 13:19:08.000   78.253603654   16.174586746   539.9712   2   9   0.0262   0.0248   0.0473   0.0081  -0.0065   0.0084   0.00    1.1
2018/03/11 13:19:09.000   78.253603784   16.174586660   539.9709   2   9   0.0261   0.0247   0.0470   0.0081  -0.0065   0.0083   0.00    1.0
2018/03/11 13:19:10.000   78.253603921   16.174586578   539.9696   2   9   0.0259   0.0246   0.0466   0.0082  -0.0065   0.0081   0.00    1.0
2018/03/11 13:19:11.000   78.253604058   16.174586467   539.9678   2   9   0.0258   0.0244   0.0463   0.0082  -0.0065   0.0079   0.00    1.0
2018/03/11 13:19:12.000   78.253604181   16.174586311   539.9620   2   9   0.0257   0.0243   0.0459   0.0082  -0.0066   0.0078   0.00    1.0
2018/03/11 13:19:13.000   78.253604296   16.174586272   539.9573   2   9   0.0256   0.0242   0.0456   0.0082  -0.0066   0.0076   0.00    1.0
2018/03/11 13:19:14.000   78.253604414   16.174586223   539.9565   2   9   0.0255   0.0241   0.0453   0.0082  -0.0066   0.0074   0.00    1.0
2018/03/11 13:19:15.000   78.253604538   16.174586137   539.9581   2   9   0.0254   0.0240   0.0449   0.0082  -0.0066   0.0073   0.00    1.0
2018/03/11 13:19:16.000   78.253604645   16.174586045   539.9597   2   9   0.0253   0.0239   0.0446   0.0082  -0.0066   0.0071   0.00    1.0
2018/03/11 13:19:17.000   78.253604750   16.174585889   539.9636   2   9   0.0251   0.0238   0.0443   0.0082  -0.0066   0.0070   0.00    1.0
2018/03/11 13:19:18.000   78.253604849   16.174585798   539.9656   2   9   0.0250   0.0237   0.0440   0.0082  -0.0066   0.0068   0.00    1.0
2018/03/11 13:19:19.000   78.253604963   16.174585715   539.9634   2   9   0.0249   0.0236   0.0437   0.0082  -0.0066   0.0066   0.00    1.0
2018/03/11 13:19:20.000   78.253605059   16.174585697   539.9619   2   9   0.0248   0.0235   0.0433   0.0082  -0.0067   0.0065   0.00    1.1
2018/03/11 13:19:21.000   78.253605156   16.174585621   539.9589   2   9   0.0247   0.0234   0.0430   0.0082  -0.0067   0.0063   0.00    1.1
2018/03/11 13:19:22.000   78.253605241   16.174585575   539.9592   2   9   0.0246   0.0233   0.0427   0.0082  -0.0067   0.0061   0.00    1.1
2018/03/11 13:19:23.000   78.253605335   16.174585531   539.9613   2   9   0.0245   0.0232   0.0424   0.0082  -0.0067   0.0060   0.00    1.1
2018/03/11 13:19:24.000   78.253605431   16.174585382   539.9537   2   9   0.0244   0.0231   0.0421   0.0082  -0.0067   0.0058   0.00    1.1
2018/03/11 13:19:25.000   78.253605522   16.174585227   539.9494   2   9   0.0243   0.0230   0.0419   0.0082  -0.0067   0.0057   0.00    1.1
2018/03/11 13:19:26.000   78.253605622   16.174585122   539.9449   2   9   0.0242   0.0229   0.0416   0.0082  -0.0067   0.0055   0.00    1.1
2018/03/11 13:19:27.000   78.253605703   16.174584897   539.9416   2   9   0.0241   0.0229   0.0413   0.0082  -0.0067   0.0053   0.00    1.1
2018/03/11 13:19:28.000   78.253605774   16.174584768   539.9418   2   9   0.0239   0.0228   0.0410   0.0082  -0.0067   0.0052   0.00    1.1
2018/03/11 13:19:29.000   78.253605849   16.174584616   539.9411   2   9   0.0238   0.0227   0.0407   0.0082  -0.0067   0.0050   0.00    1.1
2018/03/11 13:19:30.000   78.253605920   16.174584428   539.9407   2   9   0.0237   0.0226   0.0404   0.0082  -0.0067   0.0048   0.00    1.1
2018/03/11 13:19:31.000   78.253605976   16.174584287   539.9409   2   9   0.0236   0.0225   0.0402   0.0082  -0.0067   0.0047   0.00    1.1
2018/03/11 13:19:32.000   78.253606037   16.174584076   539.9390   2   9   0.0235   0.0224   0.0399   0.0082  -0.0067   0.0045   0.00    1.1
2018/03/11 13:19:33.000   78.253606095   16.174583912   539.9315   2   9   0.0234   0.0223   0.0396   0.0082  -0.0068   0.0043   0.00    1.1
2018/03/11 13:19:34.000   78.253606149   16.174583738   539.9294   2   9   0.0233   0.0222   0.0394   0.0082  -0.0068   0.0041   0.00    1.1
2018/03/11 13:19:35.000   78.253606200   16.174583636   539.9306   2   9   0.0232   0.0221   0.0391   0.0082  -0.0068   0.0040   0.00    1.1
2018/03/11 13:19:36.000   78.253606263   16.174583575   539.9322   2   9   0.0231   0.0220   0.0389   0.0082  -0.0068   0.0038   0.00    1.1
2018/03/11 13:19:37.000   78.253606307   16.174583455   539.9321   2   9   0.0230   0.0219   0.0386   0.0082  -0.0068   0.0036   0.00    1.0
2018/03/11 13:19:38.000   78.253606350   16.174583354   539.9317   2   9   0.0229   0.0219   0.0383   0.0082  -0.0068   0.0034   0.00    1.0
2018/03/11 13:19:39.000   78.253606398   16.174583174   539.9307   2   9   0.0228   0.0218   0.0381   0.0082  -0.0068   0.0032   0.00    1.0
2018/03/11 13:19:40.000   78.253606450   16.174583097   539.9290   2   9   0.0228   0.0217   0.0379   0.0082  -0.0068   0.0030   0.00    1.0
2018/03/11 13:19:41.000   78.253606491   16.174582918   539.9337   2   9   0.0227   0.0216   0.0376   0.0082  -0.0068   0.0028   0.00    1.0
2018/03/11 13:19:42.000   78.253606535   16.174582670   539.9390   2   9   0.0226   0.0215   0.0374   0.0082  -0.0068   0.0025   0.00    1.0
2018/03/11 13:19:43.000   78.253606571   16.174582462   539.9483   2   9   0.0225   0.0214   0.0371   0.0082  -0.0068   0.0023   0.00    1.0
2018/03/11 13:19:44.000   78.253606616   16.174582247   539.9548   2   9   0.0224   0.0213   0.0369   0.0082  -0.0068   0.0020   0.00    1.0
2018/03/11 13:19:45.000   78.253606658   16.174582028   539.9636   2   9   0.0223   0.0213   0.0367   0.0082  -0.0068   0.0017   0.00    1.0
2018/03/11 13:19:46.000   78.253606708   16.174581793   539.9745   2   9   0.0222   0.0212   0.0364   0.0082  -0.0068   0.0014   0.00    1.0
2018/03/11 13:19:47.000   78.253606764   16.174581598   539.9888   2   9   0.0221   0.0211   0.0362   0.0082  -0.0068   0.0009   0.00    1.0
2018/03/11 13:19:48.000   78.253606832   16.174581420   540.0025   2   9   0.0220   0.0210   0.0360   0.0082  -0.0068  -0.0006   0.00    1.0
2018/03/11 13:19:49.000   78.253606899   16.174581182   540.0120   2   9   0.0219   0.0209   0.0358   0.0082  -0.0068  -0.0012   0.00    1.0
2018/03/11 13:19:50.000   78.253606963   16.174580999   540.0212   2   9   0.0218   0.0208   0.0356   0.0082  -0.0068  -0.0015   0.00    1.0
2018/03/11 13:19:51.000   78.253607022   16.174580894   540.0331   2   9   0.0217   0.0208   0.0353   0.0082  -0.0068  -0.0018   0.00    1.0
2018/03/11 13:19:52.000   78.253607096   16.174580792   540.0491   2   9   0.0217   0.0207   0.0351   0.0082  -0.0068  -0.0021   0.00    1.0
2018/03/11 13:19:53.000   78.253607153   16.174580670   540.0660   2   9   0.0216   0.0206   0.0349   0.0081  -0.0068  -0.0023   0.00    1.0
2018/03/11 13:19:54.000   78.253607204   16.174580570   540.0862   2   9   0.0215   0.0205   0.0347   0.0081  -0.0068  -0.0025   0.00    1.0
2018/03/11 13:19:55.000   78.253607263   16.174580409   540.1057   2   9   0.0214   0.0204   0.0345   0.0081  -0.0068  -0.0027   0.00    1.0
2018/03/11 13:19:56.000   78.253607335   16.174580250   540.1247   2   9   0.0213   0.0204   0.0343   0.0081  -0.0068  -0.0028   0.00    1.0
2018/03/11 13:19:57.000   78.253607397   16.174580121   540.1411   2   9   0.0212   0.0203   0.0341   0.0081  -0.0068  -0.0030   0.00    1.0
2018/03/11 13:19:58.000   78.253607459   16.174580046   540.1558   2   9   0.0211   0.0202   0.0339   0.0081  -0.0068  -0.0031   0.00    1.0
2018/03/11 13:19:59.000   78.253607526   16.174579977   540.1723   2   9   0.0210   0.0201   0.0337   0.0081  -0.0068  -0.0032   0.00    1.0
2018/03/11 13:20:00.000   78.253607594   16.174579925   540.1903   2   9   0.0210   0.0201   0.0335   0.0081  -0.0068  -0.0034   0.00    1.0
2018/03/11 13:20:01.000   78.253607651   16.174579836   540.2063   2   9   0.0209   0.0200   0.0333   0.0081  -0.0068  -0.0035   0.00    1.0
2018/03/11 13:20:02.000   78.253607700   16.174579776   540.2206   2   9   0.0208   0.0199   0.0332   0.0081  -0.0068  -0.0036   0.00    1.0
2018/03/11 13:20:03.000   78.253607747   16.174579659   540.2320   2   9   0.0207   0.0198   0.0330   0.0081  -0.0068  -0.0037   0.00    1.0
2018/03/11 13:20:04.000   78.253607793   16.174579622   540.2414   2   9   0.0206   0.0198   0.0328   0.0080  -0.0068  -0.0038   0.00    1.0
2018/03/11 13:20:05.000   78.253607832   16.174579606   540.2495   2   9   0.0205   0.0197   0.0326   0.0080  -0.0068  -0.0039   0.00    1.0
2018/03/11 13:20:06.000   78.253607867   16.174579573   540.2544   2   9   0.0205   0.0196   0.0324   0.0080  -0.0068  -0.0039   0.00    1.0
2018/03/11 13:20:07.000   78.253607900   16.174579585   540.2596   2   9   0.0204   0.0195   0.0322   0.0080  -0.0068  -0.0040   0.00    1.0
2018/03/11 13:20:08.000   78.253607936   16.174579641   540.2693   2   9   0.0203   0.0195   0.0321   0.0080  -0.0067  -0.0041   0.00    1.0
2018/03/11 13:20:09.000   78.253607974   16.174579709   540.2791   2   9   0.0202   0.0194   0.0319   0.0080  -0.0067  -0.0042   0.00    1.0
2018/03/11 13:20:10.000   78.253608001   16.174579713   540.2861   2   9   0.0201   0.0193   0.0317   0.0080  -0.0067  -0.0042   0.00    1.0
2018/03/11 13:20:11.000   78.253608030   16.174579706   540.2915   2   9   0.0201   0.0192   0.0315   0.0080  -0.0067  -0.0043   0.00    1.0
2018/03/11 13:20:12.000   78.253608044   16.174579729   540.2960   2   9   0.0200   0.0192   0.0314   0.0080  -0.0067  -0.0044   0.00    1.0
2018/03/11 13:20:13.000   78.253608046   16.174579773   540.2989   2   9   0.0199   0.0191   0.0312   0.0080  -0.0067  -0.0044   0.00    1.0
2018/03/11 13:20:14.000   78.253608045   16.174579816   540.2985   2   9   0.0198   0.0190   0.0310   0.0080  -0.0067  -0.0045   0.00    1.0
2018/03/11 13:20:15.000   78.253608040   16.174579830   540.2972   2   9   0.0198   0.0190   0.0308   0.0079  -0.0067  -0.0046   0.00    1.0
2018/03/11 13:20:16.000   78.253608030   16.174579862   540.2969   2   9   0.0197   0.0189   0.0307   0.0079  -0.0067  -0.0046   0.00    1.0
2018/03/11 13:20:17.000   78.253608017   16.174579923   540.2932   2   9   0.0196   0.0188   0.0305   0.0079  -0.0067  -0.0047   0.00    1.0
2018/03/11 13:20:18.000   78.253607984   16.174579896   540.2859   2   9   0.0195   0.0188   0.0303   0.0079  -0.0067  -0.0047   0.00    1.0
2018/03/11 13:20:19.000   78.253607944   16.174579859   540.2758   2   9   0.0195   0.0187   0.0302   0.0079  -0.0067  -0.0048   0.00    1.0
2018/03/11 13:20:20.000   78.253607894   16.174579793   540.2669   2   9   0.0194   0.0186   0.0300   0.0079  -0.0067  -0.0048   0.00    1.0
2018/03/11 13:20:21.000   78.253607858   16.174579738   540.2614   2   9   0.0193   0.0186   0.0299   0.0079  -0.0067  -0.0049   0.00    1.0
2018/03/11 13:20:22.000   78.253607808   16.174579669   540.2553   2   9   0.0192   0.0185   0.0297   0.0079  -0.0067  -0.0049   0.00    1.0
2018/03/11 13:20:23.000   78.253607751   16.174579586   540.2453   2   9   0.0192   0.0184   0.0296   0.0079  -0.0067  -0.0049   0.00    1.0
2018/03/11 13:20:24.000   78.253607689   16.174579466   540.2316   2   9   0.0191   0.0184   0.0294   0.0079  -0.0067  -0.0050   0.00    1.0
2018/03/11 13:20:25.000   78.253607622   16.174579357   540.2181   2   9   0.0190   0.0183   0.0292   0.0078  -0.0067  -0.0050   0.00    1.0
2018/03/11 13:20:26.000   78.253607554   16.174579299   540.2045   2   9   0.0189   0.0182   0.0291   0.0078  -0.0066  -0.0051   0.00    1.0
2018/03/11 13:20:27.000   78.253607483   16.174579209   540.1901   2   9   0.0189   0.0182   0.0289   0.0078  -0.0066  -0.0051   0.00    1.0
2018/03/11 13:20:28.000   78.253607419   16.174579125   540.1750   2   9   0.0188   0.0181   0.0288   0.0078  -0.0066  -0.0051   0.00    1.0
2018/03/11 13:20:29.000   78.253607356   16.174579015   540.1597   2   9   0.0187   0.0180   0.0286   0.0078  -0.0066  -0.0052   0.00    1.0
2018/03/11 13:20:30.000   78.253607291   16.174578900   540.1446   2   9   0.0187   0.0180   0.0285   0.0078  -0.0066  -0.0052   0.00    1.0
2018/03/11 13:20:31.000   78.253607223   16.174578805   540.1273   2   9   0.0186   0.0179   0.0283   0.0078  -0.0066  -0.0052   0.00    1.0
2018/03/11 13:20:32.000   78.253607143   16.174578651   540.1094   2   9   0.0185   0.0178   0.0282   0.0078  -0.0066  -0.0053   0.00    1.0
2018/03/11 13:20:33.000   78.253607071   16.174578510   540.0914   2   9   0.0185   0.0178   0.0281   0.0078  -0.0066  -0.0053   0.00    1.0
2018/03/11 13:20:34.000   78.253607005   16.174578431   540.0751   2   9   0.0184   0.0177   0.0279   0.0077  -0.0066  -0.0053   0.00    1.0
2018/03/11 13:20:35.000   78.253606940   16.174578348   540.0565   2   9   0.0183   0.0177   0.0278   0.0077  -0.0066  -0.0053   0.00    1.0
2018/03/11 13:20:36.000   78.253606864   16.174578269   540.0374   2   9   0.0183   0.0176   0.0276   0.0077  -0.0066  -0.0054   0.00    1.0
2018/03/11 13:20:37.000   78.253606791   16.174578199   540.0183   2   9   0.0182   0.0175   0.0275   0.0077  -0.0066  -0.0054   0.00    1.0
2018/03/11 13:20:38.000   78.253606722   16.174578109   539.9983   2   9   0.0181   0.0175   0.0274   0.0077  -0.0066  -0.0054   0.00    1.0
2018/03/11 13:20:39.000   78.253606652   16.174578046   539.9800   2   9   0.0181   0.0174   0.0272   0.0077  -0.0065  -0.0054   0.00    1.0
2018/03/11 13:20:40.000   78.253606573   16.174577988   539.9626   2   9   0.0180   0.0174   0.0271   0.0077  -0.0065  -0.0055   0.00    1.0
2018/03/11 13:20:41.000   78.253606494   16.174577917   539.9472   2   9   0.0179   0.0173   0.0269   0.0077  -0.0065  -0.0055   0.00    1.0
2018/03/11 13:20:42.000   78.253606415   16.174577828   539.9325   2   9   0.0179   0.0172   0.0268   0.0077  -0.0065  -0.0055   0.00    1.0
2018/03/11 13:20:43.000   78.253606337   16.174577795   539.9191   2   9   0.0178   0.0172   0.0267   0.0076  -0.0065  -0.0055   0.00    1.0
2018/03/11 13:20:44.000   78.253606257   16.174577741   539.9065   2   9   0.0177   0.0171   0.0265   0.0076  -0.0065  -0.0055   0.00    1.0
2018/03/11 13:20:45.000   78.253606175   16.174577717   539.8916   2   9   0.0177   0.0171   0.0264   0.0076  -0.0065  -0.0056   0.00    1.0
2018/03/11 13:20:46.000   78.253606100   16.174577661   539.8778   2   9   0.0176   0.0170   0.0263   0.0076  -0.0065  -0.0056   0.00    1.0
2018/03/11 13:20:47.000   78.253606029   16.174577642   539.8664   2   9   0.0176   0.0169   0.0262   0.0076  -0.0065  -0.0056   0.00    1.0
2018/03/11 13:20:48.000   78.253605967   16.174577686   539.8558   2   9   0.0175   0.0169   0.0260   0.0076  -0.0065  -0.0056   0.00    1.0
2018/03/11 13:20:49.000   78.253605891   16.174577690   539.8438   2   9   0.0174   0.0168   0.0259   0.0076  -0.0065  -0.0056   0.00    1.1
2018/03/11 13:20:50.000   78.253605824   16.174577733   539.8333   2   9   0.0174   0.0168   0.0258   0.0076  -0.0065  -0.0056   0.00    1.0
2018/03/11 13:20:51.000   78.253605751   16.174577790   539.8238   2   9   0.0173   0.0167   0.0257   0.0076  -0.0064  -0.0056   0.00    1.0
2018/03/11 13:20:52.000   78.253605679   16.174577801   539.8132   2   9   0.0172   0.0167   0.0255   0.0075  -0.0064  -0.0057   0.00    1.0
2018/03/11 13:20:53.000   78.253605598   16.174577827   539.8005   2   9   0.0172   0.0166   0.0254   0.0075  -0.0064  -0.0057   0.00    1.0
2018/03/11 13:20:54.000   78.253605527   16.174577886   539.7888   2   9   0.0171   0.0166   0.0253   0.0075  -0.0064  -0.0057   0.00    1.0
2018/03/11 13:20:55.000   78.253605445   16.174577948   539.7799   2   9   0.0171   0.0165   0.0252   0.0075  -0.0064  -0.0057   0.00    1.0
2018/03/11 13:20:56.000   78.253605377   16.174577970   539.7693   2   9   0.0170   0.0164   0.0251   0.0075  -0.0064  -0.0057   0.00    1.0
2018/03/11 13:20:57.000   78.253605299   16.174578002   539.7590   2   9   0.0169   0.0164   0.0249   0.0075  -0.0064  -0.0057   0.00    1.0
2018/03/11 13:20:58.000   78.253605226   16.174578014   539.7480   2   9   0.0169   0.0163   0.0248   0.0075  -0.0064  -0.0057   0.00    1.0
2018/03/11 13:20:59.000   78.253605146   16.174578020   539.7381   2   9   0.0168   0.0163   0.0247   0.0075  -0.0064  -0.0057   0.00    1.0
2018/03/11 13:21:00.000   78.253605073   16.174578027   539.7301   2   9   0.0168   0.0162   0.0246   0.0074  -0.0064  -0.0057   0.00    1.0
2018/03/11 13:21:01.000   78.253605005   16.174577989   539.7223   2   9   0.0167   0.0162   0.0245   0.0074  -0.0063  -0.0058   0.00    1.0
2018/03/11 13:21:02.000   78.253604938   16.174578012   539.7146   2   9   0.0167   0.0161   0.0244   0.0074  -0.0063  -0.0058   0.00    1.0
2018/03/11 13:21:03.000   78.253604877   16.174578017   539.7063   2   9   0.0166   0.0161   0.0242   0.0074  -0.0063  -0.0058   0.00    1.0
2018/03/11 13:21:04.000   78.253604822   16.174578036   539.6974   2   9   0.0165   0.0160   0.0241   0.0074  -0.0063  -0.0058   0.00    1.0
2018/03/11 13:21:05.000   78.253604765   16.174578053   539.6890   2   9   0.0165   0.0160   0.0240   0.0074  -0.0063  -0.0058   0.00    1.0
2018/03/11 13:21:06.000   78.253604707   16.174578046   539.6787   2   9   0.0164   0.0159   0.0239   0.0074  -0.0063  -0.0058   0.00    1.0
2018/03/11 13:21:07.000   78.253604641   16.174577986   539.6714   2   9   0.0164   0.0159   0.0238   0.0074  -0.0063  -0.0058   0.00    1.0
2018/03/11 13:21:08.000   78.253604586   16.174577943   539.6620   2   9   0.0163   0.0158   0.0237   0.0074  -0.0063  -0.0058   0.00    1.0
2018/03/11 13:21:09.000   78.253604531   16.174577884   539.6537   2   9   0.0163   0.0158   0.0236   0.0073  -0.0063  -0.0058   0.00    1.0
2018/03/11 13:21:10.000   78.253604473   16.174577872   539.6476   2   9   0.0162   0.0157   0.0235   0.0073  -0.0063  -0.0058   0.00    1.0
2018/03/11 13:21:11.000   78.253604423   16.174577848   539.6417   2   9   0.0162   0.0157   0.0234   0.0073  -0.0063  -0.0058   0.00    1.0
2018/03/11 13:21:12.000   78.253604381   16.174577852   539.6361   2   9   0.0161   0.0156   0.0233   0.0073  -0.0062  -0.0058   0.00    1.0
2018/03/11 13:21:13.000   78.253604333   16.174577827   539.6277   2   9   0.0160   0.0156   0.0232   0.0073  -0.0062  -0.0058   0.00    1.0
2018/03/11 13:21:14.000   78.253604287   16.174577759   539.6190   2   9   0.0160   0.0155   0.0231   0.0073  -0.0062  -0.0058   0.00    1.0
2018/03/11 13:21:15.000   78.253604260   16.174577728   539.6079   2   9   0.0159   0.0155   0.0230   0.0073  -0.0062  -0.0058   0.00    1.0
2018/03/11 13:21:16.000   78.253604239   16.174577686   539.5995   2   9   0.0159   0.0154   0.0229   0.0073  -0.0062  -0.0058   0.00    1.0
2018/03/11 13:21:17.000   78.253604222   16.174577679   539.5922   2   9   0.0158   0.0154   0.0227   0.0072  -0.0062  -0.0058   0.00    1.0
2018/03/11 13:21:18.000   78.253604209   16.174577687   539.5848   2   9   0.0158   0.0153   0.0226   0.0072  -0.0062  -0.0058   0.00    1.0
2018/03/11 13:21:19.000   78.253604192   16.174577656   539.5770   2   9   0.0157   0.0153   0.0225   0.0072  -0.0062  -0.0058   0.00    1.0
2018/03/11 13:21:20.000   78.253604166   16.174577553   539.5682   2   9   0.0157   0.0152   0.0224   0.0072  -0.0062  -0.0058   0.00    1.0
2018/03/11 13:21:21.000   78.253604140   16.174577479   539.5600   2   9   0.0156   0.0152   0.0224   0.0072  -0.0061  -0.0058   0.00    1.0
2018/03/11 13:21:22.000   78.253604118   16.174577434   539.5527   2   9   0.0156   0.0151   0.0223   0.0072  -0.0061  -0.0058   0.00    1.0
2018/03/11 13:21:23.000   78.253604095   16.174577389   539.5462   2   9   0.0155   0.0151   0.0222   0.0072  -0.0061  -0.0058   0.00    1.0
2018/03/11 13:21:24.000   78.253604081   16.174577332   539.5382   2   9   0.0155   0.0150   0.0221   0.0072  -0.0061  -0.0058   0.00    1.0
2018/03/11 13:21:25.000   78.253604067   16.174577243   539.5284   2   9   0.0154   0.0150   0.0220   0.0071  -0.0061  -0.0058   0.00    1.0
2018/03/11 13:21:26.000   78.253604047   16.174577151   539.5172   2   9   0.0154   0.0149   0.0219   0.0071  -0.0061  -0.0058   0.00    1.0
2018/03/11 13:21:27.000   78.253604023   16.174577012   539.5039   2   9   0.0153   0.0149   0.0218   0.0071  -0.0061  -0.0058   0.00    1.0
2018/03/11 13:21:28.000   78.253603995   16.174576889   539.4901   2   9   0.0153   0.0148   0.0217   0.0071  -0.0061  -0.0058   0.00    1.0
2018/03/11 13:21:29.000   78.253603979   16.174576769   539.4761   2   9   0.0152   0.0148   0.0216   0.0071  -0.0061  -0.0058   0.00    1.0
2018/03/11 13:21:30.000   78.253603969   16.174576682   539.4624   2   9   0.0152   0.0148   0.0215   0.0071  -0.0061  -0.0058   0.00    1.0
2018/03/11 13:21:31.000   78.253603953   16.174576594   539.4484   2   9   0.0151   0.0147   0.0214   0.0071  -0.0060  -0.0058   0.00    1.0
2018/03/11 13:21:32.000   78.253603931   16.174576520   539.4338   2   9   0.0151   0.0147   0.0213   0.0071  -0.0060  -0.0058   0.00    1.0
2018/03/11 13:21:33.000   78.253603912   16.174576485   539.4204   2   9   0.0150   0.0146   0.0212   0.0070  -0.0060  -0.0058   0.00    1.0
2018/03/11 13:21:34.000   78.253603892   16.174576422   539.4087   2   9   0.0150   0.0146   0.0211   0.0070  -0.0060  -0.0058   0.00    1.0
2018/03/11 13:21:35.000   78.253603874   16.174576423   539.3987   2   9   0.0149   0.0145   0.0210   0.0070  -0.0060  -0.0058   0.00    1.0
2018/03/11 13:21:36.000   78.253603862   16.174576416   539.3901   2   9   0.0149   0.0145   0.0210   0.0070  -0.0060  -0.0058   0.00    1.0
2018/03/11 13:21:37.000   78.253603844   16.174576415   539.3812   2   9   0.0148   0.0144   0.0209   0.0070  -0.0060  -0.0058   0.00    1.0
2018/03/11 13:21:38.000   78.253603832   16.174576450   539.3726   2   9   0.0148   0.0144   0.0208   0.0070  -0.0060  -0.0058   0.00    1.0
2018/03/11 13:21:39.000   78.253603829   16.174576525   539.3649   2   9   0.0147   0.0144   0.0207   0.0070  -0.0060  -0.0058   0.00    1.0
2018/03/11 13:21:40.000   78.253603829   16.174576589   539.3577   2   9   0.0147   0.0143   0.0206   0.0070  -0.0060  -0.0058   0.00    1.0
2018/03/11 13:21:41.000   78.253603833   16.174576674   539.3523   2   9   0.0147   0.0143   0.0205   0.0069  -0.0059  -0.0058   0.00    1.0
2018/03/11 13:21:42.000   78.253603844   16.174576768   539.3466   2   9   0.0146   0.0142   0.0204   0.0069  -0.0059  -0.0058   0.00    1.0
2018/03/11 13:21:43.000   78.253603850   16.174576826   539.3425   2   9   0.0146   0.0142   0.0204   0.0069  -0.0059  -0.0058   0.00    1.0
2018/03/11 13:21:44.000   78.253603862   16.174576898   539.3388   2   9   0.0145   0.0141   0.0203   0.0069  -0.0059  -0.0058   0.00    1.0
2018/03/11 13:21:45.000   78.253603870   16.174576984   539.3369   2   9   0.0145   0.0141   0.0202   0.0069  -0.0059  -0.0058   0.00    1.0
2018/03/11 13:21:46.000   78.253603880   16.174577066   539.3360   2   9   0.0144   0.0141   0.0201   0.0069  -0.0059  -0.0058   0.00    1.0
2018/03/11 13:21:47.000   78.253603890   16.174577159   539.3345   2   9   0.0144   0.0140   0.0200   0.0069  -0.0059  -0.0058   0.00    1.0
2018/03/11 13:21:48.000   78.253603905   16.174577249   539.3335   2   9   0.0143   0.0140   0.0199   0.0069  -0.0059  -0.0058   0.00    1.0
2018/03/11 13:21:49.000   78.253603921   16.174577360   539.3338   2   9   0.0143   0.0139   0.0199   0.0069  -0.0059  -0.0058   0.00    1.0
2018/03/11 13:21:50.000   78.253603947   16.174577531   539.3348   2   9   0.0142   0.0139   0.0198   0.0068  -0.0058  -0.0058   0.00    1.0
2018/03/11 13:21:51.000   78.253603973   16.174577714   539.3365   2   9   0.0142   0.0138   0.0197   0.0068  -0.0058  -0.0058   0.00    1.0
2018/03/11 13:21:52.000   78.253603998   16.174577917   539.3377   2   9   0.0142   0.0138   0.0196   0.0068  -0.0058  -0.0058   0.00    1.0
2018/03/11 13:21:53.000   78.253604030   16.174578143   539.3396   2   9   0.0141   0.0138   0.0195   0.0068  -0.0058  -0.0058   0.00    1.0
2018/03/11 13:21:54.000   78.253604049   16.174578375   539.3420   2   9   0.0141   0.0137   0.0195   0.0068  -0.0058  -0.0058   0.00    1.0
2018/03/11 13:21:55.000   78.253604064   16.174578576   539.3456   2   9   0.0140   0.0137   0.0194   0.0068  -0.0058  -0.0058   0.00    1.0
2018/03/11 13:21:56.000   78.253604073   16.174578800   539.3497   2   9   0.0140   0.0136   0.0193   0.0068  -0.0058  -0.0058   0.00    1.0
2018/03/11 13:21:57.000   78.253604080   16.174579039   539.3547   2   9   0.0139   0.0136   0.0192   0.0068  -0.0058  -0.0058   0.00    1.0
2018/03/11 13:21:58.000   78.253604085   16.174579270   539.3594   2   9   0.0139   0.0136   0.0192   0.0067  -0.0058  -0.0058   0.00    1.0
2018/03/11 13:21:59.000   78.253604090   16.174579505   539.3618   2   9   0.0139   0.0135   0.0191   0.0067  -0.0057  -0.0058   0.00    1.1
2018/03/11 13:22:00.000   78.253604092   16.174579739   539.3654   2   9   0.0138   0.0135   0.0190   0.0067  -0.0057  -0.0057   0.00    1.1
2018/03/11 13:22:01.000   78.253604095   16.174579993   539.3683   2   9   0.0138   0.0135   0.0189   0.0067  -0.0057  -0.0057   0.00    1.1
2018/03/11 13:22:02.000   78.253604099   16.174580247   539.3717   2   9   0.0137   0.0134   0.0189   0.0067  -0.0057  -0.0057   0.00    1.1
2018/03/11 13:22:03.000   78.253604107   16.174580499   539.3752   2   9   0.0137   0.0134   0.0188   0.0067  -0.0057  -0.0057   0.00    1.1
2018/03/11 13:22:04.000   78.253604099   16.174580720   539.3779   2   9   0.0137   0.0133   0.0187   0.0067  -0.0057  -0.0057   0.00    1.1
2018/03/11 13:22:05.000   78.253604096   16.174580977   539.3798   2   9   0.0136   0.0133   0.0186   0.0067  -0.0057  -0.0057   0.00    1.1
2018/03/11 13:22:06.000   78.253604095   16.174581218   539.3833   2   9   0.0136   0.0133   0.0186   0.0066  -0.0057  -0.0057   0.00    1.1
2018/03/11 13:22:07.000   78.253604091   16.174581474   539.3870   2   9   0.0135   0.0132   0.0185   0.0066  -0.0057  -0.0057   0.00    1.1
2018/03/11 13:22:08.000   78.253604080   16.174581714   539.3902   2   9   0.0135   0.0132   0.0184   0.0066  -0.0057  -0.0057   0.00    1.1
2018/03/11 13:22:09.000   78.253604075   16.174581946   539.3935   2   9   0.0135   0.0131   0.0184   0.0066  -0.0056  -0.0057   0.00    1.1
2018/03/11 13:22:10.000   78.253604070   16.174582182   539.3957   2   9   0.0134   0.0131   0.0183   0.0066  -0.0056  -0.0057   0.00    1.1
2018/03/11 13:22:11.000   78.253604048   16.174582437   539.3976   2   9   0.0134   0.0131   0.0182   0.0066  -0.0056  -0.0057   0.00    1.1
2018/03/11 13:22:12.000   78.253604024   16.174582684   539.3985   2   9   0.0133   0.0130   0.0181   0.0066  -0.0056  -0.0057   0.00    1.1
2018/03/11 13:22:13.000   78.253603997   16.174582928   539.3987   2   9   0.0133   0.0130   0.0181   0.0066  -0.0056  -0.0057   0.00    1.1
2018/03/11 13:22:14.000   78.253603963   16.174583146   539.3998   2   9   0.0133   0.0130   0.0180   0.0065  -0.0056  -0.0057   0.00    1.2
2018/03/11 13:22:15.000   78.253603931   16.174583342   539.3997   2   9   0.0132   0.0129   0.0179   0.0065  -0.0056  -0.0057   0.00    1.2
2018/03/11 13:22:16.000   78.253603886   16.174583546   539.3981   2   9   0.0132   0.0129   0.0179   0.0065  -0.0056  -0.0056   0.00    1.2
2018/03/11 13:22:17.000   78.253603841   16.174583745   539.3948   2   9   0.0131   0.0129   0.0178   0.0065  -0.0056  -0.0056   0.00    1.2
2018/03/11 13:22:18.000   78.253603793   16.174583955   539.3912   2   9   0.0131   0.0128   0.0177   0.0065  -0.0055  -0.0056   0.00    1.2
2018/03/11 13:22:19.000   78.253603747   16.174584165   539.3871   2   9   0.0131   0.0128   0.0177   0.0065  -0.0055  -0.0056   0.00    1.2
2018/03/11 13:22:20.000   78.253603692   16.174584363   539.3836   2   9   0.0130   0.0128   0.0176   0.0065  -0.0055  -0.0056   0.00    1.2
2018/03/11 13:22:21.000   78.253603625   16.174584523   539.3800   2   9   0.0130   0.0127   0.0175   0.0065  -0.0055  -0.0056   0.00    1.3
2018/03/11 13:22:22.000   78.253603554   16.174584656   539.3751   2   9   0.0130   0.0127   0.0175   0.0065  -0.0055  -0.0056   0.00    1.3
2018/03/11 13:22:23.000   78.253603480   16.174584782   539.3707   2   9   0.0129   0.0126   0.0174   0.0064  -0.0055  -0.0056   0.00    1.3
2018/03/11 13:22:24.000   78.253603401   16.174584903   539.3650   2   9   0.0129   0.0126   0.0174   0.0064  -0.0055  -0.0056   0.00    1.3
2018/03/11 13:22:25.000   78.253603326   16.174585002   539.3585   2   9   0.0128   0.0126   0.0173   0.0064  -0.0055  -0.0056   0.00    1.3
2018/03/11 13:22:26.000   78.253603252   16.174585128   539.3521   2   9   0.0128   0.0125   0.0172   0.0064  -0.0055  -0.0056   0.00    1.3
2018/03/11 13:22:27.000   78.253603176   16.174585231   539.3442   2   9   0.0128   0.0125   0.0172   0.0064  -0.0055  -0.0056   0.00    1.4
2018/03/11 13:22:28.000   78.253603102   16.174585339   539.3363   2   9   0.0127   0.0125   0.0171   0.0064  -0.0054  -0.0056   0.00    1.4
2018/03/11 13:22:29.000   78.253603022   16.174585423   539.3291   2   9   0.0127   0.0124   0.0170   0.0064  -0.0054  -0.0056   0.00    1.4
2018/03/11 13:22:30.000   78.253602947   16.174585474   539.3227   2   9   0.0127   0.0124   0.0170   0.0064  -0.0054  -0.0055   0.00    1.4
2018/03/11 13:22:31.000   78.253602869   16.174585528   539.3163   2   9   0.0126   0.0124   0.0169   0.0063  -0.0054  -0.0055   0.00    1.5
2018/03/11 13:22:32.000   78.253602785   16.174585557   539.3091   2   9   0.0126   0.0123   0.0169   0.0063  -0.0054  -0.0055   0.00    1.5
2018/03/11 13:22:33.000   78.253602701   16.174585590   539.3017   2   9   0.0125   0.0123   0.0168   0.0063  -0.0054  -0.0055   0.00    1.5
2018/03/11 13:22:34.000   78.253602613   16.174585624   539.2952   2   9   0.0125   0.0123   0.0167   0.0063  -0.0054  -0.0055   0.00    1.5
2018/03/11 13:22:35.000   78.253602520   16.174585686   539.2895   2   9   0.0125   0.0122   0.0167   0.0063  -0.0054  -0.0055   0.00    1.6
2018/03/11 13:22:36.000   78.253602432   16.174585701   539.2821   2   9   0.0124   0.0122   0.0166   0.0063  -0.0054  -0.0055   0.00    1.6
2018/03/11 13:22:37.000   78.253602346   16.174585735   539.2744   2   9   0.0124   0.0122   0.0166   0.0063  -0.0054  -0.0055   0.00    1.6
2018/03/11 13:22:38.000   78.253602259   16.174585739   539.2659   2   9   0.0124   0.0121   0.0165   0.0063  -0.0053  -0.0055   0.00    1.6
2018/03/11 13:22:39.000   78.253602178   16.174585787   539.2580   2   9   0.0123   0.0121   0.0164   0.0063  -0.0053  -0.0055   0.00    1.7
2018/03/11 13:22:40.000   78.253602091   16.174585804   539.2499   2   9   0.0123   0.0121   0.0164   0.0062  -0.0053  -0.0055   0.00    1.7
2018/03/11 13:22:41.000   78.253602010   16.174585832   539.2423   2   9   0.0123   0.0120   0.0163   0.0062  -0.0053  -0.0055   0.00    1.7
2018/03/11 13:22:42.000   78.253601936   16.174585868   539.2350   2   9   0.0122   0.0120   0.0163   0.0062  -0.0053  -0.0055   0.00    1.7
2018/03/11 13:22:43.000   78.253601852   16.174585887   539.2272   2   9   0.0122   0.0120   0.0162   0.0062  -0.0053  -0.0054   0.00    1.7
2018/03/11 13:22:44.000   78.253601770   16.174585900   539.2192   2   9   0.0122   0.0119   0.0162   0.0062  -0.0053  -0.0054   0.00    1.8
2018/03/11 13:22:45.000   78.253601687   16.174585928   539.2119   2   9   0.0121   0.0119   0.0161   0.0062  -0.0053  -0.0054   0.00    1.8
2018/03/11 13:22:46.000   78.253601606   16.174585953   539.2058   2   9   0.0121   0.0119   0.0160   0.0062  -0.0053  -0.0054   0.00    1.8
2018/03/11 13:22:47.000   78.253601535   16.174585992   539.1996   2   9   0.0121   0.0119   0.0160   0.0062  -0.0053  -0.0054   0.00    1.8
2018/03/11 13:22:48.000   78.253601464   16.174586055   539.1930   2   9   0.0120   0.0118   0.0159   0.0061  -0.0052  -0.0054   0.00    1.8
2018/03/11 13:22:49.000   78.253601399   16.174586113   539.1855   2   9   0.0120   0.0118   0.0159   0.0061  -0.0052  -0.0054   0.00    1.9
2018/03/11 13:22:50.000   78.253601342   16.174586161   539.1790   2   9   0.0120   0.0118   0.0158   0.0061  -0.0052  -0.0054   0.00    1.9
2018/03/11 13:22:51.000   78.253601294   16.174586231   539.1720   2   9   0.0119   0.0117   0.0158   0.0061  -0.0052  -0.0054   0.00    1.9
2018/03/11 13:22:52.000   78.253601256   16.174586315   539.1647   2   9   0.0119   0.0117   0.0157   0.0061  -0.0052  -0.0054   0.00    1.9
2018/03/11 13:22:53.000   78.253601224   16.174586409   539.1576   2   9   0.0119   0.0117   0.0157   0.0061  -0.0052  -0.0054   0.00    1.9
2018/03/11 13:22:54.000   78.253601195   16.174586490   539.1506   2   9   0.0118   0.0116   0.0156   0.0061  -0.0052  -0.0054   0.00    1.9
2018/03/11 13:22:55.000   78.253601170   16.174586569   539.1423   2   9   0.0118   0.0116   0.0155   0.0061  -0.0052  -0.0054   0.00    1.9
2018/03/11 13:22:56.000   78.253601159   16.174586654   539.1345   2   9   0.0118   0.0116   0.0155   0.0061  -0.0052  -0.0053   0.00    1.9
2018/03/11 13:22:57.000   78.253601140   16.174586733   539.1270   2   9   0.0117   0.0116   0.0154   0.0060  -0.0052  -0.0053   0.00    2.0
2018/03/11 13:22:58.000   78.253601119   16.174586781   539.1202   2   9   0.0117   0.0115   0.0154   0.0060  -0.0051  -0.0053   0.00    2.0
2018/03/11 13:22:59.000   78.253601101   16.174586859   539.1140   2   9   0.0117   0.0115   0.0153   0.0060  -0.0051  -0.0053   0.00    2.0
2018/03/11 13:23:00.000   78.253601086   16.174586917   539.1081   2   9   0.0116   0.0115   0.0153   0.0060  -0.0051  -0.0053   0.00    2.0
2018/03/11 13:23:01.000   78.253601071   16.174587004   539.1027   2   9   0.0116   0.0114   0.0152   0.0060  -0.0051  -0.0053   0.00    2.0
2018/03/11 13:23:02.000   78.253601060   16.174587064   539.0970   2   9   0.0116   0.0114   0.0152   0.0060  -0.0051  -0.0053   0.00    2.0
2018/03/11 13:23:03.000   78.253601048   16.174587142   539.0907   2   9   0.0116   0.0114   0.0151   0.0060  -0.0051  -0.0053   0.00    2.0
2018/03/11 13:23:04.000   78.253601041   16.174587218   539.0844   2   9   0.0115   0.0113   0.0151   0.0060  -0.0051  -0.0053   0.00    2.0
2018/03/11 13:23:05.000   78.253601041   16.174587325   539.0796   2   9   0.0115   0.0113   0.0150   0.0060  -0.0051  -0.0053   0.00    2.0
2018/03/11 13:23:06.000   78.253601044   16.174587436   539.0749   2   9   0.0115   0.0113   0.0150   0.0059  -0.0051  -0.0053   0.00    2.0
2018/03/11 13:23:07.000   78.253601042   16.174587512   539.0706   2   9   0.0114   0.0113   0.0149   0.0059  -0.0051  -0.0053   0.00    2.0
2018/03/11 13:23:08.000   78.253601034   16.174587594   539.0674   2   9   0.0114   0.0112   0.0149   0.0059  -0.0050  -0.0052   0.00    2.0
2018/03/11 13:23:09.000   78.253601024   16.174587662   539.0634   2   9   0.0114   0.0112   0.0148   0.0059  -0.0050  -0.0052   0.00    2.0
2018/03/11 13:23:10.000   78.253601018   16.174587743   539.0589   2   9   0.0113   0.0112   0.0148   0.0059  -0.0050  -0.0052   0.00    2.0
2018/03/11 13:23:11.000   78.253601013   16.174587831   539.0551   2   9   0.0113   0.0111   0.0147   0.0059  -0.0050  -0.0052   0.00    2.0
2018/03/11 13:23:12.000   78.253601010   16.174587930   539.0517   2   9   0.0113   0.0111   0.0147   0.0059  -0.0050  -0.0052   0.00    2.0
2018/03/11 13:23:13.000   78.253601009   16.174588047   539.0475   2   9   0.0113   0.0111   0.0146   0.0059  -0.0050  -0.0052   0.00    2.0
