% program   : RTKPOST ver.2.4.2
% inp file  : Z:\home\linda\Documents\Spring18\GitHub_Unis\data\processed_data\46250729.obs
% inp file  : Z:\home\linda\Documents\Spring18\GitHub_Unis\data\processed_data\46250729.nav
% obs start : 2018/03/13 15:17:03.0 GPST (week1992 227823.0s)
% obs end   : 2018/03/13 15:33:35.0 GPST (week1992 228815.0s)
% pos mode  : single
% elev mask : 15.0 deg
% ionos opt : broadcast
% tropo opt : saastamoinen
% ephemeris : broadcast
% navi sys  : gps glonass galileo qzss sbas
%
% (lat/lon/height=WGS84/ellipsoidal,Q=1:fix,2:float,3:sbas,4:dgps,5:single,6:ppp,ns=# of satellites)
%  GPST                  latitude(deg) longitude(deg)  height(m)   Q  ns   sdn(m)   sde(m)   sdu(m)  sdne(m)  sdeu(m)  sdun(m) age(s)  ratio
2018/03/13 15:17:03.000   78.255291749   16.193800916   486.0166   5  11   1.7114   1.4029   6.0122  -0.0640   0.3712   1.7586   0.00    0.0
2018/03/13 15:17:04.000   78.255291061   16.193799659   485.6068   5  11   1.7115   1.4029   6.0119  -0.0640   0.3720   1.7586   0.00    0.0
2018/03/13 15:17:05.000   78.255290093   16.193804869   486.7604   5  11   1.7115   1.4029   6.0116  -0.0640   0.3728   1.7586   0.00    0.0
2018/03/13 15:17:06.000   78.255289189   16.193807307   486.1734   5  11   1.7116   1.4029   6.0114  -0.0640   0.3736   1.7586   0.00    0.0
2018/03/13 15:17:07.000   78.255292447   16.193804204   486.2719   5  11   1.7116   1.4029   6.0111  -0.0640   0.3744   1.7587   0.00    0.0
2018/03/13 15:17:08.000   78.255294283   16.193790589   486.9567   5  11   1.7116   1.4029   6.0108  -0.0640   0.3753   1.7587   0.00    0.0
2018/03/13 15:17:09.000   78.255294305   16.193814473   486.5672   5  11   1.7117   1.4029   6.0106  -0.0640   0.3761   1.7587   0.00    0.0
2018/03/13 15:17:10.000   78.255292527   16.193805684   486.2732   5  11   1.7117   1.4029   6.0103  -0.0640   0.3769   1.7587   0.00    0.0
2018/03/13 15:17:11.000   78.255292275   16.193811662   485.0076   5  11   1.7118   1.4029   6.0100  -0.0640   0.3777   1.7587   0.00    0.0
2018/03/13 15:17:12.000   78.255291054   16.193808779   486.1879   5  11   1.7118   1.4029   6.0098  -0.0640   0.3785   1.7587   0.00    0.0
2018/03/13 15:17:13.000   78.255292800   16.193808534   486.3899   5  11   1.7118   1.4029   6.0095  -0.0640   0.3793   1.7587   0.00    0.0
2018/03/13 15:17:14.000   78.255293195   16.193812082   485.8945   5  11   1.7119   1.4029   6.0092  -0.0640   0.3801   1.7587   0.00    0.0
2018/03/13 15:17:15.000   78.255293755   16.193807764   485.9057   5  11   1.7119   1.4029   6.0090  -0.0640   0.3809   1.7587   0.00    0.0
2018/03/13 15:17:16.000   78.255293683   16.193803091   486.3824   5  11   1.7119   1.4029   6.0087  -0.0640   0.3817   1.7587   0.00    0.0
2018/03/13 15:17:17.000   78.255291417   16.193795556   485.9714   5  11   1.7120   1.4028   6.0084  -0.0640   0.3825   1.7587   0.00    0.0
2018/03/13 15:17:18.000   78.255294377   16.193806927   486.6695   5  11   1.7120   1.4028   6.0081  -0.0640   0.3833   1.7588   0.00    0.0
2018/03/13 15:17:19.000   78.255295834   16.193802189   487.1513   5  10   1.8771   1.4146   6.0332  -0.3795   0.4979   1.6335   0.00    0.0
2018/03/13 15:17:20.000   78.255296532   16.193791954   487.3302   5  10   1.8771   1.4146   6.0329  -0.3796   0.4986   1.6334   0.00    0.0
2018/03/13 15:17:21.000   78.255295449   16.193795383   486.3320   5  10   1.8771   1.4146   6.0327  -0.3797   0.4994   1.6333   0.00    0.0
2018/03/13 15:17:22.000   78.255294168   16.193789063   485.9289   5  10   1.8772   1.4146   6.0324  -0.3798   0.5001   1.6333   0.00    0.0
2018/03/13 15:17:23.000   78.255292458   16.193801015   486.4380   5  11   1.7122   1.4028   6.0067  -0.0640   0.3872   1.7588   0.00    0.0
2018/03/13 15:17:24.000   78.255295212   16.193804030   487.4960   5  11   1.7123   1.4028   6.0065  -0.0640   0.3880   1.7588   0.00    0.0
2018/03/13 15:17:25.000   78.255288117   16.193808947   485.3561   5  11   1.7123   1.4028   6.0062  -0.0640   0.3888   1.7588   0.00    0.0
2018/03/13 15:17:26.000   78.255290668   16.193805750   485.9916   5  11   1.7123   1.4028   6.0059  -0.0640   0.3896   1.7588   0.00    0.0
2018/03/13 15:17:27.000   78.255296357   16.193805172   487.5502   5  11   1.7124   1.4028   6.0056  -0.0640   0.3903   1.7588   0.00    0.0
2018/03/13 15:17:28.000   78.255295495   16.193814769   486.6322   5  11   1.7124   1.4028   6.0053  -0.0640   0.3911   1.7588   0.00    0.0
2018/03/13 15:17:29.000   78.255290877   16.193819163   485.3206   5  11   1.7125   1.4028   6.0051  -0.0640   0.3919   1.7588   0.00    0.0
2018/03/13 15:17:30.000   78.255295498   16.193807270   487.0955   5  11   1.7125   1.4028   6.0048  -0.0640   0.3927   1.7588   0.00    0.0
2018/03/13 15:17:31.000   78.255292629   16.193809139   485.9713   5  11   1.7125   1.4028   6.0045  -0.0640   0.3934   1.7589   0.00    0.0
2018/03/13 15:17:32.000   78.255292592   16.193814552   486.8189   5  11   1.7126   1.4028   6.0042  -0.0640   0.3942   1.7589   0.00    0.0
2018/03/13 15:17:33.000   78.255295508   16.193812126   487.7054   5  11   1.7126   1.4028   6.0039  -0.0640   0.3949   1.7589   0.00    0.0
2018/03/13 15:17:34.000   78.255296661   16.193808239   487.3038   5  11   1.7127   1.4028   6.0036  -0.0640   0.3957   1.7589   0.00    0.0
2018/03/13 15:17:35.000   78.255291116   16.193814763   484.8307   5  11   1.7127   1.4028   6.0033  -0.0640   0.3965   1.7589   0.00    0.0
2018/03/13 15:17:36.000   78.255287520   16.193800605   484.8456   5  11   1.7127   1.4028   6.0031  -0.0640   0.3972   1.7589   0.00    0.0
2018/03/13 15:17:37.000   78.255290329   16.193794006   484.8028   5  11   1.7128   1.4028   6.0028  -0.0640   0.3980   1.7589   0.00    0.0
2018/03/13 15:17:38.000   78.255288350   16.193808236   485.1812   5  11   1.7128   1.4027   6.0025  -0.0641   0.3987   1.7589   0.00    0.0
2018/03/13 15:17:39.000   78.255289084   16.193800604   485.4775   5  11   1.7129   1.4027   6.0022  -0.0641   0.3995   1.7589   0.00    0.0
2018/03/13 15:17:40.000   78.255290360   16.193802783   484.7688   5  11   1.7129   1.4027   6.0019  -0.0641   0.4002   1.7589   0.00    0.0
2018/03/13 15:17:41.000   78.255294823   16.193801633   486.0977   5  11   1.7129   1.4027   6.0016  -0.0641   0.4010   1.7589   0.00    0.0
2018/03/13 15:17:42.000   78.255290425   16.193801702   485.3462   5  11   1.7130   1.4027   6.0013  -0.0641   0.4017   1.7589   0.00    0.0
2018/03/13 15:17:43.000   78.255293461   16.193808588   485.6743   5  11   1.7130   1.4027   6.0010  -0.0641   0.4025   1.7589   0.00    0.0
2018/03/13 15:17:44.000   78.255290181   16.193805992   485.7157   5  11   1.7131   1.4027   6.0007  -0.0641   0.4032   1.7589   0.00    0.0
2018/03/13 15:17:45.000   78.255294369   16.193807704   488.0272   5  11   1.7131   1.4027   6.0004  -0.0641   0.4039   1.7589   0.00    0.0
2018/03/13 15:17:46.000   78.255291685   16.193803925   486.7362   5  11   1.7131   1.4027   6.0001  -0.0641   0.4047   1.7589   0.00    0.0
2018/03/13 15:17:47.000   78.255291750   16.193801557   486.8384   5  11   1.7132   1.4027   5.9998  -0.0641   0.4054   1.7589   0.00    0.0
2018/03/13 15:17:48.000   78.255294003   16.193800360   487.8637   5  10   1.7221   1.5380   6.5460  -0.3378   1.3477   1.6240   0.00    0.0
2018/03/13 15:17:49.000   78.255291821   16.193817393   486.7030   5  11   1.7133   1.4027   5.9992  -0.0642   0.4069   1.7590   0.00    0.0
2018/03/13 15:17:50.000   78.255291859   16.193816043   485.6154   5  11   1.7133   1.4027   5.9989  -0.0642   0.4076   1.7590   0.00    0.0
2018/03/13 15:17:51.000   78.255289248   16.193807923   484.8276   5  11   1.7133   1.4027   5.9986  -0.0642   0.4083   1.7590   0.00    0.0
2018/03/13 15:17:52.000   78.255288484   16.193795216   484.7033   5  11   1.7134   1.4027   5.9983  -0.0642   0.4090   1.7590   0.00    0.0
2018/03/13 15:17:53.000   78.255290631   16.193825944   487.7275   5   9   1.7511   1.7578   6.6874   0.3933   1.7317   1.7544   0.00    0.0
2018/03/13 15:17:54.000   78.255293219   16.193823111   486.9799   5   9   1.7512   1.7578   6.6866   0.3934   1.7317   1.7546   0.00    0.0
2018/03/13 15:17:55.000   78.255293721   16.193818040   487.5821   5   9   1.7513   1.7579   6.6857   0.3936   1.7318   1.7548   0.00    0.0
2018/03/13 15:17:56.000   78.255293499   16.193773167   487.0631   5  10   1.7225   1.5379   6.5376  -0.3385   1.3457   1.6242   0.00    0.0
2018/03/13 15:17:57.000   78.255291631   16.193796904   486.7046   5  10   1.7225   1.5379   6.5366  -0.3386   1.3454   1.6243   0.00    0.0
2018/03/13 15:17:58.000   78.255291316   16.193808281   486.9978   5  10   1.7226   1.5378   6.5355  -0.3387   1.3452   1.6243   0.00    0.0
2018/03/13 15:17:59.000   78.255293255   16.193823549   487.7746   5  10   1.7226   1.5378   6.5345  -0.3388   1.3449   1.6243   0.00    0.0
2018/03/13 15:18:00.000   78.255290861   16.193820405   486.2324   5  10   1.7227   1.5378   6.5334  -0.3388   1.3447   1.6243   0.00    0.0
2018/03/13 15:18:01.000   78.255291229   16.193824418   486.7301   5  10   1.7227   1.5378   6.5324  -0.3389   1.3444   1.6244   0.00    0.0
2018/03/13 15:18:02.000   78.255289909   16.193820319   486.7056   5  10   1.7228   1.5378   6.5313  -0.3390   1.3442   1.6244   0.00    0.0
2018/03/13 15:18:03.000   78.255291254   16.193814995   486.8887   5  10   1.7228   1.5378   6.5303  -0.3391   1.3439   1.6244   0.00    0.0
2018/03/13 15:18:04.000   78.255288837   16.193815386   487.4002   5  10   1.7229   1.5378   6.5292  -0.3392   1.3437   1.6245   0.00    0.0
2018/03/13 15:18:05.000   78.255290031   16.193828079   486.1992   5  10   1.7229   1.5377   6.5282  -0.3393   1.3434   1.6245   0.00    0.0
2018/03/13 15:18:06.000   78.255288606   16.193834339   485.1669   5  10   1.7230   1.5377   6.5271  -0.3394   1.3431   1.6245   0.00    0.0
2018/03/13 15:18:07.000   78.255291017   16.193823510   487.4478   5  10   1.7230   1.5377   6.5261  -0.3394   1.3429   1.6246   0.00    0.0
2018/03/13 15:18:08.000   78.255294725   16.193823328   489.6082   5  10   1.7231   1.5377   6.5250  -0.3395   1.3426   1.6246   0.00    0.0
2018/03/13 15:18:09.000   78.255296333   16.193830698   489.0113   5  10   1.7231   1.5377   6.5240  -0.3396   1.3424   1.6246   0.00    0.0
2018/03/13 15:18:10.000   78.255293715   16.193812428   487.3118   5  10   1.7232   1.5377   6.5229  -0.3397   1.3421   1.6247   0.00    0.0
2018/03/13 15:18:11.000   78.255292825   16.193828311   488.3342   5  10   1.7232   1.5377   6.5219  -0.3398   1.3419   1.6247   0.00    0.0
2018/03/13 15:18:12.000   78.255290787   16.193823347   486.5796   5  10   1.7233   1.5377   6.5208  -0.3399   1.3416   1.6247   0.00    0.0
2018/03/13 15:18:13.000   78.255295983   16.193817217   488.5067   5  10   1.7233   1.5376   6.5197  -0.3400   1.3413   1.6248   0.00    0.0
2018/03/13 15:18:14.000   78.255296042   16.193832113   488.3200   5  10   1.7234   1.5376   6.5187  -0.3400   1.3411   1.6248   0.00    0.0
2018/03/13 15:18:15.000   78.255293922   16.193813469   487.4357   5  10   1.7234   1.5376   6.5176  -0.3401   1.3408   1.6248   0.00    0.0
2018/03/13 15:18:16.000   78.255290501   16.193833161   487.0278   5  10   1.7235   1.5376   6.5166  -0.3402   1.3406   1.6249   0.00    0.0
2018/03/13 15:18:17.000   78.255290274   16.193831516   486.9467   5  10   1.7235   1.5376   6.5155  -0.3403   1.3403   1.6249   0.00    0.0
2018/03/13 15:18:18.000   78.255287657   16.193840566   486.4402   5  10   1.7236   1.5376   6.5145  -0.3404   1.3400   1.6249   0.00    0.0
2018/03/13 15:18:19.000   78.255292754   16.193798962   487.8737   5   9   1.7615   1.6900   6.5915  -0.6090   1.0418   1.7344   0.00    0.0
2018/03/13 15:18:20.000   78.255292709   16.193803874   487.3762   5   9   1.7616   1.6900   6.5904  -0.6090   1.0415   1.7344   0.00    0.0
2018/03/13 15:18:21.000   78.255294629   16.193813564   487.0283   5   9   1.7616   1.6900   6.5894  -0.6090   1.0412   1.7344   0.00    0.0
2018/03/13 15:18:22.000   78.255295017   16.193798320   486.4938   5   9   1.7616   1.6900   6.5883  -0.6090   1.0410   1.7343   0.00    0.0
2018/03/13 15:18:23.000   78.255290049   16.193803492   486.5992   5   9   1.7616   1.6900   6.5872  -0.6090   1.0407   1.7343   0.00    0.0
2018/03/13 15:18:24.000   78.255290272   16.193800216   486.2218   5   9   1.7617   1.6900   6.5861  -0.6090   1.0404   1.7343   0.00    0.0
2018/03/13 15:18:25.000   78.255292485   16.193794675   487.4651   5   9   1.7617   1.6900   6.5850  -0.6090   1.0401   1.7343   0.00    0.0
2018/03/13 15:18:26.000   78.255298640   16.193796902   488.3247   5   9   1.7617   1.6900   6.5840  -0.6090   1.0398   1.7342   0.00    0.0
2018/03/13 15:18:27.000   78.255287859   16.193833241   485.5498   5  10   1.7240   1.5375   6.5050  -0.3412   1.3377   1.6252   0.00    0.0
2018/03/13 15:18:28.000   78.255287645   16.193811444   485.8833   5  10   1.7241   1.5374   6.5039  -0.3413   1.3374   1.6252   0.00    0.0
2018/03/13 15:18:29.000   78.255292883   16.193804346   488.1173   5  10   1.7241   1.5374   6.5028  -0.3414   1.3372   1.6253   0.00    0.0
2018/03/13 15:18:30.000   78.255297093   16.193817382   489.7411   5  10   1.7242   1.5374   6.5018  -0.3414   1.3369   1.6253   0.00    0.0
2018/03/13 15:18:31.000   78.255296247   16.193811783   489.5302   5   9   2.7470   1.5455  10.0409  -0.6739   0.7608   4.3596   0.00    0.0
2018/03/13 15:18:32.000   78.255287968   16.193794268   486.3703   5   9   2.7475   1.5455  10.0411  -0.6741   0.7598   4.3604   0.00    0.0
2018/03/13 15:18:33.000   78.255290495   16.193805328   486.7303   5   9   2.7479   1.5455  10.0413  -0.6744   0.7588   4.3611   0.00    0.0
2018/03/13 15:18:34.000   78.255286639   16.193803017   485.0965   5   9   2.7483   1.5455  10.0416  -0.6746   0.7577   4.3619   0.00    0.0
2018/03/13 15:18:35.000   78.255288407   16.193819966   485.6250   5   9   2.7487   1.5455  10.0418  -0.6749   0.7567   4.3626   0.00    0.0
2018/03/13 15:18:36.000   78.255291268   16.193820177   486.7452   5   9   2.7491   1.5455  10.0420  -0.6751   0.7556   4.3634   0.00    0.0
2018/03/13 15:18:37.000   78.255287315   16.193809832   486.1104   5   9   2.7496   1.5455  10.0422  -0.6754   0.7546   4.3641   0.00    0.0
2018/03/13 15:18:38.000   78.255285724   16.193826464   485.0086   5  10   2.7109   1.4425   8.8887  -0.8442  -1.4227   4.1101   0.00    0.0
2018/03/13 15:18:39.000   78.255288329   16.193816700   486.8414   5  10   2.7114   1.4425   8.8902  -0.8443  -1.4228   4.1112   0.00    0.0
2018/03/13 15:18:40.000   78.255289720   16.193822819   487.1584   5   9   2.7508   1.5454  10.0428  -0.6761   0.7514   4.3663   0.00    0.0
2018/03/13 15:18:41.000   78.255290359   16.193815473   486.8953   5   9   2.7513   1.5454  10.0431  -0.6764   0.7504   4.3671   0.00    0.0
2018/03/13 15:18:42.000   78.255285879   16.193811795   484.4706   5   9   2.7517   1.5454  10.0433  -0.6766   0.7493   4.3678   0.00    0.0
2018/03/13 15:18:43.000   78.255290473   16.193816818   486.0199   5   9   2.7521   1.5454  10.0434  -0.6768   0.7482   4.3685   0.00    0.0
2018/03/13 15:18:44.000   78.255286725   16.193816571   484.9951   5   9   2.7525   1.5454  10.0436  -0.6771   0.7472   4.3693   0.00    0.0
2018/03/13 15:18:45.000   78.255288892   16.193804217   485.9022   5   9   2.7529   1.5454  10.0438  -0.6773   0.7461   4.3700   0.00    0.0
2018/03/13 15:18:46.000   78.255291782   16.193800561   487.4088   5   9   2.7534   1.5454  10.0440  -0.6776   0.7450   4.3707   0.00    0.0
2018/03/13 15:18:47.000   78.255291465   16.193795054   486.5731   5   9   2.7538   1.5454  10.0442  -0.6778   0.7439   4.3715   0.00    0.0
2018/03/13 15:18:48.000   78.255291103   16.193798107   486.0312   5   9   2.7542   1.5454  10.0444  -0.6781   0.7429   4.3722   0.00    0.0
2018/03/13 15:18:49.000   78.255292733   16.193795663   487.5871   5   9   2.7546   1.5454  10.0446  -0.6783   0.7418   4.3729   0.00    0.0
2018/03/13 15:18:50.000   78.255292986   16.193801266   487.1509   5   9   2.7550   1.5454  10.0447  -0.6786   0.7407   4.3736   0.00    0.0
2018/03/13 15:18:51.000   78.255292249   16.193797282   487.2859   5   9   2.7554   1.5454  10.0449  -0.6788   0.7396   4.3744   0.00    0.0
2018/03/13 15:18:52.000   78.255287544   16.193796678   484.5492   5   9   2.7559   1.5454  10.0451  -0.6791   0.7385   4.3751   0.00    0.0
2018/03/13 15:18:53.000   78.255289735   16.193803206   486.6578   5   9   2.7563   1.5454  10.0452  -0.6793   0.7374   4.3758   0.00    0.0
2018/03/13 15:18:54.000   78.255284155   16.193799641   484.8028   5   9   2.7567   1.5454  10.0454  -0.6796   0.7363   4.3765   0.00    0.0
2018/03/13 15:18:55.000   78.255290643   16.193813974   486.9281   5   9   2.7571   1.5454  10.0456  -0.6798   0.7352   4.3772   0.00    0.0
2018/03/13 15:18:56.000   78.255286780   16.193812113   485.3426   5   9   2.7575   1.5454  10.0457  -0.6801   0.7341   4.3779   0.00    0.0
2018/03/13 15:18:57.000   78.255290822   16.193802354   486.0387   5   9   2.7579   1.5454  10.0459  -0.6803   0.7330   4.3787   0.00    0.0
2018/03/13 15:18:58.000   78.255292006   16.193811295   487.3930   5   9   2.7584   1.5454  10.0460  -0.6806   0.7319   4.3794   0.00    0.0
2018/03/13 15:18:59.000   78.255289192   16.193803964   487.1711   5   9   2.7588   1.5454  10.0462  -0.6808   0.7308   4.3801   0.00    0.0
2018/03/13 15:19:00.000   78.255288816   16.193813262   485.5796   5   9   2.7592   1.5454  10.0463  -0.6811   0.7297   4.3808   0.00    0.0
2018/03/13 15:19:01.000   78.255286692   16.193800630   486.2186   5   9   2.7596   1.5454  10.0465  -0.6813   0.7286   4.3815   0.00    0.0
2018/03/13 15:19:02.000   78.255291824   16.193807088   487.4690   5   9   2.7600   1.5453  10.0466  -0.6816   0.7275   4.3822   0.00    0.0
2018/03/13 15:19:03.000   78.255288673   16.193802231   487.5685   5   9   2.7604   1.5453  10.0467  -0.6818   0.7264   4.3829   0.00    0.0
2018/03/13 15:19:04.000   78.255290601   16.193805753   486.5449   5   9   2.7608   1.5453  10.0469  -0.6821   0.7253   4.3836   0.00    0.0
2018/03/13 15:19:05.000   78.255291233   16.193805415   487.4562   5   9   2.7613   1.5453  10.0470  -0.6823   0.7241   4.3843   0.00    0.0
2018/03/13 15:19:06.000   78.255289707   16.193803766   486.5563   5   9   2.7617   1.5453  10.0471  -0.6826   0.7230   4.3850   0.00    0.0
2018/03/13 15:19:07.000   78.255292148   16.193808272   486.7838   5   9   2.7621   1.5453  10.0472  -0.6828   0.7219   4.3857   0.00    0.0
2018/03/13 15:19:08.000   78.255290156   16.193809701   487.1829   5  10   2.7250   1.4424   8.9342  -0.8475  -1.4248   4.1419   0.00    0.0
2018/03/13 15:19:09.000   78.255292642   16.193809355   487.4899   5  10   2.7254   1.4424   8.9357  -0.8476  -1.4248   4.1429   0.00    0.0
2018/03/13 15:19:10.000   78.255287611   16.193825515   485.3000   5  10   2.7259   1.4424   8.9372  -0.8477  -1.4249   4.1440   0.00    0.0
2018/03/13 15:19:11.000   78.255287430   16.193805820   486.1349   5  10   2.7264   1.4424   8.9387  -0.8478  -1.4249   4.1450   0.00    0.0
2018/03/13 15:19:12.000   78.255287526   16.193800860   485.9344   5  10   2.7268   1.4423   8.9401  -0.8479  -1.4250   4.1461   0.00    0.0
2018/03/13 15:19:13.000   78.255285585   16.193819077   483.3086   5  10   2.7273   1.4423   8.9416  -0.8480  -1.4251   4.1471   0.00    0.0
2018/03/13 15:19:14.000   78.255294615   16.193821991   487.6306   5  10   2.7278   1.4423   8.9431  -0.8481  -1.4251   4.1481   0.00    0.0
2018/03/13 15:19:15.000   78.255292645   16.193808692   487.6858   5   9   2.9907   1.5364   9.5185  -0.2666  -0.5551   4.6048   0.00    0.0
2018/03/13 15:19:16.000   78.255289290   16.193820086   486.4582   5   9   2.9917   1.5364   9.5218  -0.2654  -0.5527   4.6070   0.00    0.0
2018/03/13 15:19:17.000   78.255289117   16.193814020   486.2668   5   9   2.9928   1.5364   9.5251  -0.2643  -0.5502   4.6092   0.00    0.0
2018/03/13 15:19:18.000   78.255290924   16.193807657   486.7014   5   9   2.9939   1.5363   9.5284  -0.2631  -0.5478   4.6114   0.00    0.0
2018/03/13 15:19:19.000   78.255291148   16.193814576   485.3880   5  10   2.7301   1.4423   8.9504  -0.8487  -1.4254   4.1533   0.00    0.0
2018/03/13 15:19:20.000   78.255289103   16.193821671   485.4522   5  10   2.7306   1.4423   8.9519  -0.8488  -1.4255   4.1543   0.00    0.0
2018/03/13 15:19:21.000   78.255288885   16.193810772   487.5716   5  10   2.7310   1.4423   8.9533  -0.8489  -1.4256   4.1554   0.00    0.0
2018/03/13 15:19:22.000   78.255288117   16.193820687   486.1504   5  10   2.7315   1.4423   8.9548  -0.8490  -1.4256   4.1564   0.00    0.0
2018/03/13 15:19:23.000   78.255286566   16.193823559   484.3739   5  10   2.7319   1.4423   8.9562  -0.8491  -1.4257   4.1574   0.00    0.0
2018/03/13 15:19:24.000   78.255287645   16.193811077   484.5176   5  10   2.7324   1.4423   8.9577  -0.8492  -1.4257   4.1585   0.00    0.0
2018/03/13 15:19:25.000   78.255289203   16.193814906   485.8042   5  10   2.7329   1.4423   8.9591  -0.8493  -1.4258   4.1595   0.00    0.0
2018/03/13 15:19:26.000   78.255286454   16.193805164   484.2736   5  10   2.7333   1.4423   8.9605  -0.8494  -1.4259   4.1605   0.00    0.0
2018/03/13 15:19:27.000   78.255285567   16.193812696   484.3080   5  10   2.7338   1.4423   8.9620  -0.8495  -1.4259   4.1615   0.00    0.0
2018/03/13 15:19:28.000   78.255287052   16.193802449   484.9325   5  10   2.7342   1.4423   8.9634  -0.8496  -1.4260   4.1626   0.00    0.0
2018/03/13 15:19:29.000   78.255283730   16.193802988   484.6593   5  10   2.7347   1.4423   8.9649  -0.8497  -1.4260   4.1636   0.00    0.0
2018/03/13 15:19:30.000   78.255289689   16.193809120   485.3449   5  10   2.7352   1.4423   8.9663  -0.8498  -1.4261   4.1646   0.00    0.0
2018/03/13 15:19:31.000   78.255285473   16.193792166   484.3803   5  10   2.7356   1.4423   8.9677  -0.8499  -1.4261   4.1656   0.00    0.0
2018/03/13 15:19:32.000   78.255286343   16.193796624   484.7610   5  10   2.7361   1.4423   8.9692  -0.8500  -1.4262   4.1667   0.00    0.0
2018/03/13 15:19:33.000   78.255286825   16.193820842   485.5443   5  10   2.7365   1.4422   8.9706  -0.8501  -1.4263   4.1677   0.00    0.0
2018/03/13 15:19:34.000   78.255288662   16.193828123   486.2447   5  10   2.7370   1.4422   8.9720  -0.8502  -1.4263   4.1687   0.00    0.0
2018/03/13 15:19:35.000   78.255289546   16.193816956   485.4957   5  10   2.7375   1.4422   8.9734  -0.8503  -1.4264   4.1697   0.00    0.0
2018/03/13 15:19:36.000   78.255290277   16.193813683   485.8893   5  10   2.7379   1.4422   8.9748  -0.8504  -1.4264   4.1707   0.00    0.0
2018/03/13 15:19:37.000   78.255289330   16.193812468   485.9317   5  10   2.7384   1.4422   8.9763  -0.8506  -1.4265   4.1717   0.00    0.0
2018/03/13 15:19:38.000   78.255287849   16.193815922   485.0760   5  10   2.7388   1.4422   8.9777  -0.8507  -1.4265   4.1727   0.00    0.0
2018/03/13 15:19:39.000   78.255288881   16.193818333   484.7076   5  10   2.7393   1.4422   8.9791  -0.8508  -1.4266   4.1738   0.00    0.0
2018/03/13 15:19:40.000   78.255288660   16.193812721   484.9719   5  10   2.7398   1.4422   8.9805  -0.8509  -1.4266   4.1748   0.00    0.0
2018/03/13 15:19:41.000   78.255289484   16.193816027   485.0649   5  10   2.7402   1.4422   8.9819  -0.8510  -1.4267   4.1758   0.00    0.0
2018/03/13 15:19:42.000   78.255284568   16.193814986   484.3660   5  10   2.7407   1.4422   8.9833  -0.8511  -1.4268   4.1768   0.00    0.0
2018/03/13 15:19:43.000   78.255291142   16.193805113   485.2422   5  10   2.7411   1.4422   8.9847  -0.8512  -1.4268   4.1778   0.00    0.0
2018/03/13 15:19:44.000   78.255287145   16.193805635   483.1591   5  10   2.7416   1.4422   8.9861  -0.8513  -1.4269   4.1788   0.00    0.0
2018/03/13 15:19:45.000   78.255293192   16.193806305   484.7595   5  10   2.7420   1.4422   8.9875  -0.8514  -1.4269   4.1798   0.00    0.0
2018/03/13 15:19:46.000   78.255291034   16.193813711   486.1420   5   9   2.7778   1.5452  10.0495  -0.6929   0.6756   4.4118   0.00    0.0
2018/03/13 15:19:47.000   78.255292118   16.193808147   486.1832   5   9   2.7782   1.5452  10.0495  -0.6931   0.6743   4.4124   0.00    0.0
2018/03/13 15:19:48.000   78.255280281   16.193807851   482.2064   5   9   2.7786   1.5452  10.0495  -0.6934   0.6731   4.4130   0.00    0.0
2018/03/13 15:19:49.000   78.255289180   16.193805348   485.3431   5  10   2.7439   1.4422   8.9931  -0.8518  -1.4271   4.1838   0.00    0.0
2018/03/13 15:19:50.000   78.255285736   16.193812224   484.3270   5  10   2.7443   1.4422   8.9945  -0.8519  -1.4272   4.1848   0.00    0.0
2018/03/13 15:19:51.000   78.255286538   16.193802365   484.6301   5  10   2.7448   1.4422   8.9958  -0.8520  -1.4272   4.1858   0.00    0.0
2018/03/13 15:19:52.000   78.255287646   16.193799592   484.2266   5  10   2.7452   1.4422   8.9972  -0.8521  -1.4273   4.1868   0.00    0.0
2018/03/13 15:19:53.000   78.255289287   16.193811706   486.1688   5  10   2.7457   1.4422   8.9986  -0.8522  -1.4273   4.1878   0.00    0.0
2018/03/13 15:19:54.000   78.255285672   16.193824093   484.5005   5  10   2.7461   1.4421   9.0000  -0.8523  -1.4274   4.1888   0.00    0.0
2018/03/13 15:19:55.000   78.255288547   16.193820446   485.2074   5   9   2.7814   1.5452  10.0493  -0.6952   0.6642   4.4174   0.00    0.0
2018/03/13 15:19:56.000   78.255292397   16.193822413   487.6294   5  10   2.7470   1.4421   9.0027  -0.8525  -1.4275   4.1908   0.00    0.0
2018/03/13 15:19:57.000   78.255287056   16.193811236   485.6851   5  10   2.7475   1.4421   9.0041  -0.8526  -1.4275   4.1918   0.00    0.0
2018/03/13 15:19:58.000   78.255293004   16.193808859   487.2022   5  10   2.7479   1.4421   9.0054  -0.8527  -1.4276   4.1928   0.00    0.0
2018/03/13 15:19:59.000   78.255288714   16.193812508   485.5134   5  10   2.7484   1.4421   9.0068  -0.8528  -1.4276   4.1938   0.00    0.0
2018/03/13 15:20:00.000   78.255293894   16.193807366   486.0885   5  10   2.7488   1.4421   9.0082  -0.8529  -1.4277   4.1947   0.00    0.0
2018/03/13 15:20:01.000   78.255291278   16.193812793   485.9680   5  10   2.7493   1.4421   9.0095  -0.8530  -1.4277   4.1957   0.00    0.0
2018/03/13 15:20:02.000   78.255287672   16.193810166   485.4983   5  10   2.7497   1.4421   9.0109  -0.8531  -1.4278   4.1967   0.00    0.0
2018/03/13 15:20:03.000   78.255292235   16.193818085   486.8884   5  10   2.7502   1.4421   9.0122  -0.8532  -1.4278   4.1977   0.00    0.0
2018/03/13 15:20:04.000   78.255287102   16.193811441   484.0456   5  10   2.7506   1.4421   9.0136  -0.8533  -1.4279   4.1987   0.00    0.0
2018/03/13 15:20:05.000   78.255282642   16.193809766   482.8154   5  10   2.7511   1.4421   9.0149  -0.8534  -1.4279   4.1997   0.00    0.0
2018/03/13 15:20:06.000   78.255291747   16.193802482   485.3782   5  10   2.7515   1.4421   9.0163  -0.8535  -1.4279   4.2006   0.00    0.0
2018/03/13 15:20:07.000   78.255287301   16.193799076   483.6268   5  10   2.7520   1.4421   9.0176  -0.8536  -1.4280   4.2016   0.00    0.0
2018/03/13 15:20:08.000   78.255287778   16.193797347   483.9647   5  10   2.7524   1.4421   9.0189  -0.8537  -1.4280   4.2026   0.00    0.0
2018/03/13 15:20:09.000   78.255285433   16.193799287   484.0625   5  10   2.7529   1.4421   9.0203  -0.8538  -1.4281   4.2036   0.00    0.0
2018/03/13 15:20:10.000   78.255286861   16.193790601   482.6335   5  10   2.7533   1.4421   9.0216  -0.8539  -1.4281   4.2045   0.00    0.0
2018/03/13 15:20:11.000   78.255287403   16.193805756   483.6956   5  10   2.7538   1.4421   9.0229  -0.8540  -1.4282   4.2055   0.00    0.0
2018/03/13 15:20:12.000   78.255288439   16.193784855   482.9083   5  10   2.7542   1.4421   9.0243  -0.8541  -1.4282   4.2065   0.00    0.0
2018/03/13 15:20:13.000   78.255286286   16.193798770   483.9644   5  10   2.7547   1.4421   9.0256  -0.8542  -1.4283   4.2075   0.00    0.0
2018/03/13 15:20:14.000   78.255284503   16.193792329   483.4702   5  10   2.7551   1.4421   9.0269  -0.8543  -1.4283   4.2084   0.00    0.0
2018/03/13 15:20:15.000   78.255288113   16.193803260   484.6384   5  10   2.7556   1.4420   9.0282  -0.8544  -1.4283   4.2094   0.00    0.0
2018/03/13 15:20:16.000   78.255283739   16.193803034   483.4269   5  10   2.7560   1.4420   9.0295  -0.8545  -1.4284   4.2104   0.00    0.0
2018/03/13 15:20:17.000   78.255287251   16.193800731   483.9944   5  10   2.7565   1.4420   9.0309  -0.8546  -1.4284   4.2113   0.00    0.0
2018/03/13 15:20:18.000   78.255289657   16.193805136   484.5445   5  10   2.7569   1.4420   9.0322  -0.8547  -1.4285   4.2123   0.00    0.0
2018/03/13 15:20:19.000   78.255286631   16.193802953   482.9414   5  10   2.7574   1.4420   9.0335  -0.8548  -1.4285   4.2133   0.00    0.0
2018/03/13 15:20:20.000   78.255290409   16.193792217   484.7679   5  10   2.7578   1.4420   9.0348  -0.8549  -1.4286   4.2142   0.00    0.0
2018/03/13 15:20:21.000   78.255286143   16.193794095   482.0907   5  10   2.7583   1.4420   9.0361  -0.8550  -1.4286   4.2152   0.00    0.0
2018/03/13 15:20:22.000   78.255289121   16.193796057   482.5783   5  10   2.7587   1.4420   9.0374  -0.8551  -1.4286   4.2162   0.00    0.0
2018/03/13 15:20:23.000   78.255288958   16.193793849   483.6367   5  10   2.7591   1.4420   9.0387  -0.8552  -1.4287   4.2171   0.00    0.0
2018/03/13 15:20:24.000   78.255291677   16.193802976   487.0484   5   9   2.7926   1.5451  10.0471  -0.7029   0.6256   4.4349   0.00    0.0
2018/03/13 15:20:25.000   78.255284054   16.193804582   483.9494   5   9   2.7930   1.5451  10.0469  -0.7032   0.6243   4.4355   0.00    0.0
2018/03/13 15:20:26.000   78.255288108   16.193803469   485.3515   5   9   2.7933   1.5451  10.0468  -0.7034   0.6229   4.4361   0.00    0.0
2018/03/13 15:20:27.000   78.255292470   16.193813110   486.9539   5   9   2.7937   1.5451  10.0467  -0.7037   0.6215   4.4366   0.00    0.0
2018/03/13 15:20:28.000   78.255293216   16.193804842   487.0572   5   9   2.7941   1.5451  10.0465  -0.7040   0.6201   4.4372   0.00    0.0
2018/03/13 15:20:29.000   78.255291841   16.193808220   486.9574   5   9   2.7945   1.5451  10.0464  -0.7042   0.6187   4.4378   0.00    0.0
2018/03/13 15:20:30.000   78.255288783   16.193796856   483.7371   5  10   2.7622   1.4420   9.0477  -0.8559  -1.4289   4.2238   0.00    0.0
2018/03/13 15:20:31.000   78.255290057   16.193799161   484.9369   5  10   2.7627   1.4420   9.0490  -0.8560  -1.4290   4.2247   0.00    0.0
2018/03/13 15:20:32.000   78.255287570   16.193800680   484.1861   5  10   2.7631   1.4420   9.0503  -0.8561  -1.4290   4.2257   0.00    0.0
2018/03/13 15:20:33.000   78.255287528   16.193793992   483.7598   5  10   2.7636   1.4420   9.0515  -0.8562  -1.4291   4.2266   0.00    0.0
2018/03/13 15:20:34.000   78.255290798   16.193806112   484.7598   5  10   2.7640   1.4420   9.0528  -0.8563  -1.4291   4.2276   0.00    0.0
2018/03/13 15:20:35.000   78.255287263   16.193803691   483.6121   5  10   2.7644   1.4420   9.0541  -0.8563  -1.4291   4.2285   0.00    0.0
2018/03/13 15:20:36.000   78.255288773   16.193803754   485.3571   5  10   2.7649   1.4419   9.0553  -0.8564  -1.4292   4.2295   0.00    0.0
2018/03/13 15:20:37.000   78.255290511   16.193798836   485.1921   5  10   2.7653   1.4419   9.0566  -0.8565  -1.4292   4.2304   0.00    0.0
2018/03/13 15:20:38.000   78.255288578   16.193804747   484.6599   5  10   2.7658   1.4419   9.0579  -0.8566  -1.4292   4.2314   0.00    0.0
2018/03/13 15:20:39.000   78.255291633   16.193811466   484.9654   5  10   2.7662   1.4419   9.0591  -0.8567  -1.4293   4.2323   0.00    0.0
2018/03/13 15:20:40.000   78.255289907   16.193814704   484.9753   5  10   2.7666   1.4419   9.0604  -0.8568  -1.4293   4.2332   0.00    0.0
2018/03/13 15:20:41.000   78.255291807   16.193794248   485.8225   5  10   2.7671   1.4419   9.0616  -0.8569  -1.4293   4.2342   0.00    0.0
2018/03/13 15:20:42.000   78.255291359   16.193790045   485.7696   5  10   2.7675   1.4419   9.0629  -0.8570  -1.4294   4.2351   0.00    0.0
2018/03/13 15:20:43.000   78.255288868   16.193801988   484.7056   5  10   2.7680   1.4419   9.0641  -0.8571  -1.4294   4.2360   0.00    0.0
2018/03/13 15:20:44.000   78.255285042   16.193799937   483.7670   5  10   2.7684   1.4419   9.0653  -0.8572  -1.4294   4.2370   0.00    0.0
2018/03/13 15:20:45.000   78.255288062   16.193801651   485.2368   5  10   2.7688   1.4419   9.0666  -0.8573  -1.4295   4.2379   0.00    0.0
2018/03/13 15:20:46.000   78.255289401   16.193802819   486.0344   5  10   2.7693   1.4419   9.0678  -0.8574  -1.4295   4.2388   0.00    0.0
2018/03/13 15:20:47.000   78.255290388   16.193798931   485.3002   5  10   2.7697   1.4419   9.0691  -0.8575  -1.4295   4.2398   0.00    0.0
2018/03/13 15:20:48.000   78.255289557   16.193801703   485.0804   5  10   2.7701   1.4419   9.0703  -0.8576  -1.4296   4.2407   0.00    0.0
2018/03/13 15:20:49.000   78.255290688   16.193804059   484.7713   5  10   2.7706   1.4419   9.0715  -0.8577  -1.4296   4.2416   0.00    0.0
2018/03/13 15:20:50.000   78.255289370   16.193796771   485.6054   5  10   2.7710   1.4419   9.0727  -0.8578  -1.4296   4.2425   0.00    0.0
2018/03/13 15:20:51.000   78.255290756   16.193807271   485.4966   5  10   2.7714   1.4419   9.0740  -0.8579  -1.4297   4.2435   0.00    0.0
2018/03/13 15:20:52.000   78.255284317   16.193807339   485.6607   5  10   2.7719   1.4419   9.0752  -0.8580  -1.4297   4.2444   0.00    0.0
2018/03/13 15:20:53.000   78.255291400   16.193804111   485.0749   5  10   2.7723   1.4419   9.0764  -0.8581  -1.4297   4.2453   0.00    0.0
2018/03/13 15:20:54.000   78.255293752   16.193802318   485.9520   5  10   2.7727   1.4419   9.0776  -0.8581  -1.4298   4.2462   0.00    0.0
2018/03/13 15:20:55.000   78.255293188   16.193801494   486.2518   5  10   2.7732   1.4419   9.0788  -0.8582  -1.4298   4.2471   0.00    0.0
2018/03/13 15:20:56.000   78.255287996   16.193803279   484.8884   5  10   2.7736   1.4419   9.0800  -0.8583  -1.4298   4.2481   0.00    0.0
2018/03/13 15:20:57.000   78.255287312   16.193807570   484.4286   5  10   2.7740   1.4419   9.0812  -0.8584  -1.4298   4.2490   0.00    0.0
2018/03/13 15:20:58.000   78.255285192   16.193805446   483.5644   5  10   2.7745   1.4418   9.0824  -0.8585  -1.4299   4.2499   0.00    0.0
2018/03/13 15:20:59.000   78.255285914   16.193802673   482.8320   5  10   2.7749   1.4418   9.0836  -0.8586  -1.4299   4.2508   0.00    0.0
2018/03/13 15:21:00.000   78.255287185   16.193807233   484.5226   5  10   2.7753   1.4418   9.0848  -0.8587  -1.4299   4.2517   0.00    0.0
2018/03/13 15:21:01.000   78.255291455   16.193812760   487.3568   5  10   2.7758   1.4418   9.0860  -0.8588  -1.4300   4.2526   0.00    0.0
2018/03/13 15:21:02.000   78.255290244   16.193806977   486.0665   5  10   2.7762   1.4418   9.0872  -0.8589  -1.4300   4.2535   0.00    0.0
2018/03/13 15:21:03.000   78.255290263   16.193795253   485.4904   5  11   1.8769   1.3623   5.8860   0.4777   1.1065   1.9827   0.00    0.0
2018/03/13 15:21:04.000   78.255293614   16.193801393   485.7463   5  11   1.8771   1.3623   5.8868   0.4778   1.1067   1.9833   0.00    0.0
2018/03/13 15:21:05.000   78.255293443   16.193795583   486.3296   5  11   1.8772   1.3623   5.8875   0.4779   1.1070   1.9839   0.00    0.0
2018/03/13 15:21:06.000   78.255290355   16.193810509   486.7532   5  11   1.8773   1.3623   5.8882   0.4780   1.1072   1.9846   0.00    0.0
2018/03/13 15:21:07.000   78.255290718   16.193806654   486.0996   5  11   1.8774   1.3623   5.8889   0.4781   1.1074   1.9852   0.00    0.0
2018/03/13 15:21:08.000   78.255291035   16.193804439   485.8149   5  11   1.8775   1.3623   5.8896   0.4782   1.1076   1.9858   0.00    0.0
2018/03/13 15:21:09.000   78.255290752   16.193803785   486.4021   5  11   1.8776   1.3623   5.8903   0.4783   1.1078   1.9864   0.00    0.0
2018/03/13 15:21:10.000   78.255290448   16.193801227   486.3322   5  11   1.8778   1.3623   5.8910   0.4784   1.1081   1.9871   0.00    0.0
2018/03/13 15:21:11.000   78.255290348   16.193801576   485.9148   5  11   1.8779   1.3623   5.8917   0.4785   1.1083   1.9877   0.00    0.0
2018/03/13 15:21:12.000   78.255290284   16.193794072   485.0463   5  11   1.8780   1.3622   5.8925   0.4786   1.1085   1.9883   0.00    0.0
2018/03/13 15:21:13.000   78.255290441   16.193802259   485.5923   5  11   1.8781   1.3622   5.8932   0.4787   1.1087   1.9889   0.00    0.0
2018/03/13 15:21:14.000   78.255293884   16.193807356   487.0728   5  11   1.8782   1.3622   5.8939   0.4788   1.1089   1.9896   0.00    0.0
2018/03/13 15:21:15.000   78.255294779   16.193811564   486.9141   5  11   1.8784   1.3622   5.8946   0.4789   1.1091   1.9902   0.00    0.0
2018/03/13 15:21:16.000   78.255293854   16.193805957   486.7622   5  11   1.8785   1.3622   5.8953   0.4790   1.1094   1.9908   0.00    0.0
2018/03/13 15:21:17.000   78.255290608   16.193808779   486.6380   5  11   1.8786   1.3622   5.8960   0.4791   1.1096   1.9914   0.00    0.0
2018/03/13 15:21:18.000   78.255290669   16.193805677   486.2292   5  11   1.8787   1.3622   5.8967   0.4792   1.1098   1.9920   0.00    0.0
2018/03/13 15:21:19.000   78.255292220   16.193806682   487.0569   5  11   1.8788   1.3622   5.8974   0.4793   1.1100   1.9927   0.00    0.0
2018/03/13 15:21:20.000   78.255288736   16.193807132   486.7669   5  11   1.8789   1.3622   5.8981   0.4795   1.1102   1.9933   0.00    0.0
2018/03/13 15:21:21.000   78.255290958   16.193806881   487.0416   5  11   1.8791   1.3621   5.8988   0.4796   1.1105   1.9939   0.00    0.0
2018/03/13 15:21:22.000   78.255290844   16.193812284   487.4566   5  11   1.8792   1.3621   5.8995   0.4797   1.1107   1.9945   0.00    0.0
2018/03/13 15:21:23.000   78.255291632   16.193799211   488.0236   5  11   1.8793   1.3621   5.9002   0.4798   1.1109   1.9952   0.00    0.0
2018/03/13 15:21:24.000   78.255288349   16.193807820   486.3997   5  11   1.8794   1.3621   5.9009   0.4799   1.1111   1.9958   0.00    0.0
2018/03/13 15:21:25.000   78.255288033   16.193807003   485.9021   5  11   1.8795   1.3621   5.9016   0.4800   1.1113   1.9964   0.00    0.0
2018/03/13 15:21:26.000   78.255291986   16.193805966   486.0699   5  11   1.8797   1.3621   5.9024   0.4801   1.1115   1.9970   0.00    0.0
2018/03/13 15:21:27.000   78.255292618   16.193799277   486.1322   5  11   1.8798   1.3621   5.9031   0.4802   1.1117   1.9977   0.00    0.0
2018/03/13 15:21:28.000   78.255290528   16.193810191   485.9288   5  11   1.8799   1.3621   5.9038   0.4803   1.1120   1.9983   0.00    0.0
2018/03/13 15:21:29.000   78.255292538   16.193809202   487.6347   5  11   1.8800   1.3621   5.9045   0.4804   1.1122   1.9989   0.00    0.0
2018/03/13 15:21:30.000   78.255291420   16.193811293   486.7334   5  11   1.8801   1.3621   5.9052   0.4805   1.1124   1.9995   0.00    0.0
2018/03/13 15:21:31.000   78.255289588   16.193813387   486.1951   5  11   1.8802   1.3620   5.9059   0.4806   1.1126   2.0001   0.00    0.0
2018/03/13 15:21:32.000   78.255292525   16.193805453   487.6141   5  11   1.8804   1.3620   5.9066   0.4807   1.1128   2.0008   0.00    0.0
2018/03/13 15:21:33.000   78.255294121   16.193807444   487.5472   5  11   1.8805   1.3620   5.9073   0.4808   1.1130   2.0014   0.00    0.0
2018/03/13 15:21:34.000   78.255289421   16.193835799   487.2169   5   9   3.2379   1.7919  10.1591  -1.5785  -2.6079   5.0673   0.00    0.0
2018/03/13 15:21:35.000   78.255290234   16.193829006   487.1616   5  10   2.7902   1.4417   9.1249  -0.8618  -1.4307   4.2828   0.00    0.0
2018/03/13 15:21:36.000   78.255291658   16.193828293   487.7307   5   9   3.0646   1.4701   9.1683  -1.0523  -1.5166   4.4118   0.00    0.0
2018/03/13 15:21:37.000   78.255289793   16.193801826   484.4620   5   9   2.8191   1.5449  10.0296  -0.7228   0.5119   4.4731   0.00    0.0
2018/03/13 15:21:38.000   78.255293536   16.193800875   485.8525   5   9   2.8195   1.5449  10.0293  -0.7231   0.5101   4.4736   0.00    0.0
2018/03/13 15:21:39.000   78.255294473   16.193812273   487.0976   5  10   1.8844   1.5102   6.3656   0.3999   1.6681   1.9392   0.00    0.0
2018/03/13 15:21:40.000   78.255296893   16.193810475   488.6008   5  10   1.8845   1.5101   6.3658   0.4000   1.6679   1.9399   0.00    0.0
2018/03/13 15:21:41.000   78.255296209   16.193812499   487.2263   5  10   1.8847   1.5101   6.3661   0.4002   1.6678   1.9406   0.00    0.0
2018/03/13 15:21:42.000   78.255289745   16.193812499   486.5117   5  10   1.8848   1.5101   6.3663   0.4004   1.6676   1.9413   0.00    0.0
2018/03/13 15:21:43.000   78.255291895   16.193824790   485.7853   5  10   1.8849   1.5100   6.3665   0.4005   1.6675   1.9420   0.00    0.0
2018/03/13 15:21:44.000   78.255293149   16.193816560   487.5236   5  10   1.8850   1.5100   6.3667   0.4007   1.6673   1.9426   0.00    0.0
2018/03/13 15:21:45.000   78.255288826   16.193818107   486.5743   5  10   1.8851   1.5099   6.3669   0.4008   1.6672   1.9433   0.00    0.0
2018/03/13 15:21:46.000   78.255288898   16.193815282   486.2422   5  10   1.8853   1.5099   6.3671   0.4010   1.6670   1.9440   0.00    0.0
2018/03/13 15:21:47.000   78.255291549   16.193820765   487.2723   5  10   1.8854   1.5098   6.3673   0.4011   1.6669   1.9447   0.00    0.0
2018/03/13 15:21:48.000   78.255294249   16.193810489   489.0736   5   9   2.8229   1.5449  10.0255  -0.7259   0.4920   4.4781   0.00    0.0
2018/03/13 15:21:49.000   78.255286746   16.193828180   487.2190   5   9   2.8233   1.5449  10.0251  -0.7262   0.4901   4.4786   0.00    0.0
2018/03/13 15:21:50.000   78.255288820   16.193827717   485.3625   5   9   2.8236   1.5449  10.0247  -0.7265   0.4883   4.4790   0.00    0.0
2018/03/13 15:21:51.000   78.255291988   16.193815918   486.0958   5   9   2.8239   1.5449  10.0243  -0.7268   0.4864   4.4795   0.00    0.0
2018/03/13 15:21:52.000   78.255292881   16.193813182   485.0398   5   9   2.8243   1.5449  10.0240  -0.7270   0.4845   4.4799   0.00    0.0
2018/03/13 15:21:53.000   78.255292865   16.193803914   486.0929   5   9   2.8246   1.5449  10.0235  -0.7273   0.4827   4.4804   0.00    0.0
2018/03/13 15:21:54.000   78.255283826   16.193824065   483.5412   5   9   2.8250   1.5449  10.0231  -0.7276   0.4808   4.4808   0.00    0.0
2018/03/13 15:21:55.000   78.255296954   16.193810998   487.2658   5  10   1.8863   1.5095   6.3689   0.4024   1.6656   1.9503   0.00    0.0
2018/03/13 15:21:56.000   78.255298144   16.193801541   488.4925   5  10   1.8864   1.5094   6.3691   0.4025   1.6655   1.9509   0.00    0.0
2018/03/13 15:21:57.000   78.255294658   16.193814749   488.2965   5  10   1.8866   1.5094   6.3693   0.4027   1.6653   1.9516   0.00    0.0
2018/03/13 15:21:58.000   78.255294720   16.193825269   487.0458   5  10   1.8867   1.5094   6.3695   0.4028   1.6652   1.9523   0.00    0.0
2018/03/13 15:21:59.000   78.255293769   16.193818714   487.2641   5  10   1.8868   1.5093   6.3697   0.4030   1.6650   1.9530   0.00    0.0
2018/03/13 15:22:00.000   78.255292884   16.193807614   487.4315   5  10   1.8869   1.5093   6.3699   0.4031   1.6649   1.9537   0.00    0.0
2018/03/13 15:22:01.000   78.255295998   16.193807203   486.8246   5  10   1.8870   1.5092   6.3701   0.4033   1.6647   1.9544   0.00    0.0
2018/03/13 15:22:02.000   78.255299728   16.193813857   487.7471   5  10   1.8872   1.5092   6.3703   0.4035   1.6646   1.9551   0.00    0.0
2018/03/13 15:22:03.000   78.255293981   16.193830810   487.5014   5  10   1.8873   1.5091   6.3705   0.4036   1.6644   1.9558   0.00    0.0
2018/03/13 15:22:04.000   78.255295033   16.193819447   488.0283   5  10   1.8874   1.5091   6.3707   0.4038   1.6642   1.9565   0.00    0.0
2018/03/13 15:22:05.000   78.255292571   16.193824698   487.8657   5  10   1.8875   1.5090   6.3709   0.4039   1.6641   1.9572   0.00    0.0
2018/03/13 15:22:06.000   78.255293569   16.193808750   487.1216   5  10   1.8876   1.5090   6.3710   0.4041   1.6639   1.9578   0.00    0.0
2018/03/13 15:22:07.000   78.255293176   16.193819039   487.5824   5  10   1.8878   1.5089   6.3712   0.4042   1.6638   1.9585   0.00    0.0
2018/03/13 15:22:08.000   78.255292976   16.193816301   486.9133   5  10   1.8879   1.5089   6.3714   0.4044   1.6636   1.9592   0.00    0.0
2018/03/13 15:22:09.000   78.255293679   16.193810230   485.7906   5  10   1.8880   1.5089   6.3716   0.4045   1.6634   1.9599   0.00    0.0
2018/03/13 15:22:10.000   78.255292074   16.193823107   486.0954   5  10   1.8881   1.5088   6.3718   0.4047   1.6633   1.9606   0.00    0.0
2018/03/13 15:22:11.000   78.255289633   16.193812660   484.9756   5  10   1.8883   1.5088   6.3720   0.4048   1.6631   1.9613   0.00    0.0
2018/03/13 15:22:12.000   78.255291015   16.193813589   484.8736   5  10   1.8884   1.5087   6.3722   0.4050   1.6630   1.9620   0.00    0.0
2018/03/13 15:22:13.000   78.255291003   16.193814067   485.8198   5  10   1.8885   1.5087   6.3724   0.4051   1.6628   1.9626   0.00    0.0
2018/03/13 15:22:14.000   78.255294406   16.193829930   487.3022   5  10   1.8886   1.5086   6.3726   0.4053   1.6626   1.9633   0.00    0.0
2018/03/13 15:22:15.000   78.255295096   16.193812476   488.1640   5  10   1.8887   1.5086   6.3728   0.4054   1.6625   1.9640   0.00    0.0
2018/03/13 15:22:16.000   78.255297878   16.193811448   487.3287   5  10   1.8889   1.5085   6.3730   0.4056   1.6623   1.9647   0.00    0.0
2018/03/13 15:22:17.000   78.255295189   16.193813839   486.8912   5  10   1.8890   1.5085   6.3731   0.4057   1.6621   1.9654   0.00    0.0
2018/03/13 15:22:18.000   78.255295087   16.193816650   487.3321   5  10   1.8891   1.5085   6.3733   0.4059   1.6620   1.9661   0.00    0.0
2018/03/13 15:22:19.000   78.255299477   16.193804671   488.9115   5  10   1.8892   1.5084   6.3735   0.4060   1.6618   1.9668   0.00    0.0
2018/03/13 15:22:20.000   78.255299778   16.193810523   487.3839   5  10   1.8893   1.5084   6.3737   0.4061   1.6617   1.9674   0.00    0.0
2018/03/13 15:22:21.000   78.255297591   16.193809358   486.7669   5  10   1.8895   1.5083   6.3739   0.4063   1.6615   1.9681   0.00    0.0
2018/03/13 15:22:22.000   78.255299537   16.193816736   487.4248   5  10   1.8896   1.5083   6.3741   0.4064   1.6613   1.9688   0.00    0.0
2018/03/13 15:22:23.000   78.255297748   16.193813697   487.9971   5  10   1.8897   1.5082   6.3743   0.4066   1.6612   1.9695   0.00    0.0
2018/03/13 15:22:24.000   78.255295706   16.193802294   487.8314   5  10   1.8898   1.5082   6.3744   0.4067   1.6610   1.9702   0.00    0.0
2018/03/13 15:22:25.000   78.255296402   16.193812214   487.6878   5  10   1.8900   1.5081   6.3746   0.4069   1.6608   1.9709   0.00    0.0
2018/03/13 15:22:26.000   78.255293725   16.193808317   485.7798   5  10   1.8901   1.5081   6.3748   0.4070   1.6607   1.9716   0.00    0.0
2018/03/13 15:22:27.000   78.255293766   16.193813055   486.9374   5  10   1.8902   1.5080   6.3750   0.4072   1.6605   1.9722   0.00    0.0
2018/03/13 15:22:28.000   78.255297210   16.193808152   487.0447   5  10   1.8903   1.5080   6.3752   0.4073   1.6603   1.9729   0.00    0.0
2018/03/13 15:22:29.000   78.255296824   16.193816618   487.2917   5  10   1.8905   1.5080   6.3753   0.4075   1.6602   1.9736   0.00    0.0
2018/03/13 15:22:30.000   78.255293447   16.193815829   485.4456   5  11   1.8874   1.3614   5.9465   0.4867   1.1247   2.0368   0.00    0.0
2018/03/13 15:22:31.000   78.255293472   16.193805599   485.2199   5  11   1.8876   1.3614   5.9472   0.4868   1.1249   2.0374   0.00    0.0
2018/03/13 15:22:32.000   78.255294267   16.193790253   486.1993   5  11   1.8877   1.3614   5.9479   0.4869   1.1251   2.0380   0.00    0.0
2018/03/13 15:22:33.000   78.255295734   16.193802779   485.7859   5  11   1.8878   1.3614   5.9486   0.4870   1.1253   2.0387   0.00    0.0
2018/03/13 15:22:34.000   78.255293778   16.193791112   485.0953   5  11   1.8879   1.3614   5.9492   0.4871   1.1255   2.0393   0.00    0.0
2018/03/13 15:22:35.000   78.255293067   16.193811855   484.9772   5  11   1.8881   1.3614   5.9499   0.4872   1.1257   2.0399   0.00    0.0
2018/03/13 15:22:36.000   78.255295344   16.193801213   485.1448   5  11   1.8882   1.3613   5.9506   0.4873   1.1259   2.0405   0.00    0.0
2018/03/13 15:22:37.000   78.255294539   16.193806159   485.5773   5  11   1.8883   1.3613   5.9513   0.4874   1.1261   2.0411   0.00    0.0
2018/03/13 15:22:38.000   78.255295927   16.193789182   485.4420   5  11   1.8884   1.3613   5.9519   0.4875   1.1263   2.0417   0.00    0.0
2018/03/13 15:22:39.000   78.255293866   16.193785621   484.6918   5  11   1.8886   1.3613   5.9526   0.4876   1.1264   2.0424   0.00    0.0
2018/03/13 15:22:40.000   78.255295732   16.193812933   485.4669   5  11   1.8887   1.3613   5.9533   0.4877   1.1266   2.0430   0.00    0.0
2018/03/13 15:22:41.000   78.255296002   16.193805806   486.5773   5  10   1.8919   1.5074   6.3775   0.4092   1.6581   1.9818   0.00    0.0
2018/03/13 15:22:42.000   78.255296306   16.193813416   487.4475   5  10   1.8921   1.5074   6.3776   0.4093   1.6579   1.9825   0.00    0.0
2018/03/13 15:22:43.000   78.255296820   16.193805808   488.4800   5  11   1.8891   1.3613   5.9553   0.4880   1.1272   2.0448   0.00    0.0
2018/03/13 15:22:44.000   78.255293974   16.193804088   487.0705   5  11   1.8892   1.3613   5.9559   0.4881   1.1274   2.0455   0.00    0.0
2018/03/13 15:22:45.000   78.255296973   16.193801693   486.5079   5  11   1.8893   1.3612   5.9566   0.4882   1.1276   2.0461   0.00    0.0
2018/03/13 15:22:46.000   78.255300523   16.193803181   486.7281   5  11   1.8894   1.3612   5.9573   0.4883   1.1278   2.0467   0.00    0.0
2018/03/13 15:22:47.000   78.255296533   16.193790289   486.9931   5  11   1.8896   1.3612   5.9580   0.4884   1.1280   2.0473   0.00    0.0
2018/03/13 15:22:48.000   78.255294674   16.193795908   487.5298   5  11   1.8897   1.3612   5.9586   0.4885   1.1282   2.0479   0.00    0.0
2018/03/13 15:22:49.000   78.255295077   16.193793518   486.6512   5  11   1.8898   1.3612   5.9593   0.4886   1.1284   2.0485   0.00    0.0
2018/03/13 15:22:50.000   78.255293667   16.193789883   484.4275   5  11   1.8899   1.3612   5.9600   0.4887   1.1286   2.0492   0.00    0.0
2018/03/13 15:22:51.000   78.255293428   16.193829629   487.0943   5  10   1.8932   1.5069   6.3792   0.4106   1.6564   1.9886   0.00    0.0
2018/03/13 15:22:52.000   78.255294689   16.193811931   487.0623   5  10   1.8933   1.5069   6.3794   0.4107   1.6562   1.9893   0.00    0.0
2018/03/13 15:22:53.000   78.255292084   16.193808458   485.5433   5  10   1.8934   1.5068   6.3795   0.4109   1.6560   1.9899   0.00    0.0
2018/03/13 15:22:54.000   78.255292052   16.193821304   486.1940   5  10   1.8936   1.5068   6.3797   0.4110   1.6558   1.9906   0.00    0.0
2018/03/13 15:22:55.000   78.255293598   16.193821160   487.0485   5  10   1.8937   1.5068   6.3799   0.4111   1.6557   1.9913   0.00    0.0
2018/03/13 15:22:56.000   78.255294499   16.193822345   485.7222   5  10   1.8938   1.5067   6.3800   0.4113   1.6555   1.9920   0.00    0.0
2018/03/13 15:22:57.000   78.255295479   16.193798278   484.8714   5  11   1.8908   1.3611   5.9646   0.4894   1.1299   2.0535   0.00    0.0
2018/03/13 15:22:58.000   78.255294508   16.193795009   485.8467   5  11   1.8909   1.3611   5.9653   0.4895   1.1301   2.0541   0.00    0.0
2018/03/13 15:22:59.000   78.255294083   16.193805878   485.0114   5  11   1.8911   1.3611   5.9659   0.4896   1.1303   2.0547   0.00    0.0
2018/03/13 15:23:00.000   78.255296090   16.193812140   485.3736   5  11   1.8912   1.3611   5.9666   0.4897   1.1304   2.0553   0.00    0.0
2018/03/13 15:23:01.000   78.255294340   16.193800214   484.9464   5  11   1.8913   1.3611   5.9672   0.4898   1.1306   2.0559   0.00    0.0
2018/03/13 15:23:02.000   78.255298557   16.193779971   484.4776   5  11   1.8915   1.3611   5.9679   0.4899   1.1308   2.0566   0.00    0.0
2018/03/13 15:23:03.000   78.255296818   16.193796605   485.0618   5  11   1.8916   1.3610   5.9686   0.4900   1.1310   2.0572   0.00    0.0
2018/03/13 15:23:04.000   78.255300542   16.193785187   485.7669   5  11   1.8917   1.3610   5.9692   0.4901   1.1312   2.0578   0.00    0.0
2018/03/13 15:23:05.000   78.255301112   16.193788404   486.8258   5  11   1.8918   1.3610   5.9699   0.4902   1.1314   2.0584   0.00    0.0
2018/03/13 15:23:06.000   78.255301434   16.193798961   487.6765   5  11   1.8920   1.3610   5.9705   0.4903   1.1316   2.0590   0.00    0.0
2018/03/13 15:23:07.000   78.255298564   16.193788004   485.9705   5  11   1.8921   1.3610   5.9712   0.4904   1.1317   2.0596   0.00    0.0
2018/03/13 15:23:08.000   78.255295770   16.193795035   486.0044   5  11   1.8922   1.3610   5.9719   0.4905   1.1319   2.0603   0.00    0.0
2018/03/13 15:23:09.000   78.255297226   16.193788400   485.7079   5  11   1.8923   1.3610   5.9725   0.4906   1.1321   2.0609   0.00    0.0
2018/03/13 15:23:10.000   78.255296389   16.193805988   486.4267   5  11   1.8925   1.3610   5.9732   0.4907   1.1323   2.0615   0.00    0.0
2018/03/13 15:23:11.000   78.255295658   16.193805235   486.5984   5  11   1.8926   1.3610   5.9738   0.4908   1.1325   2.0621   0.00    0.0
2018/03/13 15:23:12.000   78.255294881   16.193805149   486.0467   5  11   1.8927   1.3609   5.9745   0.4908   1.1327   2.0627   0.00    0.0
2018/03/13 15:23:13.000   78.255294246   16.193810189   487.1627   5  11   1.8929   1.3609   5.9751   0.4909   1.1329   2.0633   0.00    0.0
2018/03/13 15:23:14.000   78.255291637   16.193815735   485.5717   5  11   1.8930   1.3609   5.9758   0.4910   1.1330   2.0640   0.00    0.0
2018/03/13 15:23:15.000   78.255292679   16.193801492   485.7499   5  11   1.8931   1.3609   5.9764   0.4911   1.1332   2.0646   0.00    0.0
2018/03/13 15:23:16.000   78.255294287   16.193820694   486.9665   5  11   1.8932   1.3609   5.9771   0.4912   1.1334   2.0652   0.00    0.0
2018/03/13 15:23:17.000   78.255289313   16.193803225   486.1061   5  11   1.8934   1.3609   5.9777   0.4913   1.1336   2.0658   0.00    0.0
2018/03/13 15:23:18.000   78.255292227   16.193814963   485.0581   5  11   1.8935   1.3609   5.9784   0.4914   1.1338   2.0664   0.00    0.0
2018/03/13 15:23:19.000   78.255296948   16.193816585   486.6655   5  11   1.8936   1.3609   5.9791   0.4915   1.1339   2.0670   0.00    0.0
2018/03/13 15:23:20.000   78.255295972   16.193815722   486.3878   5  11   1.8938   1.3609   5.9797   0.4916   1.1341   2.0676   0.00    0.0
2018/03/13 15:23:21.000   78.255295555   16.193814360   487.0298   5  11   1.8939   1.3608   5.9804   0.4917   1.1343   2.0683   0.00    0.0
2018/03/13 15:23:22.000   78.255295588   16.193814277   487.0120   5  11   1.8940   1.3608   5.9810   0.4918   1.1345   2.0689   0.00    0.0
2018/03/13 15:23:23.000   78.255296938   16.193824657   487.7620   5  11   1.8941   1.3608   5.9817   0.4919   1.1347   2.0695   0.00    0.0
2018/03/13 15:23:24.000   78.255292690   16.193825101   486.1705   5  11   1.8943   1.3608   5.9823   0.4920   1.1349   2.0701   0.00    0.0
2018/03/13 15:23:25.000   78.255293901   16.193813336   486.5349   5  11   1.8944   1.3608   5.9829   0.4921   1.1350   2.0707   0.00    0.0
2018/03/13 15:23:26.000   78.255295449   16.193814068   486.6670   5  11   1.8945   1.3608   5.9836   0.4922   1.1352   2.0713   0.00    0.0
2018/03/13 15:23:27.000   78.255295555   16.193816472   486.9556   5  11   1.8947   1.3608   5.9842   0.4923   1.1354   2.0719   0.00    0.0
2018/03/13 15:23:28.000   78.255296241   16.193819630   487.8556   5  11   1.8948   1.3608   5.9849   0.4924   1.1356   2.0726   0.00    0.0
2018/03/13 15:23:29.000   78.255296744   16.193818835   487.4480   5  11   1.8949   1.3608   5.9855   0.4925   1.1358   2.0732   0.00    0.0
2018/03/13 15:23:30.000   78.255296544   16.193817267   486.7264   5  11   1.8951   1.3607   5.9862   0.4926   1.1359   2.0738   0.00    0.0
2018/03/13 15:23:31.000   78.255296314   16.193816475   487.6424   5  11   1.8952   1.3607   5.9868   0.4927   1.1361   2.0744   0.00    0.0
2018/03/13 15:23:32.000   78.255292611   16.193815713   486.7246   5  11   1.8953   1.3607   5.9875   0.4928   1.1363   2.0750   0.00    0.0
2018/03/13 15:23:33.000   78.255297055   16.193810084   486.7496   5  11   1.8954   1.3607   5.9881   0.4929   1.1365   2.0756   0.00    0.0
2018/03/13 15:23:34.000   78.255295684   16.193807399   486.6347   5  11   1.8956   1.3607   5.9888   0.4930   1.1366   2.0762   0.00    0.0
2018/03/13 15:23:35.000   78.255293045   16.193802898   485.6971   5  11   1.8957   1.3607   5.9894   0.4931   1.1368   2.0768   0.00    0.0
2018/03/13 15:23:36.000   78.255295104   16.193822608   486.9802   5  11   1.8958   1.3607   5.9900   0.4932   1.1370   2.0775   0.00    0.0
2018/03/13 15:23:37.000   78.255292135   16.193817629   486.9621   5  10   1.8991   1.5048   6.3864   0.4167   1.6478   2.0195   0.00    0.0
2018/03/13 15:23:38.000   78.255291886   16.193815621   484.5014   5  11   1.8961   1.3607   5.9913   0.4934   1.1373   2.0787   0.00    0.0
2018/03/13 15:23:39.000   78.255295331   16.193818853   486.4135   5  11   1.8962   1.3606   5.9920   0.4935   1.1375   2.0793   0.00    0.0
2018/03/13 15:23:40.000   78.255292930   16.193816114   486.2892   5  11   1.8964   1.3606   5.9926   0.4936   1.1377   2.0799   0.00    0.0
2018/03/13 15:23:41.000   78.255296280   16.193802910   486.5267   5  11   1.8965   1.3606   5.9932   0.4937   1.1379   2.0805   0.00    0.0
2018/03/13 15:23:42.000   78.255298293   16.193809550   486.9448   5  11   1.8966   1.3606   5.9939   0.4938   1.1380   2.0811   0.00    0.0
2018/03/13 15:23:43.000   78.255302549   16.193817583   488.7968   5  11   1.8967   1.3606   5.9945   0.4939   1.1382   2.0817   0.00    0.0
2018/03/13 15:23:44.000   78.255296136   16.193812898   485.5624   5  11   1.8969   1.3606   5.9952   0.4940   1.1384   2.0824   0.00    0.0
2018/03/13 15:23:45.000   78.255295978   16.193806347   485.7138   5  11   1.8970   1.3606   5.9958   0.4940   1.1386   2.0830   0.00    0.0
2018/03/13 15:23:46.000   78.255291247   16.193806928   485.1440   5  11   1.8971   1.3606   5.9964   0.4941   1.1387   2.0836   0.00    0.0
2018/03/13 15:23:47.000   78.255289623   16.193816530   485.5432   5  11   1.8973   1.3606   5.9971   0.4942   1.1389   2.0842   0.00    0.0
2018/03/13 15:23:48.000   78.255294486   16.193808125   486.4710   5  11   1.8974   1.3605   5.9977   0.4943   1.1391   2.0848   0.00    0.0
2018/03/13 15:23:49.000   78.255293254   16.193807526   486.2283   5  11   1.8975   1.3605   5.9983   0.4944   1.1393   2.0854   0.00    0.0
2018/03/13 15:23:50.000   78.255295741   16.193815717   486.9342   5  11   1.8977   1.3605   5.9990   0.4945   1.1394   2.0860   0.00    0.0
2018/03/13 15:23:51.000   78.255293714   16.193805401   486.7289   5  11   1.8978   1.3605   5.9996   0.4946   1.1396   2.0866   0.00    0.0
2018/03/13 15:23:52.000   78.255294648   16.193821931   486.5062   5  11   1.8979   1.3605   6.0003   0.4947   1.1398   2.0873   0.00    0.0
2018/03/13 15:23:53.000   78.255295139   16.193822168   487.5247   5  11   1.8981   1.3605   6.0009   0.4948   1.1399   2.0879   0.00    0.0
2018/03/13 15:23:54.000   78.255296396   16.193811470   488.9862   5  11   1.8982   1.3605   6.0015   0.4949   1.1401   2.0885   0.00    0.0
2018/03/13 15:23:55.000   78.255297424   16.193819332   487.7243   5  11   1.8983   1.3605   6.0021   0.4950   1.1403   2.0891   0.00    0.0
2018/03/13 15:23:56.000   78.255298272   16.193808287   487.9703   5  11   1.8984   1.3605   6.0028   0.4951   1.1405   2.0897   0.00    0.0
2018/03/13 15:23:57.000   78.255296273   16.193811022   487.3836   5  11   1.8986   1.3604   6.0034   0.4952   1.1406   2.0903   0.00    0.0
2018/03/13 15:23:58.000   78.255295484   16.193797458   486.2488   5  11   1.8987   1.3604   6.0040   0.4953   1.1408   2.0909   0.00    0.0
2018/03/13 15:23:59.000   78.255292889   16.193811763   485.3764   5  11   1.8988   1.3604   6.0047   0.4954   1.1410   2.0915   0.00    0.0
