% program   : RTKPOST ver.2.4.2
% inp file  : Z:\home\linda\Documents\Spring18\GitHub_Unis\data\processed_data\4625074F.obs
% inp file  : Z:\home\linda\Documents\Spring18\GitHub_Unis\data\base_station_data\lyrs0740.18o
% inp file  : Z:\home\linda\Documents\Spring18\GitHub_Unis\data\processed_data\4625074F.nav
% obs start : 2018/03/15 12:47:45.0 GPST (week1992 391665.0s)
% obs end   : 2018/03/15 13:04:41.0 GPST (week1992 392681.0s)
% pos mode  : static
% freqs     : L1+L2
% solution  : forward
% elev mask : 15.0 deg
% dynamics  : on
% tidecorr  : off
% ionos opt : iono-free
% tropo opt : saastamoinen
% ephemeris : broadcast
% navi sys  : gps glonass galileo qzss sbas
% amb res   : fix and hold
% amb glo   : on
% val thres : 3.0
% antenna1  :                       ( 0.0000  0.0000  0.0000)
% antenna2  :                       ( 0.0000  0.0000  0.0000)
% ref pos   : 78.228825638   15.397310064   495.6816
%
% (lat/lon/height=WGS84/ellipsoidal,Q=1:fix,2:float,3:sbas,4:dgps,5:single,6:ppp,ns=# of satellites)
%  GPST                  latitude(deg) longitude(deg)  height(m)   Q  ns   sdn(m)   sde(m)   sdu(m)  sdne(m)  sdeu(m)  sdun(m) age(s)  ratio
2018/03/15 12:47:45.000   78.246691331   16.083860055   627.8792   2   9   1.0300   0.9373   3.8988   0.1187   0.9324   1.0781   0.00    1.1
2018/03/15 12:47:46.000   78.246694958   16.083844081   627.4126   2   9   0.7295   0.6636   2.7698   0.0858   0.6628   0.7667   0.00    1.1
2018/03/15 12:47:47.000   78.246698169   16.083823825   627.8019   2   9   0.5959   0.5420   2.2639   0.0705   0.5418   0.6269   0.00    1.0
2018/03/15 12:47:48.000   78.246701045   16.083806651   627.6141   2   9   0.5162   0.4694   1.9605   0.0612   0.4692   0.5430   0.00    1.0
2018/03/15 12:47:49.000   78.246703172   16.083801356   627.9340   2   9   0.4617   0.4199   1.7525   0.0547   0.4194   0.4854   0.00    1.1
2018/03/15 12:47:50.000   78.246704555   16.083797926   628.1187   2   9   0.4214   0.3833   1.5982   0.0498   0.3824   0.4426   0.00    1.0
2018/03/15 12:47:51.000   78.246704805   16.083796203   628.1251   2   9   0.3901   0.3548   1.4776   0.0459   0.3535   0.4092   0.00    1.0
2018/03/15 12:47:52.000   78.246705911   16.083798329   628.5465   2   9   0.3648   0.3318   1.3799   0.0427   0.3300   0.3821   0.00    1.0
2018/03/15 12:47:53.000   78.246705602   16.083795582   628.6440   2   9   0.3438   0.3128   1.2986   0.0400   0.3104   0.3595   0.00    1.0
2018/03/15 12:47:54.000   78.246705087   16.083799412   628.6464   2   9   0.3261   0.2966   1.2293   0.0376   0.2938   0.3402   0.00    1.1
2018/03/15 12:47:55.000   78.246704237   16.083802537   628.8463   2   9   0.3108   0.2828   1.1693   0.0356   0.2793   0.3235   0.00    1.1
2018/03/15 12:47:56.000   78.246703457   16.083806212   628.9174   2   9   0.2974   0.2706   1.1165   0.0337   0.2666   0.3088   0.00    1.2
2018/03/15 12:47:57.000   78.246704242   16.083811397   629.3560   2   9   0.2856   0.2599   1.0697   0.0320   0.2553   0.2957   0.00    1.1
2018/03/15 12:47:58.000   78.246705335   16.083810202   629.7281   2   9   0.2751   0.2504   1.0276   0.0305   0.2452   0.2839   0.00    1.1
2018/03/15 12:47:59.000   78.246706384   16.083811481   630.0773   2   9   0.2656   0.2418   0.9895   0.0290   0.2360   0.2733   0.00    1.1
2018/03/15 12:48:00.000   78.246707527   16.083810202   630.2820   2   9   0.2570   0.2340   0.9547   0.0277   0.2276   0.2635   0.00    1.0
2018/03/15 12:48:01.000   78.246708957   16.083810047   630.6015   2   9   0.2492   0.2269   0.9228   0.0264   0.2199   0.2545   0.00    1.0
2018/03/15 12:48:02.000   78.246709477   16.083808662   630.7247   2   9   0.2420   0.2204   0.8933   0.0252   0.2127   0.2462   0.00    1.0
2018/03/15 12:48:03.000   78.246709722   16.083807180   630.5738   2   9   0.2354   0.2144   0.8660   0.0241   0.2061   0.2385   0.00    1.0
2018/03/15 12:48:04.000   78.246710062   16.083805008   630.4922   2   9   0.2293   0.2089   0.8405   0.0230   0.1999   0.2313   0.00    1.0
2018/03/15 12:48:05.000   78.246709735   16.083803280   630.1848   2   9   0.2236   0.2037   0.8166   0.0220   0.1941   0.2245   0.00    1.0
2018/03/15 12:48:06.000   78.246709526   16.083801327   630.1081   2   9   0.2183   0.1989   0.7941   0.0210   0.1886   0.2181   0.00    1.0
2018/03/15 12:48:07.000   78.246709494   16.083803174   630.2306   2   9   0.2133   0.1945   0.7730   0.0200   0.1834   0.2121   0.00    1.0
2018/03/15 12:48:08.000   78.246709209   16.083804698   630.3675   2   9   0.2086   0.1902   0.7529   0.0191   0.1786   0.2064   0.00    1.0
2018/03/15 12:48:09.000   78.246709028   16.083805544   630.4737   2   9   0.2043   0.1863   0.7340   0.0182   0.1739   0.2010   0.00    1.0
2018/03/15 12:48:10.000   78.246708763   16.083806978   630.5611   2   9   0.2001   0.1825   0.7160   0.0173   0.1695   0.1958   0.00    1.0
2018/03/15 12:48:11.000   78.246708484   16.083807653   630.5255   2   9   0.1962   0.1790   0.6988   0.0164   0.1653   0.1909   0.00    1.0
2018/03/15 12:48:12.000   78.246708160   16.083808183   630.5753   2   9   0.1925   0.1757   0.6824   0.0155   0.1613   0.1862   0.00    1.0
2018/03/15 12:48:13.000   78.246707684   16.083808538   630.5889   2   9   0.1890   0.1725   0.6667   0.0147   0.1575   0.1817   0.00    1.0
2018/03/15 12:48:14.000   78.246707224   16.083809637   630.5343   2   9   0.1856   0.1695   0.6518   0.0139   0.1538   0.1774   0.00    1.1
2018/03/15 12:48:15.000   78.246706540   16.083808991   630.3285   2   9   0.1824   0.1666   0.6374   0.0130   0.1502   0.1732   0.00    1.1
2018/03/15 12:48:16.000   78.246706078   16.083808297   630.2385   2   9   0.1793   0.1638   0.6236   0.0122   0.1468   0.1692   0.00    1.1
2018/03/15 12:48:17.000   78.246705853   16.083808950   630.1758   2   9   0.1764   0.1612   0.6103   0.0114   0.1436   0.1653   0.00    1.1
2018/03/15 12:48:18.000   78.246706123   16.083807466   630.3153   2   9   0.1736   0.1587   0.5975   0.0106   0.1404   0.1616   0.00    1.1
2018/03/15 12:48:19.000   78.246706460   16.083807523   630.3481   2   9   0.1709   0.1563   0.5851   0.0097   0.1374   0.1580   0.00    1.1
2018/03/15 12:48:20.000   78.246706608   16.083808315   630.4472   2   9   0.1684   0.1540   0.5732   0.0089   0.1344   0.1545   0.00    1.1
2018/03/15 12:48:21.000   78.246706900   16.083808662   630.4477   2   9   0.1659   0.1517   0.5618   0.0080   0.1316   0.1512   0.00    1.0
2018/03/15 12:48:22.000   78.246706840   16.083809961   630.3440   2   9   0.1635   0.1496   0.5507   0.0071   0.1288   0.1479   0.00    1.0
2018/03/15 12:48:23.000   78.246706825   16.083810401   630.2283   2   9   0.1612   0.1475   0.5399   0.0061   0.1262   0.1448   0.00    1.0
2018/03/15 12:48:24.000   78.246706769   16.083812243   630.1646   2   9   0.1590   0.1456   0.5295   0.0051   0.1236   0.1417   0.00    1.0
2018/03/15 12:48:25.000   78.246706789   16.083812002   630.0733   2   9   0.1569   0.1436   0.5194   0.0039   0.1211   0.1387   0.00    1.0
2018/03/15 12:48:26.000   78.246706822   16.083812726   630.0469   2   9   0.1548   0.1418   0.5097   0.0022   0.1187   0.1359   0.00    1.0
2018/03/15 12:48:27.000   78.246707045   16.083813095   630.0330   2   9   0.1528   0.1400   0.5002  -0.0021   0.1163   0.1330   0.00    1.0
2018/03/15 12:48:28.000   78.246706963   16.083813771   630.0916   2   9   0.1509   0.1383   0.4910  -0.0036   0.1140   0.1303   0.00    1.0
2018/03/15 12:48:29.000   78.246706981   16.083813679   630.1564   2   9   0.1491   0.1366   0.4821  -0.0046   0.1118   0.1277   0.00    1.0
2018/03/15 12:48:30.000   78.246706979   16.083813454   630.2813   2   9   0.1473   0.1350   0.4734  -0.0053   0.1096   0.1251   0.00    1.0
2018/03/15 12:48:31.000   78.246707120   16.083813765   630.4096   2   9   0.1455   0.1334   0.4650  -0.0059   0.1075   0.1226   0.00    1.0
2018/03/15 12:48:32.000   78.246707177   16.083814746   630.5001   2   9   0.1438   0.1319   0.4568  -0.0064   0.1055   0.1201   0.00    1.0
2018/03/15 12:48:33.000   78.246707320   16.083814997   630.6051   2   9   0.1422   0.1304   0.4489  -0.0068   0.1035   0.1178   0.00    1.0
2018/03/15 12:48:34.000   78.246707317   16.083815568   630.6684   2   9   0.1406   0.1290   0.4411  -0.0072   0.1016   0.1154   0.00    1.0
2018/03/15 12:48:35.000   78.246707234   16.083815726   630.6777   2   9   0.1390   0.1276   0.4336  -0.0075   0.0997   0.1132   0.00    1.0
2018/03/15 12:48:36.000   78.246707044   16.083815692   630.5330   2   9   0.1375   0.1262   0.4262  -0.0077   0.0978   0.1110   0.00    1.0
2018/03/15 12:48:37.000   78.246706908   16.083815609   630.3972   2   9   0.1360   0.1249   0.4191  -0.0079   0.0960   0.1088   0.00    1.0
2018/03/15 12:48:38.000   78.246707122   16.083815038   630.3916   2   9   0.1346   0.1236   0.4121  -0.0081   0.0943   0.1067   0.00    1.0
2018/03/15 12:48:39.000   78.246707227   16.083814092   630.3899   2   9   0.1332   0.1224   0.4053  -0.0083   0.0926   0.1046   0.00    1.0
2018/03/15 12:48:40.000   78.246707451   16.083813854   630.4396   2   9   0.1318   0.1212   0.3987  -0.0084   0.0909   0.1026   0.00    1.0
2018/03/15 12:48:41.000   78.246707657   16.083813216   630.5178   2   9   0.1305   0.1200   0.3922  -0.0085   0.0893   0.1007   0.00    1.0
2018/03/15 12:48:42.000   78.246707785   16.083813337   630.5708   2   9   0.1292   0.1188   0.3859  -0.0086   0.0877   0.0988   0.00    1.0
2018/03/15 12:48:43.000   78.246707883   16.083813870   630.5825   2   9   0.1280   0.1177   0.3798  -0.0087   0.0861   0.0969   0.00    1.0
2018/03/15 12:48:44.000   78.246707994   16.083813945   630.6484   2   9   0.1267   0.1166   0.3738  -0.0087   0.0846   0.0951   0.00    1.1
2018/03/15 12:48:45.000   78.246708128   16.083814504   630.6844   2   9   0.1255   0.1155   0.3680  -0.0088   0.0831   0.0933   0.00    1.1
2018/03/15 12:48:46.000   78.246708344   16.083814167   630.6849   2   9   0.1243   0.1144   0.3623  -0.0088   0.0817   0.0915   0.00    1.1
2018/03/15 12:48:47.000   78.246708368   16.083813673   630.6534   2   9   0.1232   0.1134   0.3567  -0.0088   0.0803   0.0898   0.00    1.1
2018/03/15 12:48:48.000   78.246708338   16.083813743   630.5839   2   9   0.1221   0.1124   0.3513  -0.0088   0.0789   0.0881   0.00    1.1
2018/03/15 12:48:49.000   78.246708079   16.083814167   630.5365   2   9   0.1210   0.1114   0.3459  -0.0087   0.0776   0.0865   0.00    1.1
2018/03/15 12:48:50.000   78.246707977   16.083813983   630.5420   2   9   0.1199   0.1104   0.3408  -0.0087   0.0762   0.0849   0.00    1.1
2018/03/15 12:48:51.000   78.246708049   16.083813794   630.5959   2   9   0.1189   0.1095   0.3357  -0.0086   0.0750   0.0833   0.00    1.1
2018/03/15 12:48:52.000   78.246708235   16.083812953   630.6788   2   9   0.1178   0.1086   0.3307  -0.0086   0.0737   0.0818   0.00    1.1
2018/03/15 12:48:53.000   78.246708404   16.083812177   630.7396   2   9   0.1168   0.1076   0.3259  -0.0085   0.0725   0.0803   0.00    1.1
2018/03/15 12:48:54.000   78.246708486   16.083811627   630.7785   2   9   0.1158   0.1068   0.3211  -0.0084   0.0713   0.0788   0.00    1.1
2018/03/15 12:48:55.000   78.246708637   16.083811156   630.8177   2   9   0.1149   0.1059   0.3165  -0.0083   0.0701   0.0774   0.00    1.1
2018/03/15 12:48:56.000   78.246708833   16.083811185   630.8094   2   9   0.1139   0.1050   0.3120  -0.0082   0.0689   0.0760   0.00    1.1
2018/03/15 12:48:57.000   78.246708971   16.083810929   630.8218   2   9   0.1130   0.1042   0.3076  -0.0081   0.0678   0.0746   0.00    1.1
2018/03/15 12:48:58.000   78.246708937   16.083811118   630.7838   2   9   0.1121   0.1034   0.3032  -0.0080   0.0667   0.0732   0.00    1.1
2018/03/15 12:48:59.000   78.246709048   16.083810930   630.8020   2   9   0.1112   0.1026   0.2990  -0.0078   0.0656   0.0719   0.00    1.1
2018/03/15 12:49:00.000   78.246709023   16.083810584   630.7626   2   9   0.1103   0.1018   0.2949  -0.0077   0.0645   0.0706   0.00    1.1
2018/03/15 12:49:01.000   78.246708793   16.083811003   630.7492   2   9   0.1094   0.1010   0.2908  -0.0075   0.0635   0.0693   0.00    1.1
2018/03/15 12:49:02.000   78.246708668   16.083811271   630.8405   2   9   0.1086   0.1002   0.2868  -0.0073   0.0625   0.0681   0.00    1.1
2018/03/15 12:49:03.000   78.246708962   16.083811352   630.9889   2   9   0.1078   0.0995   0.2829  -0.0071   0.0615   0.0669   0.00    1.1
2018/03/15 12:49:04.000   78.246709317   16.083811142   631.1892   2   9   0.1070   0.0987   0.2791  -0.0069   0.0605   0.0657   0.00    1.1
2018/03/15 12:49:05.000   78.246709559   16.083811144   631.3450   2   9   0.1062   0.0980   0.2754  -0.0067   0.0595   0.0645   0.00    1.0
2018/03/15 12:49:06.000   78.246709735   16.083811811   631.4721   2   9   0.1054   0.0973   0.2718  -0.0065   0.0586   0.0633   0.00    1.0
2018/03/15 12:49:07.000   78.246709757   16.083812154   631.4661   2   8   0.1047   0.0966   0.2688  -0.0069   0.0577   0.0627   0.00    1.0
2018/03/15 12:49:08.000   78.246709822   16.083812523   631.4635   2   8   0.1041   0.0960   0.2658  -0.0072   0.0568   0.0621   0.00    1.0
2018/03/15 12:49:09.000   78.246710176   16.083812299   631.5105   2   9   0.1033   0.0953   0.2629  -0.0068   0.0560   0.0613   0.00    1.3
2018/03/15 12:49:10.000   78.246710407   16.083812154   631.5537   2   9   0.1026   0.0946   0.2599  -0.0064   0.0553   0.0605   0.00    1.3
2018/03/15 12:49:11.000   78.246710589   16.083811786   631.6051   2   9   0.1019   0.0940   0.2571  -0.0059   0.0545   0.0596   0.00    1.2
2018/03/15 12:49:40.000   78.246710546   16.083811586   631.6134   2   8   0.1015   0.0935   0.2566  -0.0066   0.0544   0.0599   0.00    1.0
2018/03/15 12:49:41.000   78.246710503   16.083811253   631.6290   2   8   0.1011   0.0931   0.2561  -0.0072   0.0542   0.0602   0.00    1.0
2018/03/15 12:49:42.000   78.246711046   16.083809769   631.7163   2   9   0.1006   0.0926   0.2555  -0.0072   0.0542   0.0602   0.00    1.1
2018/03/15 12:49:43.000   78.246711195   16.083809490   631.7433   2   9   0.1001   0.0921   0.2549  -0.0072   0.0541   0.0602   0.00    1.1
2018/03/15 12:49:44.000   78.246711284   16.083809349   631.7544   2   9   0.0996   0.0917   0.2544  -0.0071   0.0540   0.0602   0.00    1.2
2018/03/15 12:49:45.000   78.246711359   16.083808914   631.7454   2   9   0.0991   0.0913   0.2538  -0.0071   0.0540   0.0602   0.00    1.2
2018/03/15 12:49:46.000   78.246711448   16.083808826   631.7345   2   9   0.0986   0.0908   0.2533  -0.0070   0.0539   0.0603   0.00    1.2
2018/03/15 12:49:47.000   78.246711577   16.083808437   631.7281   2   9   0.0982   0.0904   0.2527  -0.0070   0.0539   0.0603   0.00    1.3
2018/03/15 12:49:48.000   78.246711700   16.083808486   631.7205   2   9   0.0977   0.0900   0.2521  -0.0069   0.0538   0.0603   0.00    1.3
2018/03/15 12:49:49.000   78.246711852   16.083807824   631.7104   2   9   0.0973   0.0895   0.2516  -0.0069   0.0537   0.0603   0.00    1.2
2018/03/15 12:49:50.000   78.246712058   16.083807703   631.6950   2   9   0.0968   0.0891   0.2510  -0.0069   0.0537   0.0603   0.00    1.2
2018/03/15 12:49:51.000   78.246712312   16.083807328   631.6984   2   9   0.0964   0.0887   0.2504  -0.0068   0.0536   0.0603   0.00    1.2
2018/03/15 12:49:52.000   78.246712539   16.083807073   631.7087   2   9   0.0959   0.0883   0.2499  -0.0067   0.0535   0.0602   0.00    1.1
2018/03/15 12:49:53.000   78.246712617   16.083807260   631.6979   2   8   0.0956   0.0879   0.2494  -0.0072   0.0533   0.0604   0.00    1.1
2018/03/15 12:49:54.000   78.246712694   16.083807499   631.6952   2   8   0.0952   0.0876   0.2489  -0.0076   0.0532   0.0606   0.00    1.2
2018/03/15 12:49:55.000   78.246712710   16.083807444   631.6925   2   8   0.0949   0.0872   0.2483  -0.0079   0.0530   0.0607   0.00    1.2
2018/03/15 12:49:56.000   78.246712706   16.083807371   631.7015   2   8   0.0945   0.0868   0.2478  -0.0083   0.0528   0.0609   0.00    1.2
2018/03/15 12:49:57.000   78.246712982   16.083806690   631.7518   2   9   0.0941   0.0864   0.2472  -0.0082   0.0527   0.0608   0.00    1.0
2018/03/15 12:49:58.000   78.246713111   16.083806148   631.7881   2   9   0.0937   0.0861   0.2466  -0.0081   0.0526   0.0608   0.00    1.0
2018/03/15 12:49:59.000   78.246713028   16.083805963   631.8045   2   9   0.0933   0.0857   0.2460  -0.0080   0.0526   0.0607   0.00    1.0
2018/03/15 12:50:00.000   78.246712916   16.083806029   631.7872   2   9   0.0929   0.0853   0.2454  -0.0079   0.0525   0.0607   0.00    1.0
2018/03/15 12:50:01.000   78.246712777   16.083806086   631.7662   2   9   0.0925   0.0850   0.2448  -0.0079   0.0524   0.0606   0.00    1.0
2018/03/15 12:50:02.000   78.246712630   16.083806158   631.7425   2   9   0.0921   0.0846   0.2442  -0.0078   0.0523   0.0605   0.00    1.0
2018/03/15 12:50:03.000   78.246712446   16.083806308   631.7145   2   9   0.0917   0.0842   0.2435  -0.0077   0.0522   0.0605   0.00    1.0
2018/03/15 12:50:04.000   78.246712203   16.083806213   631.6692   2   9   0.0914   0.0839   0.2429  -0.0076   0.0521   0.0604   0.00    1.0
2018/03/15 12:50:05.000   78.246712021   16.083806543   631.6331   2   9   0.0910   0.0835   0.2422  -0.0075   0.0519   0.0603   0.00    1.0
2018/03/15 12:50:06.000   78.246711923   16.083806730   631.6191   2   9   0.0906   0.0832   0.2416  -0.0074   0.0518   0.0602   0.00    1.0
2018/03/15 12:50:07.000   78.246711865   16.083807102   631.6319   2   9   0.0902   0.0829   0.2409  -0.0074   0.0517   0.0601   0.00    1.0
2018/03/15 12:50:08.000   78.246711841   16.083807454   631.6276   2   9   0.0899   0.0825   0.2402  -0.0073   0.0516   0.0600   0.00    1.0
2018/03/15 12:50:09.000   78.246711877   16.083807634   631.6361   2   9   0.0895   0.0822   0.2396  -0.0072   0.0515   0.0599   0.00    1.0
2018/03/15 12:50:10.000   78.246712074   16.083807686   631.6506   2   9   0.0891   0.0818   0.2389  -0.0071   0.0513   0.0598   0.00    1.0
2018/03/15 12:50:11.000   78.246712226   16.083807061   631.6657   2   9   0.0888   0.0815   0.2381  -0.0070   0.0512   0.0597   0.00    1.0
2018/03/15 12:50:12.000   78.246712382   16.083806986   631.6852   2   9   0.0884   0.0812   0.2374  -0.0069   0.0510   0.0595   0.00    1.0
2018/03/15 12:50:13.000   78.246712512   16.083806405   631.6929   2   9   0.0881   0.0809   0.2367  -0.0068   0.0509   0.0594   0.00    1.0
2018/03/15 12:50:14.000   78.246712610   16.083805966   631.6826   2   9   0.0877   0.0805   0.2359  -0.0067   0.0508   0.0593   0.00    1.0
2018/03/15 12:50:15.000   78.246712649   16.083805774   631.6641   2   9   0.0874   0.0802   0.2352  -0.0066   0.0506   0.0591   0.00    1.0
2018/03/15 12:50:16.000   78.246712529   16.083805542   631.6275   2   9   0.0870   0.0799   0.2344  -0.0066   0.0504   0.0590   0.00    1.0
2018/03/15 12:50:17.000   78.246712335   16.083805856   631.5998   2   9   0.0867   0.0796   0.2336  -0.0065   0.0503   0.0588   0.00    1.0
2018/03/15 12:50:18.000   78.246712206   16.083806315   631.5750   2   9   0.0863   0.0793   0.2329  -0.0064   0.0501   0.0586   0.00    1.0
2018/03/15 12:50:19.000   78.246712058   16.083806812   631.5891   2   9   0.0860   0.0790   0.2321  -0.0063   0.0500   0.0585   0.00    1.0
2018/03/15 12:50:20.000   78.246712024   16.083806930   631.6198   2   9   0.0857   0.0787   0.2312  -0.0062   0.0498   0.0583   0.00    1.1
2018/03/15 12:50:21.000   78.246711970   16.083806991   631.6479   2   9   0.0853   0.0784   0.2304  -0.0061   0.0496   0.0581   0.00    1.1
2018/03/15 12:50:22.000   78.246711921   16.083806801   631.6614   2   9   0.0850   0.0781   0.2296  -0.0060   0.0494   0.0579   0.00    1.1
2018/03/15 12:50:23.000   78.246711876   16.083806591   631.6732   2   9   0.0847   0.0778   0.2287  -0.0059   0.0492   0.0577   0.00    1.1
2018/03/15 12:50:24.000   78.246711775   16.083806550   631.6824   2   9   0.0844   0.0775   0.2279  -0.0058   0.0490   0.0575   0.00    1.1
2018/03/15 12:50:25.000   78.246711706   16.083806489   631.6731   2   9   0.0840   0.0772   0.2270  -0.0057   0.0488   0.0573   0.00    1.1
2018/03/15 12:50:26.000   78.246711682   16.083806345   631.6417   2   9   0.0837   0.0769   0.2261  -0.0056   0.0486   0.0571   0.00    1.1
2018/03/15 12:50:27.000   78.246711677   16.083806346   631.6202   2   9   0.0834   0.0766   0.2252  -0.0055   0.0484   0.0569   0.00    1.1
2018/03/15 12:50:28.000   78.246711587   16.083806375   631.5900   2   9   0.0831   0.0763   0.2243  -0.0054   0.0482   0.0567   0.00    1.1
2018/03/15 12:50:29.000   78.246711460   16.083806484   631.5495   2   9   0.0828   0.0760   0.2234  -0.0053   0.0480   0.0564   0.00    1.1
2018/03/15 12:50:30.000   78.246711404   16.083806499   631.5242   2   9   0.0825   0.0757   0.2225  -0.0052   0.0478   0.0562   0.00    1.0
2018/03/15 12:50:31.000   78.246711413   16.083806379   631.5240   2   9   0.0821   0.0755   0.2215  -0.0051   0.0476   0.0559   0.00    1.0
2018/03/15 12:50:32.000   78.246711447   16.083806245   631.5348   2   9   0.0818   0.0752   0.2206  -0.0050   0.0474   0.0557   0.00    1.0
2018/03/15 12:50:33.000   78.246711472   16.083806173   631.5436   2   9   0.0815   0.0749   0.2196  -0.0049   0.0472   0.0554   0.00    1.0
2018/03/15 12:50:34.000   78.246711478   16.083806307   631.5438   2   9   0.0812   0.0746   0.2186  -0.0048   0.0469   0.0552   0.00    1.0
2018/03/15 12:50:35.000   78.246711466   16.083806211   631.5405   2   9   0.0809   0.0744   0.2176  -0.0047   0.0467   0.0549   0.00    1.0
2018/03/15 12:50:36.000   78.246711454   16.083806268   631.5411   2   9   0.0806   0.0741   0.2166  -0.0046   0.0465   0.0546   0.00    1.0
2018/03/15 12:50:37.000   78.246711442   16.083806688   631.5385   2   9   0.0803   0.0738   0.2156  -0.0045   0.0462   0.0544   0.00    1.0
2018/03/15 12:50:38.000   78.246711318   16.083806766   631.5464   2   9   0.0800   0.0735   0.2146  -0.0044   0.0460   0.0541   0.00    1.0
2018/03/15 12:50:39.000   78.246711169   16.083806777   631.5263   2   9   0.0797   0.0733   0.2136  -0.0043   0.0457   0.0538   0.00    1.0
2018/03/15 12:50:40.000   78.246711046   16.083807068   631.5154   2   9   0.0794   0.0730   0.2126  -0.0042   0.0455   0.0535   0.00    1.0
2018/03/15 12:50:41.000   78.246710880   16.083807326   631.5014   2   9   0.0791   0.0727   0.2115  -0.0041   0.0452   0.0532   0.00    1.0
2018/03/15 12:50:42.000   78.246710850   16.083807542   631.4951   2   9   0.0788   0.0725   0.2105  -0.0040   0.0450   0.0529   0.00    1.0
2018/03/15 12:50:43.000   78.246710792   16.083807440   631.5062   2   9   0.0786   0.0722   0.2094  -0.0039   0.0447   0.0526   0.00    1.0
2018/03/15 12:50:44.000   78.246710751   16.083807261   631.5238   2   9   0.0783   0.0720   0.2083  -0.0037   0.0445   0.0523   0.00    1.0
2018/03/15 12:50:45.000   78.246710712   16.083807304   631.5237   2   9   0.0780   0.0717   0.2073  -0.0036   0.0442   0.0520   0.00    1.0
2018/03/15 12:50:46.000   78.246710666   16.083807028   631.5305   2   9   0.0777   0.0714   0.2062  -0.0035   0.0439   0.0517   0.00    1.0
2018/03/15 12:50:47.000   78.246710627   16.083806891   631.5333   2   9   0.0774   0.0712   0.2051  -0.0034   0.0437   0.0514   0.00    1.0
2018/03/15 12:50:48.000   78.246710556   16.083806797   631.5329   2   9   0.0771   0.0709   0.2040  -0.0032   0.0434   0.0510   0.00    1.0
2018/03/15 12:50:49.000   78.246710437   16.083806785   631.5231   2   9   0.0768   0.0707   0.2029  -0.0031   0.0431   0.0507   0.00    1.0
2018/03/15 12:50:50.000   78.246710327   16.083806883   631.5136   2   9   0.0766   0.0704   0.2018  -0.0029   0.0428   0.0504   0.00    1.0
2018/03/15 12:50:51.000   78.246710253   16.083806867   631.4964   2   9   0.0763   0.0702   0.2007  -0.0028   0.0426   0.0500   0.00    1.0
2018/03/15 12:50:52.000   78.246710174   16.083806891   631.4852   2   9   0.0760   0.0699   0.1996  -0.0026   0.0423   0.0497   0.00    1.0
2018/03/15 12:50:53.000   78.246710154   16.083806655   631.4735   2   9   0.0757   0.0697   0.1984  -0.0024   0.0420   0.0494   0.00    1.0
2018/03/15 12:50:54.000   78.246710148   16.083806700   631.4666   2   9   0.0755   0.0694   0.1973  -0.0022   0.0417   0.0490   0.00    1.0
2018/03/15 12:50:55.000   78.246710144   16.083806562   631.4636   2   9   0.0752   0.0692   0.1962  -0.0020   0.0414   0.0487   0.00    1.0
2018/03/15 12:50:56.000   78.246710175   16.083806593   631.4605   2   9   0.0749   0.0689   0.1950  -0.0017   0.0412   0.0483   0.00    1.0
2018/03/15 12:50:57.000   78.246710261   16.083806519   631.4635   2   9   0.0746   0.0687   0.1939  -0.0015   0.0409   0.0480   0.00    1.0
2018/03/15 12:50:58.000   78.246710400   16.083806355   631.4711   2   9   0.0744   0.0685   0.1928  -0.0011   0.0406   0.0476   0.00    1.0
2018/03/15 12:50:59.000   78.246710450   16.083806112   631.4796   2   9   0.0741   0.0682   0.1916  -0.0005   0.0403   0.0473   0.00    1.0
2018/03/15 12:51:00.000   78.246710496   16.083805794   631.4770   2   9   0.0738   0.0680   0.1905   0.0008   0.0400   0.0469   0.00    1.0
2018/03/15 12:51:01.000   78.246710512   16.083805583   631.4815   2   9   0.0736   0.0677   0.1893   0.0013   0.0397   0.0465   0.00    1.0
2018/03/15 12:51:02.000   78.246710449   16.083805477   631.4889   2   9   0.0733   0.0675   0.1882   0.0016   0.0394   0.0462   0.00    1.0
2018/03/15 12:51:03.000   78.246710304   16.083805416   631.4922   2   9   0.0731   0.0673   0.1870   0.0019   0.0391   0.0458   0.00    1.0
2018/03/15 12:51:04.000   78.246710159   16.083805706   631.4878   2   9   0.0728   0.0670   0.1859   0.0021   0.0388   0.0455   0.00    1.0
2018/03/15 12:51:05.000   78.246710039   16.083805941   631.4894   2   9   0.0725   0.0668   0.1847   0.0023   0.0385   0.0451   0.00    1.1
2018/03/15 12:51:06.000   78.246709954   16.083806271   631.4884   2   9   0.0723   0.0666   0.1836   0.0025   0.0382   0.0447   0.00    1.1
2018/03/15 12:51:07.000   78.246709872   16.083806397   631.4953   2   9   0.0720   0.0664   0.1824   0.0027   0.0379   0.0443   0.00    1.1
2018/03/15 12:51:08.000   78.246709860   16.083806570   631.5090   2   9   0.0718   0.0661   0.1813   0.0029   0.0376   0.0440   0.00    1.1
2018/03/15 12:51:09.000   78.246709913   16.083806459   631.5199   2   9   0.0715   0.0659   0.1802   0.0031   0.0374   0.0436   0.00    1.1
2018/03/15 12:51:10.000   78.246709984   16.083806391   631.5204   2   9   0.0713   0.0657   0.1790   0.0032   0.0371   0.0432   0.00    1.1
2018/03/15 12:51:11.000   78.246710017   16.083806472   631.5080   2   9   0.0710   0.0654   0.1779   0.0034   0.0368   0.0429   0.00    1.1
2018/03/15 12:51:12.000   78.246710032   16.083806606   631.4976   2   9   0.0707   0.0652   0.1767   0.0035   0.0365   0.0425   0.00    1.1
2018/03/15 12:51:13.000   78.246710028   16.083806934   631.4829   2   9   0.0705   0.0650   0.1756   0.0037   0.0362   0.0421   0.00    1.1
2018/03/15 12:51:14.000   78.246709970   16.083807243   631.4791   2   9   0.0702   0.0648   0.1744   0.0038   0.0359   0.0417   0.00    1.1
2018/03/15 12:51:15.000   78.246709931   16.083807315   631.4833   2   9   0.0700   0.0646   0.1733   0.0040   0.0356   0.0414   0.00    1.1
2018/03/15 12:51:16.000   78.246709875   16.083807390   631.4927   2   9   0.0698   0.0643   0.1722   0.0041   0.0353   0.0410   0.00    1.1
2018/03/15 12:51:17.000   78.246709841   16.083807381   631.5069   2   9   0.0695   0.0641   0.1710   0.0042   0.0350   0.0406   0.00    1.1
2018/03/15 12:51:18.000   78.246709801   16.083807447   631.5247   2   9   0.0693   0.0639   0.1699   0.0043   0.0347   0.0402   0.00    1.1
2018/03/15 12:51:19.000   78.246709815   16.083807469   631.5366   2   9   0.0690   0.0637   0.1688   0.0045   0.0344   0.0399   0.00    1.1
2018/03/15 12:51:20.000   78.246709800   16.083807574   631.5408   2   9   0.0688   0.0635   0.1677   0.0046   0.0341   0.0395   0.00    1.1
2018/03/15 12:51:21.000   78.246709801   16.083807662   631.5374   2   9   0.0685   0.0633   0.1666   0.0047   0.0338   0.0391   0.00    1.1
2018/03/15 12:51:22.000   78.246709840   16.083807817   631.5241   2   9   0.0683   0.0630   0.1654   0.0048   0.0335   0.0387   0.00    1.1
2018/03/15 12:51:23.000   78.246709891   16.083807626   631.5144   2   9   0.0681   0.0628   0.1643   0.0049   0.0332   0.0384   0.00    1.1
2018/03/15 12:51:24.000   78.246709884   16.083807428   631.4999   2   9   0.0678   0.0626   0.1632   0.0051   0.0329   0.0380   0.00    1.1
2018/03/15 12:51:25.000   78.246709842   16.083807293   631.5011   2   9   0.0676   0.0624   0.1621   0.0052   0.0327   0.0376   0.00    1.1
2018/03/15 12:51:26.000   78.246709753   16.083807301   631.5051   2   9   0.0674   0.0622   0.1610   0.0053   0.0324   0.0372   0.00    1.1
2018/03/15 12:51:27.000   78.246709650   16.083807418   631.5134   2   9   0.0671   0.0620   0.1600   0.0054   0.0321   0.0369   0.00    1.1
2018/03/15 12:51:28.000   78.246709578   16.083807733   631.5105   2   9   0.0669   0.0618   0.1589   0.0055   0.0318   0.0365   0.00    1.1
2018/03/15 12:51:29.000   78.246709514   16.083808037   631.5002   2   9   0.0667   0.0616   0.1578   0.0056   0.0315   0.0361   0.00    1.1
2018/03/15 12:51:30.000   78.246709465   16.083808378   631.4898   2   9   0.0664   0.0614   0.1567   0.0057   0.0312   0.0357   0.00    1.1
2018/03/15 12:51:31.000   78.246709419   16.083808740   631.4833   2   9   0.0662   0.0612   0.1557   0.0058   0.0309   0.0354   0.00    1.1
2018/03/15 12:51:32.000   78.246709413   16.083808883   631.4719   2   9   0.0660   0.0610   0.1546   0.0059   0.0307   0.0350   0.00    1.1
2018/03/15 12:51:33.000   78.246709443   16.083808892   631.4655   2   9   0.0658   0.0608   0.1536   0.0060   0.0304   0.0346   0.00    1.1
2018/03/15 12:51:34.000   78.246709474   16.083808921   631.4472   2   9   0.0655   0.0606   0.1525   0.0061   0.0301   0.0343   0.00    1.1
2018/03/15 12:51:35.000   78.246709489   16.083808879   631.4342   2   9   0.0653   0.0604   0.1515   0.0062   0.0298   0.0339   0.00    1.1
2018/03/15 12:51:36.000   78.246709518   16.083808834   631.4227   2   9   0.0651   0.0602   0.1504   0.0063   0.0295   0.0335   0.00    1.1
2018/03/15 12:51:37.000   78.246709528   16.083808835   631.4125   2   9   0.0649   0.0600   0.1494   0.0064   0.0293   0.0332   0.00    1.1
2018/03/15 12:51:38.000   78.246709481   16.083809177   631.4043   2   9   0.0646   0.0598   0.1484   0.0065   0.0290   0.0328   0.00    1.1
2018/03/15 12:51:39.000   78.246709408   16.083809454   631.4048   2   9   0.0644   0.0596   0.1474   0.0066   0.0287   0.0325   0.00    1.1
2018/03/15 12:51:40.000   78.246709295   16.083809768   631.4075   2   9   0.0642   0.0594   0.1464   0.0067   0.0285   0.0321   0.00    1.1
2018/03/15 12:51:41.000   78.246709183   16.083810035   631.4172   2   9   0.0640   0.0592   0.1454   0.0068   0.0282   0.0318   0.00    1.1
2018/03/15 12:51:42.000   78.246709071   16.083810302   631.4263   2   9   0.0638   0.0590   0.1444   0.0069   0.0279   0.0314   0.00    1.1
2018/03/15 12:51:43.000   78.246709013   16.083810515   631.4320   2   9   0.0636   0.0588   0.1434   0.0070   0.0277   0.0310   0.00    1.1
2018/03/15 12:51:44.000   78.246708957   16.083810756   631.4385   2   9   0.0633   0.0586   0.1424   0.0070   0.0274   0.0307   0.00    1.1
2018/03/15 12:51:45.000   78.246708973   16.083810909   631.4342   2   9   0.0631   0.0584   0.1414   0.0071   0.0271   0.0303   0.00    1.1
2018/03/15 12:51:46.000   78.246708989   16.083810955   631.4205   2   9   0.0629   0.0582   0.1405   0.0072   0.0269   0.0300   0.00    1.0
2018/03/15 12:51:47.000   78.246709034   16.083810860   631.4132   2   9   0.0627   0.0580   0.1395   0.0073   0.0266   0.0296   0.00    1.0
2018/03/15 12:51:48.000   78.246709088   16.083810629   631.4000   2   9   0.0625   0.0579   0.1386   0.0074   0.0263   0.0293   0.00    1.0
2018/03/15 12:51:49.000   78.246709113   16.083810346   631.3940   2   9   0.0623   0.0577   0.1376   0.0075   0.0261   0.0289   0.00    1.0
2018/03/15 12:51:50.000   78.246709094   16.083810223   631.3921   2   9   0.0621   0.0575   0.1367   0.0076   0.0258   0.0286   0.00    1.0
2018/03/15 12:51:51.000   78.246709065   16.083810161   631.3859   2   9   0.0619   0.0573   0.1357   0.0076   0.0256   0.0283   0.00    1.0
2018/03/15 12:51:52.000   78.246709073   16.083810131   631.3725   2   9   0.0617   0.0571   0.1348   0.0077   0.0253   0.0279   0.00    1.0
2018/03/15 12:51:53.000   78.246709031   16.083810182   631.3579   2   9   0.0615   0.0569   0.1339   0.0078   0.0251   0.0276   0.00    1.0
2018/03/15 12:51:54.000   78.246709027   16.083810366   631.3485   2   9   0.0613   0.0568   0.1330   0.0079   0.0248   0.0272   0.00    1.0
2018/03/15 12:51:55.000   78.246709029   16.083810472   631.3325   2   9   0.0611   0.0566   0.1321   0.0080   0.0246   0.0269   0.00    1.0
2018/03/15 12:51:56.000   78.246709066   16.083810333   631.3246   2   9   0.0609   0.0564   0.1312   0.0080   0.0243   0.0266   0.00    1.0
2018/03/15 12:51:57.000   78.246709080   16.083810187   631.3119   2   9   0.0607   0.0562   0.1303   0.0081   0.0241   0.0262   0.00    1.0
2018/03/15 12:51:58.000   78.246709128   16.083810191   631.3006   2   9   0.0605   0.0560   0.1294   0.0082   0.0238   0.0259   0.00    1.0
2018/03/15 12:51:59.000   78.246709156   16.083810094   631.2953   2   9   0.0603   0.0559   0.1286   0.0083   0.0236   0.0256   0.00    1.0
2018/03/15 12:52:00.000   78.246709172   16.083809967   631.2912   2   9   0.0601   0.0557   0.1277   0.0083   0.0234   0.0253   0.00    1.0
2018/03/15 12:52:01.000   78.246709175   16.083809955   631.2831   2   9   0.0599   0.0555   0.1269   0.0084   0.0231   0.0249   0.00    1.0
2018/03/15 12:52:02.000   78.246709188   16.083810109   631.2789   2   9   0.0597   0.0553   0.1260   0.0085   0.0229   0.0246   0.00    1.0
2018/03/15 12:52:03.000   78.246709160   16.083810192   631.2774   2   9   0.0595   0.0552   0.1252   0.0086   0.0227   0.0243   0.00    1.0
2018/03/15 12:52:04.000   78.246709123   16.083810331   631.2786   2   9   0.0593   0.0550   0.1243   0.0086   0.0224   0.0240   0.00    1.0
2018/03/15 12:52:05.000   78.246709081   16.083810214   631.2769   2   9   0.0591   0.0548   0.1235   0.0087   0.0222   0.0236   0.00    1.0
2018/03/15 12:52:06.000   78.246709027   16.083810037   631.2737   2   9   0.0589   0.0546   0.1227   0.0088   0.0220   0.0233   0.00    1.0
2018/03/15 12:52:07.000   78.246709001   16.083809922   631.2651   2   9   0.0587   0.0545   0.1219   0.0088   0.0217   0.0230   0.00    1.0
2018/03/15 12:52:08.000   78.246708974   16.083810009   631.2527   2   9   0.0585   0.0543   0.1211   0.0089   0.0215   0.0227   0.00    1.0
2018/03/15 12:52:09.000   78.246708995   16.083809981   631.2458   2   9   0.0583   0.0541   0.1203   0.0090   0.0213   0.0224   0.00    1.0
2018/03/15 12:52:10.000   78.246709020   16.083809967   631.2433   2   9   0.0581   0.0540   0.1195   0.0090   0.0211   0.0221   0.00    1.0
2018/03/15 12:52:11.000   78.246709062   16.083809945   631.2419   2   9   0.0580   0.0538   0.1187   0.0091   0.0209   0.0218   0.00    1.0
2018/03/15 12:52:12.000   78.246709052   16.083810093   631.2412   2   9   0.0578   0.0536   0.1179   0.0092   0.0206   0.0214   0.00    1.0
2018/03/15 12:52:13.000   78.246709086   16.083810148   631.2423   2   9   0.0576   0.0535   0.1171   0.0092   0.0204   0.0211   0.00    1.0
2018/03/15 12:52:14.000   78.246709105   16.083810139   631.2393   2   9   0.0574   0.0533   0.1164   0.0093   0.0202   0.0208   0.00    1.0
2018/03/15 12:52:15.000   78.246709122   16.083810343   631.2375   2   9   0.0572   0.0531   0.1156   0.0094   0.0200   0.0205   0.00    1.0
2018/03/15 12:52:16.000   78.246709115   16.083810445   631.2315   2   9   0.0570   0.0530   0.1149   0.0094   0.0198   0.0202   0.00    1.0
2018/03/15 12:52:17.000   78.246709140   16.083810623   631.2256   2   9   0.0569   0.0528   0.1141   0.0095   0.0196   0.0199   0.00    1.0
2018/03/15 12:52:18.000   78.246709163   16.083810744   631.2118   2   9   0.0567   0.0526   0.1134   0.0095   0.0194   0.0196   0.00    1.0
2018/03/15 12:52:19.000   78.246709178   16.083810685   631.2014   2   9   0.0565   0.0525   0.1127   0.0096   0.0191   0.0193   0.00    1.0
2018/03/15 12:52:20.000   78.246709173   16.083810646   631.1957   2   9   0.0563   0.0523   0.1119   0.0097   0.0189   0.0190   0.00    1.0
2018/03/15 12:52:21.000   78.246709147   16.083810790   631.1934   2   9   0.0562   0.0522   0.1112   0.0097   0.0187   0.0187   0.00    1.0
2018/03/15 12:52:22.000   78.246709151   16.083810927   631.2002   2   9   0.0560   0.0520   0.1105   0.0098   0.0185   0.0184   0.00    1.0
2018/03/15 12:52:23.000   78.246709143   16.083810928   631.2054   2   9   0.0558   0.0519   0.1098   0.0098   0.0183   0.0181   0.00    1.0
2018/03/15 12:52:24.000   78.246709149   16.083810968   631.2056   2   9   0.0556   0.0517   0.1091   0.0099   0.0181   0.0178   0.00    1.0
2018/03/15 12:52:25.000   78.246709141   16.083811005   631.2059   2   9   0.0555   0.0515   0.1084   0.0099   0.0179   0.0175   0.00    1.0
2018/03/15 12:52:26.000   78.246709137   16.083811039   631.2020   2   9   0.0553   0.0514   0.1077   0.0100   0.0177   0.0172   0.00    1.0
2018/03/15 12:52:27.000   78.246709160   16.083811082   631.1930   2   9   0.0551   0.0512   0.1071   0.0100   0.0175   0.0170   0.00    1.0
2018/03/15 12:52:28.000   78.246709196   16.083811064   631.1777   2   9   0.0549   0.0511   0.1064   0.0101   0.0173   0.0167   0.00    1.0
2018/03/15 12:52:29.000   78.246709236   16.083811077   631.1554   2   9   0.0548   0.0509   0.1057   0.0101   0.0171   0.0164   0.00    1.0
2018/03/15 12:52:30.000   78.246709252   16.083811155   631.1395   2   9   0.0546   0.0508   0.1051   0.0102   0.0170   0.0161   0.00    1.0
2018/03/15 12:52:31.000   78.246709278   16.083811111   631.1294   2   9   0.0544   0.0506   0.1044   0.0102   0.0168   0.0158   0.00    1.0
2018/03/15 12:52:32.000   78.246709277   16.083811117   631.1255   2   9   0.0543   0.0505   0.1038   0.0103   0.0166   0.0155   0.00    1.0
2018/03/15 12:52:33.000   78.246709286   16.083811184   631.1325   2   9   0.0541   0.0503   0.1031   0.0103   0.0164   0.0152   0.00    1.0
2018/03/15 12:52:34.000   78.246709305   16.083811184   631.1392   2   9   0.0539   0.0502   0.1025   0.0104   0.0162   0.0149   0.00    1.0
2018/03/15 12:52:35.000   78.246709300   16.083811302   631.1509   2   9   0.0538   0.0500   0.1019   0.0104   0.0160   0.0146   0.00    1.0
2018/03/15 12:52:36.000   78.246709300   16.083811440   631.1590   2   9   0.0536   0.0499   0.1012   0.0105   0.0158   0.0143   0.00    1.0
2018/03/15 12:52:37.000   78.246709309   16.083811549   631.1678   2   9   0.0534   0.0497   0.1006   0.0105   0.0156   0.0141   0.00    1.0
2018/03/15 12:52:38.000   78.246709305   16.083811612   631.1669   2   9   0.0533   0.0496   0.1000   0.0106   0.0155   0.0138   0.00    1.0
2018/03/15 12:52:39.000   78.246709296   16.083811637   631.1637   2   9   0.0531   0.0494   0.0994   0.0106   0.0153   0.0135   0.00    1.0
2018/03/15 12:52:40.000   78.246709294   16.083811765   631.1520   2   9   0.0530   0.0493   0.0988   0.0107   0.0151   0.0132   0.00    1.0
2018/03/15 12:52:41.000   78.246709300   16.083811701   631.1389   2   9   0.0528   0.0491   0.0982   0.0107   0.0149   0.0129   0.00    1.0
2018/03/15 12:52:42.000   78.246709282   16.083811699   631.1237   2   9   0.0526   0.0490   0.0976   0.0107   0.0148   0.0126   0.00    1.0
2018/03/15 12:52:43.000   78.246709286   16.083811617   631.1126   2   9   0.0525   0.0489   0.0971   0.0108   0.0146   0.0123   0.00    1.0
2018/03/15 12:52:44.000   78.246709288   16.083811560   631.1092   2   9   0.0523   0.0487   0.0965   0.0108   0.0144   0.0120   0.00    1.0
2018/03/15 12:52:45.000   78.246709286   16.083811650   631.1107   2   9   0.0522   0.0486   0.0959   0.0109   0.0142   0.0117   0.00    1.0
2018/03/15 12:52:46.000   78.246709252   16.083811786   631.1244   2   9   0.0520   0.0484   0.0953   0.0109   0.0141   0.0114   0.00    1.0
2018/03/15 12:52:47.000   78.246709234   16.083811967   631.1374   2   9   0.0519   0.0483   0.0948   0.0109   0.0139   0.0112   0.00    1.0
2018/03/15 12:52:48.000   78.246709230   16.083812112   631.1511   2   9   0.0517   0.0481   0.0942   0.0110   0.0137   0.0109   0.00    1.1
2018/03/15 12:52:49.000   78.246709241   16.083812275   631.1582   2   9   0.0516   0.0480   0.0937   0.0110   0.0136   0.0106   0.00    1.1
2018/03/15 12:52:50.000   78.246709251   16.083812459   631.1620   2   9   0.0514   0.0479   0.0931   0.0111   0.0134   0.0103   0.00    1.1
2018/03/15 12:52:51.000   78.246709261   16.083812586   631.1554   2   9   0.0512   0.0477   0.0926   0.0111   0.0132   0.0100   0.00    1.1
2018/03/15 12:52:52.000   78.246709294   16.083812593   631.1472   2   9   0.0511   0.0476   0.0920   0.0111   0.0131   0.0096   0.00    1.1
2018/03/15 12:52:53.000   78.246709353   16.083812608   631.1347   2   9   0.0509   0.0475   0.0915   0.0112   0.0129   0.0093   0.00    1.1
2018/03/15 12:52:54.000   78.246709391   16.083812727   631.1209   2   9   0.0508   0.0473   0.0910   0.0112   0.0127   0.0090   0.00    1.1
2018/03/15 12:52:55.000   78.246709413   16.083812803   631.1042   2   9   0.0506   0.0472   0.0905   0.0112   0.0126   0.0087   0.00    1.1
2018/03/15 12:52:56.000   78.246709449   16.083812985   631.0924   2   9   0.0505   0.0471   0.0900   0.0113   0.0124   0.0084   0.00    1.1
2018/03/15 12:52:57.000   78.246709482   16.083813081   631.0872   2   9   0.0504   0.0469   0.0894   0.0113   0.0122   0.0081   0.00    1.1
2018/03/15 12:52:58.000   78.246709506   16.083813153   631.0895   2   9   0.0502   0.0468   0.0889   0.0113   0.0121   0.0077   0.00    1.1
2018/03/15 12:52:59.000   78.246709501   16.083813144   631.0911   2   9   0.0501   0.0467   0.0884   0.0114   0.0119   0.0074   0.00    1.1
2018/03/15 12:53:00.000   78.246709513   16.083813240   631.0949   2   9   0.0499   0.0465   0.0879   0.0114   0.0118   0.0070   0.00    1.1
2018/03/15 12:53:01.000   78.246709493   16.083813369   631.1003   2   9   0.0498   0.0464   0.0875   0.0114   0.0116   0.0067   0.00    1.1
2018/03/15 12:53:02.000   78.246709461   16.083813509   631.1059   2   9   0.0496   0.0463   0.0870   0.0115   0.0115   0.0063   0.00    1.1
2018/03/15 12:53:03.000   78.246709425   16.083813496   631.1088   2   9   0.0495   0.0461   0.0865   0.0115   0.0113   0.0059   0.00    1.1
2018/03/15 12:53:04.000   78.246709383   16.083813574   631.1095   2   9   0.0493   0.0460   0.0860   0.0115   0.0112   0.0055   0.00    1.1
2018/03/15 12:53:05.000   78.246709350   16.083813729   631.1094   2   9   0.0492   0.0459   0.0855   0.0115   0.0110   0.0050   0.00    1.1
2018/03/15 12:53:06.000   78.246709295   16.083813740   631.1075   2   9   0.0491   0.0458   0.0851   0.0116   0.0108   0.0046   0.00    1.1
2018/03/15 12:53:07.000   78.246709260   16.083813902   631.1025   2   9   0.0489   0.0456   0.0846   0.0116   0.0107   0.0041   0.00    1.1
2018/03/15 12:53:08.000   78.246709242   16.083813995   631.1016   2   9   0.0488   0.0455   0.0841   0.0116   0.0105   0.0035   0.00    1.1
2018/03/15 12:53:09.000   78.246709254   16.083814082   631.0984   2   9   0.0486   0.0454   0.0837   0.0116   0.0104   0.0029   0.00    1.1
2018/03/15 12:53:10.000   78.246709262   16.083814109   631.0955   2   9   0.0485   0.0452   0.0832   0.0117   0.0102   0.0020   0.00    1.1
2018/03/15 12:53:11.000   78.246709278   16.083814131   631.1000   2   9   0.0484   0.0451   0.0828   0.0117   0.0101   0.0003   0.00    1.1
2018/03/15 12:53:12.000   78.246709285   16.083814113   631.1047   2   9   0.0482   0.0450   0.0823   0.0117   0.0100  -0.0020   0.00    1.1
2018/03/15 12:53:13.000   78.246709280   16.083814139   631.1127   2   9   0.0481   0.0449   0.0819   0.0117   0.0098  -0.0028   0.00    1.2
2018/03/15 12:53:14.000   78.246709263   16.083814191   631.1188   2   9   0.0480   0.0448   0.0815   0.0118   0.0097  -0.0034   0.00    1.2
2018/03/15 12:53:15.000   78.246709258   16.083814194   631.1197   2   9   0.0478   0.0446   0.0810   0.0118   0.0095  -0.0039   0.00    1.2
2018/03/15 12:53:16.000   78.246709257   16.083814132   631.1155   2   9   0.0477   0.0445   0.0806   0.0118   0.0094  -0.0043   0.00    1.2
2018/03/15 12:53:17.000   78.246709254   16.083814112   631.1119   2   9   0.0476   0.0444   0.0802   0.0118   0.0092  -0.0047   0.00    1.2
2018/03/15 12:53:18.000   78.246709284   16.083813960   631.1044   2   9   0.0474   0.0443   0.0797   0.0119   0.0091  -0.0051   0.00    1.2
2018/03/15 12:53:19.000   78.246709313   16.083813877   631.0978   2   9   0.0473   0.0441   0.0793   0.0119   0.0089  -0.0054   0.00    1.2
2018/03/15 12:53:20.000   78.246709339   16.083813785   631.0905   2   9   0.0472   0.0440   0.0789   0.0119   0.0088  -0.0057   0.00    1.2
2018/03/15 12:53:21.000   78.246709358   16.083813621   631.0869   2   9   0.0470   0.0439   0.0785   0.0119   0.0086  -0.0060   0.00    1.2
2018/03/15 12:53:22.000   78.246709386   16.083813592   631.0875   2   9   0.0469   0.0438   0.0781   0.0119   0.0085  -0.0062   0.00    1.2
2018/03/15 12:53:23.000   78.246709403   16.083813585   631.0905   2   9   0.0468   0.0437   0.0777   0.0120   0.0084  -0.0065   0.00    1.2
2018/03/15 12:53:24.000   78.246709396   16.083813525   631.0962   2   9   0.0466   0.0436   0.0773   0.0120   0.0082  -0.0067   0.00    1.2
2018/03/15 12:53:25.000   78.246709381   16.083813498   631.1040   2   9   0.0465   0.0434   0.0769   0.0120   0.0081  -0.0069   0.00    1.2
2018/03/15 12:53:26.000   78.246709367   16.083813473   631.1093   2   9   0.0464   0.0433   0.0765   0.0120   0.0079  -0.0071   0.00    1.2
2018/03/15 12:53:27.000   78.246709336   16.083813473   631.1153   2   9   0.0463   0.0432   0.0761   0.0120   0.0078  -0.0073   0.00    1.2
2018/03/15 12:53:28.000   78.246709279   16.083813409   631.1197   2   9   0.0461   0.0431   0.0757   0.0120   0.0077  -0.0075   0.00    1.2
2018/03/15 12:53:29.000   78.246709273   16.083813473   631.1219   2   9   0.0460   0.0430   0.0754   0.0121   0.0075  -0.0077   0.00    1.2
2018/03/15 12:53:30.000   78.246709270   16.083813497   631.1234   2   9   0.0459   0.0429   0.0750   0.0121   0.0074  -0.0078   0.00    1.2
2018/03/15 12:53:31.000   78.246709278   16.083813437   631.1265   2   9   0.0458   0.0428   0.0746   0.0121   0.0072  -0.0080   0.00    1.2
2018/03/15 12:53:32.000   78.246709313   16.083813350   631.1243   2   9   0.0456   0.0426   0.0742   0.0121   0.0071  -0.0081   0.00    1.2
2018/03/15 12:53:33.000   78.246709335   16.083813229   631.1260   2   9   0.0455   0.0425   0.0739   0.0121   0.0069  -0.0083   0.00    1.2
2018/03/15 12:53:34.000   78.246709367   16.083813188   631.1266   2   9   0.0454   0.0424   0.0735   0.0121   0.0068  -0.0084   0.00    1.2
2018/03/15 12:53:35.000   78.246709403   16.083813146   631.1280   2   9   0.0453   0.0423   0.0731   0.0122   0.0067  -0.0086   0.00    1.2
2018/03/15 12:53:36.000   78.246709425   16.083813074   631.1347   2   9   0.0451   0.0422   0.0728   0.0122   0.0065  -0.0087   0.00    1.2
2018/03/15 12:53:37.000   78.246709443   16.083813012   631.1394   2   9   0.0450   0.0421   0.0724   0.0122   0.0064  -0.0088   0.00    1.2
2018/03/15 12:53:38.000   78.246709461   16.083812966   631.1461   2   9   0.0449   0.0420   0.0721   0.0122   0.0062  -0.0090   0.00    1.2
2018/03/15 12:53:39.000   78.246709462   16.083812985   631.1481   2   9   0.0448   0.0419   0.0717   0.0122   0.0061  -0.0091   0.00    1.2
2018/03/15 12:53:40.000   78.246709471   16.083812920   631.1475   2   9   0.0447   0.0418   0.0714   0.0122   0.0059  -0.0092   0.00    1.2
2018/03/15 12:53:41.000   78.246709487   16.083812904   631.1463   2   9   0.0445   0.0417   0.0710   0.0122   0.0058  -0.0093   0.00    1.2
2018/03/15 12:53:42.000   78.246709511   16.083812933   631.1446   2   9   0.0444   0.0415   0.0707   0.0122   0.0057  -0.0094   0.00    1.2
2018/03/15 12:53:43.000   78.246709534   16.083812891   631.1415   2   9   0.0443   0.0414   0.0704   0.0123   0.0055  -0.0095   0.00    1.2
2018/03/15 12:53:44.000   78.246709556   16.083812872   631.1384   2   9   0.0442   0.0413   0.0700   0.0123   0.0054  -0.0096   0.00    1.2
2018/03/15 12:53:45.000   78.246709588   16.083812859   631.1363   2   9   0.0441   0.0412   0.0697   0.0123   0.0052  -0.0097   0.00    1.3
2018/03/15 12:53:46.000   78.246709633   16.083812850   631.1354   2   9   0.0440   0.0411   0.0694   0.0123   0.0051  -0.0098   0.00    1.3
2018/03/15 12:53:47.000   78.246709670   16.083812805   631.1345   2   9   0.0438   0.0410   0.0690   0.0123   0.0049  -0.0099   0.00    1.3
2018/03/15 12:53:48.000   78.246709685   16.083812790   631.1347   2   9   0.0437   0.0409   0.0687   0.0123   0.0047  -0.0100   0.00    1.3
2018/03/15 12:53:49.000   78.246709682   16.083812779   631.1366   2   9   0.0436   0.0408   0.0684   0.0123   0.0046  -0.0100   0.00    1.3
2018/03/15 12:53:50.000   78.246709675   16.083812793   631.1391   2   9   0.0435   0.0407   0.0681   0.0123   0.0044  -0.0101   0.00    1.3
2018/03/15 12:53:51.000   78.246709668   16.083812755   631.1378   2   9   0.0434   0.0406   0.0678   0.0123   0.0043  -0.0102   0.00    1.2
2018/03/15 12:53:52.000   78.246709668   16.083812768   631.1382   2   9   0.0433   0.0405   0.0675   0.0123   0.0041  -0.0103   0.00    1.2
2018/03/15 12:53:53.000   78.246709660   16.083812749   631.1366   2   9   0.0432   0.0404   0.0671   0.0123   0.0039  -0.0104   0.00    1.2
2018/03/15 12:53:54.000   78.246709670   16.083812779   631.1322   2   9   0.0430   0.0403   0.0668   0.0124   0.0038  -0.0104   0.00    1.2
2018/03/15 12:53:55.000   78.246709682   16.083812841   631.1266   2   9   0.0429   0.0402   0.0665   0.0124   0.0036  -0.0105   0.00    1.2
2018/03/15 12:53:56.000   78.246709712   16.083812916   631.1237   2   9   0.0428   0.0401   0.0662   0.0124   0.0034  -0.0106   0.00    1.2
2018/03/15 12:53:57.000   78.246709762   16.083813002   631.1198   2   9   0.0427   0.0400   0.0659   0.0124   0.0032  -0.0106   0.00    1.2
2018/03/15 12:53:58.000   78.246709808   16.083813037   631.1183   2   9   0.0426   0.0399   0.0656   0.0124   0.0030  -0.0107   0.00    1.2
2018/03/15 12:53:59.000   78.246709847   16.083813054   631.1185   2   9   0.0425   0.0398   0.0653   0.0124   0.0028  -0.0107   0.00    1.2
2018/03/15 12:54:00.000   78.246709883   16.083813147   631.1187   2   9   0.0424   0.0397   0.0651   0.0124   0.0026  -0.0108   0.00    1.2
2018/03/15 12:54:01.000   78.246709879   16.083813194   631.1197   2   9   0.0423   0.0396   0.0648   0.0124   0.0024  -0.0109   0.00    1.2
2018/03/15 12:54:02.000   78.246709881   16.083813229   631.1176   2   9   0.0422   0.0395   0.0645   0.0124   0.0021  -0.0109   0.00    1.2
2018/03/15 12:54:03.000   78.246709877   16.083813290   631.1158   2   9   0.0421   0.0394   0.0642   0.0124   0.0018  -0.0110   0.00    1.2
2018/03/15 12:54:04.000   78.246709855   16.083813326   631.1151   2   9   0.0420   0.0393   0.0639   0.0124   0.0015  -0.0110   0.00    1.2
2018/03/15 12:54:05.000   78.246709858   16.083813349   631.1154   2   9   0.0419   0.0392   0.0636   0.0124   0.0011  -0.0111   0.00    1.2
2018/03/15 12:54:06.000   78.246709858   16.083813284   631.1213   2   9   0.0418   0.0391   0.0633   0.0124   0.0004  -0.0111   0.00    1.2
2018/03/15 12:54:07.000   78.246709875   16.083813220   631.1266   2   9   0.0416   0.0390   0.0631   0.0124  -0.0009  -0.0112   0.00    1.2
2018/03/15 12:54:08.000   78.246709882   16.083813182   631.1314   2   9   0.0415   0.0389   0.0628   0.0124  -0.0014  -0.0112   0.00    1.2
2018/03/15 12:54:09.000   78.246709890   16.083813279   631.1339   2   9   0.0414   0.0388   0.0625   0.0124  -0.0017  -0.0113   0.00    1.2
2018/03/15 12:54:10.000   78.246709904   16.083813331   631.1328   2   9   0.0413   0.0388   0.0623   0.0124  -0.0020  -0.0113   0.00    1.2
2018/03/15 12:54:11.000   78.246709921   16.083813411   631.1285   2   9   0.0412   0.0387   0.0620   0.0124  -0.0022  -0.0113   0.00    1.2
2018/03/15 12:54:12.000   78.246709940   16.083813557   631.1225   2   9   0.0411   0.0386   0.0617   0.0124  -0.0024  -0.0114   0.00    1.2
2018/03/15 12:54:13.000   78.246709970   16.083813658   631.1146   2   9   0.0410   0.0385   0.0615   0.0124  -0.0026  -0.0114   0.00    1.2
2018/03/15 12:54:14.000   78.246710001   16.083813689   631.1103   2   9   0.0409   0.0384   0.0612   0.0124  -0.0027  -0.0115   0.00    1.2
2018/03/15 12:54:15.000   78.246710046   16.083813723   631.1050   2   9   0.0408   0.0383   0.0609   0.0124  -0.0029  -0.0115   0.00    1.2
2018/03/15 12:54:16.000   78.246710077   16.083813731   631.1011   2   9   0.0407   0.0382   0.0607   0.0124  -0.0030  -0.0115   0.00    1.2
2018/03/15 12:54:17.000   78.246710080   16.083813684   631.0991   2   9   0.0406   0.0381   0.0604   0.0125  -0.0032  -0.0116   0.00    1.2
2018/03/15 12:54:18.000   78.246710075   16.083813646   631.0968   2   9   0.0405   0.0380   0.0602   0.0125  -0.0033  -0.0116   0.00    1.2
2018/03/15 12:54:19.000   78.246710065   16.083813732   631.0950   2   9   0.0404   0.0379   0.0599   0.0125  -0.0034  -0.0116   0.00    1.2
2018/03/15 12:54:20.000   78.246710048   16.083813762   631.0966   2   9   0.0403   0.0378   0.0597   0.0125  -0.0035  -0.0117   0.00    1.2
2018/03/15 12:54:21.000   78.246710036   16.083813786   631.0978   2   9   0.0402   0.0378   0.0594   0.0125  -0.0036  -0.0117   0.00    1.2
2018/03/15 12:54:22.000   78.246710034   16.083813817   631.0960   2   9   0.0401   0.0377   0.0592   0.0125  -0.0038  -0.0117   0.00    1.2
2018/03/15 12:54:23.000   78.246710059   16.083813873   631.0898   2   9   0.0400   0.0376   0.0590   0.0125  -0.0038  -0.0117   0.00    1.2
2018/03/15 12:54:24.000   78.246710048   16.083813928   631.0840   2   9   0.0399   0.0375   0.0587   0.0125  -0.0039  -0.0118   0.00    1.2
2018/03/15 12:54:25.000   78.246710073   16.083813924   631.0762   2   9   0.0398   0.0374   0.0585   0.0125  -0.0040  -0.0118   0.00    1.2
2018/03/15 12:54:26.000   78.246710101   16.083813857   631.0706   2   9   0.0397   0.0373   0.0582   0.0125  -0.0041  -0.0118   0.00    1.2
2018/03/15 12:54:27.000   78.246710111   16.083813796   631.0666   2   9   0.0397   0.0372   0.0580   0.0125  -0.0042  -0.0118   0.00    1.2
2018/03/15 12:54:28.000   78.246710118   16.083813892   631.0663   2   9   0.0396   0.0371   0.0578   0.0125  -0.0043  -0.0119   0.00    1.2
2018/03/15 12:54:29.000   78.246710113   16.083813841   631.0679   2   9   0.0395   0.0371   0.0575   0.0125  -0.0044  -0.0119   0.00    1.2
2018/03/15 12:54:30.000   78.246710087   16.083813892   631.0724   2   9   0.0394   0.0370   0.0573   0.0125  -0.0044  -0.0119   0.00    1.2
2018/03/15 12:54:31.000   78.246710057   16.083813858   631.0761   2   9   0.0393   0.0369   0.0571   0.0125  -0.0045  -0.0119   0.00    1.2
2018/03/15 12:54:32.000   78.246710024   16.083813801   631.0798   2   9   0.0392   0.0368   0.0569   0.0124  -0.0046  -0.0119   0.00    1.2
2018/03/15 12:54:33.000   78.246709995   16.083813825   631.0813   2   9   0.0391   0.0367   0.0566   0.0124  -0.0046  -0.0120   0.00    1.2
2018/03/15 12:54:34.000   78.246709980   16.083813687   631.0799   2   9   0.0390   0.0366   0.0564   0.0124  -0.0047  -0.0120   0.00    1.1
2018/03/15 12:54:35.000   78.246709981   16.083813623   631.0771   2   9   0.0389   0.0366   0.0562   0.0124  -0.0048  -0.0120   0.00    1.1
2018/03/15 12:54:36.000   78.246709970   16.083813524   631.0736   2   9   0.0388   0.0365   0.0560   0.0124  -0.0048  -0.0120   0.00    1.1
2018/03/15 12:54:37.000   78.246709981   16.083813458   631.0699   2   9   0.0387   0.0364   0.0557   0.0124  -0.0049  -0.0120   0.00    1.1
2018/03/15 12:54:38.000   78.246710008   16.083813395   631.0675   2   9   0.0386   0.0363   0.0555   0.0124  -0.0049  -0.0121   0.00    1.1
2018/03/15 12:54:39.000   78.246710027   16.083813381   631.0663   2   9   0.0385   0.0362   0.0553   0.0124  -0.0050  -0.0121   0.00    1.1
2018/03/15 12:54:40.000   78.246710034   16.083813266   631.0665   2   9   0.0385   0.0361   0.0551   0.0124  -0.0050  -0.0121   0.00    1.1
2018/03/15 12:54:41.000   78.246710030   16.083813071   631.0680   2   9   0.0384   0.0361   0.0549   0.0124  -0.0051  -0.0121   0.00    1.1
2018/03/15 12:54:42.000   78.246710021   16.083813002   631.0699   2   9   0.0383   0.0360   0.0547   0.0124  -0.0051  -0.0121   0.00    1.1
2018/03/15 12:54:43.000   78.246710021   16.083812866   631.0724   2   9   0.0382   0.0359   0.0545   0.0124  -0.0052  -0.0121   0.00    1.1
2018/03/15 12:54:44.000   78.246710025   16.083812785   631.0760   2   9   0.0381   0.0358   0.0543   0.0124  -0.0052  -0.0121   0.00    1.1
2018/03/15 12:54:45.000   78.246710015   16.083812695   631.0774   2   9   0.0380   0.0357   0.0541   0.0124  -0.0053  -0.0121   0.00    1.1
2018/03/15 12:54:46.000   78.246710016   16.083812689   631.0779   2   9   0.0379   0.0357   0.0539   0.0124  -0.0053  -0.0122   0.00    1.1
2018/03/15 12:54:47.000   78.246709996   16.083812672   631.0810   2   9   0.0378   0.0356   0.0537   0.0124  -0.0054  -0.0122   0.00    1.1
2018/03/15 12:54:48.000   78.246709981   16.083812649   631.0810   2   9   0.0378   0.0355   0.0535   0.0124  -0.0054  -0.0122   0.00    1.1
2018/03/15 12:54:49.000   78.246709958   16.083812653   631.0787   2   9   0.0377   0.0354   0.0533   0.0124  -0.0054  -0.0122   0.00    1.1
2018/03/15 12:54:50.000   78.246709930   16.083812624   631.0762   2   9   0.0376   0.0354   0.0531   0.0124  -0.0055  -0.0122   0.00    1.1
2018/03/15 12:54:51.000   78.246709920   16.083812612   631.0751   2   9   0.0375   0.0353   0.0529   0.0124  -0.0055  -0.0122   0.00    1.1
2018/03/15 12:54:52.000   78.246709926   16.083812614   631.0731   2   9   0.0374   0.0352   0.0527   0.0124  -0.0056  -0.0122   0.00    1.0
2018/03/15 12:54:53.000   78.246709922   16.083812506   631.0734   2   9   0.0373   0.0351   0.0525   0.0124  -0.0056  -0.0122   0.00    1.0
2018/03/15 12:54:54.000   78.246709910   16.083812442   631.0729   2   9   0.0372   0.0351   0.0523   0.0124  -0.0056  -0.0122   0.00    1.0
2018/03/15 12:54:55.000   78.246709905   16.083812384   631.0736   2   9   0.0372   0.0350   0.0521   0.0124  -0.0057  -0.0122   0.00    1.0
2018/03/15 12:54:56.000   78.246709894   16.083812316   631.0749   2   9   0.0371   0.0349   0.0519   0.0124  -0.0057  -0.0122   0.00    1.0
2018/03/15 12:54:57.000   78.246709885   16.083812257   631.0768   2   9   0.0370   0.0348   0.0517   0.0124  -0.0057  -0.0122   0.00    1.0
2018/03/15 12:54:58.000   78.246709890   16.083812216   631.0777   2   9   0.0369   0.0347   0.0515   0.0124  -0.0058  -0.0123   0.00    1.0
2018/03/15 12:54:59.000   78.246709887   16.083812163   631.0802   2   9   0.0368   0.0347   0.0513   0.0124  -0.0058  -0.0123   0.00    1.0
2018/03/15 12:55:00.000   78.246709883   16.083812119   631.0799   2   9   0.0367   0.0346   0.0512   0.0123  -0.0058  -0.0123   0.00    1.0
2018/03/15 12:55:01.000   78.246709897   16.083812075   631.0785   2   9   0.0367   0.0345   0.0510   0.0123  -0.0058  -0.0123   0.00    1.0
2018/03/15 12:55:02.000   78.246709901   16.083812000   631.0782   2   9   0.0366   0.0345   0.0508   0.0123  -0.0059  -0.0123   0.00    1.0
2018/03/15 12:55:03.000   78.246709898   16.083811998   631.0780   2   9   0.0365   0.0344   0.0506   0.0123  -0.0059  -0.0123   0.00    1.0
2018/03/15 12:55:04.000   78.246709902   16.083811989   631.0787   2   9   0.0364   0.0343   0.0504   0.0123  -0.0059  -0.0123   0.00    1.0
2018/03/15 12:55:05.000   78.246709903   16.083812064   631.0806   2   9   0.0363   0.0342   0.0503   0.0123  -0.0060  -0.0123   0.00    1.0
2018/03/15 12:55:06.000   78.246709896   16.083812093   631.0819   2   9   0.0363   0.0342   0.0501   0.0123  -0.0060  -0.0123   0.00    1.0
